time-since-start [s],throttle_mpc,roll_mpc,pitch_mpc,yaw_mpc,throttle_nw,roll_nw,pitch_nw,yaw_nw,position_x [m],position_y [m],position_z [m],rotation_w [quaternion],rotation_x [quaternion],rotation_y [quaternion],rotation_z [quaternion],velocity_x [m/s],velocity_y [m/s],velocity_z [m/s],omega_x [rad/s],omega_y [rad/s],omega_z [rad/s],network_used
0.0,10.053960755772554,5.9999988439420155,-5.999999898230598,-3.883356191022885,12.792685,1.1908603,-4.6676927,-0.7851657,17.93395,-9.856148,1.608035,0.12631741,0.40383235,-0.16233017,-0.8914103,-9.325946,-4.78188,-0.4484683,2.780125,-0.2111253,-0.62311405,0
0.01,10.053960755772554,5.9999988439420155,-5.999999898230598,-3.883356191022885,13.601582,0.26568952,-4.70935,-0.49099225,17.840313,-9.903864,1.6033739,0.09189919,0.38359916,-0.18483597,-0.9001344,-9.401136,-4.760195,-0.48349115,5.999999,-6.0,-3.883356,0
0.02,10.053960755772554,5.9999988439420155,-5.999999898230598,-3.883356191022885,13.601582,0.26568952,-4.70935,-0.49099225,17.745943,-9.951326,1.5983704,0.05728094,0.36253104,-0.20693946,-0.90689915,-9.472404,-4.7311015,-0.51696026,5.999999,-6.0,-3.883356,0
0.03,10.053960755772554,5.9999988439420155,-5.999999898230598,-3.883356191022885,13.601582,0.26568952,-4.70935,-0.49099225,17.650883,-9.998462,1.5930393,0.02253801,0.34067383,-0.22859251,-0.91169006,-9.53907,-4.694957,-0.5490933,5.999999,-6.0,-3.883356,0
0.04,10.053960755772554,5.9999988439420155,-5.999999898230598,-3.883356191022885,13.584681,-1.5458937,-3.4650393,0.0811128,17.555182,-10.045201,1.5873923,-0.0122539755,0.3180751,-0.24974802,-0.91449654,-9.6005,-4.652177,-0.58011967,5.999999,-6.0,-3.883356,0
0.05,10.053960755772554,5.9999988439420155,-5.999999898230598,-3.883356191022885,13.584681,-1.5458937,-3.4650393,0.0811128,17.458893,-10.091483,1.5814397,-0.047019288,0.29478407,-0.27035993,-0.9153125,-9.656099,-4.603237,-0.6102785,5.999999,-6.0,-3.883356,0
0.060000000000000005,10.053960755772554,5.9999988439420155,-5.999999898230598,-3.883356191022885,13.584681,-1.5458937,-3.4650393,0.0811128,17.36208,-10.137247,1.5751889,-0.081682265,0.2708514,-0.29038337,-0.91413623,-9.70533,-4.548665,-0.63981616,5.999999,-6.0,-3.883356,0
0.07,10.053960755772554,5.9999988439420155,-5.999999898230598,-3.883356191022885,13.584681,-1.5458937,-3.4650393,0.0811128,17.264809,-10.18244,1.5686446,-0.11616744,0.24632917,-0.30977476,-0.9109702,-9.747705,-4.489039,-0.6689846,5.999999,-6.0,-3.883356,0
0.08,16.84841701946273,5.731395486663635,-5.999999785218388,-1.7345074635921718,14.7683115,-1.8807634,-2.2824554,-0.11800295,17.16715,-10.227013,1.5618095,-0.15039977,0.2212708,-0.3284919,-0.9058214,-9.782801,-4.424979,-0.698039,5.999999,-6.0,-3.883356,0
0.09,16.84841701946273,5.731395486663635,-5.999999785218388,-1.7345074635921718,14.7683115,-1.8807634,-2.2824554,-0.11800295,17.069082,-10.270699,1.5549165,-0.17430899,0.19244486,-0.3477182,-0.9009293,-9.828886,-4.3114057,-0.68060184,5.7313957,-6.0,-1.7345074,0
0.09999999999999999,16.84841701946273,5.731395486663635,-5.999999785218388,-1.7345074635921718,14.7683115,-1.8807634,-2.2824554,-0.11800295,16.970617,-10.313224,1.5481955,-0.19790511,0.16327327,-0.36631995,-0.89441895,-9.86195,-4.192804,-0.66375864,5.7313957,-6.0,-1.7345074,0
0.10999999999999999,16.84841701946273,5.731395486663635,-5.999999785218388,-1.7345074635921718,14.7683115,-1.8807634,-2.2824554,-0.11800295,16.87189,-10.354541,1.5416371,-0.22114576,0.13380842,-0.3842637,-0.8863021,-9.8817,-4.070142,-0.64812386,5.7313957,-6.0,-1.7345074,0
0.11999999999999998,16.84841701946273,5.731395486663635,-5.999999785218388,-1.7345074635921718,14.7683115,-1.8807634,-2.2824554,-0.11800295,16.773031,-10.394616,1.5352266,-0.2439892,0.10410321,-0.40151724,-0.87659335,-9.887938,-3.9444182,-0.6343032,5.7313957,-6.0,-1.7345074,0
0.12999999999999998,20.999956957373236,2.651551995609334,-5.999999133133352,-0.07767073244952925,14.797988,-3.1220052,-1.0566362,-0.04567009,16.674177,-10.433422,1.5289428,-0.26639438,0.07421102,-0.41804957,-0.86531,-9.880566,-3.8166525,-0.6228895,5.7313957,-6.0,-1.7345074,0
0.13999999999999999,20.999956957373236,2.651551995609334,-5.999999133133352,-0.07767073244952925,14.797988,-3.1220052,-1.0566362,-0.04567009,16.575487,-10.47079,1.5228955,-0.28011,0.04484762,-0.4212755,-0.86142564,-9.855679,-3.6573172,-0.5865356,2.651552,-5.999999,-0.07767073,0
0.15,20.999956957373236,2.651551995609334,-5.999999133133352,-0.07767073244952925,14.797988,-3.1220052,-1.0566362,-0.04567009,16.47711,-10.506578,1.5172126,-0.29352424,0.015435975,-0.42404822,-0.85661453,-9.817309,-3.5007813,-0.5500646,2.651552,-5.999999,-0.07767073,0
0.16,20.867213111631216,0.360551649023966,-2.887425815573544,-0.08834845687786348,15.514866,-3.405166,0.99858814,-0.71369225,16.379187,-10.540818,1.5118926,-0.3066227,-0.013992276,-0.42636472,-0.8508818,-9.765624,-3.3477254,-0.5140472,2.651552,-5.999999,-0.07767073,0
0.17,20.867213111631216,0.360551649023966,-2.887425815573544,-0.08834845687786348,15.514866,-3.405166,0.99858814,-0.71369225,16.281834,-10.573551,1.5069261,-0.3130961,-0.026639061,-0.423433,-0.84968555,-9.7041235,-3.1992028,-0.47910652,0.36055166,-2.887426,-0.088348456,0
0.18000000000000002,20.867213111631216,0.360551649023966,-2.887425815573544,-0.08834845687786348,15.514866,-3.405166,0.99858814,-0.71369225,16.185123,-10.604813,1.502313,-0.3195032,-0.039280202,-0.4204116,-0.84830934,-9.637397,-3.053671,-0.44338137,0.36055166,-2.887426,-0.088348456,0
0.19000000000000003,20.867213111631216,0.360551649023966,-2.887425815573544,-0.08834845687786348,15.514866,-3.405166,0.99858814,-0.71369225,16.089106,-10.634635,1.4980606,-0.32584256,-0.051913023,-0.4173011,-0.84675336,-9.565503,-2.9112556,-0.406981,0.36055166,-2.887426,-0.088348456,0
0.20000000000000004,19.573004607415122,-0.11905906005069083,-0.3272741246437891,-0.30240859813520876,15.163277,-3.7423344,3.1770587,-0.6188603,15.993833,-10.66305,1.4941752,-0.3321129,-0.06453484,-0.4141022,-0.84501797,-9.488506,-2.7720802,-0.3700152,0.36055166,-2.887426,-0.088348456,0
0.21000000000000005,19.573004607415122,-0.11905906005069083,-0.3272741246437891,-0.30240859813520876,15.163277,-3.7423344,3.1770587,-0.6188603,15.899323,-10.690127,1.4906197,-0.33410576,-0.06509359,-0.4131522,-0.84465444,-9.413181,-2.643675,-0.34103855,-0.11905906,-0.3272741,-0.3024086,0
0.22000000000000006,19.573004607415122,-0.11905906005069083,-0.3272741246437891,-0.30240859813520876,15.163277,-3.7423344,3.1770587,-0.6188603,15.80557,-10.715924,1.4873552,-0.33609685,-0.06565198,-0.41219997,-0.84428644,-9.337483,-2.5157673,-0.3117827,-0.11905906,-0.3272741,-0.3024086,0
0.23000000000000007,19.573004607415122,-0.11905906005069083,-0.3272741246437891,-0.30240859813520876,15.163277,-3.7423344,3.1770587,-0.6188603,15.712575,-10.740445,1.4843849,-0.33808616,-0.06621004,-0.41124558,-0.843914,-9.261414,-2.3883588,-0.28224784,-0.11905906,-0.3272741,-0.3024086,0
0.24000000000000007,19.573004607415122,-0.11905906005069083,-0.3272741246437891,-0.30240859813520876,15.563302,-3.3721752,4.4840255,-0.75860626,15.620343,-10.763694,1.4817114,-0.34007365,-0.066767745,-0.410289,-0.843537,-9.184975,-2.261451,-0.25243425,-0.11905906,-0.3272741,-0.3024086,0
0.25000000000000006,19.573004607415122,-0.11905906005069083,-0.3272741246437891,-0.30240859813520876,15.563302,-3.3721752,4.4840255,-0.75860626,15.528877,-10.785676,1.4793373,-0.3420593,-0.06732509,-0.40933022,-0.8431555,-9.10817,-2.1350462,-0.22234215,-0.11905906,-0.3272741,-0.3024086,0
0.26000000000000006,19.573004607415122,-0.11905906005069083,-0.3272741246437891,-0.30240859813520876,15.563302,-3.3721752,4.4840255,-0.75860626,15.438181,-10.8063965,1.4772655,-0.3440432,-0.06788208,-0.40836927,-0.84276956,-9.031002,-2.0091467,-0.19197178,-0.11905906,-0.3272741,-0.3024086,0
0.2700000000000001,19.573004607415122,-0.11905906005069083,-0.3272741246437891,-0.30240859813520876,15.563302,-3.3721752,4.4840255,-0.75860626,15.348259,-10.82586,1.4754987,-0.34602523,-0.068438716,-0.40740615,-0.8423791,-8.953473,-1.883754,-0.1613234,-0.11905906,-0.3272741,-0.3024086,0
0.2800000000000001,18.245876896444983,-0.4453923166980923,1.4148615496107728,-0.4673048698503376,17.51265,-3.7489266,4.8558536,-0.73776776,15.259113,-10.844072,1.4740399,-0.3480054,-0.06899497,-0.40644085,-0.8419842,-8.875586,-1.7588702,-0.13039725,-0.11905906,-0.3272741,-0.3024086,0
0.2900000000000001,18.245876896444983,-0.4453923166980923,1.4148615496107728,-0.4673048698503376,17.51265,-3.7489266,4.8558536,-0.73776776,15.170719,-10.861079,1.4728478,-0.34724057,-0.061311845,-0.40717658,-0.84253883,-8.8036585,-1.6422619,-0.10799995,-0.4453923,1.4148616,-0.46730486,0
0.3000000000000001,18.245876896444983,-0.4453923166980923,1.4148615496107728,-0.4673048698503376,17.51265,-3.7489266,4.8558536,-0.73776776,15.083033,-10.876914,1.4718803,-0.34645474,-0.053625017,-0.40788773,-0.8430425,-8.734105,-1.5243591,-0.08546926,-0.4453923,1.4148616,-0.46730486,0
0.3100000000000001,18.245876896444983,-0.4453923166980923,1.4148615496107728,-0.4673048698503376,17.51265,-3.7489266,4.8558536,-0.73776776,14.996029,-10.891562,1.4711387,-0.34564793,-0.045934953,-0.4085742,-0.84349525,-8.666936,-1.4051801,-0.062841184,-0.4453923,1.4148616,-0.46730486,0
0.3200000000000001,17.142415920037745,-0.7283526235369585,3.1175770571288304,-0.5819043228392439,17.85711,-3.622677,4.657894,-0.67541224,14.909686,-10.905013,1.4706236,-0.34482026,-0.03824211,-0.40923592,-0.843897,-8.602162,-1.2847438,-0.040151767,-0.4453923,1.4148616,-0.46730486,0
0.3300000000000001,17.142415920037745,-0.7283526235369585,3.1175770571288304,-0.5819043228392439,17.85711,-3.622677,4.657894,-0.67541224,14.8239565,-10.917289,1.4702988,-0.34099028,-0.022636732,-0.4115947,-0.8448684,-8.544501,-1.169843,-0.024863046,-0.7283526,3.117577,-0.58190435,0
0.34000000000000014,17.142415920037745,-0.7283526235369585,3.1175770571288304,-0.5819043228392439,17.85711,-3.622677,4.657894,-0.67541224,14.738779,-10.928401,1.470125,-0.33707002,-0.007025365,-0.41384447,-0.8456162,-8.491628,-1.0522859,-0.009964883,-0.7283526,3.117577,-0.58190435,0
0.35000000000000014,17.142415920037745,-0.7283526235369585,3.1175770571288304,-0.5819043228392439,17.85711,-3.622677,4.657894,-0.67541224,14.654107,-10.938324,1.4700975,-0.33306053,0.008587863,-0.41598472,-0.84614015,-8.443583,-0.9321756,0.0044030454,-0.7283526,3.117577,-0.58190435,0
0.36000000000000015,16.385713886333413,-0.7644859042038437,3.0306823244817394,-0.6513655903732047,17.09446,-3.6629336,5.4692717,-0.6915329,14.569891,-10.947036,1.4702107,-0.32896286,0.024198817,-0.41801485,-0.8464402,-8.400402,-0.8096175,0.018101636,-0.7283526,3.117577,-0.58190435,0
0.37000000000000016,16.385713886333413,-0.7644859042038437,3.0306823244817394,-0.6513655903732047,17.09446,-3.6629336,5.4692717,-0.6915329,14.486073,-10.954537,1.4704324,-0.32525095,0.03964037,-0.41963217,-0.8464921,-8.36378,-0.6902706,0.02612565,-0.7644859,3.0306823,-0.6513656,0
0.38000000000000017,16.385713886333413,-0.7644859042038437,3.0306823244817394,-0.6513655903732047,17.09446,-3.6629336,5.4692717,-0.6915329,14.402599,-10.9608345,1.4707304,-0.32145616,0.055071823,-0.42114255,-0.8463283,-8.331786,-0.56888866,0.033334542,-0.7644859,3.0306823,-0.6513656,0
0.3900000000000002,16.385713886333413,-0.7644859042038437,3.0306823244817394,-0.6513655903732047,17.09446,-3.6629336,5.4692717,-0.6915329,14.319422,-10.965909,1.4710959,-0.31757945,0.07048924,-0.42254558,-0.84594876,-8.3044405,-0.44557187,0.03960053,-0.7644859,3.0306823,-0.6513656,0
0.4000000000000002,15.93895378809797,-0.6451626033938118,2.1226931703786676,-0.7000532281520117,15.53545,-3.0587332,4.929084,-0.78576356,14.236494,-10.969741,1.4715188,-0.3136218,0.085888706,-0.4238409,-0.84535366,-8.281755,-0.32042256,0.04479681,-0.7644859,3.0306823,-0.6513656,0
0.4100000000000002,15.93895378809797,-0.6451626033938118,2.1226931703786676,-0.7000532281520117,15.53545,-3.0587332,4.929084,-0.78576356,14.1537695,-10.972329,1.4719743,-0.3117841,0.09735001,-0.42411324,-0.8446544,-8.26376,-0.19721459,0.046195533,-0.6451626,2.122693,-0.7000532,0
0.4200000000000002,15.93895378809797,-0.6451626033938118,2.1226931703786676,-0.7000532281520117,15.53545,-3.0587332,4.929084,-0.78576356,14.071207,-10.9736805,1.47244,-0.3099042,0.10879814,-0.4243282,-0.84384084,-8.249052,-0.07295663,0.04682587,-0.6451626,2.122693,-0.7000532,0
0.4300000000000002,15.93895378809797,-0.6451626033938118,2.1226931703786676,-0.7000532281520117,15.53545,-3.0587332,4.929084,-0.78576356,13.988776,-10.9737835,1.4729078,-0.30798236,0.12023155,-0.42448574,-0.8429131,-8.237631,0.052303933,0.046620615,-0.6451626,2.122693,-0.7000532,0
0.4400000000000002,15.93895378809797,-0.6451626033938118,2.1226931703786676,-0.7000532281520117,14.3939,-3.0060744,4.602549,-0.626787,13.906444,-10.97263,1.4733691,-0.30601892,0.13164869,-0.42458588,-0.8418713,-8.229492,0.17851913,0.045513023,-0.6451626,2.122693,-0.7000532,0
0.45000000000000023,15.93895378809797,-0.6451626033938118,2.1226931703786676,-0.7000532281520117,14.3939,-3.0060744,4.602549,-0.626787,13.824176,-10.970209,1.4738146,-0.30401403,0.14304802,-0.42462856,-0.84071565,-8.224632,0.3056405,0.043436825,-0.6451626,2.122693,-0.7000532,0
0.46000000000000024,15.93895378809797,-0.6451626033938118,2.1226931703786676,-0.7000532281520117,14.3939,-3.0060744,4.602549,-0.626787,13.7419405,-10.966513,1.4742343,-0.30196804,0.15442799,-0.42461377,-0.8394462,-8.223042,0.43361905,0.0403263,-0.6451626,2.122693,-0.7000532,0
0.47000000000000025,15.93895378809797,-0.6451626033938118,2.1226931703786676,-0.7000532281520117,14.3939,-3.0060744,4.602549,-0.626787,13.659704,-10.961534,1.4746175,-0.29988116,0.16578707,-0.42454153,-0.83806324,-8.224714,0.56240535,0.03611628,-0.6451626,2.122693,-0.7000532,0
0.48000000000000026,15.621378677462774,-0.525771686486952,1.297223030486457,-0.6942266421714669,13.745258,-3.4622855,4.2825313,-0.26769382,13.577435,-10.955263,1.4749527,-0.29775372,0.17712374,-0.42441186,-0.8365668,-8.229639,0.6919495,0.030742183,-0.6451626,2.122693,-0.7000532,0
0.49000000000000027,15.621378677462774,-0.525771686486952,1.297223030486457,-0.6942266421714669,13.745258,-3.4622855,4.2825313,-0.26769382,13.495102,-10.947706,1.4752197,-0.29743007,0.18480027,-0.42351615,-0.8354746,-8.237228,0.8194738,0.022543836,-0.5257717,1.297223,-0.6942266,0
0.5000000000000002,15.621378677462774,-0.525771686486952,1.297223030486457,-0.6942266421714669,13.745258,-3.4622855,4.2825313,-0.26769382,13.4126835,-10.938872,1.4754014,-0.2970883,0.19246553,-0.42259458,-0.8343314,-8.246884,0.9473087,0.013703819,-0.5257717,1.297223,-0.6942266,0
0.5100000000000002,15.621378677462774,-0.525771686486952,1.297223030486457,-0.6942266421714669,13.745258,-3.4622855,4.2825313,-0.26769382,13.330158,-10.92876,1.4754914,-0.2967284,0.20011905,-0.42164722,-0.83313733,-8.258601,1.0754378,0.004193042,-0.5257717,1.297223,-0.6942266,0
0.5200000000000002,15.500212615232773,-0.3839031695365082,0.33057315335008186,-0.6644518784209387,12.893831,-3.3749511,3.6340282,-0.2177437,13.247505,-10.917364,1.4754828,-0.2963504,0.20776035,-0.42067412,-0.8318924,-8.27237,1.2038441,-0.00601741,-0.5257717,1.297223,-0.6942266,0
0.5300000000000002,15.500212615232773,-0.3839031695365082,0.33057315335008186,-0.6644518784209387,12.893831,-3.3749511,3.6340282,-0.2177437,13.164707,-10.904688,1.475366,-0.29801747,0.21109998,-0.41887322,-0.83136463,-8.287593,1.3313748,-0.017343199,-0.38390318,0.33057314,-0.6644519,0
0.5400000000000003,15.500212615232773,-0.3839031695365082,0.33057315335008186,-0.6644518784209387,12.893831,-3.3749511,3.6340282,-0.2177437,13.081752,-10.890738,1.475136,-0.2996793,0.21443592,-0.41706502,-0.8308224,-8.303592,1.4587883,-0.028636381,-0.38390318,0.33057314,-0.6644519,0
0.5500000000000003,15.500212615232773,-0.3839031695365082,0.33057315335008186,-0.6644518784209387,12.893831,-3.3749511,3.6340282,-0.2177437,12.9986315,-10.875513,1.4747934,-0.3013359,0.21776812,-0.41524953,-0.83026564,-8.320367,1.5860842,-0.039903503,-0.38390318,0.33057314,-0.6644519,0
0.5600000000000003,15.427505163908355,-0.2533853649175721,-0.2437049365737023,-0.605637757188814,12.976103,-2.940657,1.9782983,-0.4272774,12.91534,-10.859015,1.4743383,-0.30298725,0.2210965,-0.41342676,-0.82969445,-8.337917,1.7132622,-0.051151108,-0.38390318,0.33057314,-0.6644519,0
0.5700000000000003,15.427505163908355,-0.2533853649175721,-0.2437049365737023,-0.605637757188814,12.976103,-2.940657,1.9782983,-0.4272774,12.831871,-10.84125,1.4737691,-0.30572152,0.22171994,-0.41133434,-0.82956505,-8.355869,1.8396552,-0.06262918,-0.25338537,-0.24370493,-0.6056377,0
0.5800000000000003,15.427505163908355,-0.2533853649175721,-0.2437049365737023,-0.605637757188814,12.976103,-2.940657,1.9782983,-0.4272774,12.748222,-10.822223,1.4730873,-0.308452,0.22234066,-0.40923688,-0.8294255,-8.373821,1.9657407,-0.07366044,-0.25338537,-0.24370493,-0.6056377,0
0.5900000000000003,15.427505163908355,-0.2533853649175721,-0.2437049365737023,-0.605637757188814,12.976103,-2.940657,1.9782983,-0.4272774,12.664394,-10.801936,1.4722974,-0.31117877,0.22295864,-0.40713438,-0.8292758,-8.391776,2.091517,-0.084246196,-0.25338537,-0.24370493,-0.6056377,0
0.6000000000000003,15.47405870360683,-0.26613583808883307,-0.26779293714938507,-0.5327894753780271,13.18227,-2.3544827,0.9186939,-0.44234186,12.580387,-10.780394,1.4714038,-0.31390172,0.22357391,-0.40502694,-0.82911587,-8.409738,2.2169821,-0.094387755,-0.25338537,-0.24370493,-0.6056377,0
0.6100000000000003,15.47405870360683,-0.26613583808883307,-0.26779293714938507,-0.5327894753780271,13.18227,-2.3544827,0.9186939,-0.44234186,12.4962,-10.757596,1.4704124,-0.31635356,0.22395925,-0.40290558,-0.82911354,-8.427758,2.3425035,-0.10380707,-0.26613584,-0.26779294,-0.53278947,0
0.6200000000000003,15.47405870360683,-0.26613583808883307,-0.26779293714938507,-0.5327894753780271,13.18227,-2.3544827,0.9186939,-0.44234186,12.411832,-10.733544,1.4693292,-0.31880206,0.22434221,-0.4007799,-0.8291024,-8.445779,2.467687,-0.11274988,-0.26613584,-0.26779294,-0.53278947,0
0.6300000000000003,15.47405870360683,-0.26613583808883307,-0.26779293714938507,-0.5327894753780271,13.18227,-2.3544827,0.9186939,-0.44234186,12.327284,-10.708242,1.4681591,-0.32124713,0.22472274,-0.39865002,-0.8290824,-8.463802,2.59253,-0.121217676,-0.26613584,-0.26779294,-0.53278947,0
0.6400000000000003,15.47405870360683,-0.26613583808883307,-0.26779293714938507,-0.5327894753780271,13.046536,-2.095887,0.5106304,-0.3852883,12.242556,-10.681694,1.4669065,-0.3236888,0.22510087,-0.39651588,-0.8290536,-8.4818325,2.7170312,-0.12921198,-0.26613584,-0.26779294,-0.53278947,0
0.6500000000000004,15.47405870360683,-0.26613583808883307,-0.26779293714938507,-0.5327894753780271,13.046536,-2.095887,0.5106304,-0.3852883,12.157647,-10.653903,1.4655765,-0.32612702,0.22547662,-0.3943775,-0.8290159,-8.499871,2.8411882,-0.1367343,-0.26613584,-0.26779294,-0.53278947,0
0.6600000000000004,15.47405870360683,-0.26613583808883307,-0.26779293714938507,-0.5327894753780271,13.046536,-2.095887,0.5106304,-0.3852883,12.072558,-10.624871,1.4641737,-0.32856175,0.22584999,-0.39223492,-0.8289694,-8.5179205,2.9649985,-0.14378622,-0.26613584,-0.26779294,-0.53278947,0
0.6700000000000004,15.47405870360683,-0.26613583808883307,-0.26779293714938507,-0.5327894753780271,13.046536,-2.095887,0.5106304,-0.3852883,11.987288,-10.594604,1.4627025,-0.330993,0.2262209,-0.39008817,-0.82891405,-8.535985,3.088461,-0.15036927,-0.26613584,-0.26779294,-0.53278947,0
0.6800000000000004,15.380010532236378,-0.23263109894397602,-0.4561836862930726,-0.4622626244387608,12.563742,-1.7701046,-0.36380905,-0.3541307,11.901839,-10.563103,1.4611678,-0.3334207,0.22658944,-0.38793725,-0.82884985,-8.554066,3.211573,-0.15648507,-0.26613584,-0.26779294,-0.53278947,0
0.6900000000000004,15.380010532236378,-0.23263109894397602,-0.4561836862930726,-0.4622626244387608,12.563742,-1.7701046,-0.36380905,-0.3541307,11.816209,-10.530376,1.4595717,-0.33595574,0.22598203,-0.38568664,-0.8290424,-8.571969,3.3335547,-0.1626377,-0.2326311,-0.45618367,-0.46226263,0
0.7000000000000004,15.380010532236378,-0.23263109894397602,-0.4561836862930726,-0.4622626244387608,12.563742,-1.7701046,-0.36380905,-0.3541307,11.7304,-10.496432,1.4579171,-0.3384868,0.22537191,-0.38343143,-0.829225,-8.589663,3.455098,-0.16817091,-0.2326311,-0.45618367,-0.46226263,0
0.7100000000000004,15.380010532236378,-0.23263109894397602,-0.4561836862930726,-0.4622626244387608,12.563742,-1.7701046,-0.36380905,-0.3541307,11.644416,-10.461275,1.4562103,-0.3410138,0.22475912,-0.38117167,-0.82939774,-8.607149,3.5761986,-0.17308661,-0.2326311,-0.45618367,-0.46226263,0
0.7200000000000004,15.333328180195656,-0.288621420496451,-0.3875487314431966,-0.3839863748801928,12.630166,-1.5479388,-0.4558871,-0.24030262,11.558258,-10.424909,1.4544574,-0.34353673,0.22414365,-0.37890738,-0.82956064,-8.624431,3.6968524,-0.17738672,-0.2326311,-0.45618367,-0.46226263,0
0.7300000000000004,15.333328180195656,-0.288621420496451,-0.3875487314431966,-0.3839863748801928,12.630166,-1.5479388,-0.4558871,-0.24030262,11.471929,-10.387341,1.4526631,-0.34553856,0.22375834,-0.37661242,-0.8298783,-8.64151,3.8166912,-0.18136942,-0.28862143,-0.38754874,-0.38398638,0
0.7400000000000004,15.333328180195656,-0.288621420496451,-0.3875487314431966,-0.3839863748801928,12.630166,-1.5479388,-0.4558871,-0.24030262,11.385428,-10.348577,1.4508319,-0.34753707,0.22337088,-0.3743139,-0.830188,-8.658524,3.9360783,-0.18476832,-0.28862143,-0.38754874,-0.38398638,0
0.7500000000000004,15.333328180195656,-0.288621420496451,-0.3875487314431966,-0.3839863748801928,12.630166,-1.5479388,-0.4558871,-0.24030262,11.2987585,-10.308621,1.4489697,-0.34953234,0.22298133,-0.37201178,-0.83048975,-8.675476,4.0550103,-0.1875856,-0.28862143,-0.38754874,-0.38398638,0
0.7600000000000005,15.03486217353876,-0.3291062925489659,-0.6829235572340588,-0.3086149303444217,13.01305,-2.0223458,-0.40731987,0.17702264,11.211919,-10.267478,1.4470822,-0.35152426,0.22258964,-0.36970612,-0.83078367,-8.692368,4.173485,-0.18982351,-0.28862143,-0.38754874,-0.38398638,0
0.7700000000000005,15.03486217353876,-0.3291062925489659,-0.6829235572340588,-0.3086149303444217,13.01305,-2.0223458,-0.40731987,0.17702264,11.124912,-10.225164,1.445166,-0.35369942,0.22089991,-0.36679214,-0.8316027,-8.708783,4.2891197,-0.19324647,-0.3291063,-0.68292356,-0.30861494,0
0.7800000000000005,15.03486217353876,-0.3291062925489659,-0.6829235572340588,-0.3086149303444217,13.01305,-2.0223458,-0.40731987,0.17702264,11.037744,-10.181699,1.4432201,-0.3558686,0.21920648,-0.36387205,-0.83240783,-8.724898,4.4040804,-0.19580063,-0.3291063,-0.68292356,-0.30861494,0
0.7900000000000005,15.03486217353876,-0.3291062925489659,-0.6829235572340588,-0.3086149303444217,13.01305,-2.0223458,-0.40731987,0.17702264,10.950416,-10.137086,1.441253,-0.35803184,0.21750937,-0.36094585,-0.83319896,-8.740718,4.5183587,-0.197491,-0.3291063,-0.68292356,-0.30861494,0
0.8000000000000005,14.941487608916486,-0.3967582309738489,-0.5613078787592144,-0.24673493879386896,13.44681,-1.6266937,-0.25512263,0.03232831,10.86293,-10.091334,1.4392731,-0.36018908,0.21580862,-0.3580136,-0.8339762,-8.756244,4.6319475,-0.19832267,-0.3291063,-0.68292356,-0.30861494,0
0.8100000000000005,14.941487608916486,-0.3967582309738489,-0.5613078787592144,-0.24673493879386896,13.44681,-1.6266937,-0.25512263,0.03232831,10.775291,-10.044454,1.4372863,-0.3617922,0.21462278,-0.35507962,-0.8348422,-8.771457,4.74415,-0.19893542,-0.39675823,-0.5613079,-0.24673493,0
0.8200000000000005,14.941487608916486,-0.3967582309738489,-0.5613078787592144,-0.24673493879386896,13.44681,-1.6266937,-0.25512263,0.03232831,10.6875,-9.996455,1.4352971,-0.36339048,0.21343409,-0.35214096,-0.83569705,-8.786575,4.855687,-0.19877216,-0.39675823,-0.5613079,-0.24673493,0
0.8300000000000005,14.941487608916486,-0.3967582309738489,-0.5613078787592144,-0.24673493879386896,13.44681,-1.6266937,-0.25512263,0.03232831,10.59956,-9.947344,1.4333135,-0.36498392,0.21224257,-0.3491976,-0.83654076,-8.801601,4.966552,-0.19783753,-0.39675823,-0.5613079,-0.24673493,0
0.8400000000000005,14.941487608916486,-0.3967582309738489,-0.5613078787592144,-0.24673493879386896,13.546465,-1.474658,-0.39974028,0.08805674,10.511469,-9.897127,1.4313432,-0.3665725,0.21104822,-0.34624958,-0.8373733,-8.81654,5.07674,-0.19613624,-0.39675823,-0.5613079,-0.24673493,0
0.8500000000000005,14.941487608916486,-0.3967582309738489,-0.5613078787592144,-0.24673493879386896,13.546465,-1.474658,-0.39974028,0.08805674,10.423229,-9.845812,1.4293934,-0.3681562,0.20985106,-0.34329695,-0.8381947,-8.831388,5.1862445,-0.19367298,-0.39675823,-0.5613079,-0.24673493,0
0.8600000000000005,14.941487608916486,-0.3967582309738489,-0.5613078787592144,-0.24673493879386896,13.546465,-1.474658,-0.39974028,0.08805674,10.334842,-9.793405,1.4274722,-0.36973497,0.2086511,-0.34033972,-0.83900493,-8.846151,5.2950606,-0.19045253,-0.39675823,-0.5613079,-0.24673493,0
0.8700000000000006,14.941487608916486,-0.3967582309738489,-0.5613078787592144,-0.24673493879386896,13.546465,-1.474658,-0.39974028,0.08805674,10.246307,-9.739913,1.4255869,-0.37130883,0.20744835,-0.33737797,-0.83980393,-8.86083,5.403183,-0.18647969,-0.39675823,-0.5613079,-0.24673493,0
0.8800000000000006,14.552284378205133,-0.41687172220820357,-0.82843698152151,-0.19176712877537003,14.045002,-1.1059643,-0.40581775,0.14373153,10.157625,-9.685344,1.4237452,-0.37287772,0.20624284,-0.3344117,-0.8405918,-8.875425,5.510606,-0.1817593,-0.39675823,-0.5613079,-0.24673493,1
0.8900000000000006,14.552284378205133,-0.41687172220820357,-0.82843698152151,-0.19176712877537003,14.045002,-1.1059643,-0.40581775,0.14373153,10.068802,-9.629736,1.4219236,-0.37180513,0.2063552,-0.32914916,-0.8431127,-8.889406,5.610774,-0.18240713,-1.1059643,-0.40581775,0.14373153,1
0.9000000000000006,14.552284378205133,-0.41687172220820357,-0.82843698152151,-0.19176712877537003,14.045002,-1.1059643,-0.40581775,0.14373153,9.979835,-9.573132,1.4201005,-0.37071946,0.20646028,-0.32387498,-0.8456039,-8.904209,5.7098765,-0.18209177,-1.1059643,-0.40581775,0.14373153,1
0.9100000000000006,14.552284378205133,-0.41687172220820357,-0.82843698152151,-0.19176712877537003,14.045002,-1.1059643,-0.40581775,0.14373153,9.890715,-9.515542,1.4182853,-0.3696207,0.2065581,-0.31858942,-0.8480653,-8.919828,5.8078995,-0.18082592,-1.1059643,-0.40581775,0.14373153,1
0.9200000000000006,14.335057868972251,-0.3189354478161481,-1.0481982696795034,-0.16346960276726802,14.215728,-1.0799383,-0.65419924,0.21081156,9.801435,-9.456977,1.4164873,-0.36850896,0.20664863,-0.31329262,-0.8504969,-8.93626,5.9048285,-0.17862235,-1.1059643,-0.40581775,0.14373153,1
0.9300000000000006,14.335057868972251,-0.3189354478161481,-1.0481982696795034,-0.16346960276726802,14.215728,-1.0799383,-0.65419924,0.21081156,9.711987,-9.397443,1.4147224,-0.3675139,0.20552205,-0.30770624,-0.8532355,-8.953615,6.0017548,-0.17419189,-1.0799383,-0.65419924,0.21081156,1
0.9400000000000006,14.335057868972251,-0.3189354478161481,-1.0481982696795034,-0.16346960276726802,14.215728,-1.0799383,-0.65419924,0.21081156,9.622361,-9.336946,1.4130074,-0.36650378,0.20438704,-0.30210724,-0.85593915,-8.971528,6.097388,-0.16864882,-1.0799383,-0.65419924,0.21081156,1
0.9500000000000006,14.335057868972251,-0.3189354478161481,-1.0481982696795034,-0.16346960276726802,14.215728,-1.0799383,-0.65419924,0.21081156,9.532555,-9.275499,1.4113533,-0.36547863,0.20324367,-0.29649588,-0.85860777,-8.989991,6.191712,-0.16200852,-1.0799383,-0.65419924,0.21081156,1
0.9600000000000006,13.982324170935883,0.0702426386044321,-1.48620409304436,-0.1682038767719432,13.948748,-0.82236207,-0.6059296,-0.06951195,9.44256,-9.213116,1.4097711,-0.36443853,0.20209196,-0.2908724,-0.8612412,-9.009,6.284711,-0.15428658,-1.0799383,-0.65419924,0.21081156,1
0.9700000000000006,13.982324170935883,0.0702426386044321,-1.48620409304436,-0.1682038767719432,13.948748,-0.82236207,-0.6059296,-0.06951195,9.352375,-9.1498165,1.4082611,-0.3647834,0.20107965,-0.28615302,-0.8629115,-9.028096,6.3747377,-0.14756747,-0.82236207,-0.6059296,-0.06951195,1
0.9800000000000006,13.982324170935883,0.0702426386044321,-1.48620409304436,-0.1682038767719432,13.948748,-0.82236207,-0.6059296,-0.06951195,9.261997,-9.085624,1.4068227,-0.36511868,0.20006208,-0.2814261,-0.86455923,-9.047495,6.463677,-0.13997899,-0.82236207,-0.6059296,-0.06951195,1
0.9900000000000007,13.982324170935883,0.0702426386044321,-1.48620409304436,-0.1682038767719432,13.948748,-0.82236207,-0.6059296,-0.06951195,9.171423,-9.020547,1.4054645,-0.36544436,0.19903927,-0.27669182,-0.8661843,-9.067195,6.5515194,-0.13153242,-0.82236207,-0.6059296,-0.06951195,1
1.0000000000000007,13.694731756176907,0.3847982761002679,-1.7568906723614617,-0.1566540472548879,13.863795,-0.15989253,-1.0035009,0.06585497,9.08065,-8.9545965,1.404195,-0.3657605,0.19801123,-0.27195033,-0.86778665,-9.087194,6.638256,-0.12223912,-0.82236207,-0.6059296,-0.06951195,1
1.0100000000000007,13.694731756176907,0.3847982761002679,-1.7568906723614617,-0.1566540472548879,13.863795,-0.15989253,-1.0035009,0.06585497,8.989679,-8.887787,1.4030192,-0.36667627,0.19385743,-0.26948306,-0.86910677,-9.106979,6.7234488,-0.112770185,-0.15989253,-1.0035009,0.06585497,1
1.0200000000000007,13.694731756176907,0.3847982761002679,-1.7568906723614617,-0.1566540472548879,13.863795,-0.15989253,-1.0035009,0.06585497,8.898514,-8.820129,1.4019423,-0.3675825,0.1896986,-0.26700878,-0.87040436,-9.126017,6.807771,-0.10248377,-0.15989253,-1.0035009,0.06585497,1
1.0300000000000007,13.694731756176907,0.3847982761002679,-1.7568906723614617,-0.1566540472548879,13.863795,-0.15989253,-1.0035009,0.06585497,8.807163,-8.751634,1.4009722,-0.3684792,0.18553486,-0.2645276,-0.87167937,-9.144303,6.8912153,-0.091391295,-0.15989253,-1.0035009,0.06585497,1
1.0400000000000007,13.694731756176907,0.3847982761002679,-1.7568906723614617,-0.1566540472548879,13.538044,0.19167212,-0.90291256,0.1283974,8.7156315,-8.682309,1.4001172,-0.36936635,0.1813663,-0.26203954,-0.8729318,-9.161837,6.973773,-0.079504244,-0.15989253,-1.0035009,0.06585497,1
1.0500000000000007,13.694731756176907,0.3847982761002679,-1.7568906723614617,-0.1566540472548879,13.538044,0.19167212,-0.90291256,0.1283974,8.62393,-8.612171,1.3993715,-0.37015873,0.17690122,-0.26132217,-0.87372714,-9.178122,7.0536504,-0.06952055,0.19167212,-0.90291256,0.1283974,1
1.0600000000000007,13.694731756176907,0.3847982761002679,-1.7568906723614617,-0.1566540472548879,13.538044,0.19167212,-0.90291256,0.1283974,8.532072,-8.541237,1.3987285,-0.37094307,0.1724323,-0.26059917,-0.87450343,-9.193404,7.1330047,-0.059005775,0.19167212,-0.90291256,0.1283974,1
1.0700000000000007,13.694731756176907,0.3847982761002679,-1.7568906723614617,-0.1566540472548879,13.538044,0.19167212,-0.90291256,0.1283974,8.440065,-8.469512,1.3981932,-0.37171936,0.16795965,-0.25987047,-0.87526083,-9.207683,7.211829,-0.047969867,0.19167212,-0.90291256,0.1283974,1
1.0800000000000007,13.30741219736656,0.34230278191462454,-2.1246063653524736,-0.16008376705103816,13.284247,0.7156271,-1.0946119,0.08832115,8.347921,-8.397002,1.3977709,-0.3724876,0.16348337,-0.25913614,-0.8759992,-9.220954,7.290118,-0.036422797,0.19167212,-0.90291256,0.1283974,0
1.0900000000000007,13.30741219736656,0.34230278191462454,-2.1246063653524736,-0.16008376705103816,13.284247,0.7156271,-1.0946119,0.08832115,8.255652,-8.323719,1.3974577,-0.37619966,0.15373817,-0.25653255,-0.87694323,-9.232543,7.366236,-0.025987914,0.34230277,-2.1246064,-0.16008377,0
1.1000000000000008,13.30741219736656,0.34230278191462454,-2.1246063653524736,-0.16008376705103816,13.284247,0.7156271,-1.0946119,0.08832115,8.163279,-8.249681,1.397255,-0.3798679,0.14397508,-0.25389913,-0.8777852,-9.241903,7.4409833,-0.014391177,0.34230277,-2.1246064,-0.16008377,0
1.1100000000000008,13.30741219736656,0.34230278191462454,-2.1246063653524736,-0.16008376705103816,13.284247,0.7156271,-1.0946119,0.08832115,8.070822,-8.174904,1.3971736,-0.3834919,0.13419524,-0.25123614,-0.8785249,-9.249033,7.514321,-0.0016815409,0.34230277,-2.1246064,-0.16008377,0
1.1200000000000008,13.143679351049629,0.038410769588853706,-1.5937360814290582,-0.17182133014492662,13.248563,0.6145487,-1.4981787,-0.03145772,7.9783053,-8.0994005,1.3972249,-0.38707128,0.12439975,-0.24854393,-0.8791624,-9.253931,7.5862136,0.012091526,0.34230277,-2.1246064,-0.16008377,1
1.1300000000000008,13.143679351049629,0.038410769588853706,-1.5937360814290582,-0.17182133014492662,13.248563,0.6145487,-1.4981787,-0.03145772,7.885751,-8.023187,1.3974159,-0.38944092,0.11665977,-0.24831814,-0.8792408,-9.256694,7.6565847,0.0262071,0.6145487,-1.4981787,-0.03145772,1
1.1400000000000008,13.143679351049629,0.038410769588853706,-1.5937360814290582,-0.17182133014492662,13.248563,0.6145487,-1.4981787,-0.03145772,7.793178,-7.9462724,1.3977507,-0.39178503,0.10891213,-0.24807607,-0.87926155,-9.257524,7.7261806,0.040835846,0.6145487,-1.4981787,-0.03145772,1
1.1500000000000008,13.143679351049629,0.038410769588853706,-1.5937360814290582,-0.17182133014492662,13.248563,0.6145487,-1.4981787,-0.03145772,7.700607,-7.868666,1.3982342,-0.3941034,0.10115735,-0.24781774,-0.8792247,-9.25642,7.794983,0.05594852,0.6145487,-1.4981787,-0.03145772,1
1.1600000000000008,12.904886878495116,-0.46711212993461887,-1.04004661595758,-0.14215076467932003,12.32752,0.44554892,-0.28558654,0.23583215,7.6080565,-7.790376,1.3988713,-0.39639598,0.09339594,-0.24754314,-0.8791302,-9.253384,7.8629727,0.07151576,0.6145487,-1.4981787,-0.03145772,1
1.1700000000000008,12.904886878495116,-0.46711212993461887,-1.04004661595758,-0.14215076467932003,12.32752,0.44554892,-0.28558654,0.23583215,7.515543,-7.7114325,1.399626,-0.3959192,0.09096525,-0.24904469,-0.87917584,-9.249193,7.9257855,0.079405114,0.44554892,-0.28558654,0.23583215,1
1.1800000000000008,12.904886878495116,-0.46711212993461887,-1.04004661595758,-0.14215076467932003,12.32752,0.44554892,-0.28558654,0.23583215,7.423075,-7.6318603,1.4004593,-0.3954391,0.0885338,-0.25054416,-0.8792141,-9.24436,7.988678,0.087219715,0.44554892,-0.28558654,0.23583215,1
1.1900000000000008,12.904886878495116,-0.46711212993461887,-1.04004661595758,-0.14215076467932003,12.32752,0.44554892,-0.28558654,0.23583215,7.3306584,-7.5516586,1.4013702,-0.39495564,0.0861016,-0.2520415,-0.879245,-9.238883,8.051649,0.09495583,0.44554892,-0.28558654,0.23583215,1
1.2000000000000008,13.007677710411345,-1.1060142754826428,-0.7017556851332839,-0.15613604341703052,12.374486,-0.34720597,-0.8835664,0.2344045,7.2382994,-7.470827,1.4023582,-0.39446896,0.08366869,-0.25353673,-0.87926847,-9.232764,8.1147,0.102609724,0.44554892,-0.28558654,0.23583215,1
1.2100000000000009,13.007677710411345,-1.1060142754826428,-0.7017556851332839,-0.15613604341703052,12.374486,-0.34720597,-0.8835664,0.2344045,7.1460047,-7.3893642,1.4034249,-0.39440855,0.08017089,-0.25036263,-0.88053006,-9.226061,8.177683,0.110815614,-0.34720597,-0.8835664,0.2344045,1
1.2200000000000009,13.007677710411345,-1.1060142754826428,-0.7017556851332839,-0.15613604341703052,12.374486,-0.34720597,-0.8835664,0.2344045,7.053779,-7.307277,1.4045762,-0.39433873,0.07667118,-0.24718258,-0.88177055,-9.218935,8.239708,0.11955535,-0.34720597,-0.8835664,0.2344045,1
1.2300000000000009,13.007677710411345,-1.1060142754826428,-0.7017556851332839,-0.15613604341703052,12.374486,-0.34720597,-0.8835664,0.2344045,6.9616275,-7.2245746,1.4058176,-0.39425945,0.07316964,-0.24399659,-0.88299006,-9.211382,8.300772,0.12881865,-0.34720597,-0.8835664,0.2344045,1
1.2400000000000009,13.007677710411345,-1.1060142754826428,-0.7017556851332839,-0.15613604341703052,12.66917,-0.7783134,-0.6640285,0.22824663,6.869553,-7.1412654,1.4071543,-0.39417076,0.069666356,-0.24080478,-0.88418835,-9.2034025,8.360868,0.13859524,-0.34720597,-0.8835664,0.2344045,1
1.2500000000000009,13.007677710411345,-1.1060142754826428,-0.7017556851332839,-0.15613604341703052,12.66917,-0.7783134,-0.6640285,0.22824663,6.7775607,-7.057353,1.4086044,-0.39368466,0.0679889,-0.23613141,-0.88579446,-9.195016,8.421354,0.15149888,-0.7783134,-0.6640285,0.22824663,1
1.260000000000001,13.007677710411345,-1.1060142754826428,-0.7017556851332839,-0.15613604341703052,12.66917,-0.7783134,-0.6640285,0.22824663,6.685652,-6.9728417,1.4101865,-0.39318776,0.066309586,-0.23145159,-0.88737625,-9.186776,8.48071,0.1650214,-0.7783134,-0.6640285,0.22824663,1
1.270000000000001,13.007677710411345,-1.1060142754826428,-0.7017556851332839,-0.15613604341703052,12.66917,-0.7783134,-0.6640285,0.22824663,6.5938244,-6.8877425,1.4119068,-0.39268005,0.06462845,-0.22676538,-0.88893366,-9.178681,8.53893,0.17915115,-0.7783134,-0.6640285,0.22824663,1
1.280000000000001,12.994769550395665,-1.3566172656542734,-0.42621152379061783,-0.14302113791363105,12.494901,-0.33449885,-0.78625536,0.42086285,6.5020776,-6.8020673,1.4137716,-0.39216158,0.06294554,-0.22207294,-0.89046663,-9.170729,8.596007,0.19387633,-0.7783134,-0.6640285,0.22824663,0
1.290000000000001,12.994769550395665,-1.3566172656542734,-0.42621152379061783,-0.14302113791363105,12.494901,-0.33449885,-0.78625536,0.42086285,6.41041,-6.71582,1.4158013,-0.39283463,0.06386516,-0.2151465,-0.8918039,-9.163001,8.653283,0.21216282,-1.3566172,-0.42621154,-0.14302114,0
1.300000000000001,12.994769550395665,-1.3566172656542734,-0.42621152379061783,-0.14302113791363105,12.494901,-0.33449885,-0.78625536,0.42086285,6.3188143,-6.6290064,1.4180175,-0.39348763,0.064781524,-0.20820905,-0.8930957,-9.1561775,8.709133,0.23119704,-1.3566172,-0.42621154,-0.14302114,0
1.310000000000001,12.994769550395665,-1.3566172656542734,-0.42621152379061783,-0.14302113791363105,12.494901,-0.33449885,-0.78625536,0.42086285,6.2272825,-6.5416417,1.4204277,-0.3941205,0.06569458,-0.20126098,-0.8943419,-9.150263,8.763546,0.25095487,-1.3566172,-0.42621154,-0.14302114,0
1.320000000000001,12.924605408066897,-1.3137059472767867,0.07422020320830063,-0.1207269215253828,12.641012,-0.39487574,-1.300305,0.37918478,6.1358056,-6.45374,1.423039,-0.39473328,0.06660428,-0.19430263,-0.8955423,-9.14526,8.816511,0.27141201,-1.3566172,-0.42621154,-0.14302114,0
1.330000000000001,12.924605408066897,-1.3137059472767867,0.07422020320830063,-0.1207269215253828,12.641012,-0.39487574,-1.300305,0.37918478,6.0443735,-6.365317,1.4258547,-0.39475566,0.06964524,-0.18852232,-0.8965362,-9.141343,8.86792,0.29182836,-1.3137059,0.0742202,-0.12072692,0
1.340000000000001,12.924605408066897,-1.3137059472767867,0.07422020320830063,-0.1207269215253828,12.641012,-0.39487574,-1.300305,0.37918478,5.952974,-6.276385,1.428877,-0.3947608,0.07268317,-0.18273377,-0.8974907,-9.138738,8.918346,0.3127017,-1.3137059,0.0742202,-0.12072692,0
1.350000000000001,12.924605408066897,-1.3137059472767867,0.07422020320830063,-0.1207269215253828,12.641012,-0.39487574,-1.300305,0.37918478,5.861594,-6.1869535,1.4321101,-0.3947487,0.075717926,-0.17693725,-0.8984061,-9.137445,8.967783,0.3340108,-1.3137059,0.0742202,-0.12072692,0
1.360000000000001,12.677033265177506,-1.0251453028264115,0.07921522143831307,-0.07926720630169937,12.464741,-0.6634817,-1.5885764,0.37069553,5.7702208,-6.097033,1.4355586,-0.39471936,0.07874938,-0.17113301,-0.89928234,-9.137468,9.016225,0.35573444,-1.3137059,0.0742202,-0.12072692,0
1.370000000000001,12.677033265177506,-1.0251453028264115,0.07921522143831307,-0.07926720630169937,12.464741,-0.6634817,-1.5885764,0.37069553,5.678841,-6.006637,1.4392146,-0.39459908,0.081195556,-0.16664642,-0.8999599,-9.138681,9.062843,0.37551498,-1.0251453,0.07921522,-0.079267204,0
1.380000000000001,12.677033265177506,-1.0251453028264115,0.07921522143831307,-0.07926720630169937,12.464741,-0.6634817,-1.5885764,0.37069553,5.587444,-5.9157786,1.4430697,-0.3944683,0.08363957,-0.1621554,-0.90061355,-9.140921,9.108707,0.3955758,-1.0251453,0.07921522,-0.079267204,0
1.390000000000001,12.677033265177506,-1.0251453028264115,0.07921522143831307,-0.07926720630169937,12.464741,-0.6634817,-1.5885764,0.37069553,5.496019,-5.8244653,1.447127,-0.39432704,0.08608137,-0.15766005,-0.9012433,-9.144186,9.153815,0.41590407,-1.0251453,0.07921522,-0.079267204,0
1.400000000000001,12.47868130338378,-0.7686734496892922,-0.04555490506432637,-0.04847077428094849,13.223105,-0.53626084,-2.0454712,0.45562357,5.4045568,-5.7327046,1.4513887,-0.3941753,0.08852088,-0.15316051,-0.90184903,-9.1484785,9.198161,0.43648696,-1.0251453,0.07921522,-0.079267204,0
1.410000000000001,12.47868130338378,-0.7686734496892922,-0.04555490506432637,-0.04847077428094849,13.223105,-0.53626084,-2.0454712,0.45562357,5.3130465,-5.6405077,1.4558481,-0.3940856,0.089866884,-0.14958201,-0.9023557,-9.153586,9.241097,0.45544308,-0.7686734,-0.045554906,-0.048470773,0
1.420000000000001,12.47868130338378,-0.7686734496892922,-0.04555490506432637,-0.04847077428094849,13.223105,-0.53626084,-2.0454712,0.45562357,5.2214823,-5.547885,1.4604982,-0.39399004,0.09121154,-0.1460013,-0.9028488,-9.159365,9.283377,0.474607,-0.7686734,-0.045554906,-0.048470773,0
1.430000000000001,12.47868130338378,-0.7686734496892922,-0.04555490506432637,-0.04847077428094849,13.223105,-0.53626084,-2.0454712,0.45562357,5.1298566,-5.4548426,1.465341,-0.39388862,0.09255485,-0.14241837,-0.9033285,-9.165812,9.324996,0.49397162,-0.7686734,-0.045554906,-0.048470773,0
1.440000000000001,12.47868130338378,-0.7686734496892922,-0.04555490506432637,-0.04847077428094849,13.35624,-0.42972884,-2.0950787,0.54045147,5.038163,-5.3613873,1.4703783,-0.39378133,0.09389678,-0.13883334,-0.9037948,-9.17293,9.365954,0.5135299,-0.7686734,-0.045554906,-0.048470773,0
1.450000000000001,12.47868130338378,-0.7686734496892922,-0.04555490506432637,-0.04847077428094849,13.35624,-0.42972884,-2.0950787,0.54045147,4.9463954,-5.2675257,1.4756122,-0.39366817,0.09523731,-0.13524625,-0.9042476,-9.180716,9.406249,0.53327477,-0.7686734,-0.045554906,-0.048470773,0
1.460000000000001,12.47868130338378,-0.7686734496892922,-0.04555490506432637,-0.04847077428094849,13.35624,-0.42972884,-2.0950787,0.54045147,4.854546,-5.1732645,1.4810444,-0.39354917,0.096576415,-0.13165714,-0.904687,-9.189172,9.445878,0.553199,-0.7686734,-0.045554906,-0.048470773,0
1.470000000000001,12.47868130338378,-0.7686734496892922,-0.04555490506432637,-0.04847077428094849,13.35624,-0.42972884,-2.0950787,0.54045147,4.7626095,-5.07861,1.4866767,-0.3934243,0.09791409,-0.12806608,-0.90511286,-9.198297,9.484839,0.5732955,-0.7686734,-0.045554906,-0.048470773,0
1.480000000000001,12.229234463862197,-0.5932813630550906,-0.19905033893536084,-0.02640732380224855,13.912447,-0.7322197,-1.8320454,0.3850085,4.6705785,-4.983569,1.4925109,-0.3932936,0.09925031,-0.12447311,-0.9055253,-9.208091,9.523131,0.5935572,-0.7686734,-0.045554906,-0.048470773,0
1.490000000000001,12.229234463862197,-0.5932813630550906,-0.19905033893536084,-0.02640732380224855,13.912447,-0.7322197,-1.8320454,0.3850085,4.5784473,-4.8881526,1.4985366,-0.39324066,0.0995317,-0.12138181,-0.905937,-9.218239,9.560004,0.61161566,-0.5932814,-0.19905034,-0.026407324,0
1.500000000000001,12.229234463862197,-0.5932813630550906,-0.19905033893536084,-0.02640732380224855,13.912447,-0.7322197,-1.8320454,0.3850085,4.4862127,-4.792371,1.5047437,-0.39318392,0.09981211,-0.11828933,-0.90633976,-9.228758,9.5962305,0.62984467,-0.5932814,-0.19905034,-0.026407324,0
1.5100000000000011,12.229234463862197,-0.5932813630550906,-0.19905033893536084,-0.02640732380224855,13.912447,-0.7322197,-1.8320454,0.3850085,4.3938713,-4.6962304,1.511134,-0.3931233,0.10009155,-0.115195684,-0.90673363,-9.239647,9.631808,0.6482395,-0.5932814,-0.19905034,-0.026407324,0
1.5200000000000011,11.973648113344469,-0.4011671199329704,-0.3037694010138764,0.0014589854736570798,13.809416,-0.57851756,-2.0026388,0.46446913,4.301419,-4.5997376,1.517709,-0.3930588,0.10037,-0.112100914,-0.9071186,-9.250907,9.666736,0.66679555,-0.5932814,-0.19905034,-0.026407324,0
1.5300000000000011,11.973648113344469,-0.4011671199329704,-0.3037694010138764,0.0014589854736570798,13.809416,-0.57851756,-2.0026388,0.46446913,4.2088532,-4.5029016,1.5244582,-0.39301988,0.0997795,-0.109684765,-0.9074959,-9.2622,9.70032,0.6830691,-0.40116712,-0.3037694,0.0014589855,0
1.5400000000000011,11.973648113344469,-0.4011671199329704,-0.3037694010138764,0.0014589854736570798,13.809416,-0.57851756,-2.0026388,0.46446913,4.116174,-4.405733,1.5313709,-0.39297846,0.09918837,-0.10726792,-0.9078674,-9.273602,9.733333,0.69949824,-0.40116712,-0.3037694,0.0014589855,0
1.5500000000000012,11.973648113344469,-0.4011671199329704,-0.3037694010138764,0.0014589854736570798,13.809416,-0.57851756,-2.0026388,0.46446913,4.0233808,-4.308237,1.5384488,-0.39293456,0.09859662,-0.104850404,-0.9082331,-9.285112,9.765773,0.71608,-0.40116712,-0.3037694,0.0014589855,0
1.5600000000000012,11.688758820081677,-0.26656728240934263,-0.5753869420312581,0.022263510560273068,13.526126,-0.34037098,-0.8006155,0.3059041,3.930472,-4.210419,1.5456932,-0.39288816,0.09800424,-0.10243221,-0.9085931,-9.29673,9.79764,0.7328115,-0.40116712,-0.3037694,0.0014589855,0
1.5700000000000012,11.688758820081677,-0.26656728240934263,-0.5753869420312581,0.022263510560273068,13.526126,-0.34037098,-0.8006155,0.3059041,3.837448,-4.11229,1.5530919,-0.3929491,0.09590204,-0.100101285,-0.90905076,-9.308055,9.828145,0.74697834,-0.2665673,-0.57538694,0.02226351,0
1.5800000000000012,11.688758820081677,-0.26656728240934263,-0.5753869420312581,0.022263510560273068,13.526126,-0.34037098,-0.8006155,0.3059041,3.7443116,-4.013859,1.5606334,-0.39300612,0.093798876,-0.09776936,-0.9094992,-9.319156,9.857974,0.76134914,-0.2665673,-0.57538694,0.02226351,0
1.5900000000000012,11.688758820081677,-0.26656728240934263,-0.5753869420312581,0.022263510560273068,13.526126,-0.34037098,-0.8006155,0.3059041,3.6510656,-3.9151328,1.5683197,-0.39305913,0.09169477,-0.09543644,-0.9099386,-9.330032,9.887125,0.7759194,-0.2665673,-0.57538694,0.02226351,0
1.6000000000000012,11.488712923589558,-0.20893192632328506,-0.35553561522822386,0.047309724795767345,13.100563,-0.64754546,-2.341391,0.33094424,3.5577116,-3.8161185,1.5761526,-0.39310822,0.08958974,-0.09310256,-0.91036874,-9.340684,9.915598,0.7906845,-0.2665673,-0.57538694,0.02226351,0
1.6100000000000012,11.488712923589558,-0.20893192632328506,-0.35553561522822386,0.047309724795767345,13.100563,-0.64754546,-2.341391,0.33094424,3.464253,-3.716825,1.5841243,-0.39296392,0.08835984,-0.091473706,-0.91071635,-9.350977,9.942998,0.8036806,-0.20893192,-0.35553563,0.047309726,0
1.6200000000000012,11.488712923589558,-0.20893192632328506,-0.35553561522822386,0.047309724795767345,13.100563,-0.64754546,-2.341391,0.33094424,3.370692,-3.6172602,1.5922266,-0.39281794,0.08712956,-0.08984446,-0.9110599,-9.36117,9.96995,0.81679535,-0.20893192,-0.35553563,0.047309726,0
1.6300000000000012,11.488712923589558,-0.20893192632328506,-0.35553561522822386,0.047309724795767345,13.100563,-0.64754546,-2.341391,0.33094424,3.2770298,-3.517428,1.6004606,-0.3926703,0.08589892,-0.08821482,-0.91139966,-9.371263,9.996454,0.8300269,-0.20893192,-0.35553563,0.047309726,0
1.6400000000000012,11.488712923589558,-0.20893192632328506,-0.35553561522822386,0.047309724795767345,13.222878,-0.6129353,-2.659273,0.4758181,3.183267,-3.4173326,1.6088277,-0.39252093,0.08466789,-0.08658481,-0.9117354,-9.381254,10.02251,0.84337336,-0.20893192,-0.35553563,0.047309726,0
1.6500000000000012,11.488712923589558,-0.20893192632328506,-0.35553561522822386,0.047309724795767345,13.222878,-0.6129353,-2.659273,0.4758181,3.0894048,-3.3169792,1.6173286,-0.3923699,0.083436504,-0.084954426,-0.9120673,-9.391145,10.048117,0.85683274,-0.20893192,-0.35553563,0.047309726,0
1.6600000000000013,11.488712923589558,-0.20893192632328506,-0.35553561522822386,0.047309724795767345,13.222878,-0.6129353,-2.659273,0.4758181,2.9954443,-3.2163718,1.6259649,-0.39221716,0.08220476,-0.08332368,-0.9123952,-9.400933,10.073275,0.8704033,-0.20893192,-0.35553563,0.047309726,0
1.6700000000000013,11.488712923589558,-0.20893192632328506,-0.35553561522822386,0.047309724795767345,13.222878,-0.6129353,-2.659273,0.4758181,2.9013863,-3.115515,1.6347373,-0.39206272,0.08097266,-0.08169256,-0.9127192,-9.41062,10.097982,0.8840831,-0.20893192,-0.35553563,0.047309726,0
1.6800000000000013,11.23161550318673,-0.19619159244339482,-0.6784969537370328,0.07169741665863584,13.2362175,-0.7140304,-3.1764836,0.3498277,2.8072324,-3.0144134,1.643647,-0.39190662,0.07974021,-0.08006111,-0.9130392,-9.420203,10.12224,0.8978702,-0.20893192,-0.35553563,0.047309726,0
1.6900000000000013,11.23161550318673,-0.19619159244339482,-0.6784969537370328,0.07169741665863584,13.2362175,-0.7140304,-3.1764836,0.3498277,2.7129843,-2.9130747,1.6526825,-0.3917702,0.07699799,-0.077864006,-0.91352296,-9.429376,10.145424,0.90928406,-0.1961916,-0.67849696,0.071697414,0
1.7000000000000013,11.23161550318673,-0.19619159244339482,-0.6784969537370328,0.07169741665863584,13.2362175,-0.7140304,-3.1764836,0.3498277,2.6186464,-2.8115075,1.6618333,-0.3916289,0.0742548,-0.07566592,-0.91399527,-9.4381895,10.167921,0.92087036,-0.1961916,-0.67849696,0.071697414,0
1.7100000000000013,11.23161550318673,-0.19619159244339482,-0.6784969537370328,0.07169741665863584,13.2362175,-0.7140304,-3.1764836,0.3498277,2.5242221,-2.7097187,1.6711007,-0.39148262,0.07151067,-0.07346688,-0.91445607,-9.446644,10.189732,0.93262357,-0.1961916,-0.67849696,0.071697414,0
1.7200000000000013,10.996141968981785,-0.21779859476700175,-0.5138754058633309,0.10515998818996684,13.386078,-0.70997024,-3.1511014,0.47358721,2.429715,-2.6077154,1.6804864,-0.3913314,0.06876564,-0.07126692,-0.91490525,-9.454737,10.210854,0.94453824,-0.1961916,-0.67849696,0.071697414,0
1.7300000000000013,10.996141968981785,-0.21779859476700175,-0.5138754058633309,0.10515998818996684,13.386078,-0.70997024,-3.1511014,0.47358721,2.3351295,-2.505506,1.6899805,-0.390957,0.066803314,-0.06930099,-0.91536164,-9.462358,10.230901,0.9542877,-0.21779859,-0.5138754,0.10515999,0
1.7400000000000013,10.996141968981785,-0.21779859476700175,-0.5138754058633309,0.10515998818996684,13.386078,-0.70997024,-3.1511014,0.47358721,2.2404687,-2.403099,1.6995727,-0.39057943,0.06484045,-0.0673345,-0.91581064,-9.469767,10.250384,0.96415526,-0.21779859,-0.5138754,0.10515999,0
1.7500000000000013,10.996141968981785,-0.21779859476700175,-0.5138754058633309,0.10515998818996684,13.386078,-0.70997024,-3.1511014,0.47358721,2.145735,-2.3005002,1.709264,-0.3901987,0.06287706,-0.065367475,-0.91625226,-9.476961,10.269303,0.97413737,-0.21779859,-0.5138754,0.10515999,0
1.7600000000000013,10.71655281062778,-0.2831312036572301,-0.5225709398278432,0.14581341340718673,12.559438,-1.052102,-2.1893134,0.86236316,2.0509305,-2.197715,1.7190557,-0.38981485,0.060913164,-0.06339991,-0.9166865,-9.483942,10.287658,0.9842308,-0.21779859,-0.5138754,0.10515999,0
1.7700000000000014,10.71655281062778,-0.2831312036572301,-0.5225709398278432,0.14581341340718673,12.559438,-1.052102,-2.1893134,0.86236316,1.9560578,-2.0947514,1.728935,-0.3892241,0.059023336,-0.061127782,-0.9172154,-9.490551,10.304977,0.9916809,-0.2831312,-0.52257097,0.14581342,0
1.7800000000000014,10.71655281062778,-0.2831312036572301,-0.5225709398278432,0.14581341340718673,12.559438,-1.052102,-2.1893134,0.86236316,1.86112,-1.9916174,1.7388896,-0.38862976,0.057132952,-0.058855083,-0.9177357,-9.496992,10.3216915,0.9992388,-0.2831312,-0.52257097,0.14581342,0
1.7900000000000014,10.71655281062778,-0.2831312036572301,-0.5225709398278432,0.14581341340718673,12.559438,-1.052102,-2.1893134,0.86236316,1.7661185,-1.8883195,1.7489203,-0.38803175,0.05524203,-0.05658183,-0.9182472,-9.503265,10.3378,1.0069007,-0.2831312,-0.52257097,0.14581342,0
1.8000000000000014,10.494691690780524,-0.3896217674895305,-0.39838086011674395,0.1890425277131202,13.293317,-0.6458272,-2.2761216,1.0599594,1.6710553,-1.7848635,1.7590281,-0.3874301,0.053350598,-0.05430805,-0.91875017,-9.509367,10.353303,1.014663,-0.2831312,-0.52257097,0.14581342,0
1.8100000000000014,10.494691690780524,-0.3896217674895305,-0.39838086011674395,0.1890425277131202,13.293317,-0.6458272,-2.2761216,1.0599594,1.5759323,-1.681257,1.769203,-0.38656422,0.05222373,-0.051796697,-0.91932446,-9.51524,10.367898,1.0203241,-0.38962176,-0.39838085,0.18904252,0
1.8200000000000014,10.494691690780524,-0.3896217674895305,-0.39838086011674395,0.1890425277131202,13.293317,-0.6458272,-2.2761216,1.0599594,1.4807506,-1.5775075,1.7794349,-0.385695,0.051096413,-0.049284898,-0.9198908,-9.521114,10.381913,1.0260649,-0.38962176,-0.39838085,0.18904252,0
1.8300000000000014,10.494691690780524,-0.3896217674895305,-0.39838086011674395,0.1890425277131202,13.293317,-0.6458272,-2.2761216,1.0599594,1.3855101,-1.4736208,1.7897246,-0.38482246,0.04996865,-0.046772674,-0.9204492,-9.526989,10.395349,1.0318823,-0.38962176,-0.39838085,0.18904252,0
1.8400000000000014,10.494691690780524,-0.3896217674895305,-0.39838086011674395,0.1890425277131202,13.292918,-0.6822531,-2.346274,1.0147787,1.2902108,-1.3696024,1.8000728,-0.38394657,0.048840452,-0.04426004,-0.9209996,-9.532864,10.408204,1.037773,-0.38962176,-0.39838085,0.18904252,0
1.8500000000000014,10.494691690780524,-0.3896217674895305,-0.39838086011674395,0.1890425277131202,13.292918,-0.6822531,-2.346274,1.0147787,1.1948528,-1.2654585,1.8104802,-0.38306734,0.04771183,-0.041747022,-0.92154205,-9.538738,10.42048,1.043734,-0.38962176,-0.39838085,0.18904252,0
1.8600000000000014,10.494691690780524,-0.3896217674895305,-0.39838086011674395,0.1890425277131202,13.292918,-0.6822531,-2.346274,1.0147787,1.099436,-1.1611947,1.8209476,-0.38218486,0.0465828,-0.039233644,-0.92207646,-9.544609,10.432172,1.049762,-0.38962176,-0.39838085,0.18904252,0
1.8700000000000014,10.494691690780524,-0.3896217674895305,-0.39838086011674395,0.1890425277131202,13.292918,-0.6822531,-2.346274,1.0147787,1.0039606,-1.056817,1.8314757,-0.38129908,0.045453366,-0.03671993,-0.92260295,-9.550475,10.443284,1.0558537,-0.38962176,-0.39838085,0.18904252,0
1.8800000000000014,10.241478955483878,-0.5236162404306637,-0.4107724509773957,0.24237117351122828,13.095322,-0.663977,-2.0248783,1.074981,0.9084265,-0.952331,1.842065,-0.38040996,0.044323537,-0.034205895,-0.92312145,-9.556336,10.4538145,1.0620061,-0.38962176,-0.39838085,0.18904252,0
1.8900000000000015,10.241478955483878,-0.5236162404306637,-0.4107724509773957,0.24237117351122828,13.095322,-0.663977,-2.0248783,1.074981,0.81283444,-0.847744,1.8527036,-0.37924314,0.043381788,-0.031061282,-0.9237573,-9.562082,10.463483,1.0657012,-0.52361625,-0.41077244,0.24237117,0
1.9000000000000015,10.241478955483878,-0.5236162404306637,-0.4107724509773957,0.24237117351122828,13.095322,-0.663977,-2.0248783,1.074981,0.7171846,-0.7430636,1.8633792,-0.37807155,0.04243949,-0.027916282,-0.9243815,-9.567907,10.472477,1.0694537,-0.52361625,-0.41077244,0.24237117,0
1.9100000000000015,10.241478955483878,-0.5236162404306637,-0.4107724509773957,0.24237117351122828,13.095322,-0.663977,-2.0248783,1.074981,0.62147605,-0.6382968,1.8740928,-0.3768952,0.041496664,-0.024770932,-0.9249941,-9.573811,10.480796,1.073259,-0.52361625,-0.41077244,0.24237117,0
1.9200000000000015,9.951665448472639,-0.7350250627818459,-0.2702164810342751,0.2978440840391914,13.022772,-0.67512405,-1.8398215,1.1009408,0.52570814,-0.53345007,1.8848447,-0.37571406,0.040553316,-0.02162527,-0.92559516,-9.579789,10.48844,1.0771128,-0.52361625,-0.41077244,0.24237117,0
1.9300000000000015,9.951665448472639,-0.7350250627818459,-0.2702164810342751,0.2978440840391914,13.022772,-0.67512405,-1.8398215,1.1009408,0.42988065,-0.42853135,1.8956208,-0.37421253,0.040650994,-0.017776186,-0.92628074,-9.585762,10.495189,1.0781201,-0.73502505,-0.2702165,0.29784408,0
1.9400000000000015,9.951665448472639,-0.7350250627818459,-0.2702164810342751,0.2978440840391914,13.022772,-0.67512405,-1.8398215,1.1009408,0.33399183,-0.32354873,1.9064072,-0.37270445,0.040747955,-0.013926789,-0.9269501,-9.592051,10.501226,1.0791539,-0.73502505,-0.2702165,0.29784408,0
1.9500000000000015,9.951665448472639,-0.7350250627818459,-0.2702164810342751,0.2978440840391914,13.022772,-0.67512405,-1.8398215,1.1009408,0.23803854,-0.21850929,1.917204,-0.3711898,0.040844202,-0.010077149,-0.92760324,-9.598652,10.506551,1.0802083,-0.73502505,-0.2702165,0.29784408,0
1.9600000000000015,9.670553716694936,-0.9466783562943071,-0.8061511581846138,0.3831989792915105,12.682979,-1.0562484,-1.7466214,1.6133484,0.14201769,-0.11342017,1.9280114,-0.36966863,0.040939733,-0.0062273317,-0.9282402,-9.605564,10.511161,1.0812773,-0.73502505,-0.2702165,0.29784408,0
1.9700000000000015,9.670553716694936,-0.9466783562943071,-0.8061511581846138,0.3831989792915105,12.682979,-1.0562484,-1.7466214,1.6133484,0.04592746,-0.008289652,1.9388157,-0.36771363,0.038935225,-0.000421913,-0.92912334,-9.612492,10.514755,1.0795666,-0.94667834,-0.80615115,0.38319898,0
1.9800000000000015,9.670553716694936,-0.9466783562943071,-0.8061511581846138,0.3831989792915105,12.682979,-1.0562484,-1.7466214,1.6133484,-0.05023235,0.09687081,1.949603,-0.36574307,0.036929075,0.0053835236,-0.92996716,-9.61948,10.51715,1.077889,-0.94667834,-0.80615115,0.38319898,0
1.9900000000000015,9.670553716694936,-0.9466783562943071,-0.8061511581846138,0.3831989792915105,12.682979,-1.0562484,-1.7466214,1.6133484,-0.14646232,0.20204923,1.9603736,-0.363757,0.034921356,0.011188733,-0.9307716,-9.626523,10.518344,1.0762297,-0.94667834,-0.80615115,0.38319898,0
2.0000000000000013,9.447292714875683,-1.1147210107225753,-1.2404024664128213,0.48965729288468746,13.044889,-1.4501448,-1.5362456,1.5893031,-0.24276297,0.30723354,1.9711276,-0.36175558,0.032912157,0.016993469,-0.9315367,-9.633613,10.518336,1.0745742,-0.94667834,-0.80615115,0.38319898,0
2.010000000000001,9.447292714875683,-1.1147210107225753,-1.2404024664128213,0.48965729288468746,13.044889,-1.4501448,-1.5362456,1.5893031,-0.33913368,0.4124115,1.981854,-0.3591725,0.029191447,0.024347786,-0.93249655,-9.640509,10.517007,1.0706848,-1.1147211,-1.2404025,0.48965728,0
2.020000000000001,9.447292714875683,-1.1147210107225753,-1.2404024664128213,0.48965729288468746,13.044889,-1.4501448,-1.5362456,1.5893031,-0.43557256,0.51756835,1.9925413,-0.35656226,0.025468532,0.031700265,-0.9333861,-9.647243,10.514111,1.0667719,-1.1147211,-1.2404025,0.48965728,0
2.0300000000000007,9.447292714875683,-1.1147210107225753,-1.2404024664128213,0.48965729288468746,13.044889,-1.4501448,-1.5362456,1.5893031,-0.5320779,0.62268835,2.0031896,-0.35392508,0.021743694,0.039050348,-0.93420506,-9.653804,10.509649,1.06281,-1.1147211,-1.2404025,0.48965728,0
2.0400000000000005,9.447292714875683,-1.1147210107225753,-1.2404024664128213,0.48965729288468746,13.044889,-1.4501448,-1.5362456,1.5893031,-0.628648,0.72775596,2.0137975,-0.35126114,0.018017214,0.046397485,-0.93495345,-9.660184,10.503624,1.0587734,-1.1147211,-1.2404025,0.48965728,0
2.0500000000000003,9.447292714875683,-1.1147210107225753,-1.2404024664128213,0.48965729288468746,13.194841,-1.5197264,-1.4725983,1.5433197,-0.72528094,0.8327555,2.0243647,-0.3485707,0.014289373,0.053741116,-0.9356313,-9.666373,10.496038,1.0546367,-1.1147211,-1.2404025,0.48965728,0
2.06,9.447292714875683,-1.1147210107225753,-1.2404024664128213,0.48965729288468746,13.194841,-1.5197264,-1.4725983,1.5433197,-0.82197475,0.93767136,2.03489,-0.34585398,0.010560453,0.061080687,-0.93623847,-9.672362,10.486895,1.0503742,-1.1147211,-1.2404025,0.48965728,0
2.07,9.447292714875683,-1.1147210107225753,-1.2404024664128213,0.48965729288468746,13.194841,-1.5197264,-1.4725983,1.5433197,-0.91872746,1.042488,2.0453718,-0.3431111,0.006830735,0.06841564,-0.9367749,-9.678142,10.476197,1.0459603,-1.1147211,-1.2404025,0.48965728,0
2.0799999999999996,9.447292714875683,-1.1147210107225753,-1.2404024664128213,0.48965729288468746,13.194841,-1.5197264,-1.4725983,1.5433197,-1.0155368,1.14719,2.0558088,-0.34034228,0.003100501,0.07574543,-0.9372406,-9.683703,10.46395,1.0413697,-1.1147211,-1.2404025,0.48965728,0
2.0899999999999994,9.252160998066335,-1.2505803493953487,-1.6244511855590666,0.6088803245749314,11.604035,-1.4544103,-1.4831519,0.8566658,-1.1124005,1.2517617,2.0661986,-0.3375478,-0.00062996685,0.08306951,-0.93763554,-9.689036,10.450158,1.0365769,-1.1147211,-1.2404025,0.48965728,0
2.099999999999999,9.252160998066335,-1.2505803493953487,-1.6244511855590666,0.6088803245749314,11.604035,-1.4544103,-1.4831519,0.8566658,-1.2093157,1.356189,2.0765297,-0.33400327,-0.005881996,0.09167111,-0.938085,-9.6939535,10.435021,1.0296177,-1.2505803,-1.6244512,0.60888034,0
