time-since-start [s],throttle_mpc,roll_mpc,pitch_mpc,yaw_mpc,throttle_nw,roll_nw,pitch_nw,yaw_nw,position_x [m],position_y [m],position_z [m],rotation_w [quaternion],rotation_x [quaternion],rotation_y [quaternion],rotation_z [quaternion],velocity_x [m/s],velocity_y [m/s],velocity_z [m/s],omega_x [rad/s],omega_y [rad/s],omega_z [rad/s],network_used
0.0,10.934688052982477,5.999999720477412,-5.99999992322186,-2.221821954001665,15.856074,0.84322,-5.5852294,0.39910603,19.496449,-10.322259,2.0283382,-0.12884589,0.5039549,-0.35989332,-0.77453536,-10.981223,-2.7370107,-1.1590189,0.5858609,-0.25029734,0.48030743,0
0.01,10.934688052982477,5.999999720477412,-5.99999992322186,-2.221821954001665,16.377155,0.5029572,-5.4758143,-0.44470543,19.386091,-10.349083,2.0164423,-0.12986523,0.5009436,-0.36363015,-0.7745732,-11.089532,-2.6281419,-1.2203071,0.92467934,-0.64130527,0.39294103,0
0.02,10.934688052982477,5.999999720477412,-5.99999992322186,-2.221821954001665,16.377155,0.5029572,-5.4758143,-0.44470543,19.274672,-10.374826,2.0039299,-0.13274057,0.49638325,-0.36817557,-0.77487445,-11.194019,-2.5208154,-1.2822843,1.250555,-1.0113208,0.30629003,0
0.03,10.934688052982477,5.999999720477412,-5.99999992322186,-2.221821954001665,16.377155,0.5029572,-5.4758143,-0.44470543,19.162228,-10.399502,1.9907954,-0.13739763,0.4903397,-0.3734811,-0.77537143,-11.294277,-2.4145727,-1.3446689,1.5641092,-1.3622127,0.2204447,0
0.04,10.934688052982477,5.999999720477412,-5.99999992322186,-2.221821954001665,15.770756,1.4587035,-5.465557,-0.09772245,19.048801,-10.4231205,1.9770358,-0.14376362,0.48286447,-0.3794939,-0.7759887,-11.389928,-2.3090272,-1.4072258,1.8659505,-1.6956439,0.1354833,0
0.05,10.934688052982477,5.999999720477412,-5.99999992322186,-2.221821954001665,15.770756,1.4587035,-5.465557,-0.09772245,18.934446,-10.445685,1.9626507,-0.15176675,0.4739971,-0.3861574,-0.77664423,-11.48062,-2.203864,-1.4697618,2.1566699,-2.0130954,0.051473267,0
0.060000000000000005,10.934688052982477,5.999999720477412,-5.99999992322186,-2.221821954001665,15.770756,1.4587035,-5.465557,-0.09772245,18.819208,-10.467198,1.947641,-0.16133583,0.4637671,-0.39341158,-0.7772505,-11.566028,-2.0988398,-1.53212,2.4368367,-2.315889,-0.031527616,0
0.07,10.934688052982477,5.999999720477412,-5.99999992322186,-2.221821954001665,15.770756,1.4587035,-5.465557,-0.09772245,18.703144,-10.487662,1.9320092,-0.17239967,0.45219606,-0.40119347,-0.7777153,-11.645835,-1.9937806,-1.5941769,2.7069974,-2.605205,-0.11347023,0
0.08,14.30559740174717,5.9999998263326075,-5.999999961116807,-3.2284935261277665,15.852891,2.8385568,-6.038101,-0.65932304,18.58631,-10.507073,1.9157588,-0.18488657,0.43929926,-0.40943727,-0.7779425,-11.719744,-1.888582,-1.6558387,2.9676719,-2.882101,-0.19431326,0
0.09,14.30559740174717,5.9999998263326075,-5.999999961116807,-3.2284935261277665,15.852891,2.8385568,-6.038101,-0.65932304,18.468668,-10.525278,1.8989482,-0.19870386,0.42525864,-0.41795093,-0.7778105,-11.807429,-1.752178,-1.7061753,3.1697857,-3.0981202,-0.31899458,0
0.09999999999999999,14.30559740174717,5.9999998263326075,-5.999999961116807,-3.2284935261277665,15.852891,2.8385568,-6.038101,-0.65932304,18.350187,-10.542115,1.8816382,-0.21378416,0.41022405,-0.42657122,-0.7772064,-11.887162,-1.615104,-1.7557001,3.3736265,-3.3137527,-0.4405324,0
0.10999999999999999,14.30559740174717,5.9999998263326075,-5.999999961116807,-3.2284935261277665,15.852891,2.8385568,-6.038101,-0.65932304,18.230953,-10.557579,1.863837,-0.23008832,0.39415893,-0.43526864,-0.776041,-11.958623,-1.4775429,-1.8044119,3.5785348,-3.5286665,-0.559046,0
0.11999999999999998,14.30559740174717,5.9999998263326075,-5.999999961116807,-3.2284935261277665,15.852891,2.8385568,-6.038101,-0.65932304,18.111046,-10.571666,1.8455527,-0.24757013,0.37702855,-0.44400623,-0.77422035,-12.021503,-1.3397348,-1.8523242,3.7839344,-3.7425616,-0.67464703,0
0.12999999999999998,20.285263616151568,5.999999809763852,-5.999999973083247,-3.4638821434676776,18.329466,2.0229495,-6.0222034,-0.35284835,17.990555,-10.584374,1.8267931,-0.26617602,0.35880065,-0.45273995,-0.77164704,-12.07552,-1.2019783,-1.8994663,3.9893212,-3.9551675,-0.7874401,0
0.13999999999999999,20.285263616151568,5.999999809763852,-5.999999973083247,-3.4638821434676776,18.329466,2.0229495,-6.0222034,-0.35284835,17.869495,-10.595489,1.8076478,-0.28611988,0.33916432,-0.46154046,-0.768169,-12.134795,-1.0204381,-1.9292446,4.302357,-4.2745857,-0.9187739,0
0.15,20.285263616151568,5.999999809763852,-5.999999973083247,-3.4638821434676776,18.329466,2.0229495,-6.0222034,-0.35284835,17.7479,-10.604774,1.7882161,-0.30745307,0.3179655,-0.47037634,-0.7636209,-12.182382,-0.8363621,-1.9567167,4.5665736,-4.544192,-1.0436631,0
0.16,20.99999978850912,5.999998365455723,-5.999999934248759,-3.309845184724694,19.87948,1.783328,-5.3382816,-0.1710478,17.62589,-10.612209,1.7685213,-0.32989377,0.29539537,-0.4790655,-0.75789726,-12.217354,-0.6503679,-1.9818892,4.789593,-4.7717457,-1.162424,0
0.17,20.99999978850912,5.999998365455723,-5.999999934248759,-3.309845184724694,19.87948,1.783328,-5.3382816,-0.1710478,17.503593,-10.617746,1.7485992,-0.3531755,0.2716156,-0.48745883,-0.7509169,-12.239695,-0.45664257,-2.0021744,4.9778695,-4.963775,-1.2677985,0
0.18000000000000002,20.99999978850912,5.999998365455723,-5.999999934248759,-3.309845184724694,19.87948,1.783328,-5.3382816,-0.1710478,17.381145,-10.621342,1.7284855,-0.3770585,0.24677184,-0.49543014,-0.74261683,-12.24752,-0.2626897,-2.020252,5.1368017,-5.12584,-1.3680023,0
0.19000000000000003,20.99999978850912,5.999998365455723,-5.999999934248759,-3.309845184724694,19.87948,1.783328,-5.3382816,-0.1710478,17.258694,-10.623001,1.7082013,-0.4013403,0.22100551,-0.5028683,-0.7329436,-12.240338,-0.069575414,-2.036274,5.270969,-5.2626114,-1.463289,0
0.20000000000000004,20.99999989801337,3.117907869781095,-5.999999893512893,-0.9538040857312775,20.016283,1.0792445,-5.1692095,0.24848011,17.13639,-10.62274,1.6877664,-0.42583755,0.19444655,-0.50968015,-0.7218583,-12.217816,0.12154326,-2.0504277,5.3842335,-5.3780327,-1.5539,0
0.21000000000000005,20.99999989801337,3.117907869781095,-5.999999893512893,-0.9538040857312775,20.016283,1.0792445,-5.1692095,0.24848011,17.014389,-10.620582,1.6671985,-0.44996923,0.16757138,-0.5150272,-0.7100668,-12.179869,0.30943334,-2.0628672,5.0308084,-5.4745736,-1.5244532,0
0.22000000000000006,20.99999989801337,3.117907869781095,-5.999999893512893,-0.9538040857312775,20.016283,1.0792445,-5.1692095,0.24848011,16.892841,-10.616567,1.6465156,-0.4733057,0.14079517,-0.5183019,-0.6982277,-12.127054,0.49280974,-2.073417,4.732513,-5.556131,-1.4964513,0
0.23000000000000007,20.99999989801337,3.117907869781095,-5.999999893512893,-0.9538040857312775,20.016283,1.0792445,-5.1692095,0.24848011,16.771896,-10.610745,1.6257375,-0.49589002,0.11413876,-0.5197405,-0.68624747,-12.060146,0.67047364,-2.0818465,4.4807463,-5.6250286,-1.4698235,0
0.24000000000000007,20.99999989801337,3.117907869781095,-5.999999893512893,-0.9538040857312775,20.019194,-0.9691885,-4.627734,0.7162184,16.651686,-10.603181,1.6048864,-0.5177488,0.08761668,-0.51954156,-0.6740449,-11.979926,0.84133446,-2.0880032,4.26825,-5.683232,-1.4445022,0
0.25000000000000006,20.99999989801337,3.117907869781095,-5.999999893512893,-0.9538040857312775,20.019194,-0.9691885,-4.627734,0.7162184,16.532341,-10.5939455,1.5839854,-0.53889596,0.06123984,-0.5178724,-0.6615507,-11.887181,1.004396,-2.0918052,4.088898,-5.732399,-1.4204236,0
0.26000000000000006,20.99999989801337,3.117907869781095,-5.999999893512893,-0.9538040857312775,20.019194,-0.9691885,-4.627734,0.7162184,16.413982,-10.583123,1.5630585,-0.55933636,0.035017364,-0.5148746,-0.6487074,-11.782714,1.1587459,-2.0932324,3.9375203,-5.7739325,-1.3975264,0
0.2700000000000001,20.99999989801337,3.117907869781095,-5.999999893512893,-0.9538040857312775,20.019194,-0.9691885,-4.627734,0.7162184,16.296722,-10.570804,1.5421289,-0.5790674,0.008957818,-0.51066804,-0.63546777,-11.667337,1.3035498,-2.0923204,3.8097527,-5.809017,-1.3757527,0
0.2800000000000001,20.9999999068807,-0.07637056324768088,-5.999999589359351,1.4075228954398662,20.097898,-2.0273814,-3.132414,0.52013963,16.18067,-10.557087,1.5212198,-0.59808165,-0.01692994,-0.5053551,-0.62179446,-11.541881,1.4380455,-2.0891545,3.701912,-5.838654,-1.3550476,0
0.2900000000000001,20.9999999068807,-0.07637056324768088,-5.999999589359351,1.4075228954398662,20.097898,-2.0273814,-3.132414,0.52013963,16.065918,-10.542081,1.5003532,-0.6162291,-0.042011134,-0.49823684,-0.60848767,-11.407272,1.5615703,-2.083784,3.1131873,-5.8630185,-1.2194873,0
0.3000000000000001,20.9999999068807,-0.07637056324768088,-5.999999589359351,1.4075228954398662,20.097898,-2.0273814,-3.132414,0.52013963,15.952551,-10.525895,1.4795529,-0.6334389,-0.065775424,-0.4888041,-0.596238,-11.264914,1.6737163,-2.0758538,2.616255,-5.883764,-1.0905792,0
0.3100000000000001,20.9999999068807,-0.07637056324768088,-5.999999589359351,1.4075228954398662,20.097898,-2.0273814,-3.132414,0.52013963,15.840641,-10.508645,1.4588464,-0.6497929,-0.08838745,-0.47738373,-0.5848608,-11.116243,1.7742262,-2.0649543,2.1968005,-5.901415,-0.9679965,0
0.3200000000000001,20.999999866872415,-2.590022367643405,-4.153331508925271,1.6953144728574294,19.313185,-4.7805753,0.06737311,1.1467129,15.730243,-10.490449,1.4382651,-0.6653452,-0.109990194,-0.46424365,-0.5741918,-10.962559,1.8629092,-2.0507913,1.8427407,-5.9164243,-0.8514291,0
0.3300000000000001,20.999999866872415,-2.590022367643405,-4.153331508925271,1.6953144728574294,19.313185,-4.7805753,0.06737311,1.1467129,15.621402,-10.471427,1.4178426,-0.67990047,-0.12962908,-0.4495315,-0.5646712,-10.805105,1.9397147,-2.033145,1.1520674,-5.6409907,-0.7264596,0
0.34000000000000014,20.999999866872415,-2.590022367643405,-4.153331508925271,1.6953144728574294,19.313185,-4.7805753,0.06737311,1.1467129,15.514148,-10.4516945,1.3976153,-0.69337666,-0.14655855,-0.43342555,-0.55667955,-10.645372,2.0051563,-2.0116959,0.56902057,-5.4086685,-0.6076225,0
0.35000000000000014,20.999999866872415,-2.590022367643405,-4.153331508925271,1.6953144728574294,19.313185,-4.7805753,0.06737311,1.1467129,15.408497,-10.431361,1.377623,-0.7059374,-0.1611759,-0.4161555,-0.5499906,-10.484746,2.059899,-1.9861327,0.07683193,-5.212697,-0.49461675,0
0.36000000000000015,20.99999975298688,-4.774597894195858,0.20638626223571954,2.1799142877359916,19.40193,-6.238888,2.3093042,1.3334662,15.304452,-10.41053,1.3579078,-0.71769816,-0.1738188,-0.39790067,-0.54440033,-10.324402,2.1045415,-1.9562197,-0.33865464,-5.047378,-0.3871562,0
0.37000000000000016,20.99999975298688,-4.774597894195858,0.20638626223571954,2.1799142877359916,19.40193,-6.238888,2.3093042,1.3334662,15.202004,-10.389301,1.3385141,-0.7281969,-0.18322416,-0.37958643,-0.5404374,-10.165382,2.1397939,-1.9217982,-1.0298798,-4.227964,-0.2611893,0
0.38000000000000017,20.99999975298688,-4.774597894195858,0.20638626223571954,2.1799142877359916,19.40193,-6.238888,2.3093042,1.3334662,15.101137,-10.367762,1.3194877,-0.7371617,-0.18842286,-0.3620004,-0.53855884,-10.00875,2.1673136,-1.8827727,-1.6134698,-3.5364535,-0.14140366,0
0.3900000000000002,20.99999975298688,-4.774597894195858,0.20638626223571954,2.1799142877359916,19.40193,-6.238888,2.3093042,1.3334662,15.001819,-10.345977,1.3008748,-0.74488175,-0.1900696,-0.34506315,-0.53847617,-9.855408,2.18888,-1.8390421,-2.1061707,-2.9528687,-0.02749591,0
0.4000000000000002,20.99999962195324,-5.673395351344634,3.9327382631838845,2.7652252144068443,19.601505,-7.191602,3.776997,1.7050158,14.904016,-10.323999,1.2827232,-0.7515584,-0.18871185,-0.32868385,-0.5399214,-9.706071,2.206005,-1.7905102,-2.5221257,-2.4603536,0.08082235,0
0.4100000000000002,20.99999962195324,-5.673395351344634,3.9327382631838845,2.7652252144068443,19.601505,-7.191602,3.776997,1.7050158,14.807683,-10.3018675,1.2650812,-0.7568813,-0.18375553,-0.31368867,-0.5431063,-9.561333,2.220108,-1.7371241,-3.0134861,-1.463637,0.21254675,0
0.4200000000000002,20.99999962195324,-5.673395351344634,3.9327382631838845,2.7652252144068443,19.601505,-7.191602,3.776997,1.7050158,14.712772,-10.279601,1.247997,-0.760613,-0.17474796,-0.30072683,-0.548174,-9.421666,2.2332003,-1.6789613,-3.4283593,-0.62241054,0.33780745,0
0.4300000000000002,20.99999962195324,-5.673395351344634,3.9327382631838845,2.7652252144068443,19.601505,-7.191602,3.776997,1.7050158,14.61923,-10.257199,1.2315179,-0.76294297,-0.16229814,-0.28946167,-0.55478793,-9.287481,2.2472486,-1.6161488,-3.778631,0.087593466,0.45692155,0
0.4400000000000002,20.99999962195324,-5.673395351344634,3.9327382631838845,2.7652252144068443,18.897003,-6.460021,5.065817,1.8914049,14.527,-10.234647,1.2156895,-0.76398826,-0.14691718,-0.27959445,-0.56264067,-9.15918,2.2638948,-1.5488516,-4.074345,0.68685406,0.57019067,0
0.45000000000000023,20.99999962195324,-5.673395351344634,3.9327382631838845,2.7652252144068443,18.897003,-6.460021,5.065817,1.8914049,14.436025,-10.211908,1.2005556,-0.76381874,-0.12903747,-0.2708649,-0.57145673,-9.037175,2.2844965,-1.4772925,-4.3239856,1.1926526,0.6779017,0
0.46000000000000024,20.99999962195324,-5.673395351344634,3.9327382631838845,2.7652252144068443,18.897003,-6.460021,5.065817,1.8914049,14.346234,-10.18894,1.1861572,-0.7624739,-0.109027945,-0.26304916,-0.5809923,-8.9219055,2.310166,-1.4017636,-4.53472,1.6195723,0.7803272,0
0.47000000000000025,20.99999962195324,-5.673395351344634,3.9327382631838845,2.7652252144068443,18.897003,-6.460021,5.065817,1.8914049,14.257562,-10.165685,1.1725326,-0.7599746,-0.08720586,-0.2559569,-0.5910332,-8.813836,2.341797,-1.3226291,-4.712603,1.9799203,0.87772673,0
0.48000000000000026,20.999999499907776,-5.370930464064715,5.461320542429677,2.8689567455064817,18.275146,-5.361438,5.847984,1.8569074,14.169931,-10.142079,1.1597155,-0.75633115,-0.06384609,-0.2494275,-0.60139275,-8.713447,2.3800914,-1.2403237,-4.8627486,2.2840822,0.9703468,0
0.49000000000000027,20.999999499907776,-5.370930464064715,5.461320542429677,2.8689567455064817,18.275146,-5.361438,5.847984,1.8569074,14.083264,-10.118056,1.1477352,-0.75137997,-0.038912572,-0.24385989,-0.6119206,-8.62121,2.4256272,-1.1553699,-4.942479,2.7792206,1.0635122,0
0.5000000000000002,20.999999499907776,-5.370930464064715,5.461320542429677,2.8689567455064817,18.275146,-5.361438,5.847984,1.8569074,13.9974785,-10.093539,1.1366148,-0.74498457,-0.012389433,-0.23955882,-0.6224601,-8.537509,2.4791102,-1.0684776,-5.0097685,3.197157,1.1521059,0
0.5100000000000002,20.999999499907776,-5.370930464064715,5.461320542429677,2.8689567455064817,18.275146,-5.361438,5.847984,1.8569074,13.912485,-10.068445,1.1263696,-0.7371814,0.015467688,-0.23627278,-0.6328507,-8.462715,2.5411465,-0.98044664,-5.0665503,3.549931,1.2363522,0
0.5200000000000002,20.999999091658374,-4.1405977637165545,5.047706283625249,2.5201247706870746,17.47503,-4.9578233,6.1159844,1.8357866,13.828194,-10.0426855,1.1170069,-0.727998,0.044430856,-0.23378932,-0.64295256,-8.397224,2.6121435,-0.89211464,-5.114458,3.8477058,1.3164645,0
0.5300000000000002,20.999999091658374,-4.1405977637165545,5.047706283625249,2.5201247706870746,17.47503,-4.9578233,6.1159844,1.8357866,13.744508,-10.0161705,1.1085253,-0.7175579,0.073842645,-0.23212844,-0.6525144,-8.3414,2.6923041,-0.80435497,-4.9629,4.0347834,1.3755285,0
0.5400000000000003,20.999999091658374,-4.1405977637165545,5.047706283625249,2.5201247706870746,17.47503,-4.9578233,6.1159844,1.8357866,13.661332,-9.988809,1.1009146,-0.7060131,0.10316932,-0.23131259,-0.66135985,-8.295348,2.7815568,-0.71806693,-4.834957,4.1926856,1.4316941,0
0.5500000000000003,20.999999091658374,-4.1405977637165545,5.047706283625249,2.5201247706870746,17.47503,-4.9578233,6.1159844,1.8357866,13.5785675,-9.960508,1.0941559,-0.6934203,0.13238613,-0.23117821,-0.6694771,-8.259098,2.879692,-0.6341196,-4.726947,4.325962,1.4851038,0
0.5600000000000003,20.999998439213524,-2.4517368962377684,3.1202568935690467,2.0074638367454645,16.833248,-3.1407523,5.675798,1.4876422,13.496116,-9.931185,1.0882214,-0.67982686,0.16146508,-0.2315859,-0.6768554,-8.232697,2.9864218,-0.553341,-4.6357617,4.4384522,1.5358927,0
0.5700000000000003,20.999998439213524,-2.4517368962377684,3.1202568935690467,2.0074638367454645,16.833248,-3.1407523,5.675798,1.4876422,13.413879,-9.900753,1.0830756,-0.6656254,0.18941405,-0.23235069,-0.68343186,-8.216128,3.1013236,-0.4764852,-4.295023,4.2331557,1.5590329,0
0.5800000000000003,20.999998439213524,-2.4517368962377684,3.1202568935690467,2.0074638367454645,16.833248,-3.1407523,5.675798,1.4876422,13.33176,-9.869134,1.0786767,-0.65121436,0.21546426,-0.23335268,-0.6892332,-8.209003,3.2235978,-0.40403828,-4.0074463,4.059834,1.5810375,0
0.5900000000000003,20.999998439213524,-2.4517368962377684,3.1202568935690467,2.0074638367454645,16.833248,-3.1407523,5.675798,1.4876422,13.249667,-9.836259,1.0749786,-0.63662755,0.2398895,-0.2345648,-0.69436204,-8.210842,3.3524113,-0.33632845,-3.7647371,3.9135056,1.6019623,0
0.6000000000000003,20.881431965486616,-0.7194586809629305,0.34066192681162033,1.6137446680868461,16.209711,-1.287513,4.6300497,1.3124568,13.167513,-9.802066,1.0719328,-0.6218836,0.26292014,-0.23595922,-0.6988977,-8.221226,3.4870305,-0.27361786,-3.559896,3.789966,1.6218604,0
0.6100000000000003,20.881431965486616,-0.7194586809629305,0.34066192681162033,1.6137446680868461,16.209711,-1.287513,4.6300497,1.3124568,13.085215,-9.766505,1.0694839,-0.6074885,0.28356,-0.23730087,-0.70302254,-8.239606,3.625946,-0.21692812,-3.1163635,3.252518,1.6214621,0
0.6200000000000003,20.881431965486616,-0.7194586809629305,0.34066192681162033,1.6137446680868461,16.209711,-1.287513,4.6300497,1.3124568,13.002695,-9.729533,1.0675775,-0.59390736,0.3010594,-0.23843594,-0.70695585,-8.265231,3.768924,-0.1650352,-2.7420876,2.7988112,1.6210835,0
0.6300000000000003,20.881431965486616,-0.7194586809629305,0.34066192681162033,1.6137446680868461,16.209711,-1.287513,4.6300497,1.3124568,12.919886,-9.691114,1.0661682,-0.5810733,0.31592506,-0.2394389,-0.710785,-8.297256,3.91505,-0.11746337,-2.426255,2.4157977,1.6207234,0
0.6400000000000003,20.881431965486616,-0.7194586809629305,0.34066192681162033,1.6137446680868461,17.49399,-0.23993614,2.8390625,1.4175882,12.836729,-9.651223,1.065215,-0.56891054,0.3285806,-0.24036278,-0.7145645,-8.334956,4.063606,-0.07375483,-2.1597393,2.0924628,1.6203808,0
0.6500000000000004,20.881431965486616,-0.7194586809629305,0.34066192681162033,1.6137446680868461,17.49399,-0.23993614,2.8390625,1.4175882,12.75317,-9.609837,1.0646812,-0.5573417,0.33937985,-0.24124464,-0.71832705,-8.377711,4.214026,-0.033484105,-1.9348397,1.819508,1.6200551,0
0.6600000000000004,20.881431965486616,-0.7194586809629305,0.34066192681162033,1.6137446680868461,17.49399,-0.23993614,2.8390625,1.4175882,12.669159,-9.566938,1.0645347,-0.54629195,0.34861845,-0.24211,-0.7220902,-8.4249935,4.365863,0.0037352014,-1.7450584,1.5890831,1.6197455,0
0.6700000000000004,20.881431965486616,-0.7194586809629305,0.34066192681162033,1.6137446680868461,17.49399,-0.23993614,2.8390625,1.4175882,12.584655,-9.522516,1.0647466,-0.5356915,0.3565433,-0.24297582,-0.7258619,-8.476355,4.5187597,0.03824843,-1.5849113,1.3945615,1.619451,0
0.6800000000000004,19.298489095276096,0.34830706652867577,-2.317422783634311,1.4250304600108783,17.487335,0.018253595,0.7427926,1.8257774,12.4996195,-9.476561,1.0652915,-0.5254767,0.36336103,-0.24385291,-0.7296438,-8.53141,4.6724334,0.070360765,-1.449771,1.2303488,1.6191711,0
0.6900000000000004,19.298489095276096,0.34830706652867577,-2.317422783634311,1.4250304600108783,17.487335,0.018253595,0.7427926,1.8257774,12.414038,-9.429125,1.0660981,-0.5160266,0.3682513,-0.24449828,-0.7337094,-8.585356,4.814924,0.09070382,-1.1687745,0.677379,1.6096447,0
0.7000000000000004,19.298489095276096,0.34830706652867577,-2.317422783634311,1.4250304600108783,17.487335,0.018253595,0.7427926,1.8257774,12.327904,-9.380262,1.0671015,-0.5076499,0.3705782,-0.2447337,-0.73828864,-8.641764,4.9574504,0.109851815,-0.9316959,0.21059498,1.6005857,0
0.7100000000000004,19.298489095276096,0.34830706652867577,-2.317422783634311,1.4250304600108783,17.487335,0.018253595,0.7427926,1.8257774,12.241196,-9.329976,1.0682936,-0.5001903,0.3707444,-0.24464542,-0.74330896,-8.700009,5.099603,0.1285545,-0.73167056,-0.18343554,1.5919712,0
0.7200000000000004,17.73638165710507,0.9392549304334393,-4.800560280456487,1.326768645588089,16.734962,-0.01287232,-1.0823429,1.7179133,12.153898,-9.278272,1.0696732,-0.4935071,0.3690844,-0.24429896,-0.74869674,-8.75955,5.2410617,0.14744808,-0.5629067,-0.51605195,1.5837793,0
0.7300000000000004,17.73638165710507,0.9392549304334393,-4.800560280456487,1.326768645588089,16.734962,-0.01287232,-1.0823429,1.7179133,12.066026,-9.225215,1.0711976,-0.4878135,0.36501664,-0.24342918,-0.75468165,-8.814988,5.3701587,0.15759954,-0.32796606,-1.1839736,1.5711678,0
0.7400000000000004,17.73638165710507,0.9392549304334393,-4.800560280456487,1.326768645588089,16.734962,-0.01287232,-1.0823429,1.7179133,11.977598,-9.170873,1.0728307,-0.48325932,0.35808155,-0.2418282,-0.7614187,-8.870508,5.4979115,0.1692913,-0.12978026,-1.747775,1.5591751,0
0.7500000000000004,17.73638165710507,0.9392549304334393,-4.800560280456487,1.326768645588089,16.734962,-0.01287232,-1.0823429,1.7179133,11.888617,-9.115262,1.0745915,-0.47963643,0.34869626,-0.23961289,-0.76873064,-8.925461,5.62388,0.1833038,0.03740195,-2.223686,1.5477709,0
0.7600000000000005,16.765757774477365,0.8292145507235532,-5.958878277855988,1.1616516176623406,16.37118,0.64755005,-1.9127415,0.016946226,11.799092,-9.058402,1.0765067,-0.47676098,0.33720902,-0.23687473,-0.776454,-8.979258,5.747676,0.20025614,0.17843172,-2.6254075,1.5369262,0
0.7700000000000005,16.765757774477365,0.8292145507235532,-5.958878277855988,1.1616516176623406,16.37118,0.64755005,-1.9127415,0.016946226,11.709051,-9.00035,1.0785761,-0.4745812,0.3235754,-0.23342353,-0.7845932,-9.028498,5.862291,0.21416594,0.28040364,-3.1451616,1.5185113,0
0.7800000000000005,16.765757774477365,0.8292145507235532,-5.958878277855988,1.1616516176623406,16.37118,0.64755005,-1.9127415,0.016946226,11.618528,-8.941166,1.0808029,-0.4730363,0.3077659,-0.22910461,-0.79311377,-9.075592,5.9740453,0.2318226,0.3663834,-3.5838783,1.501,0
0.7900000000000005,16.765757774477365,0.8292145507235532,-5.958878277855988,1.1616516176623406,16.37118,0.64755005,-1.9127415,0.016946226,11.527548,-8.88088,1.0832268,-0.47196344,0.29007202,-0.22403102,-0.8018232,-9.120024,6.0824723,0.25361997,0.43888077,-3.9541922,1.484348,0
0.8000000000000005,15.786840500973844,0.440216953270974,-5.705165623691398,0.9590179439667011,16.627153,-0.048336413,-2.5582333,-0.4861129,11.436138,-8.81953,1.0858904,-0.47122177,0.27074322,-0.2182962,-0.81055325,-9.1613035,6.187133,0.27980784,0.5000113,-4.266768,1.4685133,0
0.8100000000000005,15.786840500973844,0.440216953270974,-5.705165623691398,0.9590179439667011,16.627153,-0.048336413,-2.5582333,-0.4861129,11.344344,-8.757182,1.088801,-0.47064856,0.25015646,-0.21189319,-0.81915486,-9.196787,6.2817454,0.30298448,0.49082783,-4.4911017,1.4435122,0
0.8200000000000005,15.786840500973844,0.440216953270974,-5.705165623691398,0.9590179439667011,16.627153,-0.048336413,-2.5582333,-0.4861129,11.252214,-8.693911,1.0919647,-0.47011897,0.22863011,-0.20482036,-0.82750636,-9.228565,6.3720512,0.33039626,0.48304045,-4.680449,1.4197379,0
0.8300000000000005,15.786840500973844,0.440216953270974,-5.705165623691398,0.9590179439667011,16.627153,-0.048336413,-2.5582333,-0.4861129,11.159786,-8.629757,1.0954233,-0.46957192,0.20628609,-0.19715834,-0.83551097,-9.256364,6.4577055,0.3619441,0.47643852,-4.840266,1.3971303,0
0.8400000000000005,15.786840500973844,0.440216953270974,-5.705165623691398,0.9590179439667011,17.105917,-0.9094876,-3.065135,-0.124919504,11.0671015,-8.564773,1.0992173,-0.46895537,0.18323228,-0.18897687,-0.8430873,-9.279923,6.5383883,0.39745936,0.4708429,-4.9751587,1.375632,0
0.8500000000000005,15.786840500973844,0.440216953270974,-5.705165623691398,0.9590179439667011,17.105917,-0.9094876,-3.065135,-0.124919504,10.974203,-8.499007,1.1033854,-0.468225,0.15956454,-0.1803367,-0.8501675,-9.299002,6.613805,0.4367125,0.4661009,-5.089013,1.3551887,0
0.8600000000000005,15.786840500973844,0.440216953270974,-5.705165623691398,0.9590179439667011,17.105917,-0.9094876,-3.065135,-0.124919504,10.881138,-8.432515,1.1079636,-0.46734342,0.13536862,-0.17129092,-0.8566951,-9.313377,6.6836863,0.4794214,0.4620834,-5.185111,1.3357486,0
0.8700000000000006,15.786840500973844,0.440216953270974,-5.705165623691398,0.9590179439667011,17.105917,-0.9094876,-3.065135,-0.124919504,10.787953,-8.365352,1.1129845,-0.46627906,0.11072139,-0.16188627,-0.8626234,-9.32285,6.7477913,0.52525836,0.45868036,-5.2662215,1.3172623,0
0.8800000000000006,14.825776466957318,-0.1515486486973732,-3.502606118877784,0.7372770159396819,16.849941,-1.3580902,-2.5155833,0.5043125,10.694699,-8.297578,1.1184782,-0.46500534,0.08569229,-0.15216415,-0.867914,-9.327243,6.805906,0.5738566,0.45579872,-5.334682,1.2996832,0
0.8900000000000006,14.825776466957318,-0.1515486486973732,-3.502606118877784,0.7372770159396819,16.849941,-1.3580902,-2.5155833,0.5043125,10.601427,-8.22927,1.1244245,-0.46338174,0.061226055,-0.1423643,-0.8725039,-9.326496,6.854717,0.61573005,0.3607504,-5.0490575,1.2720858,0
0.9000000000000006,14.825776466957318,-0.1515486486973732,-3.502606118877784,0.7372770159396819,16.849941,-1.3580902,-2.5155833,0.5043125,10.508185,-8.160502,1.1307987,-0.46134478,0.03808551,-0.13268645,-0.876417,-9.321057,6.897865,0.65935075,0.28057557,-4.80796,1.2458425,0
0.9100000000000006,14.825776466957318,-0.1515486486973732,-3.502606118877784,0.7372770159396819,16.849941,-1.3580902,-2.5155833,0.5043125,10.415021,-8.0913315,1.1376159,-0.45897233,0.016079996,-0.12311,-0.87973386,-9.3111725,6.9355235,0.7042915,0.21294586,-4.604449,1.2208871,0
0.9200000000000006,13.528122022054317,-0.6630306385081454,-0.7193284472315331,0.6068256061245032,15.800502,-1.7302637,-0.3868565,0.77074623,10.321976,-8.021811,1.1448877,-0.4563249,-0.004953703,-0.11361754,-0.8825168,-9.297058,6.967849,0.7501798,0.15589787,-4.432665,1.1971563,0
0.9300000000000006,13.528122022054317,-0.6630306385081454,-0.7193284472315331,0.6068256061245032,15.800502,-1.7302637,-0.3868565,0.77074623,10.229085,-7.9520054,1.1525584,-0.45335034,-0.024075942,-0.10452221,-0.8848564,-9.280538,6.9926567,0.78402716,0.027661888,-3.8536727,1.1681886,0
0.9400000000000006,13.528122022054317,-0.6630306385081454,-0.7193284472315331,0.6068256061245032,15.800502,-1.7302637,-0.3868565,0.77074623,10.136375,-7.8819733,1.1605693,-0.45005026,-0.040550217,-0.09607327,-0.8868947,-9.260848,7.0132084,0.8181733,-0.080483645,-3.3649542,1.1406424,0
0.9500000000000006,13.528122022054317,-0.6630306385081454,-0.7193284472315331,0.6068256061245032,15.800502,-1.7302637,-0.3868565,0.77074623,10.043877,-7.811755,1.1689223,-0.4465295,-0.05478149,-0.08817001,-0.88872844,-9.238489,7.029969,0.8524314,-0.17168857,-2.9524353,1.1144478,0
0.9600000000000006,12.559837917614255,-1.037529140796918,2.5066573115663,0.529444966595163,15.360715,-1.8388356,1.602378,1.138479,9.951613,-7.7413864,1.1776179,-0.44286504,-0.06711431,-0.08072627,-0.8904219,-9.2138815,7.0433354,0.88667816,-0.24860826,-2.6042354,1.0895386,0
0.9700000000000006,12.559837917614255,-1.037529140796918,2.5066573115663,0.529444966595163,15.360715,-1.8388356,1.602378,1.138479,9.859596,-7.670903,1.1866082,-0.4390354,-0.076624356,-0.07410613,-0.8921248,-9.189327,7.052957,0.911374,-0.37223846,-1.8072755,1.0620546,0
0.9800000000000006,12.559837917614255,-1.037529140796918,2.5066573115663,0.529444966595163,15.360715,-1.8388356,1.602378,1.138479,9.767831,-7.600335,1.1958451,-0.4350447,-0.08259572,-0.06859024,-0.8939861,-9.163673,7.0603995,0.93599784,-0.4764751,-1.134584,1.0359193,0
0.9900000000000007,12.559837917614255,-1.037529140796918,2.5066573115663,0.529444966595163,15.360715,-1.8388356,1.602378,1.138479,9.676326,-7.5297008,1.2053282,-0.43096536,-0.08557819,-0.06399828,-0.89601964,-9.137535,7.066274,0.96060514,-0.56436384,-0.56678444,1.0110664,0
1.0000000000000007,11.961006849799473,-1.1289414745321704,4.449061540110593,0.45365073635249875,14.910432,-1.6061614,3.1082191,0.9210261,9.58508,-7.459013,1.2150575,-0.42684293,-0.086034946,-0.060177743,-0.8982113,-9.111433,7.0710874,0.98526675,-0.6384709,-0.08752174,0.9874331,0
1.0100000000000007,11.961006849799473,-1.1289414745321704,4.449061540110593,0.45365073635249875,14.910432,-1.6061614,3.1082191,0.9210261,9.494088,-7.388282,1.2250047,-0.42267042,-0.08364104,-0.057298373,-0.90059566,-9.087062,7.0750895,1.004199,-0.71540433,0.6199186,0.96124023,0
1.0200000000000007,11.961006849799473,-1.1289414745321704,4.449061540110593,0.45365073635249875,14.910432,-1.6061614,3.1082191,0.9210261,9.403336,-7.317511,1.2351424,-0.41843566,-0.07815591,-0.055484273,-0.9031757,-9.0637245,7.079043,1.0233427,-0.78024966,1.2170434,0.93633264,0
1.0300000000000007,11.961006849799473,-1.1289414745321704,4.449061540110593,0.45365073635249875,14.910432,-1.6061614,3.1082191,0.9210261,9.312808,-7.246699,1.2454727,-0.41414988,-0.070052914,-0.054555904,-0.9058685,-9.0419445,7.083445,1.0427693,-0.8349091,1.7210543,0.9126473,0
1.0400000000000007,11.961006849799473,-1.1289414745321704,4.449061540110593,0.45365073635249875,13.346528,-1.5892249,5.202434,0.65557647,9.222489,-7.175839,1.2559988,-0.40981308,-0.05973175,-0.054362282,-0.90858775,-9.0221815,7.0887065,1.0625159,-0.8809849,2.146471,0.8901242,0
1.0500000000000007,11.961006849799473,-1.1289414745321704,4.449061540110593,0.45365073635249875,13.346528,-1.5892249,5.202434,0.65557647,9.132357,-7.1049204,1.2667241,-0.40541902,-0.047530852,-0.054776546,-0.9112505,-9.004832,7.09516,1.0825819,-0.9198269,2.5055492,0.86870635,0
1.0600000000000007,11.961006849799473,-1.1289414745321704,4.449061540110593,0.45365073635249875,13.346528,-1.5892249,5.202434,0.65557647,9.042384,-7.0339303,1.2776515,-0.40095842,-0.0337376,-0.0556921,-0.9137802,-8.990244,7.1030774,1.102931,-0.9525726,2.8086333,0.84833944,0
1.0700000000000007,11.961006849799473,-1.1289414745321704,4.449061540110593,0.45365073635249875,13.346528,-1.5892249,5.202434,0.65557647,8.952541,-6.9628534,1.2887834,-0.3964208,-0.018596731,-0.05701936,-0.91610867,-8.97872,7.1126757,1.1234928,-0.9801801,3.064454,0.8289719,0
1.0800000000000007,11.592840916803578,-1.0291048167139996,4.640329285307914,0.32682227634414757,12.412214,-1.3738768,5.5729313,0.4159321,8.862798,-6.891671,1.3001217,-0.39179578,-0.0023172223,-0.058683,-0.91817683,-8.970522,7.124126,1.1441659,-1.0034567,3.2803824,0.81055474,1
1.0900000000000007,11.592840916803578,-1.0291048167139996,4.640329285307914,0.32682227634414757,12.412214,-1.3738768,5.5729313,0.4159321,8.773119,-6.820362,1.3116891,-0.38704884,0.015373748,-0.060704548,-0.9199312,-8.965724,7.1380806,1.1693015,-1.0613666,3.6378872,0.7911905,1
1.1000000000000008,11.592840916803578,-1.0291048167139996,4.640329285307914,0.32682227634414757,12.412214,-1.3738768,5.5729313,0.4159321,8.683469,-6.748902,1.3235072,-0.38214022,0.034680225,-0.06309365,-0.9212963,-8.964977,7.1543007,1.1942496,-1.1102108,3.9396446,0.7727765,1
1.1100000000000008,11.592840916803578,-1.0291048167139996,4.640329285307914,0.32682227634414757,12.412214,-1.3738768,5.5729313,0.4159321,8.593804,-6.6772676,1.3355727,-0.37705362,0.055341657,-0.06577595,-0.92219466,-8.968615,7.172956,1.2187995,-1.1514097,4.1943474,0.7552661,1
1.1200000000000008,11.041037740761274,-0.785550901312396,3.0622400531614478,0.1818852134568646,10.988223,-1.2980932,4.468134,0.20532504,8.504081,-6.605434,1.3478808,-0.3717749,0.077133365,-0.0686887,-0.92256016,-8.976914,7.1941676,1.2427039,-1.1861614,4.4093328,0.7386148,0
1.1300000000000008,11.041037740761274,-0.785550901312396,3.0622400531614478,0.1818852134568646,10.988223,-1.2980932,4.468134,0.20532504,8.414256,-6.533388,1.3603567,-0.36641484,0.09885024,-0.07162345,-0.92241,-8.9886055,7.215355,1.2523209,-1.1235104,4.1993046,0.7112959,0
1.1400000000000008,11.041037740761274,-0.785550901312396,3.0622400531614478,0.1818852134568646,10.988223,-1.2980932,4.468134,0.20532504,8.324293,-6.461119,1.3729239,-0.361097,0.11953209,-0.07442191,-0.92183715,-9.004482,7.238739,1.260944,-1.0706553,4.0220222,0.6853176,0
1.1500000000000008,11.041037740761274,-0.785550901312396,3.0622400531614478,0.1818852134568646,10.988223,-1.2980932,4.468134,0.20532504,8.234152,-6.388606,1.3855717,-0.35582456,0.13933074,-0.0771016,-0.92088675,-9.024347,7.2641606,1.2684281,-1.0260642,3.872381,0.66061395,0
1.1600000000000008,10.580375317771082,-0.43573699379870484,0.2415226877498389,0.04067727297297439,9.904222,-1.4702893,1.8830823,0.17095844,8.143792,-6.315829,1.398288,-0.35059765,0.15837441,-0.07967655,-0.9195933,-9.048028,7.291477,1.274645,-0.9884447,3.746071,0.6371226,0
1.1700000000000008,10.580375317771082,-0.43573699379870484,0.2415226877498389,0.04067727297297439,9.904222,-1.4702893,1.8830823,0.17095844,8.053184,-6.242776,1.4110384,-0.34554914,0.17568852,-0.0818915,-0.9181636,-9.074188,7.319322,1.2752038,-0.9019619,3.1995919,0.60785484,0
1.1800000000000008,10.580375317771082,-0.43573699379870484,0.2415226877498389,0.04067727297297439,9.904222,-1.4702893,1.8830823,0.17095844,7.962298,-6.169438,1.4237877,-0.34080735,0.1905184,-0.08355401,-0.91682774,-9.103414,7.3485484,1.2744963,-0.8290218,2.7383268,0.5800232,0
1.1900000000000008,10.580375317771082,-0.43573699379870484,0.2415226877498389,0.04067727297297439,9.904222,-1.4702893,1.8830823,0.17095844,7.8711066,-6.095802,1.4365242,-0.33635756,0.20325914,-0.08475686,-0.9156237,-9.135282,7.378868,1.2726195,-0.76750106,2.348988,0.5535574,0
1.2000000000000008,10.387594963791027,-0.13710293322514067,-2.9355108063496242,-0.05937396219714021,9.816576,-1.030764,-1.4497149,0.34061003,7.779585,-6.021858,1.4492365,-0.33218062,0.21424302,-0.08557622,-0.9145676,-9.16944,7.4100466,1.2696776,-0.7156108,2.0203605,0.52839017,0
1.2100000000000009,10.387594963791027,-0.13710293322514067,-2.9355108063496242,-0.05937396219714021,9.816576,-1.030764,-1.4497149,0.34061003,7.6877112,-5.9475994,1.461914,-0.32838604,0.22260842,-0.08573491,-0.91392493,-9.205315,7.441654,1.2651955,-0.63762105,1.2600471,0.5006967,0
1.2200000000000009,10.387594963791027,-0.13710293322514067,-2.9355108063496242,-0.05937396219714021,9.816576,-1.030764,-1.4497149,0.34061003,7.595475,-5.8730254,1.474535,-0.32509327,0.2275997,-0.08506413,-0.9139354,-9.242168,7.4731665,1.2589592,-0.55934083,0.6057878,0.47321388,0
1.2300000000000009,10.387594963791027,-0.13710293322514067,-2.9355108063496242,-0.05937396219714021,9.816576,-1.030764,-1.4497149,0.34061003,7.502866,-5.798136,1.4870919,-0.32225272,0.22972916,-0.08371105,-0.9145334,-9.279887,7.5046206,1.2523907,-0.49332175,0.053553075,0.44707966,0
1.2400000000000009,10.387594963791027,-0.13710293322514067,-2.9355108063496242,-0.05937396219714021,10.511729,-0.73468846,-5.011475,0.4316748,7.409877,-5.7229342,1.4995826,-0.3198071,0.22944549,-0.08178645,-0.9156366,-9.318023,7.5357413,1.2457638,-0.43764034,-0.41256666,0.42222786,0
1.2500000000000009,10.387594963791027,-0.13710293322514067,-2.9355108063496242,-0.05937396219714021,10.511729,-0.73468846,-5.011475,0.4316748,7.3165064,-5.6474237,1.5120077,-0.31770203,0.22712338,-0.07938148,-0.9171588,-9.3561945,7.5663013,1.2393111,-0.3906755,-0.80599946,0.39859554,0
1.260000000000001,10.387594963791027,-0.13710293322514067,-2.9355108063496242,-0.05937396219714021,10.511729,-0.73468846,-5.011475,0.4316748,7.222755,-5.5716114,1.52437,-0.3158877,0.2230765,-0.07657138,-0.9190157,-9.394075,7.5961084,1.2332255,-0.35106117,-1.1380801,0.37612286,0
1.270000000000001,10.387594963791027,-0.13710293322514067,-2.9355108063496242,-0.05937396219714021,10.511729,-0.73468846,-5.011475,0.4316748,7.128627,-5.495505,1.5366739,-0.3143194,0.217568,-0.07341864,-0.92112887,-9.431388,7.6250024,1.2276618,-0.3176454,-1.418376,0.35475293,0
1.280000000000001,10.40212476939043,0.054115651876492456,-4.6675820691269125,-0.13818594993800093,10.407157,-0.18417281,-5.2530985,0.31817797,7.0341296,-5.419115,1.5489254,-0.31295767,0.21081911,-0.06997535,-0.92342705,-9.467891,7.6528463,1.2227409,-0.28945702,-1.6549621,0.3344316,1
1.290000000000001,10.40212476939043,0.054115651876492456,-4.6675820691269125,-0.13818594993800093,10.407157,-0.18417281,-5.2530985,0.31817797,6.939272,-5.342452,1.5611321,-0.31178296,0.20216045,-0.06598735,-0.9260505,-9.503409,7.679549,1.2187473,-0.27291694,-2.2160857,0.33363402,1
1.300000000000001,10.40212476939043,0.054115651876492456,-4.6675820691269125,-0.13818594993800093,10.407157,-0.18417281,-5.2530985,0.31817797,6.844066,-5.2655287,1.5733035,-0.3107579,0.19106257,-0.061255753,-0.92907137,-9.537488,7.704796,1.2156825,-0.2589757,-2.6897027,0.33287558,1
1.310000000000001,10.40212476939043,0.054115651876492456,-4.6675820691269125,-0.13818594993800093,10.407157,-0.18417281,-5.2530985,0.31817797,6.7485285,-5.1883616,1.5854495,-0.30982465,0.17788588,-0.05589463,-0.9323317,-9.569724,7.728311,1.2136974,-0.24722502,-3.0894604,0.33215436,1
1.320000000000001,10.412915910803632,0.1919114807475338,-4.827749681740126,-0.20754464488939856,11.199958,0.0013699792,-5.8173656,0.38003713,6.6526794,-5.1109695,1.5975815,-0.30893213,0.16293544,-0.049999975,-0.9356892,-9.599764,7.7498565,1.2128772,-0.23732066,-3.4268763,0.33146855,1
1.330000000000001,10.412915910803632,0.1919114807475338,-4.827749681740126,-0.20754464488939856,11.199958,0.0013699792,-5.8173656,0.38003713,6.5565314,-5.033365,1.6097486,-0.3080507,0.14623548,-0.043654054,-0.9390504,-9.62938,7.770698,1.2207541,-0.20001067,-3.799664,0.3338518,1
1.340000000000001,10.412915910803632,0.1919114807475338,-4.827749681740126,-0.20754464488939856,11.199958,0.0013699792,-5.8173656,0.38003713,6.460102,-4.955565,1.6220009,-0.30714637,0.12781908,-0.036926866,-0.94231695,-9.655915,7.788979,1.2299114,-0.16853112,-4.114317,0.3361181,1
1.350000000000001,10.412915910803632,0.1919114807475338,-4.827749681740126,-0.20754464488939856,11.199958,0.0013699792,-5.8173656,0.38003713,6.3634243,-4.877595,1.6343509,-0.30617303,0.107939854,-0.02987726,-0.9453654,-9.679017,7.8045077,1.2402887,-0.14197099,-4.379901,0.33827323,1
1.360000000000001,10.209611544320651,0.32789829554254274,-3.205508473469427,-0.2946743706083144,10.836502,0.3882814,-5.5616627,0.22606397,6.266534,-4.7994843,1.6468104,-0.305092,0.08681631,-0.02255586,-0.94808984,-9.6983795,7.8171206,1.2517697,-0.11956164,-4.6040683,0.34032258,0
1.370000000000001,10.209611544320651,0.32789829554254274,-3.205508473469427,-0.2946743706083144,10.836502,0.3882814,-5.5616627,0.22606397,6.1694765,-4.721267,1.6593407,-0.30394498,0.065592624,-0.015442194,-0.9503041,-9.712411,7.8258657,1.2544098,-0.049918212,-4.385947,0.3091631,0
1.380000000000001,10.209611544320651,0.32789829554254274,-3.205508473469427,-0.2946743706083144,10.836502,0.3882814,-5.5616627,0.22606397,6.072297,-4.6429753,1.6719007,-0.30280063,0.0451953,-0.008920391,-0.95194054,-9.722847,7.8319683,1.25768,0.008883837,-4.2018466,0.2795326,0
1.390000000000001,10.209611544320651,0.32789829554254274,-3.205508473469427,-0.2946743706083144,10.836502,0.3882814,-5.5616627,0.22606397,5.975032,-4.5646358,1.6844958,-0.30166402,0.02550319,-0.0029019448,-0.9530693,-9.72978,7.835589,1.2613692,0.05853125,-4.0464606,0.2513561,0
1.400000000000001,10.014185043189132,0.4392800256407824,0.19455711243057805,-0.3880995910371899,12.176806,-0.07524116,-5.0387034,0.7168065,5.8777137,-4.486272,1.697129,-0.30053794,0.006413126,0.0026879716,-0.9537451,-9.7332945,7.836866,1.2652904,0.10044901,-3.9153094,0.2245622,0
1.410000000000001,10.014185043189132,0.4392800256407824,0.19455711243057805,-0.3880995910371899,12.176806,-0.07524116,-5.0387034,0.7168065,5.7803774,-4.407906,1.709792,-0.29944563,-0.010877997,0.007461857,-0.9540228,-9.733512,7.835974,1.2673228,0.1531308,-3.2743733,0.19449872,0
1.420000000000001,10.014185043189132,0.4392800256407824,0.19455711243057805,-0.3880995910371899,12.176806,-0.07524116,-5.0387034,0.7168065,5.683053,-4.3295584,1.7224752,-0.29843047,-0.025427602,0.0111180665,-0.9540284,-9.730886,7.8332815,1.2692903,0.19763564,-2.7333934,0.16591045,0
1.430000000000001,10.014185043189132,0.4392800256407824,0.19455711243057805,-0.3880995910371899,12.176806,-0.07524116,-5.0387034,0.7168065,5.5857677,-4.251245,1.7351774,-0.29751357,-0.037661236,0.013830636,-0.9538748,-9.725849,7.8291483,1.2711173,0.23522979,-2.2767813,0.13872504,0
1.440000000000001,10.014185043189132,0.4392800256407824,0.19455711243057805,-0.3880995910371899,10.572168,0.3891419,-0.24354044,0.27701694,5.4885435,-4.1729794,1.747897,-0.29670596,-0.047939826,0.015746487,-0.95363545,-9.718761,7.8238792,1.2727672,0.2669843,-1.8913789,0.11287361,1
1.450000000000001,10.014185043189132,0.4392800256407824,0.19455711243057805,-0.3880995910371899,10.572168,0.3891419,-0.24354044,0.27701694,5.391401,-4.0947723,1.7606598,-0.2959313,-0.05672865,0.017064689,-0.9533711,-9.709434,7.8173804,1.2797744,0.28602448,-1.6343964,0.120928176,1
1.460000000000001,10.014185043189132,0.4392800256407824,0.19455711243057805,-0.3880995910371899,10.572168,0.3891419,-0.24354044,0.27701694,5.2943597,-4.016634,1.7734917,-0.29511374,-0.06441184,0.0179506,-0.9531201,-9.698492,7.8101363,1.2865775,0.3020956,-1.4174905,0.1285875,1
1.470000000000001,10.014185043189132,0.4392800256407824,0.19455711243057805,-0.3880995910371899,10.572168,0.3891419,-0.24354044,0.27701694,5.197436,-3.9385715,1.7863907,-0.29425794,-0.07116181,0.018473037,-0.9528947,-9.686122,7.8022976,1.293179,0.3156609,-1.2344111,0.13587096,1
1.480000000000001,9.927736366326194,0.49206924087073844,3.258724434232613,-0.45838773322058585,10.602914,0.53787947,1.105386,-0.4058543,5.1006417,-3.8605897,1.7993547,-0.29336727,-0.07712409,0.01868995,-0.95270115,-9.672479,7.79399,1.2995863,0.32711136,-1.0798829,0.14279702,0
1.490000000000001,9.927736366326194,0.49206924087073844,3.258724434232613,-0.45838773322058585,10.602914,0.53787947,1.105386,-0.4058543,5.0039854,-3.7826903,1.81235,-0.2925548,-0.08110032,0.018193178,-0.9526304,-9.658643,7.785885,1.2994598,0.352765,-0.40328377,0.11329671,0
1.500000000000001,9.927736366326194,0.49206924087073844,3.258724434232613,-0.45838773322058585,10.602914,0.53787947,1.105386,-0.4058543,4.9074707,-3.704872,1.8253436,-0.29192352,-0.08214812,0.016661512,-0.9527623,-9.644216,7.7777967,1.2992496,0.37444976,0.16779931,0.08524398,0
1.5100000000000011,9.927736366326194,0.49206924087073844,3.258724434232613,-0.45838773322058585,10.602914,0.53787947,1.105386,-0.4058543,4.811101,-3.627133,1.838335,-0.29145655,-0.08072408,0.014256534,-0.953066,-9.629657,7.770065,1.2990489,0.39277643,0.6498214,0.05856782,0
1.5200000000000011,9.846849948715446,0.5382535317708171,5.999965922552179,-0.502348086470751,11.528545,1.0928962,2.5834515,-0.4589097,4.714876,-3.5494683,1.8513249,-0.291134,-0.077212125,0.011114214,-0.9534973,-9.615359,7.7629776,1.298935,0.40826264,1.0566721,0.03320066,0
1.5300000000000011,9.846849948715446,0.5382535317708171,5.999965922552179,-0.502348086470751,11.528545,1.0928962,2.5834515,-0.4589097,4.618791,-3.4718702,1.8643112,-0.29094762,-0.07090053,0.007008506,-0.95408326,-9.601788,7.7568483,1.2982812,0.42962083,1.8264968,0.0070214616,0
1.5400000000000011,9.846849948715446,0.5382535317708171,5.999965922552179,-0.502348086470751,11.528545,1.0928962,2.5834515,-0.4589097,4.5228357,-3.3943272,1.8772911,-0.29087588,-0.061227508,0.0017724355,-0.9547987,-9.589393,7.7520175,1.2977451,0.4465989,2.47734,-0.01797345,0
1.5500000000000012,9.846849948715446,0.5382535317708171,5.999965922552179,-0.502348086470751,11.528545,1.0928962,2.5834515,-0.4589097,4.4269967,-3.3168242,1.890267,-0.29087508,-0.048709508,-0.004416711,-0.9555108,-9.578693,7.7488575,1.2974766,0.46094534,3.0266845,-0.041741848,0
1.5600000000000012,9.81420433210966,0.535731656477396,5.999994291042846,-0.5235163058120564,12.418034,0.9220864,5.5941467,-0.57455,4.331254,-3.239343,1.9032415,-0.29090276,-0.033784628,-0.011408448,-0.9560886,-9.570147,7.747692,1.2974625,0.47306523,3.4903588,-0.06434393,0
1.5700000000000012,9.81420433210966,0.535731656477396,5.999994291042846,-0.5235163058120564,12.418034,0.9220864,5.5941467,-0.57455,4.2355843,-3.1618624,1.9162152,-0.2909223,-0.016825072,-0.019073132,-0.9564093,-9.564158,7.74879,1.2973104,0.48291114,3.8817275,-0.08687564,0
1.5800000000000012,9.81420433210966,0.535731656477396,5.999994291042846,-0.5235163058120564,12.418034,0.9220864,5.5941467,-0.57455,4.1399603,-3.0843587,1.9291879,-0.29090098,0.0018512495,-0.027299307,-0.95636255,-9.5610285,7.7523746,1.2972307,0.49122587,4.212063,-0.108301744,0
1.5900000000000012,9.81420433210966,0.535731656477396,5.999994291042846,-0.5235163058120564,12.418034,0.9220864,5.5941467,-0.57455,4.0443525,-3.006806,1.9421595,-0.29080772,0.021971323,-0.03599151,-0.95585257,-9.561029,7.7586346,1.2970656,0.49824545,4.4908824,-0.12867643,0
1.6000000000000012,9.645700667659165,0.5371343881601944,5.999992839722638,-0.4645059475164172,12.050379,0.320658,5.376382,-0.56861025,3.9487278,-2.9291763,1.9551284,-0.29061592,0.04329998,-0.045066897,-0.95479727,-9.564386,7.767723,1.29662,0.5041706,4.7262206,-0.14805134,0
1.6100000000000012,9.645700667659165,0.5371343881601944,5.999992839722638,-0.4645059475164172,12.050379,0.320658,5.376382,-0.56861025,3.853053,-2.8514419,1.9680821,-0.29029587,0.06563334,-0.054454148,-0.95312995,-9.571163,7.779555,1.2939996,0.50938004,4.924859,-0.16357985,0
1.6200000000000012,9.645700667659165,0.5371343881601944,5.999992839722638,-0.4645059475164172,12.050379,0.320658,5.376382,-0.56861025,3.7572923,-2.7735748,1.9810059,-0.28982207,0.08879429,-0.06409106,-0.9507957,-9.581555,7.794376,1.2906331,0.51377505,5.09252,-0.17834638,0
1.6300000000000012,9.645700667659165,0.5371343881601944,5.999992839722638,-0.4645059475164172,12.050379,0.320658,5.376382,-0.56861025,3.661409,-2.695544,1.9938912,-0.2891794,0.11262891,-0.07392223,-0.9477484,-9.595666,7.8122478,1.2862535,0.5174822,5.234035,-0.1923883,0
1.6400000000000012,9.645700667659165,0.5371343881601944,5.999992839722638,-0.4645059475164172,11.596571,0.903412,5.3444786,-0.10815859,3.5653658,-2.6173193,2.0067265,-0.2883555,0.13700248,-0.08389889,-0.9439513,-9.613562,7.833208,1.2805781,0.5206084,5.353481,-0.2057412,0
1.6500000000000012,9.645700667659165,0.5371343881601944,5.999992839722638,-0.4645059475164172,11.596571,0.903412,5.3444786,-0.10815859,3.4691246,-2.5388696,2.0194972,-0.2873403,0.1617967,-0.09397785,-0.93937594,-9.63528,7.8572707,1.273314,0.5232442,5.4543,-0.21843886,0
1.6600000000000013,9.645700667659165,0.5371343881601944,5.999992839722638,-0.4645059475164172,11.596571,0.903412,5.3444786,-0.10815859,3.372647,-2.4601634,2.0321863,-0.28612593,0.18690723,-0.10412078,-0.93400115,-9.660825,7.8844266,1.2641618,0.5254661,5.539396,-0.23051345,0
1.6700000000000013,9.645700667659165,0.5371343881601944,5.999992839722638,-0.4645059475164172,11.596571,0.903412,5.3444786,-0.10815859,3.2758949,-2.3811703,2.044773,-0.284706,0.2122416,-0.11429353,-0.92781174,-9.690177,7.9146466,1.2528194,0.5273385,5.6112213,-0.24199553,0
1.6800000000000013,9.349354793431944,0.5237547594222518,5.999977176045518,-0.3509671710199623,11.175597,0.36363566,5.340067,-0.078857616,3.1788304,-2.30186,2.057234,-0.28307578,0.23771764,-0.12446553,-0.9207977,-9.723289,7.9478827,1.2389846,0.5289162,5.671846,-0.2529142,0
1.6900000000000013,9.349354793431944,0.5237547594222518,5.999977176045518,-0.3509671710199623,11.175597,0.36363566,5.340067,-0.078857616,3.0814219,-2.2222083,2.0695307,-0.28121746,0.26326153,-0.13460784,-0.9129581,-9.758957,7.9829564,1.2198554,0.5281376,5.7230163,-0.25772566,0
1.7000000000000013,9.349354793431944,0.5237547594222518,5.999977176045518,-0.3509671710199623,11.175597,0.36363566,5.340067,-0.078857616,2.983639,-2.1421916,2.0816214,-0.27911538,0.28880662,-0.14469552,-0.9042954,-9.798113,8.020806,1.1977365,0.5274785,5.766207,-0.26230103,0
1.7100000000000013,9.349354793431944,0.5237547594222518,5.999977176045518,-0.3509671710199623,11.175597,0.36363566,5.340067,-0.078857616,2.8854477,-2.0617828,2.0934746,-0.27676955,0.31429294,-0.15470795,-0.8948104,-9.840643,8.061334,1.1723514,0.52692044,5.802662,-0.26665187,0
1.7200000000000013,8.835802716627743,0.4031620574655276,3.5794776274724907,-0.2407247034367861,10.469286,0.4781255,4.8651524,-0.24814828,2.786815,-1.980956,2.1050563,-0.27418065,0.33966604,-0.16462629,-0.8845065,-9.886418,8.104428,1.143433,0.52644765,5.8334312,-0.27078924,0
1.7300000000000013,8.835802716627743,0.4031620574655276,3.5794776274724907,-0.2407247034367861,10.469286,0.4781255,4.8651524,-0.24814828,2.687722,-1.8996983,2.116312,-0.27148882,0.36404064,-0.1741337,-0.87375474,-9.932589,8.1474495,1.1071614,0.50715405,5.4819317,-0.26931396,0
1.7400000000000013,8.835802716627743,0.4031620574655276,3.5794776274724907,-0.2407247034367861,10.469286,0.4781255,4.8651524,-0.24814828,2.588154,-1.8179997,2.127187,-0.2688328,0.3867482,-0.18299472,-0.86294234,-9.981378,8.192542,1.0672995,0.4908797,5.1852484,-0.2679111,0
1.7500000000000013,8.835802716627743,0.4031620574655276,3.5794776274724907,-0.2407247034367861,10.469286,0.4781255,4.8651524,-0.24814828,2.4880865,-1.735841,2.1376457,-0.2662081,0.40803337,-0.19130225,-0.85208404,-10.032491,8.239482,1.0238779,0.47715235,4.9348316,-0.26657704,0
1.7600000000000013,8.261971652188002,0.2524806852271996,-2.0611461039243513,-0.15999783149091093,10.540533,0.8136737,-0.1390335,-0.12229724,2.3874972,-1.6532044,2.1476524,-0.26360786,0.42810065,-0.19913389,-0.8411826,-10.085669,8.2880745,0.9769299,0.4655729,4.723468,-0.26530844,0
1.7700000000000014,8.261971652188002,0.2524806852271996,-2.0611461039243513,-0.15999783149091093,10.540533,0.8136737,-0.1390335,-0.12229724,2.2863605,-1.5700686,2.157178,-0.26147336,0.44540015,-0.20607504,-0.83113486,-10.141242,8.338674,0.9271014,0.47984532,3.7343922,-0.264407,0
1.7800000000000014,8.261971652188002,0.2524806852271996,-2.0611461039243513,-0.15999783149091093,10.540533,0.8136737,-0.1390335,-0.12229724,2.1846774,-1.4864355,2.1661763,-0.26020578,0.45863655,-0.21172838,-0.8228719,-10.195219,8.387788,0.8719414,0.465193,2.851548,-0.26118746,0
1.7900000000000014,8.261971652188002,0.2524806852271996,-2.0611461039243513,-0.15999783149091093,10.540533,0.8136737,-0.1390335,-0.12229724,2.0824583,-1.4023142,2.1746054,-0.25967517,0.46840593,-0.21615924,-0.8163587,-10.248744,8.436592,0.8135758,0.43188348,2.085423,-0.25622204,0
1.8000000000000014,8.010901013193152,0.05507546836909155,-5.999997542305221,-0.07270577407013946,10.188469,1.1508578,-4.6427107,-0.52781194,1.9797006,-1.3177013,2.1824422,-0.25978348,0.4752767,-0.21953556,-0.8114372,-10.302819,8.486078,0.75359154,0.40379333,1.4387738,-0.25150028,0
1.8100000000000014,8.010901013193152,0.05507546836909155,-5.999997542305221,-0.07270577407013946,10.188469,1.1508578,-4.6427107,-0.52781194,1.8763633,-1.2325567,2.1896987,-0.26077804,0.47872812,-0.22181273,-0.8084645,-10.363852,8.542219,0.69704175,0.4266975,0.40938485,-0.24964982,0
1.8200000000000014,8.010901013193152,0.05507546836909155,-5.999997542305221,-0.07270577407013946,10.188469,1.1508578,-4.6427107,-0.52781194,1.7724383,-1.1468692,2.1963716,-0.26289293,0.47816962,-0.22288007,-0.8078163,-10.420723,8.594949,0.63722503,0.43354467,-0.5241951,-0.24680182,0
1.8300000000000014,8.010901013193152,0.05507546836909155,-5.999997542305221,-0.07270577407013946,10.188469,1.1508578,-4.6427107,-0.52781194,1.6679579,-1.0606643,2.202439,-0.26593566,0.47406745,-0.22275239,-0.80927205,-10.474935,8.64575,0.5761189,0.4040121,-1.3485202,-0.24093504,0
1.8400000000000014,8.010901013193152,0.05507546836909155,-5.999997542305221,-0.07270577407013946,10.010957,0.14417014,-5.8365536,0.16279326,1.5629481,-0.9739602,2.2078924,-0.26969525,0.46685585,-0.22142501,-0.8125778,-10.526789,8.694953,0.51467586,0.35169643,-2.0717018,-0.23288578,0
1.8500000000000014,8.010901013193152,0.05507546836909155,-5.999997542305221,-0.07270577407013946,10.010957,0.14417014,-5.8365536,0.16279326,1.4574251,-0.88676596,2.212737,-0.27401343,0.4569392,-0.21898802,-0.81741613,-10.577649,8.743869,0.4544921,0.30535913,-2.6843085,-0.2250257,0
1.8600000000000014,8.010901013193152,0.05507546836909155,-5.999997542305221,-0.07270577407013946,10.010957,0.14417014,-5.8365536,0.16279326,1.3513987,-0.79908395,2.2169886,-0.2787695,0.44468537,-0.21558227,-0.8234491,-10.627447,8.792459,0.39609253,0.26626724,-3.2013814,-0.2175513,0
1.8700000000000014,8.010901013193152,0.05507546836909155,-5.999997542305221,-0.07270577407013946,10.010957,0.14417014,-5.8365536,0.16279326,1.2448804,-0.7109185,2.2206662,-0.28385612,0.43040058,-0.21132615,-0.8303758,-10.675981,8.840546,0.33981368,0.23328689,-3.6378186,-0.2104437,0
1.8800000000000014,7.559736451278863,-0.1654417194422524,-5.999999349393746,0.021872911129532317,10.021021,-0.5087977,-6.000645,0.9890383,1.1378841,-0.6222754,2.2237926,-0.2891785,0.41434175,-0.20631917,-0.83793247,-10.723052,8.887951,0.28591454,0.20546202,-4.0061946,-0.20368487,0
1.8900000000000015,7.559736451278863,-0.1654417194422524,-5.999999349393746,0.021872911129532317,10.021021,-0.5087977,-6.000645,0.9890383,1.030438,-0.5331756,2.22638,-0.2946075,0.39675024,-0.2005765,-0.84591156,-10.765913,8.931872,0.23195127,0.14760959,-4.317118,-0.19261669,0
1.9000000000000015,7.559736451278863,-0.1654417194422524,-5.999999349393746,0.021872911129532317,10.021021,-0.5087977,-6.000645,0.9890383,0.9225718,-0.4436414,2.2284405,-0.30003458,0.37783176,-0.19411555,-0.854133,-10.807051,8.974793,0.18053657,0.098788016,-4.579556,-0.18209162,0
1.9100000000000015,7.559736451278863,-0.1654417194422524,-5.999999349393746,0.021872911129532317,10.021021,-0.5087977,-6.000645,0.9890383,0.81430346,-0.35368377,2.2299998,-0.30540988,0.35774177,-0.18701845,-0.8624218,-10.846309,9.016528,0.13174237,0.05758648,-4.801068,-0.17208304,0
1.9200000000000015,8.031209485253319,-0.3261997413073496,-5.9999995268239275,0.17065331576307383,10.266814,-0.758075,-5.8652573,0.7393893,0.7056526,-0.26331553,2.2310846,-0.3106898,0.33661598,-0.17935668,-0.87062865,-10.883534,9.0568905,0.08559427,0.022815205,-4.988036,-0.16256559,0
1.9300000000000015,8.031209485253319,-0.3261997413073496,-5.9999995268239275,0.17065331576307383,10.266814,-0.758075,-5.8652573,0.7393893,0.59662926,-0.1725391,2.2317379,-0.31579927,0.3145906,-0.1711427,-0.87864405,-10.920766,9.098124,0.04548081,-0.031575456,-5.145846,-0.14621446,0
1.9400000000000015,8.031209485253319,-0.3261997413073496,-5.9999995268239275,0.17065331576307383,10.266814,-0.758075,-5.8652573,0.7393893,0.48724577,-0.08135939,2.232004,-0.3206751,0.2917848,-0.1623917,-0.8863745,-10.955542,9.137514,0.008107759,-0.07748129,-5.279047,-0.13066567,0
1.9500000000000015,8.031209485253319,-0.3261997413073496,-5.9999995268239275,0.17065331576307383,10.266814,-0.758075,-5.8652573,0.7393893,0.3775274,0.010204215,2.2319093,-0.32529813,0.26828825,-0.15316626,-0.8937249,-10.987729,9.174874,-0.02661359,-0.116226465,-5.391477,-0.115879856,0
1.9600000000000015,9.465195276393365,-0.3696975270196476,-5.999999359884122,0.28458296481500345,10.427241,-1.0163697,-5.799604,0.8253941,0.26750058,0.1021305,2.2314804,-0.32965162,0.24418163,-0.14352149,-0.9006155,-11.017203,9.210026,-0.058802985,-0.1489286,-5.486375,-0.10181959,1
1.9700000000000015,9.465195276393365,-0.3696975270196476,-5.999999359884122,0.28458296481500345,10.427241,-1.0163697,-5.799604,0.8253941,0.15715262,0.19444598,2.2308428,-0.333572,0.21969065,-0.13330299,-0.9070268,-11.05181,9.252572,-0.068232976,-0.2840447,-5.535221,-0.056320943,1
1.9800000000000015,9.465195276393365,-0.3696975270196476,-5.999999359884122,0.28458296481500345,10.427241,-1.0163697,-5.799604,0.8253941,0.046477206,0.2871704,2.2301257,-0.33692807,0.19500491,-0.122392446,-0.9129481,-11.082688,9.291778,-0.074793,-0.39809462,-5.5764585,-0.013054948,1
1.9900000000000015,9.465195276393365,-0.3696975270196476,-5.999999359884122,0.28458296481500345,10.427241,-1.0163697,-5.799604,0.8253941,-0.06448817,0.3802692,2.2293558,-0.33974895,0.17014462,-0.11088479,-0.9183287,-11.109794,9.327405,-0.07873369,-0.4943642,-5.6112704,0.028087983,1
2.0000000000000013,,,,,11.876559,-1.3432524,-6.0045223,1.0237584,-0.17570555,0.47370553,2.2285588,-0.34205833,0.14513053,-0.09886245,-0.9231257,-11.133084,9.359245,-0.08032597,-0.5756263,-5.6406565,0.06721204,0
2.010000000000001,,,,,11.876559,-1.3432524,-6.0045223,1.0237584,-0.28713894,0.5674439,2.2277677,-0.3439704,0.11982096,-0.08661573,-0.9272683,-11.152967,9.38778,-0.07752866,-0.5373748,-5.6967,0.08297766,0
2.020000000000001,,,,,11.876559,-1.3432524,-6.0045223,1.0237584,-0.3987509,0.66144687,2.2270138,-0.34557328,0.09410723,-0.074381836,-0.9306942,-11.168778,9.412147,-0.07293427,-0.5050909,-5.744003,0.097969666,0
2.0300000000000007,,,,,11.876559,-1.3432524,-6.0045223,1.0237584,-0.51050013,0.7556723,2.2263138,-0.3468512,0.06805614,-0.06215604,-0.9333813,-11.180402,9.432261,-0.06687028,-0.47784394,-5.783928,0.11222601,0
2.0400000000000005,,,,,11.876559,-1.3432524,-6.0045223,1.0237584,-0.6223442,0.8500773,2.2256804,-0.34779224,0.0417286,-0.049935926,-0.9353112,-11.18774,9.448056,-0.059678063,-0.45484862,-5.817627,0.12578279,0
2.0500000000000003,,,,,12.635189,-0.5800151,-5.8586197,0.8370255,-0.73423994,0.9446184,2.225123,-0.34838757,0.015180536,-0.037721086,-0.93646896,-11.19072,9.459477,-0.05171012,-0.43544173,-5.84607,0.1386743,1
2.06,,,,,12.635189,-0.5800151,-5.8586197,0.8370255,-0.8461427,1.0392587,2.2247453,-0.34857687,-0.0114507135,-0.025439652,-0.9368656,-11.189031,9.467774,-0.023759328,-0.45785704,-5.848039,0.17294261,1
2.07,,,,,12.635189,-0.5800151,-5.8586197,0.8370255,-0.95800257,1.133956,2.224648,-0.34831086,-0.03804891,-0.01303469,-0.9365166,-11.182126,9.47081,0.0042502196,-0.47678298,-5.8497014,0.20552935,1
2.0799999999999996,,,,,12.635189,-0.5800151,-5.8586197,0.8370255,-1.0697674,1.228657,2.224829,-0.34759912,-0.064593226,-0.00052828854,-0.93541634,-11.170034,9.468564,0.031885024,-0.49276364,-5.8511043,0.23651706,1
2.0899999999999994,,,,,13.590885,-0.3877146,-6.063013,1.1914048,-1.1813854,1.3233092,2.2252827,-0.34645063,-0.09106235,0.0120593,-0.93356067,-11.152798,9.461037,0.058711946,-0.50625783,-5.8522882,0.26598418,1
2.099999999999999,,,,,13.590885,-0.3877146,-6.063013,1.1914048,-1.2927977,1.4178553,2.2260456,-0.3448243,-0.117513254,0.024661347,-0.93095654,-11.1287775,9.4472885,0.093654335,-0.4875931,-5.8753347,0.31139484,1
2.109999999999999,,,,,13.590885,-0.3877146,-6.063013,1.1914048,-1.4039423,1.5122359,2.2271495,-0.34267887,-0.14398459,0.037224516,-0.92760736,-11.099319,9.427948,0.12679577,-0.47184727,-5.8947864,0.35457718,1
2.1199999999999988,,,,,13.590885,-0.3877146,-6.063013,1.1914048,-1.5147655,1.6063955,2.2285738,-0.34002382,-0.17042957,0.049748782,-0.92350644,-11.064472,9.403101,0.15767017,-0.45856494,-5.9112034,0.39564058,1
2.1299999999999986,,,,,13.964468,0.19067831,-5.3646502,1.1573203,-1.6252135,1.7002795,2.2302935,-0.33686966,-0.19680469,0.062232476,-0.91864866,-11.024308,9.372855,0.18581654,-0.44736153,-5.9250593,0.434689,1
2.1399999999999983,,,,,13.964468,0.19067831,-5.3646502,1.1573203,-1.7352275,1.7938298,2.232296,-0.3332027,-0.22291517,0.074374504,-0.91310173,-10.977675,9.336385,0.21417098,-0.34774935,-5.8376446,0.4701487,1
2.149999999999998,,,,,13.964468,0.19067831,-5.3646502,1.1573203,-1.8447491,1.8869897,2.234564,-0.32901892,-0.24860652,0.08593866,-0.9069495,-10.925806,9.29481,0.23885816,-0.2636776,-5.763861,0.5038684,1
2.159999999999998,,,,,13.964468,0.19067831,-5.3646502,1.1573203,-1.9537262,1.9797095,2.2370594,-0.3243432,-0.2738947,0.097009175,-0.90020776,-10.868844,9.248452,0.25950953,-0.19272253,-5.701585,0.5359335,1
2.1699999999999977,,,,,14.62018,0.43932676,-2.1988516,1.0402836,-2.062109,2.0719433,2.2397394,-0.319199,-0.2987909,0.107656084,-0.89288735,-10.806942,9.197621,0.27577797,-0.13283724,-5.649022,0.5664251,1
2.1799999999999975,,,,,14.62018,0.43932676,-2.1988516,1.0402836,-2.1698332,2.163635,2.2425847,-0.31373903,-0.32221454,0.11744529,-0.8854117,-10.737179,9.140083,0.292537,-0.043729044,-5.1109376,0.5896774,1
2.1899999999999973,,,,,14.62018,0.43932676,-2.1988516,1.0402836,-2.2768369,2.2547321,2.2455733,-0.30812806,-0.34334794,0.12605326,-0.87822634,-10.662933,9.07882,0.3044613,0.031496592,-4.6567707,0.61178875,1
