time-since-start [s],throttle_mpc,roll_mpc,pitch_mpc,yaw_mpc,throttle_nw,roll_nw,pitch_nw,yaw_nw,position_x [m],position_y [m],position_z [m],rotation_w [quaternion],rotation_x [quaternion],rotation_y [quaternion],rotation_z [quaternion],velocity_x [m/s],velocity_y [m/s],velocity_z [m/s],omega_x [rad/s],omega_y [rad/s],omega_z [rad/s],network_used
0.0,9.445615318197603,5.999999757810358,-5.999999939020498,-4.635838740741202,4.681066,0.15875618,-4.3389773,-0.5585412,19.780336,-9.4559555,2.096834,0.08758204,0.48357797,-0.21206595,-0.8446951,-10.582685,-5.98996,-0.36935806,1.1471577,0.24454348,0.35477722,0
0.01,9.445615318197603,5.999999757810358,-5.999999939020498,-4.635838740741202,15.897135,-1.29273,-5.930907,-1.9304036,19.67375,-9.51561,2.093042,0.08628264,0.4845576,-0.21724541,-0.8429494,-10.734265,-5.9408097,-0.3894039,1.0422834,0.13228515,0.18716973,0
0.02,9.445615318197603,5.999999757810358,-5.999999939020498,-4.635838740741202,15.897135,-1.29273,-5.930907,-1.9304036,19.56566,-9.574769,2.0890388,0.08436981,0.4851836,-0.22170855,-0.84161985,-10.883784,-5.8907743,-0.411548,0.9763698,0.014930584,0.025526576,0
0.03,9.445615318197603,5.999999757810358,-5.999999939020498,-4.635838740741202,15.897135,-1.29273,-5.930907,-1.9304036,19.456083,-9.633424,2.0848045,0.08176964,0.485446,-0.22562999,-0.84068245,-11.0311775,-5.839925,-0.43553516,0.9454567,-0.10885441,-0.13039607,0
0.04,9.445615318197603,5.999999757810358,-5.999999939020498,-4.635838740741202,10.8184185,0.06770222,-6.7447343,-1.9980673,19.345045,-9.6915655,2.080322,0.07841789,0.48533013,-0.22916116,-0.84011334,-11.176275,-5.788306,-0.46118748,0.94478565,-0.23877728,-0.28094158,0
0.05,9.445615318197603,5.999999757810358,-5.999999939020498,-4.635838740741202,10.8184185,0.06770222,-6.7447343,-1.9980673,19.232569,-9.749187,2.0755756,0.07425946,0.48481807,-0.23243254,-0.8398881,-11.31891,-5.735913,-0.48834234,0.9702145,-0.3744641,-0.4264253,0
0.060000000000000005,9.445615318197603,5.999999757810358,-5.999999939020498,-4.635838740741202,10.8184185,0.06770222,-6.7447343,-1.9980673,19.118677,-9.80628,2.0705507,0.069247454,0.48388925,-0.23555619,-0.8399816,-11.458918,-5.682698,-0.5168505,1.0181344,-0.5154836,-0.56713706,0
0.07,9.445615318197603,5.999999757810358,-5.999999939020498,-4.635838740741202,10.8184185,0.06770222,-6.7447343,-1.9980673,19.0034,-9.862837,2.0652344,0.06334231,0.48252097,-0.23862773,-0.84036773,-11.596138,-5.628586,-0.5465741,1.0853978,-0.66136825,-0.70334315,0
0.08,12.055011278754856,5.999999907520798,-5.999999983198854,-4.714473150911791,11.60498,0.38054603,-7.5423975,-2.5954072,18.886766,-9.918848,2.0596156,0.056511045,0.48068854,-0.2417284,-0.84101856,-11.730411,-5.5734787,-0.5773853,1.1692563,-0.8116309,-0.83528876,0
0.09,12.055011278754856,5.999999907520798,-5.999999983198854,-4.714473150911791,11.60498,0.38054603,-7.5423975,-2.5954072,18.768719,-9.974266,2.053727,0.048598796,0.47825244,-0.24504957,-0.84194016,-11.878563,-5.509967,-0.60056686,1.326763,-1.0253197,-0.9723716,0
0.09999999999999999,12.055011278754856,5.999999907520798,-5.999999983198854,-4.714473150911791,11.60498,0.38054603,-7.5423975,-2.5954072,18.64921,-10.029042,2.0476007,0.039463896,0.47507662,-0.24875793,-0.84312755,-12.0227785,-5.4450436,-0.6247778,1.4928783,-1.2389216,-1.1056961,0
0.10999999999999999,12.055011278754856,5.999999907520798,-5.999999983198854,-4.714473150911791,11.60498,0.38054603,-7.5423975,-2.5954072,18.528278,-10.08316,2.041228,0.029100977,0.4711384,-0.25288045,-0.8445312,-12.162823,-5.3784633,-0.64985955,1.6660526,-1.4522407,-1.2354282,0
0.11999999999999998,12.055011278754856,5.999999907520798,-5.999999983198854,-4.714473150911791,11.60498,0.38054603,-7.5423975,-2.5954072,18.405968,-10.136605,2.0346007,0.017508663,0.466412,-0.25743547,-0.84609693,-12.298453,-5.310002,-0.67566556,1.844937,-1.6650718,-1.3617216,0
0.12999999999999998,16.13028571582307,5.999999978058315,-6.0,-4.337842146466782,13.837676,1.1436762,-7.869876,-2.3207898,18.282324,-10.189354,2.0277126,0.0046895286,0.460869,-0.2624333,-0.8477654,-12.429422,-5.239464,-0.7020606,2.028358,-1.8772054,-1.48472,0
0.13999999999999999,16.13028571582307,5.999999978058315,-6.0,-4.337842146466782,13.837676,1.1436762,-7.869876,-2.3207898,18.157295,-10.24133,2.0206137,-0.009638971,0.45412344,-0.26822937,-0.8495479,-12.575014,-5.1553497,-0.7178488,2.3777702,-2.251237,-1.6006031,0
0.15,16.13028571582307,5.999999978058315,-6.0,-4.337842146466782,13.837676,1.1436762,-7.869876,-2.3207898,18.030844,-10.292452,2.0133538,-0.0257249,0.4458072,-0.27511805,-0.8514129,-12.713888,-5.0685334,-0.7342537,2.7162473,-2.6105683,-1.7146974,0
0.16,20.146480559639212,5.9999999974110825,-6.0,-3.754182196265032,17.029007,1.6981348,-8.52462,-2.3461525,17.903042,-10.34269,2.0059276,-0.043508787,0.43591237,-0.2830094,-0.8532249,-12.845553,-4.9786525,-0.7510559,3.0442767,-2.9562683,-1.8269814,0
0.17,20.146480559639212,5.9999999974110825,-6.0,-3.754182196265032,17.029007,1.6981348,-8.52462,-2.3461525,17.773867,-10.391946,1.9983916,-0.063169286,0.42406464,-0.29213223,-0.85489017,-12.988203,-4.871331,-0.7558026,3.5044448,-3.4316986,-1.9215498,0
0.18000000000000002,20.146480559639212,5.9999999974110825,-6.0,-3.754182196265032,17.029007,1.6981348,-8.52462,-2.3461525,17.6433,-10.440094,1.9908187,-0.084716074,0.41005605,-0.30252904,-0.85624355,-13.124126,-4.7573285,-0.7584662,3.8929005,-3.8329368,-2.0114775,0
0.19000000000000003,20.146480559639212,5.9999999974110825,-6.0,-3.754182196265032,17.029007,1.6981348,-8.52462,-2.3461525,17.511412,-10.487067,1.9832301,-0.10785706,0.3941031,-0.31386417,-0.85705227,-13.252105,-4.6362834,-0.75885475,4.2208276,-4.1715527,-2.0969925,0
0.20000000000000004,20.999999857438965,5.999999980940693,-6.0,-3.29166176278958,16.407543,3.292644,-7.797709,-2.3200643,17.378286,-10.532796,1.9756497,-0.13233146,0.37639508,-0.32584983,-0.85710955,-13.370958,-4.5080976,-0.7568629,4.497663,-4.457314,-2.178311,0
0.21000000000000005,20.999999857438965,5.999999980940693,-6.0,-3.29166176278958,16.407543,3.292644,-7.797709,-2.3200643,17.244001,-10.577177,1.9681227,-0.15785569,0.35708252,-0.33826083,-0.8562436,-13.484156,-4.3671827,-0.74812293,4.731443,-4.698395,-2.2329435,0
0.22000000000000006,20.999999857438965,5.999999980940693,-6.0,-3.29166176278958,16.407543,3.292644,-7.797709,-2.3200643,17.108643,-10.620115,1.9606956,-0.18417168,0.33630115,-0.35090518,-0.8543113,-13.58555,-4.21934,-0.73692566,4.9288125,-4.901833,-2.2848952,0
0.23000000000000007,20.999999857438965,5.999999980940693,-6.0,-3.29166176278958,16.407543,3.292644,-7.797709,-2.3200643,16.972336,-10.661543,1.9533924,-0.21109107,0.31419343,-0.3635988,-0.85118675,-13.6741085,-4.065138,-0.723392,5.095445,-5.073504,-2.3342977,0
0.24000000000000007,20.999999857438965,5.999999980940693,-6.0,-3.29166176278958,17.278545,2.5258684,-6.4038687,-1.6215862,16.835209,-10.7014,1.9462352,-0.23844172,0.29089177,-0.37618375,-0.84676635,-13.748894,-3.9053204,-0.70770556,5.23613,-5.2183647,-2.3812757,0
0.25000000000000006,20.999999857438965,5.999999980940693,-6.0,-3.29166176278958,17.278545,2.5258684,-6.4038687,-1.6215862,16.697407,-10.739634,1.9392449,-0.26606563,0.26652032,-0.38852465,-0.8409664,-13.809081,-3.7407856,-0.690105,5.3549104,-5.3406005,-2.4259486,0
0.26000000000000006,20.999999857438965,5.999999980940693,-6.0,-3.29166176278958,17.278545,2.5258684,-6.4038687,-1.6215862,16.55908,-10.776204,1.9324387,-0.29381722,0.24119598,-0.40050542,-0.83372134,-13.853962,-3.5725605,-0.6708765,5.4551983,-5.4437428,-2.4684293,0
0.2700000000000001,20.999999857438965,5.999999980940693,-6.0,-3.29166176278958,17.278545,2.5258684,-6.4038687,-1.6215862,16.420383,-10.811078,1.9258317,-0.32156184,0.21502946,-0.41202644,-0.8249815,-13.882964,-3.401783,-0.650346,5.5398746,-5.530773,-2.5088258,0
0.2800000000000001,21.0,5.99999950974377,-5.99999985453162,-2.857558971838757,19.26163,0.45047945,-5.509186,-0.52344334,16.281479,-10.844236,1.919435,-0.3491745,0.18812609,-0.4230023,-0.81471145,-13.895649,-3.2296786,-0.6288724,5.6113706,-5.6042056,-2.5472398,0
0.2900000000000001,21.0,5.99999950974377,-5.99999985453162,-2.857558971838757,19.26163,0.45047945,-5.509186,-0.52344334,16.142529,-10.875671,1.9132563,-0.3764956,0.16056345,-0.4333698,-0.8029078,-13.891726,-3.0575418,-0.60684055,5.671818,-5.666086,-2.562467,0
0.3000000000000001,21.0,5.99999950974377,-5.99999985453162,-2.857558971838757,19.26163,0.45047945,-5.509186,-0.52344334,16.003702,-10.905392,1.9072989,-0.4033777,0.13241589,-0.44307452,-0.7895805,-13.871053,-2.886715,-0.58465606,5.7228565,-5.718299,-2.5769472,0
0.3100000000000001,21.0,5.99999950974377,-5.99999985453162,-2.857558971838757,19.26163,0.45047945,-5.509186,-0.52344334,15.865166,-10.933415,1.9015623,-0.42972627,0.10377703,-0.45206037,-0.7747303,-13.833634,-2.7185678,-0.5627403,5.765951,-5.7623544,-2.5907168,0
0.3200000000000001,21.0,3.373270810765154,-5.459561314163417,0.5352828419982509,19.96539,-0.94993097,-4.9995294,0.7845937,15.727087,-10.959777,1.8960418,-0.45545325,0.07473683,-0.4602794,-0.75836647,-13.77963,-2.554482,-0.5415247,5.8023386,-5.7995257,-2.6038108,0
0.3300000000000001,21.0,3.373270810765154,-5.459561314163417,0.5352828419982509,19.96539,-0.94993097,-4.9995294,0.7845937,15.58963,-10.984525,1.890728,-0.480004,0.045841087,-0.46704292,-0.7411921,-13.709427,-2.3958309,-0.52139246,5.4241953,-5.7453203,-2.4497745,0
0.34000000000000014,21.0,3.373270810765154,-5.459561314163417,0.5352828419982509,19.96539,-0.94993097,-4.9995294,0.7845937,15.452951,-11.007718,1.8856097,-0.50297904,0.017533625,-0.47187048,-0.7239081,-13.624025,-2.2439098,-0.50242114,5.1049714,-5.6997576,-2.3032968,0
0.35000000000000014,21.0,3.373270810765154,-5.459561314163417,0.5352828419982509,19.96539,-0.94993097,-4.9995294,0.7845937,15.317198,-11.02943,1.8806756,-0.52450794,-0.010250273,-0.47499827,-0.7065147,-13.524588,-2.0998442,-0.48460096,4.835485,-5.661454,-2.164007,0
0.36000000000000015,21.0,1.9590553960569697,-2.991402207369021,0.7393219438351563,18.479916,-1.422027,-4.4793973,0.9212464,15.182504,-11.049745,1.8759137,-0.5446965,-0.037568025,-0.47662055,-0.68900454,-13.412236,-1.9645995,-0.4679517,4.607985,-5.629249,-2.0315518,0
0.37000000000000016,21.0,1.9590553960569697,-2.991402207369021,0.7393219438351563,18.479916,-1.422027,-4.4793973,0.9212464,15.048993,-11.068755,1.8713124,-0.56318325,-0.063495964,-0.47706786,-0.6717136,-13.288132,-1.83893,-0.45252684,4.195895,-5.216959,-1.8955843,0
0.38000000000000017,21.0,1.9590553960569697,-2.991402207369021,0.7393219438351563,18.479916,-1.422027,-4.4793973,0.9212464,14.916776,-11.086557,1.8668587,-0.5797556,-0.08732292,-0.47668615,-0.6550026,-13.153764,-1.7230031,-0.43841374,3.8479028,-4.8691287,-1.7662888,0
0.3900000000000002,21.0,1.9590553960569697,-2.991402207369021,0.7393219438351563,18.479916,-1.422027,-4.4793973,0.9212464,14.785948,-11.10325,1.8625394,-0.59468627,-0.109384105,-0.47562897,-0.63887435,-13.010557,-1.6167297,-0.42567533,3.5540433,-4.575674,-1.6433378,0
0.4000000000000002,20.999999944628748,0.2888847508436608,-0.6213968408891037,1.4204701762319478,18.41694,-2.3506923,-2.775629,0.9737674,14.656591,-11.118925,1.8583404,-0.6081986,-0.12996536,-0.47401148,-0.623311,-12.859721,-1.5199683,-0.4143468,3.3059018,-4.3280888,-1.52642,0
0.4100000000000002,20.999999944628748,0.2888847508436608,-0.6213968408891037,1.4204701762319478,18.41694,-2.3506923,-2.775629,0.9737674,14.528776,-11.133681,1.8542477,-0.62007815,-0.1483562,-0.4720866,-0.608792,-12.702346,-1.4324613,-0.40443674,2.8363314,-3.7492952,-1.3818153,0
0.4200000000000002,20.999999944628748,0.2888847508436608,-0.6213968408891037,1.4204701762319478,18.41694,-2.3506923,-2.775629,0.9737674,14.402562,-11.147604,1.8502473,-0.6302158,-0.16403024,-0.47010487,-0.59575456,-12.539661,-1.3534087,-0.39587107,2.4397926,-3.2609239,-1.2443063,0
0.4300000000000002,20.999999944628748,0.2888847508436608,-0.6213968408891037,1.4204701762319478,18.41694,-2.3506923,-2.775629,0.9737674,14.277996,-11.160776,1.8463261,-0.63890845,-0.1774568,-0.46812555,-0.5840921,-12.372744,-1.2818834,-0.38853073,2.1049383,-2.8488386,-1.1135451,0
0.4400000000000002,20.999999944628748,0.2888847508436608,-0.6213968408891037,1.4204701762319478,18.20985,-3.1207175,-0.4504129,0.9715923,14.155118,-11.173265,1.8424727,-0.6463922,-0.18902893,-0.4661806,-0.5736906,-12.202435,-1.2170495,-0.38228795,1.8221822,-2.5011163,-0.9892003,0
0.45000000000000023,20.999999944628748,0.2888847508436608,-0.6213968408891037,1.4204701762319478,18.20985,-3.1207175,-0.4504129,0.9715923,14.033957,-11.185137,1.8386768,-0.65285605,-0.19907513,-0.46428385,-0.5644365,-12.029391,-1.1581651,-0.3770169,1.5834254,-2.2076976,-0.870957,0
0.46000000000000024,20.999999944628748,0.2888847508436608,-0.6213968408891037,1.4204701762319478,18.20985,-3.1207175,-0.4504129,0.9715923,13.914536,-11.196447,1.8349293,-0.6584524,-0.20786937,-0.4624377,-0.55622137,-11.85413,-1.1045799,-0.3725994,1.3818277,-1.9600983,-0.7585161,0
0.47000000000000025,20.999999944628748,0.2888847508436608,-0.6213968408891037,1.4204701762319478,18.20985,-3.1207175,-0.4504129,0.9715923,13.79688,-11.207245,1.8312223,-0.6633048,-0.21563992,-0.46063748,-0.5489439,-11.677059,-1.0557284,-0.36892787,1.21161,-1.7511593,-0.6515926,0
0.48000000000000026,20.999999649724728,-1.0911068697189474,1.4314017635192007,1.9531876511922943,16.571,-3.5980148,1.5329431,0.96784556,13.681001,-11.217576,1.8275486,-0.6675142,-0.22257674,-0.45887464,-0.5425114,-11.498501,-1.011122,-0.36590657,1.0678912,-1.5748413,-0.5499159,0
0.49000000000000027,20.999999649724728,-1.0911068697189474,1.4314017635192007,1.9531876511922943,16.571,-3.5980148,1.5329431,0.96784556,13.566915,-11.22748,1.8239022,-0.67087907,-0.2280559,-0.45737746,-0.53732467,-11.318738,-0.9702521,-0.36343867,0.7314553,-1.105839,-0.4270879,0
0.5000000000000002,20.999999649724728,-1.0911068697189474,1.4314017635192007,1.9531876511922943,16.571,-3.5980148,1.5329431,0.96784556,13.45463,-11.23699,1.8202784,-0.673254,-0.23159984,-0.4563356,-0.5337121,-11.138143,-0.93217564,-0.36136383,0.44739354,-0.71004343,-0.3102871,0
0.5100000000000002,20.999999649724728,-1.0911068697189474,1.4314017635192007,1.9531876511922943,16.571,-3.5980148,1.5329431,0.96784556,13.344153,-11.24613,1.8166742,-0.67478216,-0.23354723,-0.45567998,-0.53148913,-10.95705,-0.89591354,-0.3595135,0.2075614,-0.37602153,-0.19921774,0
0.5200000000000002,20.9999995845552,-3.1635015434181604,3.8303705047066208,2.2344391363845326,16.817318,-3.6976452,3.6493726,0.5261239,13.23549,-11.254913,1.8130879,-0.67557544,-0.23417877,-0.45534497,-0.5304897,-10.775721,-0.8606334,-0.35774076,0.0050790533,-0.09412745,-0.09359858,0
0.5300000000000002,20.9999995845552,-3.1635015434181604,3.8303705047066208,2.2344391363845326,16.817318,-3.6976452,3.6493726,0.5261239,13.128639,-11.263346,1.8095195,-0.6754601,-0.23267336,-0.4554707,-0.5311905,-10.594399,-0.8255209,-0.355891,-0.4890581,0.51789176,0.020638907,0
0.5400000000000003,20.9999995845552,-3.1635015434181604,3.8303705047066208,2.2344391363845326,16.817318,-3.6976452,3.6493726,0.5261239,13.0236,-11.2714205,1.8059714,-0.6742853,-0.22838743,-0.45615384,-0.53394973,-10.413513,-0.7892603,-0.3536683,-0.9062141,1.0344028,0.12927072,0
0.5500000000000003,20.9999995845552,-3.1635015434181604,3.8303705047066208,2.2344391363845326,16.817318,-3.6976452,3.6493726,0.5261239,12.920366,-11.279122,1.8024485,-0.6721493,-0.22176959,-0.45727095,-0.538458,-10.233513,-0.750531,-0.35077676,-1.2583709,1.4703196,0.23257193,0
0.5600000000000003,20.999999810650362,-4.466926906316002,5.277572761459136,2.115081327105712,17.418747,-3.648323,4.727761,0.6116463,12.818927,-11.286419,1.7989589,-0.66912043,-0.2131926,-0.4587082,-0.5444389,-10.054831,-0.70823,-0.34698614,-1.5556469,1.8382246,0.33080414,0
0.5700000000000003,20.999999810650362,-4.466926906316002,5.277572761459136,2.115081327105712,17.418747,-3.648323,4.727761,0.6116463,12.719264,-11.293271,1.7955124,-0.6650942,-0.2022944,-0.46046486,-0.5519954,-9.877916,-0.661379,-0.3421099,-2.0099084,2.374378,0.4183591,0
0.5800000000000003,20.999999810650362,-4.466926906316002,5.277572761459136,2.115081327105712,17.418747,-3.648323,4.727761,0.6116463,12.621359,-11.299626,1.7921212,-0.65995586,-0.18879227,-0.4625087,-0.5611608,-9.703397,-0.6088034,-0.33592674,-2.3933547,2.8268964,0.5016178,0
0.5900000000000003,20.999999810650362,-4.466926906316002,5.277572761459136,2.115081327105712,17.418747,-3.648323,4.727761,0.6116463,12.525186,-11.305424,1.788799,-0.65373033,-0.1730805,-0.4646988,-0.57160723,-9.531977,-0.5494286,-0.32827014,-2.7170162,3.208833,0.5807909,0
0.6000000000000003,20.999999856380473,-4.750017245745648,5.3816877669919645,1.7380072315985298,19.816036,-4.320783,5.3753505,0.86154497,12.430706,-11.31059,1.7855612,-0.64643204,-0.1554934,-0.466911,-0.58304507,-9.364387,-0.48240656,-0.31906244,-2.990208,3.5312026,0.65607893,0
0.6100000000000003,20.999999856380473,-4.750017245745648,5.3816877669919645,1.7380072315985298,19.816036,-4.320783,5.3753505,0.86154497,12.33788,-11.315044,1.7824231,-0.6380947,-0.1361972,-0.46900448,-0.59524804,-9.201389,-0.40708762,-0.30829948,-3.264904,3.819555,0.7091695,0
0.6200000000000003,20.999999856380473,-4.750017245745648,5.3816877669919645,1.7380072315985298,19.816036,-4.320783,5.3753505,0.86154497,12.246658,-11.318702,1.7794003,-0.6287439,-0.11533967,-0.47085598,-0.60800695,-9.04381,-0.32297355,-0.2960153,-3.4967525,4.0629473,0.75965494,0
0.6300000000000003,20.999999856380473,-4.750017245745648,5.3816877669919645,1.7380072315985298,19.816036,-4.320783,5.3753505,0.86154497,12.156982,-11.321473,1.7765077,-0.61837983,-0.09316295,-0.47239053,-0.6211072,-8.892501,-0.22973372,-0.28230536,-3.6924334,4.268392,0.80766296,0
0.6400000000000003,20.999999856380473,-4.750017245745648,5.3816877669919645,1.7380072315985298,19.585917,-4.6619487,5.1812763,1.2767512,12.068785,-11.323265,1.7737586,-0.6070066,-0.06987813,-0.47354564,-0.6343615,-8.748311,-0.12720458,-0.26733145,-3.857586,4.441808,0.85331523,0
0.6500000000000004,20.999999856380473,-4.750017245745648,5.3816877669919645,1.7380072315985298,19.585917,-4.6619487,5.1812763,1.2767512,11.981988,-11.323985,1.7711649,-0.5946324,-0.045670338,-0.47427002,-0.6476067,-8.612082,-0.015375329,-0.25131178,-3.9969711,4.5881915,0.8967273,0
0.6600000000000004,20.999999856380473,-4.750017245745648,5.3816877669919645,1.7380072315985298,19.585917,-4.6619487,5.1812763,1.2767512,11.896511,-11.323542,1.7687352,-0.5812697,-0.020702854,-0.4745221,-0.66070074,-8.484631,0.105625175,-0.23451181,-4.1146073,4.7117577,0.93800914,0
0.6700000000000004,20.999999856380473,-4.750017245745648,5.3816877669919645,1.7380072315985298,19.585917,-4.6619487,5.1812763,1.2767512,11.812263,-11.321843,1.7664763,-0.56693506,0.0048795515,-0.47426903,-0.67352027,-8.366747,0.23554063,-0.21723567,-4.2138863,4.816065,0.97726536,0
0.6800000000000004,20.999999797700465,-4.372224504338431,4.593627121348641,1.44428076772489,19.744194,-5.053444,5.8773527,1.7362901,11.729141,-11.318802,1.7643911,-0.5516487,0.030947853,-0.4734851,-0.68595755,-8.259179,0.37399882,-0.19981857,-4.2976713,4.9041157,1.0145952,0
0.6900000000000004,20.999999797700465,-4.372224504338431,4.593627121348641,1.44428076772489,19.744194,-5.053444,5.8773527,1.7362901,11.647041,-11.314336,1.7624793,-0.53561807,0.05710382,-0.4720854,-0.69784504,-8.162605,0.5205015,-0.1826109,-4.309333,4.855628,1.0356799,0
0.7000000000000004,20.999999797700465,-4.372224504338431,4.593627121348641,1.44428076772489,19.744194,-5.053444,5.8773527,1.7362901,11.56585,-11.308366,1.7607372,-0.51903915,0.083022796,-0.47002444,-0.7090715,-8.07751,0.67434794,-0.16592646,-4.3191757,4.8147063,1.05573,0
0.7100000000000004,20.999999797700465,-4.372224504338431,4.593627121348641,1.44428076772489,19.744194,-5.053444,5.8773527,1.7362901,11.485452,-11.300824,1.7591579,-0.5019183,0.10869684,-0.467337,-0.7196241,-8.004273,0.83476824,-0.15006422,-4.327484,4.7801695,1.0747962,0
0.7200000000000004,20.999999464680013,-3.4049191103507757,3.2572294609913444,1.0688178546512566,20.69577,-5.257088,5.0687447,1.4919864,11.405725,-11.29165,1.757732,-0.48426455,0.13411628,-0.46405312,-0.72948956,-7.943227,1.0009788,-0.13532332,-4.334497,4.7510223,1.0929269,0
0.7300000000000004,20.999999464680013,-3.4049191103507757,3.2572294609913444,1.0688178546512566,20.69577,-5.257088,5.0687447,1.4919864,11.326546,-11.280787,1.7564466,-0.46643224,0.15871662,-0.46022707,-0.7385395,-7.8945923,1.17216,-0.12198781,-4.1893606,4.5181727,1.091744,0
0.7400000000000004,20.999999464680013,-3.4049191103507757,3.2572294609913444,1.0688178546512566,20.69577,-5.257088,5.0687447,1.4919864,11.247791,-11.268192,1.7552867,-0.4487452,0.18206201,-0.45594156,-0.7467249,-7.858221,1.3473753,-0.11025138,-4.0668845,4.321619,1.090619,0
0.7500000000000004,20.999999464680013,-3.4049191103507757,3.2572294609913444,1.0688178546512566,20.69577,-5.257088,5.0687447,1.4919864,11.169341,-11.253828,1.7542356,-0.43116757,0.20431638,-0.45125383,-0.7541346,-7.8338437,1.5257283,-0.10025839,-3.9635308,4.1557045,1.0895493,0
0.7600000000000005,20.605727545729252,-2.1265321172807057,1.5785241014118723,0.6627182718607807,19.77842,-4.567805,3.8337297,0.29919544,11.091075,-11.237668,1.7532752,-0.41366637,0.22561806,-0.44620812,-0.76083815,-7.8212004,1.7064102,-0.09213633,-3.8763137,4.0156517,1.088532,0
0.7700000000000005,20.605727545729252,-2.1265321172807057,1.5785241014118723,0.6627182718607807,19.77842,-4.567805,3.8337297,0.29919544,11.012877,-11.21971,1.7523763,-0.3966738,0.24538834,-0.44095045,-0.7668095,-7.8199887,1.8852482,-0.087935805,-3.603117,3.635826,1.0676371,0
0.7800000000000005,20.605727545729252,-2.1265321172807057,1.5785241014118723,0.6627182718607807,19.77842,-4.567805,3.8337297,0.29919544,10.934639,-11.19996,1.7515099,-0.38056502,0.26319718,-0.4356345,-0.77208793,-7.8292456,2.064917,-0.085612535,-3.3725784,3.315195,1.0477676,0
0.7900000000000005,20.605727545729252,-2.1265321172807057,1.5785241014118723,0.6627182718607807,19.77842,-4.567805,3.8337297,0.29919544,10.856259,-11.178411,1.7506579,-0.365228,0.27935115,-0.43029308,-0.7768005,-7.848186,2.244811,-0.085061535,-3.178036,3.0445344,1.0288732,0
0.8000000000000005,18.683278061416928,-0.614282759203791,-0.1281612598769759,0.23890815484431563,18.236542,-3.7543147,2.1281915,-0.12298808,10.777643,-11.155064,1.749803,-0.35056072,0.29410776,-0.42494512,-0.78104365,-7.876124,2.4244413,-0.08617715,-3.0138683,2.8160563,1.010906,0
0.8100000000000005,18.683278061416928,-0.614282759203791,-0.1281612598769759,0.23890815484431563,18.236542,-3.7543147,2.1281915,-0.12298808,10.698723,-11.130007,1.7488844,-0.33698657,0.30696535,-0.41982713,-0.78482944,-7.9089994,2.5867157,-0.09774029,-2.6392937,2.3572192,0.97302383,0
0.8200000000000005,18.683278061416928,-0.614282759203791,-0.1281612598769759,0.23890815484431563,18.236542,-3.7543147,2.1281915,-0.12298808,10.61944,-11.103332,1.7478442,-0.3248572,0.3175589,-0.41514948,-0.78820986,-7.948471,2.7481422,-0.11047676,-2.3232021,1.9698808,0.9370006,0
0.8300000000000005,18.683278061416928,-0.614282759203791,-0.1281612598769759,0.23890815484431563,18.236542,-3.7543147,2.1281915,-0.12298808,10.539734,-11.0750475,1.7466718,-0.31398404,0.32626724,-0.41087598,-0.79129285,-7.9935904,2.908573,-0.12413523,-2.0564601,1.6429014,0.90274495,0
0.8400000000000005,18.683278061416928,-0.614282759203791,-0.1281612598769759,0.23890815484431563,16.456114,-3.4295206,0.7332137,-0.5361599,10.459551,-11.045164,1.7453592,-0.30419984,0.33340496,-0.40696567,-0.794155,-8.043561,3.0679283,-0.13848834,-1.8313617,1.3668766,0.8701703,0
0.8500000000000005,18.683278061416928,-0.614282759203791,-0.1281612598769759,0.23890815484431563,16.456114,-3.4295206,0.7332137,-0.5361599,10.378848,-11.013693,1.7439004,-0.29535767,0.33923367,-0.40337658,-0.7968509,-8.097712,3.2261736,-0.15333414,-1.6414036,1.1338673,0.8391941,0
0.8600000000000005,18.683278061416928,-0.614282759203791,-0.1281612598769759,0.23890815484431563,16.456114,-3.4295206,0.7332137,-0.5361599,10.2975855,-10.980644,1.7422915,-0.2873297,0.343971,-0.40006799,-0.7994191,-8.1554785,3.3833034,-0.16849554,-1.4810991,0.9371709,0.80973786,0
0.8700000000000006,18.683278061416928,-0.614282759203791,-0.1281612598769759,0.23890815484431563,16.456114,-3.4295206,0.7332137,-0.5361599,10.215729,-10.946031,1.7405299,-0.2800052,0.34779835,-0.3970016,-0.8018871,-8.216385,3.5393295,-0.18381889,-1.3458178,0.77112895,0.7817271,0
0.8800000000000006,17.417693112617325,0.5283257407274461,-1.4262936515175577,-0.05889237906491795,15.071558,-2.3878295,-0.23548427,-0.25830564,10.133249,-10.909862,1.7386149,-0.27328855,0.3508667,-0.39414245,-0.8042745,-8.280032,3.694274,-0.19917174,-1.2316531,0.6309647,0.75509083,0
0.8900000000000006,17.417693112617325,0.5283257407274461,-1.4262936515175577,-0.05889237906491795,15.071558,-2.3878295,-0.23548427,-0.25830564,10.050141,-10.8722,1.7365187,-0.26749313,0.35277554,-0.39167467,-0.80659014,-8.341558,3.837753,-0.22003575,-0.95701927,0.31029674,0.7151484,0
0.9000000000000006,17.417693112617325,0.5283257407274461,-1.4262936515175577,-0.05889237906491795,15.071558,-2.3878295,-0.23548427,-0.25830564,9.966411,-10.833109,1.7342153,-0.2628677,0.35321906,-0.3897467,-0.8088474,-8.404683,3.9803808,-0.24061128,-0.7252531,0.039602533,0.677166,0
0.9100000000000006,17.417693112617325,0.5283257407274461,-1.4262936515175577,-0.05889237906491795,15.071558,-2.3878295,-0.23548427,-0.25830564,9.882045,-10.792595,1.7317083,-0.2592473,0.35243833,-0.3882781,-0.8110598,-8.468811,4.1222963,-0.26070327,-0.5296616,-0.18890405,0.64104736,0
0.9200000000000006,16.870441734747068,1.472928094292982,-2.4948343014699543,-0.3607202876949041,13.202365,-1.5559486,-1.8142574,-0.84573615,9.797033,-10.750665,1.7290034,-0.25649017,0.35063362,-0.3871971,-0.8132325,-8.533438,4.2636266,-0.28014907,-0.36459678,-0.3817969,0.60670114,0
0.9300000000000006,16.870441734747068,1.472928094292982,-2.4948343014699543,-0.3607202876949041,13.202365,-1.5559486,-1.8142574,-0.84573615,9.711385,-10.707346,1.7260957,-0.2548028,0.34754124,-0.386626,-0.8153593,-8.596069,4.400071,-0.30129874,-0.077927075,-0.7112078,0.55922943,0
0.9400000000000006,16.870441734747068,1.472928094292982,-2.4948343014699543,-0.3607202876949041,13.202365,-1.5559486,-1.8142574,-0.84573615,9.625113,-10.662664,1.7229809,-0.2543429,0.34295952,-0.38665494,-0.8174265,-8.658126,4.536239,-0.32149914,0.16400036,-0.9892798,0.51408726,0
0.9500000000000006,16.870441734747068,1.472928094292982,-2.4948343014699543,-0.3607202876949041,13.202365,-1.5559486,-1.8142574,-0.84573615,9.538225,-10.616622,1.7196695,-0.25493115,0.33712327,-0.38718012,-0.81942004,-8.719009,4.6722927,-0.34058338,0.3681716,-1.224012,0.4711602,0
0.9600000000000006,16.659174844998187,1.9706958975216389,-3.1489490656797745,-0.5896179196373391,12.762523,-0.7614818,-1.4871951,-0.84658754,9.450738,-10.569219,1.7161734,-0.2564138,0.3302283,-0.38811088,-0.8213226,-8.778209,4.808361,-0.35842285,0.5404811,-1.4221573,0.4303396,0
0.9700000000000006,16.659174844998187,1.9706958975216389,-3.1489490656797745,-0.5896179196373391,12.762523,-0.7614818,-1.4871951,-0.84658754,9.362672,-10.520463,1.7125006,-0.25884926,0.32218224,-0.38945532,-0.823116,-8.834547,4.9428377,-0.3759369,0.763543,-1.6914115,0.38029,0
0.9800000000000006,16.659174844998187,1.9706958975216389,-3.1489490656797745,-0.5896179196373391,12.762523,-0.7614818,-1.4871951,-0.84658754,9.2740555,-10.470362,1.7086596,-0.26227543,0.3129174,-0.39121,-0.82477194,-8.888243,5.0775228,-0.39200836,0.9517949,-1.9186962,0.33269632,0
0.9900000000000007,16.659174844998187,1.9706958975216389,-3.1489490656797745,-0.5896179196373391,12.762523,-0.7614818,-1.4871951,-0.84658754,9.184917,-10.418912,1.7046657,-0.2665423,0.3026174,-0.39328608,-0.82625884,-8.938796,5.212481,-0.40654832,1.1106715,-2.1105514,0.2874381,0
1.0000000000000007,16.471156422854932,1.9756463193726026,-3.2780164451348304,-0.7124005370895508,13.607407,-0.8175822,-1.0148412,-1.0186163,9.095291,-10.366112,1.7005343,-0.2715214,0.29143673,-0.39560726,-0.8275477,-8.985776,5.3477387,-0.4195038,1.2447585,-2.2724986,0.24440068,0
1.0100000000000007,16.471156422854932,1.9756463193726026,-3.2780164451348304,-0.7124005370895508,13.607407,-0.8175822,-1.0148412,-1.0186163,9.005217,-10.311965,1.6962764,-0.2771363,0.27946863,-0.39809152,-0.8286226,-9.02832,5.481757,-0.431829,1.358691,-2.429332,0.19745018,0
1.0200000000000007,16.471156422854932,1.9756463193726026,-3.2780164451348304,-0.7124005370895508,13.607407,-0.8175822,-1.0148412,-1.0186163,8.914739,-10.256476,1.6919034,-0.28332075,0.26679447,-0.40066874,-0.82946616,-9.066622,5.616019,-0.44255036,1.4548476,-2.5617137,0.15280353,0
1.0300000000000007,16.471156422854932,1.9756463193726026,-3.2780164451348304,-0.7124005370895508,13.607407,-0.8175822,-1.0148412,-1.0186163,8.8239,-10.199645,1.6874311,-0.28998622,0.2535193,-0.4032952,-0.8300533,-9.10038,5.7504506,-0.45167592,1.5360032,-2.673455,0.11034772,0
1.0400000000000007,16.471156422854932,1.9756463193726026,-3.2780164451348304,-0.7124005370895508,12.594983,-0.8392835,-0.899208,-0.963853,8.732748,-10.141467,1.6828753,-0.29705662,0.23973258,-0.4059341,-0.8303631,-9.129338,5.8849564,-0.4592364,1.6044995,-2.7677734,0.069975235,0
1.0500000000000007,16.471156422854932,1.9756463193726026,-3.2780164451348304,-0.7124005370895508,12.594983,-0.8392835,-0.899208,-0.963853,8.641331,-10.081945,1.6782515,-0.3044662,0.2255107,-0.40855476,-0.8303783,-9.153277,6.01942,-0.46528155,1.6623122,-2.8473845,0.03158384,0
1.0600000000000007,16.471156422854932,1.9756463193726026,-3.2780164451348304,-0.7124005370895508,12.594983,-0.8392835,-0.899208,-0.963853,8.5497,-10.021078,1.6735747,-0.31215814,0.2109191,-0.41113162,-0.830085,-9.172008,6.15371,-0.4698771,1.7111088,-2.9145806,-0.004923689,0
1.0700000000000007,16.471156422854932,1.9756463193726026,-3.2780164451348304,-0.7124005370895508,12.594983,-0.8392835,-0.899208,-0.963853,8.457909,-9.958871,1.6688588,-0.32008323,0.19601396,-0.41364342,-0.82947224,-9.18537,6.2876787,-0.47310218,1.752296,-2.9712977,-0.03963978,0
1.0800000000000007,16.51377087339416,1.5530980325006594,-2.886739159950816,-0.7967230450399955,11.628737,-1.1798556,-0.69571227,-0.74287474,8.366012,-9.895326,1.664117,-0.32819864,0.18084355,-0.41607276,-0.82853156,-9.1932335,6.4211693,-0.47504702,1.7870611,-3.0191696,-0.07265235,0
1.0900000000000007,16.51377087339416,1.5530980325006594,-2.886739159950816,-0.7967230450399955,11.628737,-1.1798556,-0.69571227,-0.74287474,8.274064,-9.830448,1.659363,-0.3363815,0.16564004,-0.41831616,-0.82729816,-9.195514,6.554358,-0.47555855,1.7505062,-2.998556,-0.1081827,0
1.1000000000000008,16.51377087339416,1.5530980325006594,-2.886739159950816,-0.7967230450399955,11.628737,-1.1798556,-0.69571227,-0.74287474,8.18212,-9.764242,1.6546094,-0.34453857,0.15059397,-0.4202974,-0.8258114,-9.192217,6.6867237,-0.47498566,1.719656,-2.981154,-0.14196958,0
1.1100000000000008,16.51377087339416,1.5530980325006594,-2.886739159950816,-0.7967230450399955,11.628737,-1.1798556,-0.69571227,-0.74287474,8.090238,-9.696718,1.6498667,-0.35267442,0.13568743,-0.42203954,-0.82407033,-9.183406,6.818095,-0.47342685,1.6936204,-2.9664633,-0.17409852,0
1.1200000000000008,15.978004317276204,0.7721700058672275,-2.3095988495030797,-0.7734298113177507,11.57062,-1.6478282,-0.23381355,-0.6426631,7.998471,-9.627885,1.6451441,-0.36079141,0.12090517,-0.42356202,-0.8220744,-9.169141,6.9483056,-0.47097978,1.6716486,-2.954061,-0.20465088,0
1.1300000000000008,15.978004317276204,0.7721700058672275,-2.3095988495030797,-0.7734298113177507,11.57062,-1.6478282,-0.23381355,-0.6426631,7.9068704,-9.557776,1.6404335,-0.36875498,0.10653694,-0.4247108,-0.81993294,-9.150148,7.073012,-0.47102368,1.5313368,-2.8535666,-0.23256104,0
1.1400000000000008,15.978004317276204,0.7721700058672275,-2.3095988495030797,-0.7734298113177507,11.57062,-1.6478282,-0.23381355,-0.6426631,7.815485,-9.486429,1.6357262,-0.3764675,0.0928152,-0.42537415,-0.8177494,-9.126201,7.1962914,-0.4703496,1.41291,-2.7687416,-0.25910163,0
1.1500000000000008,15.978004317276204,0.7721700058672275,-2.3095988495030797,-0.7734298113177507,11.57062,-1.6478282,-0.23381355,-0.6426631,7.724363,-9.413856,1.6310289,-0.3839774,0.07964988,-0.42562312,-0.81551325,-9.097558,7.3180127,-0.46899524,1.3129547,-2.6971436,-0.28433985,0
1.1600000000000008,15.454054923550302,-0.217466220740049,-1.4787355448363073,-0.6535490972405618,12.813281,-2.260638,0.2429801,-0.44072077,7.633549,-9.340075,1.6263485,-0.39132348,0.06696384,-0.42551696,-0.8132138,-9.064446,7.4380617,-0.4669961,1.2285894,-2.63671,-0.30833963,0
1.1700000000000008,15.454054923550302,-0.217466220740049,-1.4787355448363073,-0.6535490972405618,12.813281,-2.260638,0.2429801,-0.44072077,7.543082,-9.265121,1.6216747,-0.39835984,0.05511112,-0.424917,-0.8109978,-9.028324,7.5524592,-0.4676813,1.0030868,-2.4560905,-0.32527915,0
1.1800000000000008,15.454054923550302,-0.217466220740049,-1.4787355448363073,-0.6535490972405618,12.813281,-2.260638,0.2429801,-0.44072077,7.4529953,-9.189033,1.616997,-0.40498117,0.04437036,-0.42372572,-0.8089979,-8.9885,7.6650863,-0.46774736,0.81275004,-2.3036408,-0.34138742,0
1.1900000000000008,15.454054923550302,-0.217466220740049,-1.4787355448363073,-0.6535490972405618,12.813281,-2.260638,0.2429801,-0.44072077,7.363323,-9.111826,1.6123221,-0.41126797,0.034577783,-0.42204177,-0.80718243,-8.945376,7.775912,-0.4671569,0.65209514,-2.174968,-0.35670528,0
1.2000000000000008,15.199250542483064,-1.1708753610395795,-0.6264251072186894,-0.44249604790352715,13.077585,-2.6495829,0.6460896,-0.34946474,7.2740974,-9.033521,1.6076564,-0.417285,0.025593663,-0.41994604,-0.8055205,-8.899295,7.884914,-0.4658745,0.51649314,-2.0663648,-0.37127146,0
1.2100000000000009,15.199250542483064,-1.1708753610395795,-0.6264251072186894,-0.44249604790352715,13.077585,-2.6495829,0.6460896,-0.34946474,7.1853423,-8.954143,1.6029989,-0.42291284,0.017722603,-0.4173429,-0.80414885,-8.851383,7.9903193,-0.46551076,0.25339904,-1.8417441,-0.37476647,0
1.2200000000000009,15.199250542483064,-1.1708753610395795,-0.6264251072186894,-0.44249604790352715,13.077585,-2.6495829,0.6460896,-0.34946474,7.0970774,-8.87372,1.598349,-0.42806298,0.011199498,-0.41416508,-0.8031835,-8.801339,8.093967,-0.4643446,0.03132696,-1.6521616,-0.37809,0
1.2300000000000009,15.199250542483064,-1.1708753610395795,-0.6264251072186894,-0.44249604790352715,13.077585,-2.6495829,0.6460896,-0.34946474,7.009321,-8.79227,1.5937151,-0.4328223,0.0058198036,-0.41050974,-0.80256623,-8.749614,8.195918,-0.4622856,-0.15611947,-1.4921519,-0.3812504,0
1.2400000000000009,15.199250542483064,-1.1708753610395795,-0.6264251072186894,-0.44249604790352715,13.581587,-3.0466142,0.8324154,-0.2007942,6.922089,-8.709808,1.5891067,-0.43726048,0.0014098444,-0.406456,-0.8022435,-8.696588,8.296228,-0.4592545,-0.31433916,-1.3571023,-0.38425574,0
1.2500000000000009,15.199250542483064,-1.1708753610395795,-0.6264251072186894,-0.44249604790352715,13.581587,-3.0466142,0.8324154,-0.2007942,6.8353925,-8.62635,1.5845336,-0.4414338,-0.00217775,-0.40206853,-0.8021672,-8.642583,8.39495,-0.45518315,-0.4478893,-1.2431194,-0.3871136,0
1.260000000000001,15.199250542483064,-1.1708753610395795,-0.6264251072186894,-0.44249604790352715,13.581587,-3.0466142,0.8324154,-0.2007942,6.74924,-8.541913,1.5800067,-0.44538766,-0.0050679697,-0.39740053,-0.8022947,-8.587872,8.492129,-0.4500146,-0.56061655,-1.1469167,-0.38983124,0
1.270000000000001,15.199250542483064,-1.1708753610395795,-0.6264251072186894,-0.44249604790352715,13.581587,-3.0466142,0.8324154,-0.2007942,6.6636367,-8.456512,1.5755372,-0.449159,-0.0073667956,-0.3924959,-0.80258876,-8.532686,8.587805,-0.44370186,-0.65576726,-1.065721,-0.3924155,0
1.280000000000001,14.866923178419187,-1.894139069775335,0.06480318838361317,-0.15990606656081457,14.228389,-3.0110703,0.76903754,0.11050799,6.578587,-8.370163,1.5711366,-0.45277762,-0.009164074,-0.38739085,-0.8030172,-8.4772215,8.682012,-0.43620744,-0.73608214,-0.99719113,-0.39487293,0
1.290000000000001,14.866923178419187,-1.894139069775335,0.06480318838361317,-0.15990606656081457,14.228389,-3.0110703,0.76903754,0.11050799,6.4940867,-8.282888,1.5668055,-0.45613593,-0.0101958765,-0.38200843,-0.8036824,-8.422888,8.7727585,-0.42983136,-0.9166315,-0.8315342,-0.38334307,0
1.300000000000001,14.866923178419187,-1.894139069775335,0.06480318838361317,-0.15990606656081457,14.228389,-3.0110703,0.76903754,0.11050799,6.410128,-8.194712,1.5625443,-0.45914707,-0.01025762,-0.37628934,-0.80466443,-8.368775,8.862178,-0.42220473,-1.0690334,-0.6917205,-0.37237895,0
1.310000000000001,14.866923178419187,-1.894139069775335,0.06480318838361317,-0.15990606656081457,14.228389,-3.0110703,0.76903754,0.11050799,6.326709,-8.105648,1.558366,-0.46185997,-0.009499758,-0.37028423,-0.805906,-8.315191,8.950351,-0.4132697,-1.1976756,-0.5737179,-0.3619528,0
1.320000000000001,14.370922843163244,-2.4417026308695453,0.4186039977505662,0.1684660099583266,14.47156,-3.527036,0.9871519,0.3661615,6.2438216,-8.015709,1.5542837,-0.46431455,-0.008049615,-0.36403486,-0.80735713,-8.262399,9.037342,-0.4029832,-1.3062621,-0.4741237,-0.35203832,0
1.330000000000001,14.370922843163244,-2.4417026308695453,0.4186039977505662,0.1684660099583266,14.47156,-3.527036,0.9871519,0.3661615,6.1614485,-7.92492,1.5502928,-0.46646065,-0.00581335,-0.35746405,-0.8090735,-8.212364,9.120342,-0.39497218,-1.4832959,-0.33488733,-0.32649705,0
1.340000000000001,14.370922843163244,-2.4417026308695453,0.4186039977505662,0.1684660099583266,14.47156,-3.527036,0.9871519,0.3661615,6.07957,-7.833306,1.5463891,-0.46825343,-0.0027233353,-0.35051072,-0.81109387,-8.163616,9.202311,-0.38556892,-1.6327302,-0.21737462,-0.30220908,0
1.350000000000001,14.370922843163244,-2.4417026308695453,0.4186039977505662,0.1684660099583266,14.47156,-3.527036,0.9871519,0.3661615,5.998171,-7.740877,1.5425866,-0.4697297,0.0010855522,-0.3432281,-0.8133554,-8.116434,9.283292,-0.37473,-1.7588676,-0.11819569,-0.2791129,0
1.360000000000001,13.952829151469329,-2.774771264447423,0.6162978282932081,0.508544579968186,13.038931,-3.0484605,0.82343894,0.5246557,5.917235,-7.647643,1.5388997,-0.4709197,0.0054992144,-0.33566067,-0.8158039,-8.071061,9.363323,-0.36243054,-1.8653395,-0.034489263,-0.25715008,1
1.370000000000001,13.952829151469329,-2.774771264447423,0.6162978282932081,0.508544579968186,13.038931,-3.0484605,0.82343894,0.5246557,5.8367224,-7.553651,1.5352913,-0.47175625,0.010653145,-0.3277237,-0.8184921,-8.031739,9.435098,-0.3590262,-2.0498266,0.099283874,-0.21878666,1
1.380000000000001,13.952829151469329,-2.774771264447423,0.6162978282932081,0.508544579968186,13.038931,-3.0484605,0.82343894,0.5246557,5.7565928,-7.4589443,1.5317239,-0.47217876,0.01664849,-0.31934962,-0.82145333,-7.994532,9.506058,-0.35426158,-2.205552,0.21218532,-0.18230571,1
1.390000000000001,13.952829151469329,-2.774771264447423,0.6162978282932081,0.508544579968186,13.038931,-3.0484605,0.82343894,0.5246557,5.6768236,-7.3635325,1.5282109,-0.47221905,0.023349695,-0.31059587,-0.8246174,-7.959707,9.576221,-0.34812587,-2.3369987,0.30747277,-0.14761491,1
1.400000000000001,13.64846674766721,-2.803945944341189,0.49596426221489764,0.7948880478218103,13.441754,-3.7195287,0.58689123,1.0048141,5.5973897,-7.2674227,1.5247661,-0.47190383,0.030641967,-0.30151126,-0.8279242,-7.9274917,9.64559,-0.34062845,-2.4479513,0.38789558,-0.11462641,1
1.410000000000001,13.64846674766721,-2.803945944341189,0.49596426221489764,0.7948880478218103,13.441754,-3.7195287,0.58689123,1.0048141,5.5182686,-7.170613,1.5214195,-0.4712248,0.03845843,-0.29187128,-0.8314318,-7.897185,9.716263,-0.3284833,-2.6462655,0.41884917,-0.059695147,1
1.420000000000001,13.64846674766721,-2.803945944341189,0.49596426221489764,0.7948880478218103,13.441754,-3.7195287,0.58689123,1.0048141,5.439435,-7.073101,1.5182014,-0.47016212,0.04673796,-0.28149801,-0.83517754,-7.8700233,9.786007,-0.3149367,-2.8136542,0.44496617,-0.007459376,1
1.430000000000001,13.64846674766721,-2.803945944341189,0.49596426221489764,0.7948880478218103,13.441754,-3.7195287,0.58689123,1.0048141,5.360856,-6.9748964,1.5151256,-0.46872178,0.05539859,-0.27049318,-0.83908516,-7.846234,9.85471,-0.2999838,-2.9549398,0.4670045,0.04221317,1
1.440000000000001,13.64846674766721,-2.803945944341189,0.49596426221489764,0.7948880478218103,13.67997,-3.84444,0.36331615,1.324843,5.282498,-6.8760104,1.5122063,-0.46691012,0.06437094,-0.25894356,-0.84308904,-7.826011,9.9222555,-0.28364885,-3.0741925,0.4856031,0.08944829,0
1.450000000000001,13.64846674766721,-2.803945944341189,0.49596426221489764,0.7948880478218103,13.67997,-3.84444,0.36331615,1.324843,5.2043242,-6.7764506,1.5094659,-0.4647915,0.07340164,-0.24721535,-0.8470332,-7.8092484,9.989559,-0.26420772,-3.032059,0.48715293,0.12406443,0
1.460000000000001,13.64846674766721,-2.803945944341189,0.49596426221489764,0.7948880478218103,13.67997,-3.84444,0.36331615,1.324843,5.1263,-6.6762238,1.5069262,-0.4624325,0.08228921,-0.23560853,-0.85080713,-7.7962685,10.055523,-0.24353461,-2.9964952,0.48846558,0.15698195,0
1.470000000000001,13.64846674766721,-2.803945944341189,0.49596426221489764,0.7948880478218103,13.67997,-3.84444,0.36331615,1.324843,5.0483856,-6.575344,1.504599,-0.45984206,0.09104944,-0.22410241,-0.8544196,-7.7870417,10.120104,-0.22175592,-2.9664774,0.48957732,0.18828417,0
1.480000000000001,13.31929837767733,-2.503234200775563,0.10563087037127981,1.0263457319275227,14.960181,-3.107758,-0.53798217,1.3354174,4.970546,-6.4738264,1.5024945,-0.45702824,0.09969566,-0.2126796,-0.8578769,-7.78154,10.183258,-0.19899231,-2.9411407,0.4905194,0.21805039,0
1.490000000000001,13.31929837767733,-2.503234200775563,0.10563087037127981,1.0263457319275227,14.960181,-3.107758,-0.53798217,1.3354174,4.8927417,-6.3716917,1.5006074,-0.4540195,0.10804424,-0.20136103,-0.86118865,-7.7797685,10.24345,-0.17829415,-2.8728518,0.43043154,0.25771368,0
1.500000000000001,13.31929837767733,-2.503234200775563,0.10563087037127981,1.0263457319275227,14.960181,-3.107758,-0.53798217,1.3354174,4.814938,-6.268963,1.498931,-0.45083717,0.11595025,-0.19016543,-0.8643714,-7.7814946,10.302135,-0.156844,-2.815211,0.37971947,0.29543066,0
1.5100000000000011,13.31929837767733,-2.503234200775563,0.10563087037127981,1.0263457319275227,14.960181,-3.107758,-0.53798217,1.3354174,4.7371,-6.1656547,1.4974726,-0.44747895,0.123476475,-0.17907628,-0.8674371,-7.786609,10.359247,-0.13473025,-2.766558,0.33692005,0.3312969,0
1.5200000000000011,12.727427411556922,-2.0938338554237843,-0.5330535574025025,1.1294266415060408,15.024191,-2.8495603,-1.0784229,1.4338995,4.6591945,-6.061784,1.4962384,-0.44394374,0.13067614,-0.16807944,-0.8703944,-7.795015,10.414722,-0.1120365,-2.7254918,0.3007988,0.36540312,0
1.5300000000000011,12.727427411556922,-2.0938338554237843,-0.5330535574025025,1.1294266415060408,15.024191,-2.8495603,-1.0784229,1.4338995,4.5811915,-5.957379,1.4952067,-0.4402849,0.13729723,-0.15719438,-0.8732628,-7.8060937,10.466108,-0.09422869,-2.6269584,0.17071909,0.40289396,0
1.5400000000000011,12.727427411556922,-2.0938338554237843,-0.5330535574025025,1.1294266415060408,15.024191,-2.8495603,-1.0784229,1.4338995,4.5030627,-5.852468,1.4943552,-0.4365446,0.14314316,-0.1464387,-0.87606734,-7.8200397,10.515782,-0.07598477,-2.5437906,0.060928684,0.43854514,0
1.5500000000000012,12.727427411556922,-2.0938338554237843,-0.5330535574025025,1.1294266415060408,15.024191,-2.8495603,-1.0784229,1.4338995,4.424781,-5.7470694,1.4936882,-0.4327079,0.1483303,-0.13579804,-0.87881756,-7.8366666,10.563658,-0.057339802,-2.4735928,-0.031737123,0.4724469,0
1.5600000000000012,12.443900541880703,-1.715931406447353,-1.059537858994073,1.158541847855789,17.472889,-4.1053486,-2.894156,2.997121,4.34632,-5.641201,1.4932096,-0.4287631,0.15295714,-0.12525958,-0.881519,-7.855812,10.609659,-0.03832803,-2.414343,-0.10994975,0.50468504,0
1.5700000000000012,12.443900541880703,-1.715931406447353,-1.059537858994073,1.158541847855789,17.472889,-4.1053486,-2.894156,2.997121,4.2676587,-5.534888,1.4929098,-0.42474744,0.15685616,-0.11485611,-0.8841907,-7.8768406,10.652739,-0.021596262,-2.3053725,-0.2580502,0.53677,0
1.5800000000000012,12.443900541880703,-1.715931406447353,-1.059537858994073,1.158541847855789,17.472889,-4.1053486,-2.894156,2.997121,4.188776,-5.4281535,1.4927788,-0.42069012,0.15989971,-0.104614556,-0.8868523,-7.8999686,10.69384,-0.0045437953,-2.2133985,-0.38305378,0.5672805,0
1.5900000000000012,12.443900541880703,-1.715931406447353,-1.059537858994073,1.158541847855789,17.472889,-4.1053486,-2.894156,2.997121,4.109652,-5.321018,1.49282,-0.4165722,0.16221829,-0.09451592,-0.88950485,-7.924987,10.732893,0.01282661,-2.1357706,-0.48856294,0.5962938,0
1.6000000000000012,12.475063717761264,-1.4388484226707516,-1.4782616972526932,1.1538946011445192,14.393705,-2.9211874,-3.1798306,1.6273817,4.03027,-5.213503,1.4930364,-0.4123786,0.16392212,-0.08454338,-0.89214635,-7.9517145,10.769834,0.030508734,-2.070252,-0.577618,0.6238835,0
1.6100000000000012,12.475063717761264,-1.4388484226707516,-1.4782616972526932,1.1538946011445192,14.393705,-2.9211874,-3.1798306,1.6273817,3.9506123,-5.105629,1.4934326,-0.40812996,0.16490918,-0.074712306,-0.8947917,-7.9800534,10.804693,0.048786707,-1.9717158,-0.7180665,0.64989126,0
1.6200000000000012,12.475063717761264,-1.4388484226707516,-1.4782616972526932,1.1538946011445192,14.393705,-2.9211874,-3.1798306,1.6273817,3.8706644,-4.997417,1.4940133,-0.40384167,0.16510381,-0.06503488,-0.89745325,-8.00973,10.837317,0.0673793,-1.888552,-0.83661366,0.67462283,0
1.6300000000000012,12.475063717761264,-1.4388484226707516,-1.4782616972526932,1.1538946011445192,14.393705,-2.9211874,-3.1798306,1.6273817,3.7904139,-4.8888907,1.4947814,-0.3994962,0.16462718,-0.055492666,-0.9001224,-8.040544,10.867646,0.086295605,-1.8183627,-0.9366754,0.6981408,0
1.6400000000000012,12.475063717761264,-1.4388484226707516,-1.4782616972526932,1.1538946011445192,14.798796,-2.667655,-3.6039653,1.5486976,3.7098505,-4.780072,1.4957403,-0.39507964,0.16358168,-0.046069477,-0.90279007,-8.07232,10.895633,0.10553792,-1.7591245,-1.0211343,0.72050476,0
1.6500000000000012,12.475063717761264,-1.4388484226707516,-1.4782616972526932,1.1538946011445192,14.798796,-2.667655,-3.6039653,1.5486976,3.628965,-4.6709857,1.4968932,-0.3905812,0.16205373,-0.036751196,-0.9054466,-8.104907,10.921234,0.12510216,-1.7091291,-1.0924232,0.7417713,0
1.6600000000000013,12.475063717761264,-1.4388484226707516,-1.4782616972526932,1.1538946011445192,14.798796,-2.667655,-3.6039653,1.5486976,3.5477502,-4.561655,1.4982432,-0.3859927,0.16011633,-0.027525509,-0.9080826,-8.138168,10.944417,0.14497861,-1.6669348,-1.1525961,0.7619943,0
1.6700000000000013,12.475063717761264,-1.4388484226707516,-1.4782616972526932,1.1538946011445192,14.798796,-2.667655,-3.6039653,1.5486976,3.4661999,-4.4521055,1.4997935,-0.3813082,0.15783116,-0.018381733,-0.91068923,-8.171985,10.965151,0.16515246,-1.6313248,-1.2033863,0.7812249,0
1.6800000000000013,12.452348711287755,-1.2117391730165097,-1.6999100021223361,1.0708499009484653,15.552342,-2.784744,-3.3097494,1.5667611,3.3843088,-4.342361,1.5015472,-0.37652352,0.15525043,-0.0093106255,-0.91325796,-8.20625,10.983413,0.18560444,-1.6012717,-1.2462566,0.79951185,0
1.6900000000000013,12.452348711287755,-1.2117391730165097,-1.6999100021223361,1.0708499009484653,15.552342,-2.784744,-3.3097494,1.5667611,3.3020737,-4.2324457,1.5035055,-0.37166005,0.15230323,-0.0003525007,-0.91579026,-8.240799,10.999152,0.20609711,-1.5404761,-1.3169852,0.81282645,0
1.7000000000000013,12.452348711287755,-1.2117391730165097,-1.6999100021223361,1.0708499009484653,15.552342,-2.784744,-3.3097494,1.5667611,3.2194917,-4.1223855,1.5056698,-0.36673555,0.14893596,0.008460674,-0.9182869,-8.275561,11.012389,0.22683279,-1.4891669,-1.3766873,0.82548773,0
1.7100000000000013,12.452348711287755,-1.2117391730165097,-1.6999100021223361,1.0708499009484653,15.552342,-2.784744,-3.3097494,1.5667611,3.1365619,-4.0122066,1.5080428,-0.36174336,0.14521259,0.017147692,-0.92073905,-8.310407,11.023114,0.24779713,-1.4458641,-1.4270821,0.83752775,0
1.7200000000000013,12.547573297520449,-1.0100212240350517,-1.80856281968284,0.9354284227727322,15.756802,-2.6757545,-3.3681886,1.5492893,3.0532837,-3.9019325,1.5106266,-0.35667846,0.14118722,0.025724627,-0.92313826,-8.345221,11.031319,0.26897097,-1.4093183,-1.4696201,0.8489769,0
1.7300000000000013,12.547573297520449,-1.0100212240350517,-1.80856281968284,0.9354284227727322,15.756802,-2.6757545,-3.3681886,1.5492893,2.9696565,-3.7915885,1.5134274,-0.35156298,0.13683628,0.03414838,-0.92547965,-8.38016,11.0370455,0.2912458,-1.3470148,-1.5224475,0.85321915,0
1.7400000000000013,12.547573297520449,-1.0100212240350517,-1.80856281968284,0.9354284227727322,15.756802,-2.6757545,-3.3681886,1.5492893,2.8856812,-3.6812003,1.5164521,-0.34641662,0.13214374,0.04238542,-0.9277589,-8.414834,11.04024,0.31369105,-1.2944318,-1.5670412,0.8572532,0
1.7500000000000013,12.547573297520449,-1.0100212240350517,-1.80856281968284,0.9354284227727322,15.756802,-2.6757545,-3.3681886,1.5492893,2.801361,-3.5707924,1.5197018,-0.3412332,0.12716183,0.050461426,-0.92996925,-8.449123,11.040918,0.33628672,-1.2500532,-1.6046848,0.8610893,0
1.7600000000000013,12.667432455003912,-0.7685746549877197,-1.5874045373898504,0.7610216094511209,17.015812,-3.1292243,-3.1408162,2.043842,2.7167003,-3.4603906,1.5231782,-0.33600804,0.12193465,0.0583982,-0.93210495,-8.482921,11.039095,0.35900888,-1.2125986,-1.6364613,0.86473715,0
1.7700000000000014,12.667432455003912,-0.7685746549877197,-1.5874045373898504,0.7610216094511209,17.015812,-3.1292243,-3.1408162,2.043842,2.6317031,-3.3500192,1.5268881,-0.33077517,0.116548575,0.06609719,-0.9341493,-8.516452,11.034753,0.38298553,-1.143363,-1.6287682,0.8596478,0
1.7800000000000014,12.667432455003912,-0.7685746549877197,-1.5874045373898504,0.7610216094511209,17.015812,-3.1292243,-3.1408162,2.043842,2.5463738,-3.2397037,1.5308383,-0.32556605,0.1110748,0.073482126,-0.93609256,-8.54931,11.027975,0.40703428,-1.0849236,-1.6222813,0.8548082,0
1.7900000000000014,12.667432455003912,-0.7685746549877197,-1.5874045373898504,0.7610216094511209,17.015812,-3.1292243,-3.1408162,2.043842,2.4607198,-3.129468,1.535029,-0.32037416,0.10552703,0.08060002,-0.9379381,-8.581422,11.018834,0.431127,-1.035597,-1.6168118,0.8502061,0
1.8000000000000014,12.538811841548132,-0.5162818007193374,-1.2821797417152327,0.5696408848211973,17.028461,-2.9663727,-3.2790513,2.1372924,2.3747485,-3.0193353,1.5394609,-0.31519395,0.09991668,0.08749054,-0.93968856,-8.612727,11.007394,0.45523587,-0.9939621,-1.6121998,0.8458297,0
1.8100000000000014,12.538811841548132,-0.5162818007193374,-1.2821797417152327,0.5696408848211973,17.028461,-2.9663727,-3.2790513,2.1372924,2.28847,-2.9093273,1.5441276,-0.31006435,0.094334505,0.0940564,-0.94133645,-8.64286,10.993859,0.47809243,-0.9195103,-1.5606842,0.83227706,0
1.8200000000000014,12.538811841548132,-0.5162818007193374,-1.2821797417152327,0.5696408848211973,17.028461,-2.9663727,-3.2790513,2.1372924,2.2018943,-2.7994654,1.5490227,-0.30502066,0.08885352,0.10022327,-0.9428799,-8.672105,10.978219,0.50091374,-0.85666347,-1.5172104,0.81938946,0
1.8300000000000014,12.538811841548132,-0.5162818007193374,-1.2821797417152327,0.5696408848211973,17.028461,-2.9663727,-3.2790513,2.1372924,2.115031,-2.6897697,1.5541457,-0.3000537,0.08345829,0.10605286,-0.94432783,-8.700434,10.960585,0.5236788,-0.80361265,-1.4805226,0.8071343,0
1.8400000000000014,12.538811841548132,-0.5162818007193374,-1.2821797417152327,0.5696408848211973,16.678995,-2.7738338,-3.1227326,1.8895966,2.0278893,-2.5802603,1.559496,-0.2951552,0.07813552,0.11159709,-0.9456871,-8.727822,10.941051,0.5463684,-0.7588308,-1.449562,0.7954804,0
1.8500000000000014,12.538811841548132,-0.5162818007193374,-1.2821797417152327,0.5696408848211973,16.678995,-2.7738338,-3.1227326,1.8895966,1.9404781,-2.4709554,1.5650729,-0.290318,0.072873764,0.11689968,-0.94696313,-8.75425,10.919698,0.5689645,-0.72102916,-1.423434,0.7843984,0
1.8600000000000014,12.538811841548132,-0.5162818007193374,-1.2821797417152327,0.5696408848211973,16.678995,-2.7738338,-3.1227326,1.8895966,1.8528075,-2.3618727,1.570875,-0.28553572,0.06766322,0.1219974,-0.94816,-8.7796955,10.896597,0.5914495,-0.68912,-1.4013845,0.77386016,0
1.8700000000000014,12.538811841548132,-0.5162818007193374,-1.2821797417152327,0.5696408848211973,16.678995,-2.7738338,-3.1227326,1.8895966,1.7648876,-2.2530293,1.5769014,-0.28080282,0.062495492,0.12692119,-0.94928116,-8.804144,10.871811,0.61380637,-0.66218436,-1.3827766,0.76383907,0
1.8800000000000014,12.403928333264723,-0.3480885939783585,-1.0276373813558903,0.3968702908627757,15.452817,-1.9590033,-2.4005594,1.0109261,1.6767281,-2.144442,1.5831506,-0.27611428,0.057363402,0.13169707,-0.95032936,-8.827576,10.845393,0.6360182,-0.63944733,-1.3670733,0.7543097,0
1.8900000000000015,12.403928333264723,-0.3480885939783585,-1.0276373813558903,0.3968702908627757,15.452817,-1.9590033,-2.4005594,1.0109261,1.5883409,-2.0361254,1.5896147,-0.27150357,0.052336454,0.13625626,-0.95130473,-8.849738,10.817699,0.6567767,-0.5940512,-1.3141093,0.7367701,0
1.9000000000000015,12.403928333264723,-0.3480885939783585,-1.0276373813558903,0.3968702908627757,15.452817,-1.9590033,-2.4005594,1.0109261,1.4997369,-1.9280931,1.5962857,-0.26700053,0.04746943,0.14054617,-0.95221,-8.870889,10.7885275,0.677366,-0.5557287,-1.2694099,0.72009116,0
1.9100000000000015,12.403928333264723,-0.3480885939783585,-1.0276373813558903,0.3968702908627757,15.452817,-1.9590033,-2.4005594,1.0109261,1.4109265,-1.8203596,1.6031615,-0.2625959,0.042736758,0.14460859,-0.95305043,-8.891037,10.75796,0.6977784,-0.5233777,-1.2316848,0.70423067,0
1.9200000000000015,12.06597658964333,-0.1669406816745214,-0.7809454540111528,0.22957374367080252,15.268519,-1.82611,-2.4300075,0.92196643,1.3219196,-1.7129384,1.6102406,-0.2582814,0.038116723,0.14847863,-0.95383,-8.910189,10.726068,0.7180067,-0.4960679,-1.1998463,0.68914837,0
1.9300000000000015,12.06597658964333,-0.1669406816745214,-0.7809454540111528,0.22957374367080252,15.268519,-1.82611,-2.4300075,0.92196643,1.2327287,-1.6058381,1.617505,-0.2540869,0.03366346,0.15209214,-0.95455456,-8.927859,10.69382,0.73482597,-0.44478688,-1.1344893,0.6665969,0
1.9400000000000015,12.06597658964333,-0.1669406816745214,-0.7809454540111528,0.22957374367080252,15.268519,-1.82611,-2.4300075,0.92196643,1.1433657,-1.4990659,1.6249366,-0.25003877,0.029418826,0.15540041,-0.9552307,-8.9445915,10.660439,0.7514619,-0.401496,-1.0793301,0.6451521,0
1.9500000000000015,12.06597658964333,-0.1669406816745214,-0.7809454540111528,0.22957374367080252,15.268519,-1.82611,-2.4300075,0.92196643,1.05384,-1.3926328,1.6325336,-0.2461249,0.02534919,0.1584513,-0.95586246,-8.96041,10.626013,0.76791835,-0.36495072,-1.0327768,0.6247595,0
1.9600000000000015,11.748227335100703,-0.011179165311175182,-0.4387378643444485,0.09456560045467229,14.750496,-1.73556,-2.5442832,0.97616756,0.9641607,-1.286549,1.6402942,-0.24233446,0.021426067,0.161285,-0.9564528,-8.975337,10.590615,0.7841987,-0.33409968,-0.99348706,0.60536766,0
1.9700000000000015,11.748227335100703,-0.011179165311175182,-0.4387378643444485,0.09456560045467229,14.750496,-1.73556,-2.5442832,0.97616756,0.87433827,-1.1808189,1.6482017,-0.23869732,0.017738666,0.16384308,-0.95700794,-8.989023,10.555273,0.7972994,-0.28378946,-0.90694964,0.5803024,0
1.9800000000000015,11.748227335100703,-0.011179165311175182,-0.4387378643444485,0.09456560045467229,14.750496,-1.73556,-2.5442832,0.97616756,0.78438306,-1.0754462,1.6562396,-0.23523903,0.014356343,0.16608171,-0.95753497,-9.001909,10.519147,0.81024367,-0.24131672,-0.8339125,0.5564672,0
1.9900000000000015,11.748227335100703,-0.011179165311175182,-0.4387378643444485,0.09456560045467229,14.750496,-1.73556,-2.5442832,0.97616756,0.69430274,-0.97043836,1.6644062,-0.23194437,0.011230027,0.16805144,-0.9580367,-9.014045,10.482327,0.8230446,-0.20546062,-0.7722691,0.53380156,0
2.0000000000000013,,,,,14.348049,-1.2913553,-2.6155212,0.677034,0.60410464,-0.8658018,1.6727,-0.22879972,0.008318243,0.1697947,-0.95851505,-9.025473,10.444889,0.83571386,-0.17519069,-0.720242,0.5122481,0
2.010000000000001,,,,,14.348049,-1.2913553,-2.6155212,0.677034,0.51379687,-0.76153827,1.6811079,-0.22582182,0.0056727463,0.17128435,-0.95897543,-9.0359955,10.407734,0.8458382,-0.13354205,-0.63642424,0.4871636,0
2.020000000000001,,,,,14.348049,-1.2913553,-2.6155212,0.677034,0.4233868,-0.6576487,1.6896166,-0.22302464,0.003332638,0.17250103,-0.9594228,-9.045919,10.37012,0.85586077,-0.0983813,-0.5656811,0.46331,0
2.0300000000000007,,,,,14.348049,-1.2913553,-2.6155212,0.677034,0.33288032,-0.55413723,1.6982249,-0.22039264,0.0012485228,0.17348796,-0.95985794,-9.0553,10.332122,0.8657978,-0.06869839,-0.50597316,0.44062692,0
2.0400000000000005,,,,,14.348049,-1.2913553,-2.6155212,0.677034,0.24228252,-0.4510074,1.7069323,-0.21791212,-0.0006212889,0.17428145,-0.9602811,-9.064183,10.293803,0.8756637,-0.043639533,-0.45557877,0.4190569,0
2.0500000000000003,,,,,14.331573,-1.1793863,-2.6864023,0.76284397,0.15159822,-0.3482621,1.715738,-0.21557082,-0.0023119636,0.17491196,-0.9606922,-9.072609,10.255218,0.8854708,-0.022485102,-0.4130453,0.39854532,1
2.06,,,,,14.331573,-1.1793863,-2.6864023,0.76284397,0.06082195,-0.24595186,1.7247748,-0.21309288,-0.0046901633,0.17610894,-0.96101767,-9.082542,10.206759,0.9218791,-0.20280257,-0.76762307,0.41642156,1
2.07,,,,,14.331573,-1.1793863,-2.6864023,0.76284397,-0.030049756,-0.14412911,1.734175,-0.21024343,-0.00844348,0.17844747,-0.9611882,-9.091642,10.157662,0.9581139,-0.3550076,-1.0669005,0.4334206,1
2.0799999999999996,,,,,14.331573,-1.1793863,-2.6864023,0.76284397,-0.12100695,-0.042802073,1.7439362,-0.2070669,-0.0133575965,0.18174262,-0.9612046,-9.099595,10.107566,0.9940519,-0.4834839,-1.3195021,0.4495855,1
2.0899999999999994,,,,,13.835309,-1.5351468,-3.3977392,0.8770834,-0.21203679,0.05801774,1.7540545,-0.20360006,-0.019251041,0.18583764,-0.96106225,-9.1061325,10.056174,1.0295753,-0.5919319,-1.5327071,0.46495718,1
2.099999999999999,,,,,13.835309,-1.5351468,-3.3977392,0.8770834,-0.30312303,0.15832523,1.7645026,-0.19980948,-0.026212139,0.19079404,-0.9607219,-9.110843,10.005068,1.0599555,-0.73891395,-1.823612,0.48518035,1
2.109999999999999,,,,,13.835309,-1.5351468,-3.3977392,0.8770834,-0.39424717,0.258113,1.7752513,-0.1956661,-0.034302063,0.19665042,-0.96013886,-9.113676,9.952191,1.089672,-0.8629827,-2.0691464,0.50441116,1
2.1199999999999988,,,,,13.835309,-1.5351468,-3.3977392,0.8770834,-0.48538917,0.35736212,1.7862931,-0.19120444,-0.04334163,0.2032531,-0.95929676,-9.11437,9.897299,1.1185647,-0.9677113,-2.2763855,0.5226983,1
2.1299999999999986,,,,,14.085387,-1.5894011,-3.7528567,1.1198844,-0.5765264,0.4560514,1.7976191,-0.18645392,-0.05317839,0.21047169,-0.9581798,-9.1127,9.8402,1.1464713,-1.0561154,-2.4513018,0.5400881,1
2.1399999999999983,,,,,14.085387,-1.5894011,-3.7528567,1.1198844,-0.667634,0.5541528,1.8092299,-0.18138193,-0.063808136,0.21824391,-0.95676464,-9.10839,9.779676,1.175481,-1.1391606,-2.654329,0.56853884,1
2.149999999999998,,,,,14.085387,-1.5894011,-3.7528567,1.1198844,-0.7586845,0.6516363,1.821124,-0.1759586,-0.07521792,0.2265127,-0.95502496,-9.101248,9.71663,1.2031293,-1.2092625,-2.825691,0.5955936,1
2.159999999999998,,,,,14.085387,-1.5894011,-3.7528567,1.1198844,-0.8496486,0.7484763,1.8332869,-0.17021205,-0.08727535,0.2351827,-0.9529427,-9.091073,9.6509695,1.2292211,-1.2684394,-2.9703262,0.62132066,1
2.1699999999999977,,,,,15.930122,-2.2056625,-4.313733,2.2009633,-0.9404951,0.8446465,1.8457022,-0.16416734,-0.09986727,0.24417281,-0.9505026,-9.077696,9.582645,1.2535591,-1.3183947,-3.0924025,0.6457853,1
2.1799999999999975,,,,,15.930122,-2.2056625,-4.313733,2.2009633,-1.0311805,0.9400738,1.8584304,-0.15768966,-0.11303674,0.25369725,-0.9476256,-9.058774,9.502324,1.2917123,-1.4565207,-3.2829986,0.7220983,1
2.1899999999999973,,,,,15.930122,-2.2056625,-4.313733,2.2009633,-1.1216568,1.0346822,1.8715277,-0.15065593,-0.12680437,0.26391912,-0.94422984,-9.035869,9.418852,1.327336,-1.573111,-3.4438698,0.7946666,1
2.199999999999997,,,,,15.930122,-2.2056625,-4.313733,2.2009633,-1.2118834,1.1284398,1.8849672,-0.14310454,-0.14104897,0.27470508,-0.9402995,-9.008806,9.332152,1.360098,-1.6715263,-3.5796506,0.863674,1
