time-since-start [s],throttle_mpc,roll_mpc,pitch_mpc,yaw_mpc,throttle_nw,roll_nw,pitch_nw,yaw_nw,position_x [m],position_y [m],position_z [m],rotation_w [quaternion],rotation_x [quaternion],rotation_y [quaternion],rotation_z [quaternion],velocity_x [m/s],velocity_y [m/s],velocity_z [m/s],omega_x [rad/s],omega_y [rad/s],omega_z [rad/s],network_used
0.0,10.631879561940119,5.9999995491553335,-5.999999909896813,-2.71578406869422,13.547511,-0.4844521,-5.0816846,-1.1785147,20.15574,-8.777501,2.0057964,-0.109633654,-0.453784,0.273556,0.8409683,-9.820533,-6.597431,0.22611356,1.7295816,-0.4094239,-0.36768043,0
0.01,10.631879561940119,5.9999995491553335,-5.999999909896813,-2.71578406869422,14.299153,-0.025365088,-6.355367,-0.905911,20.057102,-8.843274,2.007801,-0.07629625,-0.43511438,0.29563338,0.8470273,-9.906476,-6.556119,0.17496444,5.9999995,-6.0,-2.715784,0
0.02,10.631879561940119,5.9999995491553335,-5.999999909896813,-2.71578406869422,14.299153,-0.025365088,-6.355367,-0.905911,19.957628,-8.908595,2.0092983,-0.042807467,-0.4155815,0.31712422,0.8514057,-9.987802,-6.5071063,0.12462623,5.9999995,-6.0,-2.715784,0
0.03,10.631879561940119,5.9999995491553335,-5.999999909896813,-2.71578406869422,14.299153,-0.025365088,-6.355367,-0.905911,19.857367,-8.973391,2.0102959,-0.009233756,-0.39522406,0.33798584,0.8540949,-10.063844,-6.450822,0.07497304,5.9999995,-6.0,-2.715784,0
0.04,10.631879561940119,5.9999995491553335,-5.999999909896813,-2.71578406869422,15.522977,-0.91105556,-5.2345085,-0.9327869,19.756372,-9.037589,2.0108,0.024358278,-0.37408248,0.35817692,0.85508955,-10.133975,-6.3877516,0.025873588,5.9999995,-6.0,-2.715784,0
0.05,10.631879561940119,5.9999995491553335,-5.999999909896813,-2.71578406869422,15.522977,-0.91105556,-5.2345085,-0.9327869,19.654709,-9.101125,2.0108147,0.057901982,-0.35219872,0.37765732,0.8543876,-10.1976185,-6.318435,-0.022807822,5.9999995,-6.0,-2.715784,0
0.060000000000000005,10.631879561940119,5.9999995491553335,-5.999999909896813,-2.71578406869422,15.522977,-0.91105556,-5.2345085,-0.9327869,19.552443,-9.163938,2.0103443,0.09133081,-0.3296162,0.39638844,0.85199046,-10.254246,-6.243463,-0.07121019,5.9999995,-6.0,-2.715784,0
0.07,10.631879561940119,5.9999995491553335,-5.999999909896813,-2.71578406869422,15.522977,-0.91105556,-5.2345085,-0.9327869,19.449648,-9.225976,2.0093906,0.12457843,-0.30637968,0.41433308,0.84790295,-10.303387,-6.16347,-0.11947474,5.9999995,-6.0,-2.715784,0
0.08,18.276514825778303,5.999998141369835,-5.999999814966927,-1.1391686665350622,15.907164,-1.946162,-2.0261896,0.07977384,19.346401,-9.287191,2.0079544,0.15757889,-0.28253528,0.43145564,0.84213316,-10.344628,-6.0791297,-0.16774376,5.9999995,-6.0,-2.715784,0
0.09,18.276514825778303,5.999998141369835,-5.999999814966927,-1.1391686665350622,15.907164,-1.946162,-2.0261896,0.07977384,19.24266,-9.347231,2.006214,0.18364291,-0.25475103,0.44998196,0.8359982,-10.401352,-5.9278817,-0.18045875,5.999998,-6.0,-1.1391686,0
0.09999999999999999,18.276514825778303,5.999998141369835,-5.999999814966927,-1.1391686665350622,15.907164,-1.946162,-2.0261896,0.07977384,19.138426,-9.405732,2.004343,0.20937046,-0.22649999,0.46768382,0.82833153,-10.443449,-5.771555,-0.19385745,5.999998,-6.0,-1.1391686,0
0.10999999999999999,18.276514825778303,5.999998141369835,-5.999999814966927,-1.1391686665350622,15.907164,-1.946162,-2.0261896,0.07977384,19.033844,-9.462649,2.0023332,0.23471442,-0.19783397,0.4845288,0.8191472,-10.470582,-5.6113515,-0.2083932,5.999998,-6.0,-1.1391686,0
0.11999999999999998,18.276514825778303,5.999998141369835,-5.999999814966927,-1.1391686665350622,15.907164,-1.946162,-2.0261896,0.07977384,18.929066,-9.517951,2.0001702,0.25962833,-0.16880551,0.5004861,0.80846214,-10.482526,-5.4485,-0.22451107,5.999998,-6.0,-1.1391686,0
0.12999999999999998,20.99999821578701,2.584557537799178,-5.9999991296104636,0.6247993756294575,14.87766,-1.8082527,-1.9906365,-0.10695082,18.824245,-9.571615,1.9978361,0.28406656,-0.13946778,0.51552635,0.7962959,-10.479167,-5.284249,-0.24264452,5.999998,-6.0,-1.1391686,0
0.13999999999999999,20.99999821578701,2.584557537799178,-5.9999991296104636,0.6247993756294575,14.87766,-1.8082527,-1.9906365,-0.10695082,18.719543,-9.623514,1.9953728,0.29869145,-0.11022762,0.5174525,0.79427695,-10.459319,-5.096112,-0.24966341,2.5845575,-5.999999,0.6247994,0
0.15,20.99999821578701,2.584557537799178,-5.9999991296104636,0.6247993756294575,14.87766,-1.8082527,-1.9906365,-0.10695082,18.615105,-9.673547,1.9928498,0.31299478,-0.080868796,0.51882154,0.7914028,-10.426224,-4.910867,-0.25462723,2.5845575,-5.999999,0.6247994,0
0.16,20.999997841523182,-0.07747758711237776,-2.948644356380215,0.6669378303282031,14.588186,-3.5985491,0.29027945,-0.44724566,18.511063,-9.7217455,1.9902856,0.3269611,-0.051422894,0.519632,0.7876766,-10.380001,-4.7292705,-0.2580092,2.5845575,-5.999999,0.6247994,0
0.17,20.999997841523182,-0.07747758711237776,-2.948644356380215,0.6669378303282031,14.588186,-3.5985491,0.29027945,-0.44724566,18.407541,-9.7681465,1.9876953,0.33193803,-0.03819848,0.51461864,0.78963625,-10.32388,-4.5514045,-0.25961474,-0.07747759,-2.9486444,0.6669378,0
0.18000000000000002,20.999997841523182,-0.07747758711237776,-2.948644356380215,0.6669378303282031,14.588186,-3.5985491,0.29027945,-0.44724566,18.304604,-9.812784,1.9851024,0.33683905,-0.02496533,0.5094876,0.79141533,-10.263037,-4.376564,-0.2585886,-0.07747759,-2.9486444,0.6669378,0
0.19000000000000003,20.999997841523182,-0.07747758711237776,-2.948644356380215,0.6669378303282031,14.588186,-3.5985491,0.29027945,-0.44724566,18.202297,-9.855689,1.9825324,0.34166303,-0.0117264725,0.50424016,0.79301345,-10.197501,-4.204891,-0.25504923,-0.07747759,-2.9486444,0.6669378,0
0.20000000000000004,20.71950105536003,-0.7092588269526381,-0.35595238079238434,0.4313447041555131,14.86617,-4.1863494,3.622191,-0.1667152,18.10067,-9.896893,1.9800098,0.34640893,0.0015150651,0.49887747,0.7944303,-10.127308,-4.036525,-0.24911727,-0.07747759,-2.9486444,0.6669378,0
0.21000000000000005,20.71950105536003,-0.7092588269526381,-0.35595238079238434,0.4313447041555131,14.86617,-4.1863494,3.622191,-0.1667152,17.999758,-9.936439,1.9775498,0.3455853,0.002776415,0.4954353,0.79693574,-10.055288,-3.8728085,-0.24262452,-0.70925885,-0.35595238,0.43134472,0
0.22000000000000006,20.71950105536003,-0.7092588269526381,-0.35595238079238434,0.4313447041555131,14.86617,-4.1863494,3.622191,-0.1667152,17.899565,-9.974352,1.9751619,0.3447546,0.004037708,0.49198306,0.79942495,-9.983513,-3.709896,-0.23471834,-0.70925885,-0.35595238,0.43134472,0
0.23000000000000007,20.71950105536003,-0.7092588269526381,-0.35595238079238434,0.4313447041555131,14.86617,-4.1863494,3.622191,-0.1667152,17.800087,-10.010639,1.9728602,0.3439169,0.0052989186,0.4885208,0.8018979,-9.91198,-3.5478003,-0.22540581,-0.70925885,-0.35595238,0.43134472,0
0.24000000000000007,20.71950105536003,-0.7092588269526381,-0.35595238079238434,0.4313447041555131,15.728207,-3.6840568,5.2376876,-0.15662128,17.701324,-10.04531,1.9706587,0.34307218,0.0065600215,0.48504853,0.8043544,-9.840686,-3.386534,-0.21469413,-0.70925885,-0.35595238,0.43134472,0
0.25000000000000006,20.71950105536003,-0.7092588269526381,-0.35595238079238434,0.4313447041555131,15.728207,-3.6840568,5.2376876,-0.15662128,17.603273,-10.078374,1.9685712,0.34222043,0.007820991,0.4815664,0.8067946,-9.769631,-3.2261097,-0.20259054,-0.70925885,-0.35595238,0.43134472,0
0.26000000000000006,20.71950105536003,-0.7092588269526381,-0.35595238079238434,0.4313447041555131,15.728207,-3.6840568,5.2376876,-0.15662128,17.505932,-10.109837,1.9666116,0.34136173,0.0090818,0.4780744,0.8092183,-9.6988125,-3.0665405,-0.18910247,-0.70925885,-0.35595238,0.43134472,0
0.2700000000000001,20.71950105536003,-0.7092588269526381,-0.35595238079238434,0.4313447041555131,15.728207,-3.6840568,5.2376876,-0.15662128,17.409296,-10.139708,1.9647939,0.34049603,0.010342424,0.4745727,0.8116254,-9.628227,-2.9078386,-0.17423743,-0.70925885,-0.35595238,0.43134472,0
0.2800000000000001,19.140236157121027,-1.2398736790582356,1.4893645363449657,0.21362022842848996,17.203688,-3.5466478,5.813219,-0.33516556,17.313368,-10.167996,1.9631318,0.33962342,0.011602837,0.4710613,0.81401604,-9.557875,-2.7500172,-0.15800305,-0.70925885,-0.35595238,0.43134472,0
0.2900000000000001,19.140236157121027,-1.2398736790582356,1.4893645363449657,0.21362022842848996,17.203688,-3.5466478,5.813219,-0.33516556,17.21811,-10.194769,1.9615943,0.33530194,0.0039382633,0.4685093,0.81734675,-9.494325,-2.6044316,-0.14933217,-1.2398736,1.4893645,0.21362023,0
0.3000000000000001,19.140236157121027,-1.2398736790582356,1.4893645363449657,0.21362022842848996,17.203688,-3.5466478,5.813219,-0.33516556,17.12347,-10.220082,1.9601485,0.33094856,-0.0037266836,0.46591273,0.8205998,-9.434272,-2.4580638,-0.13971055,-1.2398736,1.4893645,0.21362023,0
0.3100000000000001,19.140236157121027,-1.2398736790582356,1.4893645363449657,0.21362022842848996,17.203688,-3.5466478,5.813219,-0.33516556,17.029413,-10.243928,1.9588034,0.32656375,-0.011391276,0.46327195,0.8237748,-9.377741,-2.3109732,-0.1291724,-1.2398736,1.4893645,0.21362023,0
0.3200000000000001,17.910013788569827,-1.574426883665649,3.0911689100115076,0.03418073478145988,17.79778,-3.2240026,6.1422434,-0.3070374,16.935902,-10.266299,1.9575682,0.32214788,-0.019054785,0.4605871,0.8268716,-9.32475,-2.1632195,-0.1177523,-1.2398736,1.4893645,0.21362023,0
0.3300000000000001,17.910013788569827,-1.574426883665649,3.0911689100115076,0.03418073478145988,17.79778,-3.2240026,6.1422434,-0.3070374,16.842886,-10.287235,1.9564153,0.3146897,-0.03428843,0.458991,0.8301334,-9.279477,-2.0239391,-0.11277345,-1.5744269,3.0911689,0.034180734,0
0.34000000000000014,17.910013788569827,-1.574426883665649,3.0911689100115076,0.03418073478145988,17.79778,-3.2240026,6.1422434,-0.3070374,16.750292,-10.306772,1.9553132,0.30713683,-0.049511757,0.4572568,0.83314544,-9.240186,-1.882993,-0.10760582,-1.5744269,3.0911689,0.034180734,0
0.35000000000000014,17.910013788569827,-1.574426883665649,3.0911689100115076,0.03418073478145988,17.79778,-3.2240026,6.1422434,-0.3070374,16.658062,-10.324892,1.9542632,0.29949158,-0.06472018,0.45538497,0.8359068,-9.206924,-1.7405515,-0.10237197,-1.5744269,3.0911689,0.034180734,0
0.36000000000000015,17.232991108527752,-1.6179233797757606,3.215136984818918,-0.12946834024165643,16.632244,-3.4481082,5.5630674,-0.27270585,16.566133,-10.34158,1.9532654,0.2917562,-0.07990914,0.45337614,0.83841664,-9.179732,-1.5967872,-0.09719447,-1.5744269,3.0911689,0.034180734,0
0.37000000000000016,17.232991108527752,-1.6179233797757606,3.215136984818918,-0.12946834024165643,16.632244,-3.4481082,5.5630674,-0.27270585,16.474442,-10.356852,1.9522992,0.28431728,-0.09602711,0.45115876,0.8404747,-9.159522,-1.4573314,-0.09610692,-1.6179234,3.215137,-0.12946834,0
0.38000000000000017,17.232991108527752,-1.6179233797757606,3.215136984818918,-0.12946834024165643,16.632244,-3.4481082,5.5630674,-0.27270585,16.382921,-10.370723,1.9513422,0.27678615,-0.11211396,0.44879508,0.84226024,-9.145426,-1.3168881,-0.095356025,-1.6179234,3.215137,-0.12946834,0
0.3900000000000002,17.232991108527752,-1.6179233797757606,3.215136984818918,-0.12946834024165643,16.632244,-3.4481082,5.5630674,-0.27270585,16.291512,-10.383185,1.9503905,0.2691653,-0.12816446,0.44628587,0.8437727,-9.137459,-1.1756346,-0.0950764,-1.6179234,3.215137,-0.12946834,0
0.4000000000000002,16.753324576636867,-1.3401330603065453,1.953972258613354,-0.27140025142152147,15.740055,-3.4822104,4.394346,-0.46595746,16.200151,-10.394233,1.9494386,0.26145712,-0.14417337,0.4436319,0.84501153,-9.135632,-1.0337495,-0.095402025,-1.6179234,3.215137,-0.12946834,0
0.4100000000000002,16.753324576636867,-1.3401330603065453,1.953972258613354,-0.27140025142152147,15.740055,-3.4822104,4.394346,-0.46595746,16.10878,-10.403879,1.9484671,0.25728503,-0.15477246,0.44029704,0.8461607,-9.139076,-0.8955292,-0.09890054,-1.3401331,1.9539722,-0.27140024,0
0.4200000000000002,16.753324576636867,-1.3401330603065453,1.953972258613354,-0.27140025142152147,15.740055,-3.4822104,4.394346,-0.46595746,16.017355,-10.412144,1.9474603,0.25307634,-0.16534954,0.43689957,0.84718955,-9.146488,-0.75739825,-0.102496274,-1.3401331,1.9539722,-0.27140024,0
0.4300000000000002,16.753324576636867,-1.3401330603065453,1.953972258613354,-0.27140025142152147,15.740055,-3.4822104,4.394346,-0.46595746,15.925837,-10.419027,1.9464167,0.2488317,-0.1759031,0.43344,0.848098,-9.157862,-0.61942804,-0.106251165,-1.3401331,1.9539722,-0.27140024,0
0.4400000000000002,16.753324576636867,-1.3401330603065453,1.953972258613354,-0.27140025142152147,15.771109,-3.6413853,4.0188427,-0.41025454,15.834185,-10.424533,1.9453346,0.24455167,-0.18643166,0.4299188,0.84888583,-9.173191,-0.48169,-0.11022707,-1.3401331,1.9539722,-0.27140024,0
0.45000000000000023,16.753324576636867,-1.3401330603065453,1.953972258613354,-0.27140025142152147,15.771109,-3.6413853,4.0188427,-0.41025454,15.742359,-10.428662,1.9442114,0.24023686,-0.19693372,0.42633647,0.8495529,-9.19247,-0.34425527,-0.1144857,-1.3401331,1.9539722,-0.27140024,0
0.46000000000000024,16.753324576636867,-1.3401330603065453,1.953972258613354,-0.27140025142152147,15.771109,-3.6413853,4.0188427,-0.41025454,15.650322,-10.431419,1.9430438,0.2358879,-0.20740776,0.42269352,0.8500992,-9.215684,-0.20719498,-0.11908864,-1.3401331,1.9539722,-0.27140024,0
0.47000000000000025,16.753324576636867,-1.3401330603065453,1.953972258613354,-0.27140025142152147,15.771109,-3.6413853,4.0188427,-0.41025454,15.558032,-10.432808,1.9418283,0.2315054,-0.21785232,0.41899046,0.85052466,-9.242823,-0.070579976,-0.12409725,-1.3401331,1.9539722,-0.27140024,0
0.48000000000000026,16.576479124383432,-1.1084949772103554,1.305887788911824,-0.3298713183551759,15.702089,-3.8033662,2.9301755,-0.22027904,15.465452,-10.432833,1.9405605,0.22708997,-0.22826591,0.4152278,0.8508292,-9.273869,0.06551918,-0.12957266,-1.3401331,1.9539722,-0.27140024,0
0.49000000000000027,16.576479124383432,-1.1084949772103554,1.305887788911824,-0.3298713183551759,15.702089,-3.8033662,2.9301755,-0.22027904,15.372544,-10.431506,1.9392308,0.22450832,-0.23575607,0.41160265,0.85123324,-9.308035,0.19960573,-0.13639946,-1.108495,1.3058878,-0.32987133,0
0.5000000000000002,16.576479124383432,-1.1084949772103554,1.305887788911824,-0.3298713183551759,15.702089,-3.8033662,2.9301755,-0.22027904,15.279282,-10.428843,1.9378319,0.2219096,-0.24322829,0.40794614,0.8515725,-9.344967,0.33307415,-0.14339778,-1.108495,1.3058878,-0.32987133,0
0.5100000000000002,16.576479124383432,-1.1084949772103554,1.305887788911824,-0.3298713183551759,15.702089,-3.8033662,2.9301755,-0.22027904,15.185636,-10.424847,1.9363621,0.21929398,-0.25068203,0.4042586,0.85184693,-9.384654,0.46589044,-0.1506021,-1.108495,1.3058878,-0.32987133,0
0.5200000000000002,16.17290373710132,-0.696843908958332,0.04167881563632745,-0.3741043879880405,15.085831,-3.628822,2.137642,-0.18452603,15.091579,-10.419527,1.9348191,0.21666169,-0.25811666,0.40054035,0.85205656,-9.427087,0.5980208,-0.15804693,-1.108495,1.3058878,-0.32987133,0
0.5300000000000002,16.17290373710132,-0.696843908958332,0.04167881563632745,-0.3741043879880405,15.085831,-3.628822,2.137642,-0.18452603,14.997092,-10.412905,1.9331902,0.21727099,-0.25979632,0.3971308,0.8529864,-9.470418,0.7262568,-0.16763632,-0.6968439,0.041678816,-0.37410438,0
0.5400000000000003,16.17290373710132,-0.696843908958332,0.04167881563632745,-0.3741043879880405,15.085831,-3.628822,2.137642,-0.18452603,14.902169,-10.405004,1.9314684,0.21787685,-0.2614719,0.39371502,0.8539029,-9.514451,0.8538394,-0.17663005,-0.6968439,0.041678816,-0.37410438,0
0.5500000000000003,16.17290373710132,-0.696843908958332,0.04167881563632745,-0.3741043879880405,15.085831,-3.628822,2.137642,-0.18452603,14.806802,-10.39583,1.9296595,0.2184793,-0.26314336,0.39029306,0.854806,-9.559186,0.98076326,-0.18503517,-0.6968439,0.041678816,-0.37410438,0
0.5600000000000003,16.003716683645617,-0.3652824294131344,-0.4516296276437828,-0.37793403563465716,14.903788,-3.0460072,1.431133,-0.2377904,14.710983,-10.385391,1.9277695,0.21907835,-0.2648107,0.386865,0.85569566,-9.604627,1.1070231,-0.19285882,-0.6968439,0.041678816,-0.37410438,0
0.5700000000000003,16.003716683645617,-0.3652824294131344,-0.4516296276437828,-0.37793403563465716,14.903788,-3.0460072,1.431133,-0.2377904,14.61471,-10.373699,1.9257997,0.22108395,-0.264008,0.3843047,0.8565811,-9.649948,1.2313699,-0.20098236,-0.36528242,-0.45162964,-0.37793404,0
0.5800000000000003,16.003716683645617,-0.3652824294131344,-0.4516296276437828,-0.37793403563465716,14.903788,-3.0460072,1.431133,-0.2377904,14.517984,-10.360765,1.9237524,0.22308691,-0.26320213,0.38173983,0.8574562,-9.695057,1.3552353,-0.2083392,-0.36528242,-0.45162964,-0.37793404,0
0.5900000000000003,16.003716683645617,-0.3652824294131344,-0.4516296276437828,-0.37793403563465716,14.903788,-3.0460072,1.431133,-0.2377904,14.420809,-10.346596,1.9216355,0.22508718,-0.2623931,0.37917033,0.8583211,-9.739957,1.4786142,-0.21493226,-0.36528242,-0.45162964,-0.37793404,0
0.6000000000000003,15.673362594415815,-0.11732242626009878,-0.7395116932900369,-0.37118142347811894,14.045373,-2.8388605,0.31605262,-0.19128066,14.323186,-10.331195,1.9194565,0.22708476,-0.2615809,0.3765963,0.8591756,-9.784648,1.601501,-0.22076458,-0.36528242,-0.45162964,-0.37793404,0
0.6100000000000003,15.673362594415815,-0.11732242626009878,-0.7395116932900369,-0.37118142347811894,14.045373,-2.8388605,0.31605262,-0.19128066,14.225122,-10.31458,1.9172134,0.22991635,-0.25923392,0.37476388,0.8599348,-9.828001,1.7214203,-0.22773144,-0.11732242,-0.73951167,-0.37118143,0
0.6200000000000003,15.673362594415815,-0.11732242626009878,-0.7395116932900369,-0.37118142347811894,14.045373,-2.8388605,0.31605262,-0.19128066,14.126629,-10.296767,1.9149047,0.23274395,-0.2568824,0.37292492,0.860679,-9.870581,1.8409947,-0.2338848,-0.11732242,-0.73951167,-0.37118143,0
0.6300000000000003,15.673362594415815,-0.11732242626009878,-0.7395116932900369,-0.37118142347811894,14.045373,-2.8388605,0.31605262,-0.19128066,14.027714,-10.277761,1.9125384,0.23556747,-0.25452638,0.37107947,0.8614081,-9.91239,1.9602152,-0.23922795,-0.11732242,-0.73951167,-0.37118143,0
0.6400000000000003,15.673362594415815,-0.11732242626009878,-0.7395116932900369,-0.37118142347811894,14.05935,-2.5344207,-0.059093066,-0.23780066,13.928385,-10.257565,1.9101229,0.23838688,-0.2521659,0.3692275,0.8621222,-9.953427,2.0790727,-0.2437643,-0.11732242,-0.73951167,-0.37118143,0
0.6500000000000004,15.673362594415815,-0.11732242626009878,-0.7395116932900369,-0.37118142347811894,14.05935,-2.5344207,-0.059093066,-0.23780066,13.828648,-10.236181,1.907666,0.24120213,-0.24980108,0.3673691,0.8628212,-9.993695,2.197558,-0.24749726,-0.11732242,-0.73951167,-0.37118143,0
0.6600000000000004,15.673362594415815,-0.11732242626009878,-0.7395116932900369,-0.37118142347811894,14.05935,-2.5344207,-0.059093066,-0.23780066,13.728512,-10.213614,1.9051757,0.24401316,-0.24743187,0.3655043,0.8635052,-10.033194,2.3156617,-0.25043032,-0.11732242,-0.73951167,-0.37118143,0
0.6700000000000004,15.673362594415815,-0.11732242626009878,-0.7395116932900369,-0.37118142347811894,14.05935,-2.5344207,-0.059093066,-0.23780066,13.627986,-10.18987,1.90266,0.24681994,-0.24505836,0.3636331,0.86417407,-10.071923,2.433375,-0.25256705,-0.11732242,-0.73951167,-0.37118143,0
0.6800000000000004,15.671585694354127,0.03462897982505644,-0.528970119445316,-0.3541378680660598,14.724481,-2.4327257,0.26808387,-0.13234979,13.527078,-10.16495,1.900127,0.2496224,-0.24268055,0.36175555,0.8648279,-10.109885,2.5506885,-0.25391102,-0.11732242,-0.73951167,-0.37118143,0
0.6900000000000004,15.671585694354127,0.03462897982505644,-0.528970119445316,-0.3541378680660598,14.724481,-2.4327257,0.26808387,-0.13234979,13.425792,-10.138858,1.8975842,0.25215128,-0.24098931,0.36081353,0.8649607,-10.147116,2.6676672,-0.25459602,0.03462898,-0.5289701,-0.35413787,0
0.7000000000000004,15.671585694354127,0.03462897982505644,-0.528970119445316,-0.3541378680660598,14.724481,-2.4327257,0.26808387,-0.13234979,13.324138,-10.111597,1.8950368,0.2546776,-0.23929563,0.35986784,0.8650847,-10.183686,2.784462,-0.25481173,0.03462898,-0.5289701,-0.35413787,0
0.7100000000000004,15.671585694354127,0.03462897982505644,-0.528970119445316,-0.3541378680660598,14.724481,-2.4327257,0.26808387,-0.13234979,13.222121,-10.083169,1.8924894,0.2572013,-0.23759952,0.3589185,0.8652,-10.219597,2.9010684,-0.2545593,0.03462898,-0.5289701,-0.35413787,0
0.7200000000000004,15.364859780292425,0.27830808795092205,-0.6176678733635332,-0.34831645209230655,14.760298,-1.8678815,-0.06588192,-0.18530804,13.119748,-10.053576,1.889947,0.2597224,-0.23590098,0.3579655,0.86530644,-10.254848,3.0174809,-0.2538399,0.03462898,-0.5289701,-0.35413787,0
0.7300000000000004,15.364859780292425,0.27830808795092205,-0.6176678733635332,-0.34831645209230655,14.760298,-1.8678815,-0.06588192,-0.18530804,13.01703,-10.022831,1.8874044,0.26266128,-0.23348893,0.35795406,0.8650783,-10.288638,3.1314905,-0.25463748,0.2783081,-0.61766785,-0.34831646,0
0.7400000000000004,15.364859780292425,0.27830808795092205,-0.6176678733635332,-0.34831645209230655,14.760298,-1.8678815,-0.06588192,-0.18530804,12.913979,-9.990946,1.8848555,0.26559633,-0.2310735,0.35793743,0.8648376,-10.321447,3.2454877,-0.25508532,0.2783081,-0.61766785,-0.34831646,0
0.7500000000000004,15.364859780292425,0.27830808795092205,-0.6176678733635332,-0.34831645209230655,14.760298,-1.8678815,-0.06588192,-0.18530804,12.810604,-9.957921,1.8823038,0.26852757,-0.22865468,0.35791558,0.86458427,-10.353276,3.359465,-0.25518543,0.2783081,-0.61766785,-0.34831646,0
0.7600000000000005,15.24235599475518,0.41782812682326975,-0.555466020459769,-0.3280032214496492,14.690909,-1.2651156,-0.8962069,-0.25566322,12.706917,-9.923757,1.8797531,0.2714549,-0.22623259,0.35788858,0.86431843,-10.384124,3.4734137,-0.25493973,0.2783081,-0.61766785,-0.34831646,0
0.7700000000000005,15.24235599475518,0.41782812682326975,-0.555466020459769,-0.3280032214496492,14.690909,-1.2651156,-0.8962069,-0.25566322,12.602927,-9.888457,1.8772024,0.274337,-0.22385025,0.3585667,0.8637475,-10.413726,3.5864773,-0.25519753,0.4178281,-0.555466,-0.32800323,0
0.7800000000000005,15.24235599475518,0.41782812682326975,-0.555466020459769,-0.3280032214496492,14.690909,-1.2651156,-0.8962069,-0.25566322,12.498647,-9.852027,1.8746499,0.27721503,-0.22146462,0.3592395,0.8631638,-10.44229,3.6996539,-0.25527737,0.4178281,-0.555466,-0.32800323,0
0.7900000000000005,15.24235599475518,0.41782812682326975,-0.555466020459769,-0.3280032214496492,14.690909,-1.2651156,-0.8962069,-0.25566322,12.394086,-9.814464,1.8720975,0.28008896,-0.21907571,0.359907,0.86256737,-10.469817,3.8129354,-0.25518134,0.4178281,-0.555466,-0.32800323,0
0.8000000000000005,14.926564475133823,0.5394885077110275,-0.9123833313764891,-0.3332284796968227,13.947017,-0.99261177,-0.766173,-0.20199615,12.289254,-9.775767,1.8695469,0.28295878,-0.21668357,0.36056915,0.8619582,-10.496303,3.926314,-0.25491163,0.4178281,-0.555466,-0.32800323,0
0.8100000000000005,14.926564475133823,0.5394885077110275,-0.9123833313764891,-0.3332284796968227,13.947017,-0.99261177,-0.766173,-0.20199615,12.184167,-9.735949,1.8669899,0.2866199,-0.21258557,0.3612368,0.8614893,-10.521026,4.037404,-0.2564311,0.5394885,-0.9123833,-0.33322847,0
0.8200000000000005,14.926564475133823,0.5394885077110275,-0.9123833313764891,-0.3332284796968227,13.947017,-0.99261177,-0.766173,-0.20199615,12.078839,-9.695019,1.8644195,0.2902722,-0.208481,0.3618933,0.86099386,-10.544213,4.1484957,-0.25757197,0.5394885,-0.9123833,-0.33322847,0
0.8300000000000005,14.926564475133823,0.5394885077110275,-0.9123833313764891,-0.3332284796968227,13.947017,-0.99261177,-0.766173,-0.20199615,11.973288,-9.652979,1.8618395,0.29391554,-0.20436999,0.36253864,0.86047184,-10.565864,4.2595725,-0.25834122,0.5394885,-0.9123833,-0.33322847,0
0.8400000000000005,14.926564475133823,0.5394885077110275,-0.9123833313764891,-0.3332284796968227,13.8625,-0.790974,-0.85821503,-0.17313796,11.867527,-9.609828,1.8592538,0.2975498,-0.20025268,0.36317277,0.85992324,-10.585973,4.3706183,-0.2587461,0.5394885,-0.9123833,-0.33322847,0
0.8500000000000005,14.926564475133823,0.5394885077110275,-0.9123833313764891,-0.3332284796968227,13.8625,-0.790974,-0.85821503,-0.17313796,11.761574,-9.565567,1.8566657,0.30117488,-0.19612919,0.3637957,0.8593481,-10.604541,4.481618,-0.25879368,0.5394885,-0.9123833,-0.33322847,0
0.8600000000000005,14.926564475133823,0.5394885077110275,-0.9123833313764891,-0.3332284796968227,13.8625,-0.790974,-0.85821503,-0.17313796,11.655442,-9.520196,1.854079,0.30479068,-0.19199963,0.36440742,0.85874647,-10.621568,4.5925555,-0.25849122,0.5394885,-0.9123833,-0.33322847,0
0.8700000000000006,14.926564475133823,0.5394885077110275,-0.9123833313764891,-0.3332284796968227,13.8625,-0.790974,-0.85821503,-0.17313796,11.549148,-9.473717,1.851497,0.30839705,-0.18786415,0.36500788,0.8581183,-10.6370535,4.703414,-0.25784597,0.5394885,-0.9123833,-0.33322847,0
0.8800000000000006,14.812538316225451,0.5173015263529533,-0.6123675261291169,-0.3104230627745746,14.157796,-0.628134,-0.5765459,-0.11211926,11.442705,-9.426128,1.8489233,0.31199393,-0.18372288,0.36559707,0.85746366,-10.650996,4.814178,-0.25686523,0.5394885,-0.9123833,-0.33322847,0
0.8900000000000006,14.812538316225451,0.5173015263529533,-0.6123675261291169,-0.3104230627745746,14.157796,-0.628134,-0.5765459,-0.11211926,11.336131,-9.377438,1.846357,0.31491652,-0.18085626,0.3665711,0.8565884,-10.663432,4.924047,-0.25639963,0.5173015,-0.6123675,-0.31042308,0
0.9000000000000006,14.812538316225451,0.5173015263529533,-0.6123675261291169,-0.3104230627745746,14.157796,-0.628134,-0.5765459,-0.11211926,11.22944,-9.327648,1.8437957,0.3178333,-0.1779863,0.36753836,0.85569733,-10.674685,5.0339565,-0.25583702,0.5173015,-0.6123675,-0.31042308,0
0.9100000000000006,14.812538316225451,0.5173015263529533,-0.6123675261291169,-0.3104230627745746,14.157796,-0.628134,-0.5765459,-0.11211926,11.1226425,-9.27676,1.8412405,0.32074422,-0.17511304,0.36849883,0.85479045,-10.684753,5.1438966,-0.255181,0.5173015,-0.6123675,-0.31042308,0
0.9200000000000006,14.421857387080227,0.5076531119225006,-0.9630568602176889,-0.3057969412436315,14.130325,-0.46743903,-0.5818341,-0.108912766,11.01575,-9.224771,1.8386923,0.32364917,-0.17223655,0.36945248,0.85386777,-10.693639,5.2538586,-0.25443524,0.5173015,-0.6123675,-0.31042308,1
0.9300000000000006,14.421857387080227,0.5076531119225006,-0.9630568602176889,-0.3057969412436315,14.130325,-0.46743903,-0.5818341,-0.108912766,10.908776,-9.171708,1.83613,0.3247841,-0.1707089,0.3664189,0.85504997,-10.701352,5.3585043,-0.25789756,-0.46743903,-0.5818341,-0.108912766,1
0.9400000000000006,14.421857387080227,0.5076531119225006,-0.9630568602176889,-0.3057969412436315,14.130325,-0.46743903,-0.5818341,-0.108912766,10.801726,-9.117602,1.8335371,0.3259144,-0.16917883,0.36338007,0.85622,-10.708913,5.462453,-0.2605829,-0.46743903,-0.5818341,-0.108912766,1
0.9500000000000006,14.421857387080227,0.5076531119225006,-0.9630568602176889,-0.3057969412436315,14.130325,-0.46743903,-0.5818341,-0.108912766,10.6946,-9.062462,1.8309209,0.32704008,-0.16764633,0.36033607,0.8573779,-10.716325,5.565699,-0.26249644,-0.46743903,-0.5818341,-0.108912766,1
0.9600000000000006,14.281041277569333,0.7435351845929059,-0.9553401186709215,-0.2789910301963799,13.613802,-0.41543266,-0.48622578,-0.10679227,10.5874,-9.006292,1.8282895,0.3281611,-0.16611145,0.35728693,0.8585236,-10.723586,5.6682367,-0.26364353,-0.46743903,-0.5818341,-0.108912766,0
0.9700000000000006,14.281041277569333,0.7435351845929059,-0.9553401186709215,-0.2789910301963799,13.613802,-0.41543266,-0.48622578,-0.10679227,10.480129,-8.949094,1.8256551,0.33167654,-0.16128577,0.35867247,0.85751444,-10.7301855,5.771398,-0.26321107,0.74353516,-0.95534015,-0.27899104,0
0.9800000000000006,14.281041277569333,0.7435351845929059,-0.9553401186709215,-0.2789910301963799,13.613802,-0.41543266,-0.48622578,-0.10679227,10.372802,-8.890864,1.8230258,0.3351792,-0.15645388,0.36004415,0.85647225,-10.7350645,5.874499,-0.2626148,0.74353516,-0.95534015,-0.27899104,0
0.9900000000000007,14.281041277569333,0.7435351845929059,-0.9553401186709215,-0.2789910301963799,13.613802,-0.41543266,-0.48622578,-0.10679227,10.265433,-8.831605,1.8204032,0.33866894,-0.15161593,0.361402,0.855397,-10.738224,5.97752,-0.2618657,0.74353516,-0.95534015,-0.27899104,0
1.0000000000000007,13.910201119783071,0.6583781836411599,-1.3095972068251056,-0.2495851450213877,12.637854,0.27352193,-0.9778298,-0.050482806,10.158043,-8.771316,1.8177888,0.34214562,-0.14677216,0.36274588,0.8542887,-10.739663,6.0804434,-0.26097488,0.74353516,-0.95534015,-0.27899104,0
1.0100000000000007,13.910201119783071,0.6583781836411599,-1.3095972068251056,-0.2495851450213877,12.637854,0.27352193,-0.9778298,-0.050482806,10.050647,-8.710011,1.8151716,0.34606063,-0.14050066,0.36312455,0.85360503,-10.739286,6.1804705,-0.2624127,0.6583782,-1.3095973,-0.24958515,0
1.0200000000000007,13.910201119783071,0.6583781836411599,-1.3095972068251056,-0.2495851450213877,12.637854,0.27352193,-0.9778298,-0.050482806,9.943264,-8.647708,1.8125422,0.34995648,-0.13422139,0.36348313,0.8528742,-10.736961,6.2800646,-0.26343226,0.6583782,-1.3095973,-0.24958515,0
1.0300000000000007,13.910201119783071,0.6583781836411599,-1.3095972068251056,-0.2495851450213877,12.637854,0.27352193,-0.9778298,-0.050482806,9.835914,-8.584413,1.8099045,0.35383302,-0.12793472,0.36382166,0.85209626,-10.732691,6.379202,-0.2640509,0.6583782,-1.3095973,-0.24958515,0
1.0400000000000007,13.910201119783071,0.6583781836411599,-1.3095972068251056,-0.2495851450213877,12.575457,0.1907678,-1.0678099,-0.03593808,9.728617,-8.520127,1.8072625,0.35769,-0.12164097,0.36414006,0.8512712,-10.726477,6.4778576,-0.26428607,0.6583782,-1.3095973,-0.24958515,0
1.0500000000000007,13.910201119783071,0.6583781836411599,-1.3095972068251056,-0.2495851450213877,12.575457,0.1907678,-1.0678099,-0.03593808,9.621392,-8.454857,1.8046201,0.3615272,-0.11534049,0.36443833,0.85039914,-10.718323,6.576007,-0.2641553,0.6583782,-1.3095973,-0.24958515,0
1.0600000000000007,13.910201119783071,0.6583781836411599,-1.3095972068251056,-0.2495851450213877,12.575457,0.1907678,-1.0678099,-0.03593808,9.514258,-8.388607,1.8019807,0.3653444,-0.10903365,0.36471647,0.84948003,-10.708231,6.673625,-0.26367626,0.6583782,-1.3095973,-0.24958515,0
1.0700000000000007,13.910201119783071,0.6583781836411599,-1.3095972068251056,-0.2495851450213877,12.575457,0.1907678,-1.0678099,-0.03593808,9.407234,-8.321385,1.7993478,0.36914146,-0.102720775,0.36497447,0.848514,-10.696204,6.770688,-0.26286662,0.6583782,-1.3095973,-0.24958515,0
1.0800000000000007,13.74981136361054,0.35464397249034296,-0.9726964388328657,-0.2122598337482362,12.47039,0.059153464,-0.40877327,-0.0053124987,9.300341,-8.253196,1.7967244,0.37291807,-0.09640222,0.36521226,0.8475011,-10.682248,6.8671722,-0.26174408,0.6583782,-1.3095973,-0.24958515,0
1.0900000000000007,13.74981136361054,0.35464397249034296,-0.9726964388328657,-0.2122598337482362,12.47039,0.059153464,-0.40877327,-0.0053124987,9.193594,-8.184051,1.7941082,0.37575942,-0.092005424,0.36479396,0.8469147,-10.666783,6.961975,-0.26146302,0.35464397,-0.9726964,-0.21225983,0
1.1000000000000008,13.74981136361054,0.35464397249034296,-0.9726964388328657,-0.2122598337482362,12.47039,0.059153464,-0.40877327,-0.0053124987,9.087009,-8.113959,1.7914963,0.3785903,-0.08760605,0.3643655,0.8463047,-10.650037,7.0562377,-0.2608734,0.35464397,-0.9726964,-0.21225983,0
1.1100000000000008,13.74981136361054,0.35464397249034296,-0.9726964388328657,-0.2122598337482362,12.47039,0.059153464,-0.40877327,-0.0053124987,8.980598,-8.042928,1.7888917,0.3814106,-0.08320424,0.36392683,0.84567106,-10.632012,7.1499486,-0.2599838,0.35464397,-0.9726964,-0.21225983,0
1.1200000000000008,13.38761753401378,-0.05036742690981377,-0.897178689742083,-0.1524850677794765,12.196839,-0.11341688,-0.51526845,-0.038806256,8.874373,-7.9709616,1.7862976,0.38422027,-0.0788001,0.363478,0.8450138,-10.612714,7.2430964,-0.2588028,0.35464397,-0.9726964,-0.21225983,0
1.1300000000000008,13.38761753401378,-0.05036742690981377,-0.897178689742083,-0.1524850677794765,12.196839,-0.11341688,-0.51526845,-0.038806256,8.768346,-7.89808,1.7837038,0.3864712,-0.07538254,0.3614778,0.8451571,-10.592855,7.333163,-0.25986463,-0.050367426,-0.8971787,-0.15248507,0
1.1400000000000008,13.38761753401378,-0.05036742690981377,-0.897178689742083,-0.1524850677794765,12.196839,-0.11341688,-0.51526845,-0.038806256,8.66252,-7.824301,1.7811021,0.38871413,-0.07196341,0.35947004,0.84528285,-10.572216,7.4224815,-0.26039967,-0.050367426,-0.8971787,-0.15248507,0
1.1500000000000008,13.38761753401378,-0.05036742690981377,-0.897178689742083,-0.1524850677794765,12.196839,-0.11341688,-0.51526845,-0.038806256,8.556904,-7.7496324,1.7784976,0.390949,-0.068542786,0.35745484,0.84539104,-10.550798,7.5110445,-0.26041487,-0.050367426,-0.8971787,-0.15248507,0
1.1600000000000008,13.10461883576924,-0.4223221269814148,-0.8088495380617228,-0.08152784664111302,12.134962,-0.35844514,-0.5252283,-0.10804206,8.451507,-7.6740823,1.7758955,0.39317575,-0.06512074,0.3554322,0.8454817,-10.528605,7.5988436,-0.25991714,-0.050367426,-0.8971787,-0.15248507,1
1.1700000000000008,13.10461883576924,-0.4223221269814148,-0.8088495380617228,-0.08152784664111302,12.134962,-0.35844514,-0.5252283,-0.10804206,8.346324,-7.5976987,1.7732546,0.39444715,-0.06379672,0.35284737,0.8460729,-10.508005,7.677772,-0.268175,-0.35844514,-0.5252283,-0.10804206,1
1.1800000000000008,13.10461883576924,-0.4223221269814148,-0.8088495380617228,-0.08152784664111302,12.134962,-0.35844514,-0.5252283,-0.10804206,8.241347,-7.520529,1.7705337,0.39571446,-0.062472034,0.35025883,0.84665537,-10.48728,7.7561126,-0.2759484,-0.35844514,-0.5252283,-0.10804206,1
1.1900000000000008,13.10461883576924,-0.4223221269814148,-0.8088495380617228,-0.08152784664111302,12.134962,-0.35844514,-0.5252283,-0.10804206,8.136579,-7.442579,1.7677373,0.39697763,-0.0611467,0.34766668,0.847229,-10.466433,7.833863,-0.28324082,-0.35844514,-0.5252283,-0.10804206,1
1.2000000000000008,13.019546163584984,-0.7062782324555756,-1.2091075865980412,0.008124791851189818,12.551985,-0.44552645,-0.92328393,-0.16864532,8.032019,-7.363854,1.7648704,0.3982367,-0.059820727,0.3450709,0.8477938,-10.445463,7.911019,-0.29005566,-0.35844514,-0.5252283,-0.10804206,1
1.2100000000000009,13.019546163584984,-0.7062782324555756,-1.2091075865980412,0.008124791851189818,12.551985,-0.44552645,-0.92328393,-0.16864532,7.9276733,-7.2843475,1.7619538,0.40040594,-0.05708426,0.3412888,0.84849143,-10.423553,7.9900713,-0.29315123,-0.44552645,-0.92328393,-0.16864532,1
1.2200000000000009,13.019546163584984,-0.7062782324555756,-1.2091075865980412,0.008124791851189818,12.551985,-0.44552645,-0.92328393,-0.16864532,7.823549,-7.2040563,1.7590098,0.40256438,-0.054346252,0.33749753,0.84916615,-10.401265,8.068132,-0.2955183,-0.44552645,-0.92328393,-0.16864532,1
1.2300000000000009,13.019546163584984,-0.7062782324555756,-1.2091075865980412,0.008124791851189818,12.551985,-0.44552645,-0.92328393,-0.16864532,7.719649,-7.122989,1.7560459,0.40471196,-0.051606778,0.33369708,0.849818,-10.378604,8.145195,-0.2971663,-0.44552645,-0.92328393,-0.16864532,1
1.2400000000000009,13.019546163584984,-0.7062782324555756,-1.2091075865980412,0.008124791851189818,12.661466,-0.71530247,-1.0875152,-0.20294946,7.6159773,-7.041157,1.753069,0.4068486,-0.04886591,0.3298877,0.85044694,-10.355572,8.22125,-0.29810458,-0.44552645,-0.92328393,-0.16864532,1
1.2500000000000009,13.019546163584984,-0.7062782324555756,-1.2091075865980412,0.008124791851189818,12.661466,-0.71530247,-1.0875152,-0.20294946,7.512539,-6.9585657,1.7500907,0.40932178,-0.04603035,0.32457706,0.8514612,-10.332012,8.296833,-0.29739568,-0.71530247,-1.0875152,-0.20294946,1
1.260000000000001,13.019546163584984,-0.7062782324555756,-1.2091075865980412,0.008124791851189818,12.661466,-0.71530247,-1.0875152,-0.20294946,7.4093375,-6.8752255,1.7471244,0.41177717,-0.043192793,0.31925237,0.8524385,-10.308201,8.371088,-0.29574448,-0.71530247,-1.0875152,-0.20294946,1
1.270000000000001,13.019546163584984,-0.7062782324555756,-1.2091075865980412,0.008124791851189818,12.661466,-0.71530247,-1.0875152,-0.20294946,7.3063755,-6.791149,1.7441791,0.4142147,-0.040353365,0.31391382,0.85337883,-10.284144,8.444001,-0.29316714,-0.71530247,-1.0875152,-0.20294946,1
1.280000000000001,12.86173472634656,-1.0113193443207322,-1.2637604203042323,0.11852839179067418,12.687238,-0.88680923,-1.6855086,-0.22782809,7.2036552,-6.7063503,1.7412641,0.41663426,-0.037512183,0.30856165,0.8542821,-10.25985,8.515562,-0.28967988,-0.71530247,-1.0875152,-0.20294946,1
1.290000000000001,12.86173472634656,-1.0113193443207322,-1.2637604203042323,0.11852839179067418,12.687238,-0.88680923,-1.6855086,-0.22782809,7.1011796,-6.6208425,1.7383898,0.4200223,-0.032509908,0.3012057,0.8554525,-10.235151,8.585665,-0.28496072,-0.88680923,-1.6855086,-0.22782809,1
1.300000000000001,12.86173472634656,-1.0113193443207322,-1.2637604203042323,0.11852839179067418,12.687238,-0.88680923,-1.6855086,-0.22782809,6.9989543,-6.5346437,1.735569,0.4233717,-0.027504642,0.29382208,0.8565442,-10.209903,8.653751,-0.279028,-0.88680923,-1.6855086,-0.22782809,1
1.310000000000001,12.86173472634656,-1.0113193443207322,-1.2637604203042323,0.11852839179067418,12.687238,-0.88680923,-1.6855086,-0.22782809,6.8969836,-6.4477744,1.7328135,0.42668214,-0.022496844,0.28641143,0.8575572,-10.184118,8.719797,-0.27191788,-0.88680923,-1.6855086,-0.22782809,1
1.320000000000001,12.563584828646382,-1.2364164131464632,-1.269801598220176,0.26217777568965284,12.604873,-1.1916652,-1.733449,-0.15329021,6.7952733,-6.360255,1.7301347,0.42995337,-0.017486976,0.2789744,0.85849124,-10.15781,8.783777,-0.26366693,-0.88680923,-1.6855086,-0.22782809,1
1.330000000000001,12.563584828646382,-1.2364164131464632,-1.269801598220176,0.26217777568965284,12.604873,-1.1916652,-1.733449,-0.15329021,6.693828,-6.272108,1.7275406,0.43290117,-0.01282096,0.270104,0.8599277,-10.131264,8.845181,-0.25493777,-1.1916652,-1.733449,-0.15329021,1
1.340000000000001,12.563584828646382,-1.2364164131464632,-1.269801598220176,0.26217777568965284,12.604873,-1.1916652,-1.733449,-0.15329021,6.5926495,-6.1833587,1.7250402,0.43580082,-0.008153519,0.26120353,0.8612685,-10.104479,8.904259,-0.24496259,-1.1916652,-1.733449,-0.15329021,1
1.350000000000001,12.563584828646382,-1.2364164131464632,-1.269801598220176,0.26217777568965284,12.604873,-1.1916652,-1.733449,-0.15329021,6.4917393,-6.0940304,1.7226456,0.43865195,-0.0034851695,0.252274,0.86251354,-10.077471,8.960981,-0.23378824,-1.1916652,-1.733449,-0.15329021,1
1.360000000000001,12.208207381833832,-1.3792594649022931,-0.69923194986246,0.4108864619103203,12.668868,-1.3036213,-1.4267906,-0.20013815,6.3911004,-6.0041466,1.7203684,0.44145435,0.0011835672,0.24331643,0.8636627,-10.050256,9.015325,-0.22146216,-1.1916652,-1.733449,-0.15329021,1
1.370000000000001,12.208207381833832,-1.3792594649022931,-0.69923194986246,0.4108864619103203,12.668868,-1.3036213,-1.4267906,-0.20013815,6.2907357,-5.91373,1.7182229,0.44404125,0.0042238617,0.23452751,0.86475766,-10.0228405,9.067614,-0.20747381,-1.3036213,-1.4267906,-0.20013815,1
1.380000000000001,12.208207381833832,-1.3792594649022931,-0.69923194986246,0.4108864619103203,12.668868,-1.3036213,-1.4267906,-0.20013815,6.1906433,-5.8228016,1.7162225,0.44658625,0.0072637578,0.22571646,0.86577106,-9.995594,9.117694,-0.19244097,-1.3036213,-1.4267906,-0.20013815,1
1.390000000000001,12.208207381833832,-1.3792594649022931,-0.69923194986246,0.4108864619103203,12.668868,-1.3036213,-1.4267906,-0.20013815,6.0908227,-5.731384,1.7143775,0.44908908,0.010302967,0.21688409,0.86670274,-9.968531,9.165549,-0.17640509,-1.3036213,-1.4267906,-0.20013815,1
1.400000000000001,11.753005252226473,-1.4148666539951404,-0.12943592964555004,0.549509912205368,13.026611,-1.3455924,-2.2925923,-0.0054349266,5.9912715,-5.639498,1.7126976,0.45154956,0.013341206,0.20803127,0.8675526,-9.941666,9.211162,-0.15940796,-1.3036213,-1.4267906,-0.20013815,0
1.410000000000001,11.753005252226473,-1.4148666539951404,-0.12943592964555004,0.549509912205368,13.026611,-1.3455924,-2.2925923,-0.0054349266,5.891978,-5.5471826,1.7111503,0.44938186,0.011279467,0.20155905,0.8702311,-9.917315,9.251807,-0.14995268,-1.4148667,-0.12943593,0.5495099,0
1.420000000000001,11.753005252226473,-1.4148666539951404,-0.12943592964555004,0.549509912205368,13.026611,-1.3455924,-2.2925923,-0.0054349266,5.792921,-5.4544654,1.7097007,0.44718805,0.009217071,0.19507515,0.87285906,-9.894167,9.291479,-0.13987008,-1.4148667,-0.12943593,0.5495099,0
1.430000000000001,11.753005252226473,-1.4148666539951404,-0.12943592964555004,0.549509912205368,13.026611,-1.3455924,-2.2925923,-0.0054349266,5.6940904,-5.3613563,1.7083548,0.4449683,0.007154142,0.18857992,0.8754365,-9.872221,9.330161,-0.12918079,-1.4148667,-0.12943593,0.5495099,0
1.440000000000001,11.753005252226473,-1.4148666539951404,-0.12943592964555004,0.549509912205368,12.942736,-1.3953078,-2.2969437,0.1439771,5.5954733,-5.267865,1.7071189,0.44272277,0.0050907973,0.18207374,0.87796307,-9.851474,9.367841,-0.117905624,-1.4148667,-0.12943593,0.5495099,0
1.450000000000001,11.753005252226473,-1.4148666539951404,-0.12943592964555004,0.549509912205368,12.942736,-1.3953078,-2.2969437,0.1439771,5.4970574,-5.1740026,1.7059985,0.44045153,0.0030271576,0.175557,0.8804387,-9.831924,9.404502,-0.10606555,-1.4148667,-0.12943593,0.5495099,0
1.460000000000001,11.753005252226473,-1.4148666539951404,-0.12943592964555004,0.549509912205368,12.942736,-1.3953078,-2.2969437,0.1439771,5.398831,-5.079779,1.7049994,0.43815476,0.00096334214,0.16903009,0.8828633,-9.81357,9.440131,-0.09368163,-1.4148667,-0.12943593,0.5495099,0
1.470000000000001,11.753005252226473,-1.4148666539951404,-0.12943592964555004,0.549509912205368,12.942736,-1.3953078,-2.2969437,0.1439771,5.300782,-4.9852047,1.7041268,0.43583256,-0.0011005291,0.16249338,0.8852367,-9.796408,9.474717,-0.08077508,-1.4148667,-0.12943593,0.5495099,0
1.480000000000001,11.6023331890568,-1.385664015293395,-0.21885608956191152,0.5513755093918375,12.938686,-1.7478329,-2.4380734,0.29787964,5.202899,-4.8902893,1.7033858,0.43348506,-0.003164336,0.15594722,0.88755864,-9.780436,9.508244,-0.067367226,-1.4148667,-0.12943593,0.5495099,0
1.490000000000001,11.6023331890568,-1.385664015293395,-0.21885608956191152,0.5513755093918375,12.938686,-1.7478329,-2.4380734,0.29787964,5.105169,-4.795046,1.7027739,0.4311746,-0.004766389,0.14932793,0.88981235,-9.765805,9.540258,-0.05491313,-1.385664,-0.2188561,0.5513755,0
1.500000000000001,11.6023331890568,-1.385664015293395,-0.21885608956191152,0.5513755093918375,12.938686,-1.7478329,-2.4380734,0.29787964,5.007579,-4.699488,1.7022891,0.42883965,-0.006368171,0.14270018,0.8920155,-9.752252,9.571142,-0.042000934,-1.385664,-0.2188561,0.5513755,0
1.5100000000000011,11.6023331890568,-1.385664015293395,-0.21885608956191152,0.5513755093918375,12.938686,-1.7478329,-2.4380734,0.29787964,4.91012,-4.6036277,1.7019355,0.42648032,-0.007969591,0.13606432,0.8941681,-9.739771,9.600883,-0.028651645,-1.385664,-0.2188561,0.5513755,0
1.5200000000000011,11.45173862200264,-1.2884759369304604,-0.26489717112968086,0.5338631114118179,13.228126,-1.4901687,-2.0409274,0.31960648,4.8127804,-4.507475,1.7017175,0.42409682,-0.009570559,0.12942071,0.8962698,-9.728359,9.629469,-0.014886361,-1.385664,-0.2188561,0.5513755,0
1.5300000000000011,11.45173862200264,-1.2884759369304604,-0.26489717112968086,0.5338631114118179,13.228126,-1.4901687,-2.0409274,0.31960648,4.715549,-4.4110436,1.7016318,0.42180347,-0.010769939,0.12310725,0.8982257,-9.718102,9.656542,-0.002189945,-1.288476,-0.26489717,0.5338631,0
1.5400000000000011,11.45173862200264,-1.2884759369304604,-0.26489717112968086,0.5338631114118179,13.228126,-1.4901687,-2.0409274,0.31960648,4.618415,-4.3143477,1.7016748,0.4194889,-0.011968777,0.11678757,0.9001364,-9.708772,9.682482,0.010859081,-1.288476,-0.26489717,0.5338631,0
1.5500000000000012,11.45173862200264,-1.2884759369304604,-0.26489717112968086,0.5338631114118179,13.228126,-1.4901687,-2.0409274,0.31960648,4.52137,-4.2173977,1.7018499,0.41715318,-0.013167011,0.110462,0.9020017,-9.700363,9.707279,0.024242103,-1.288476,-0.26489717,0.5338631,0
1.5600000000000012,11.427833966720172,-1.1652117833338027,0.17793260075470893,0.5099914807875606,14.450074,-1.3067234,-2.3458848,-0.0016515814,4.424404,-4.120206,1.7021605,0.4147964,-0.014364582,0.10413087,0.9038215,-9.692872,9.730925,0.037940446,-1.288476,-0.26489717,0.5338631,0
1.5700000000000012,11.427833966720172,-1.1652117833338027,0.17793260075470893,0.5099914807875606,14.450074,-1.3067234,-2.3458848,-0.0016515814,4.3275084,-4.022783,1.7026082,0.41230685,-0.017319461,0.099268705,0.9054545,-9.686393,9.753536,0.051671203,-1.1652118,0.1779326,0.50999147,0
1.5800000000000012,11.427833966720172,-1.1652117833338027,0.17793260075470893,0.5099914807875606,14.450074,-1.3067234,-2.3458848,-0.0016515814,4.2306724,-3.9251373,1.7031945,0.4098003,-0.020273628,0.09440244,0.90705013,-9.681047,9.775448,0.06560112,-1.1652118,0.1779326,0.50999147,0
1.5900000000000012,11.427833966720172,-1.1652117833338027,0.17793260075470893,0.5099914807875606,14.450074,-1.3067234,-2.3458848,-0.0016515814,4.1338835,-3.8272762,1.703921,0.40727684,-0.023226958,0.08953227,0.9086084,-9.676832,9.796651,0.079715565,-1.1652118,0.1779326,0.50999147,0
1.6000000000000012,11.354337243619362,-1.0011830908661548,-0.2732664722460912,0.49987650447309984,13.026348,-1.2950581,-0.6354597,0.23617405,4.0371313,-3.7292066,1.7047895,0.40473655,-0.026179329,0.08465842,0.9101291,-9.673744,9.817136,0.093999885,-1.1652118,0.1779326,0.50999147,0
1.6100000000000012,11.354337243619362,-1.0011830908661548,-0.2732664722460912,0.49987650447309984,13.026348,-1.2950581,-0.6354597,0.23617405,3.940405,-3.6309369,1.705798,0.40243974,-0.026749834,0.07961345,0.91158515,-9.671612,9.836674,0.10772899,-1.001183,-0.27326646,0.4998765,0
1.6200000000000012,11.354337243619362,-1.0011830908661548,-0.2732664722460912,0.49987650447309984,13.026348,-1.2950581,-0.6354597,0.23617405,3.8436966,-3.5324764,1.7069447,0.4001296,-0.027319454,0.07456583,0.91301095,-9.67011,9.85523,0.12163508,-1.001183,-0.27326646,0.4998765,0
1.6300000000000012,11.354337243619362,-1.0011830908661548,-0.2732664722460912,0.49987650447309984,13.026348,-1.2950581,-0.6354597,0.23617405,3.7470005,-3.4338355,1.7082313,0.3978061,-0.027888166,0.069515735,0.9144065,-9.669232,9.872802,0.13570656,-1.001183,-0.27326646,0.4998765,0
1.6400000000000012,11.354337243619362,-1.0011830908661548,-0.2732664722460912,0.49987650447309984,12.959964,-1.2120111,-0.7445515,0.39198607,3.6503096,-3.3350239,1.7096595,0.39546943,-0.028455954,0.06446334,0.91577166,-9.668975,9.889382,0.14993177,-1.001183,-0.27326646,0.4998765,0
1.6500000000000012,11.354337243619362,-1.0011830908661548,-0.2732664722460912,0.49987650447309984,12.959964,-1.2120111,-0.7445515,0.39198607,3.5536184,-3.2360513,1.7112305,0.39311963,-0.029022798,0.059408803,0.9171065,-9.669333,9.90497,0.16429906,-1.001183,-0.27326646,0.4998765,0
1.6600000000000013,11.354337243619362,-1.0011830908661548,-0.2732664722460912,0.49987650447309984,12.959964,-1.2120111,-0.7445515,0.39198607,3.4569209,-3.1369278,1.7129458,0.39075682,-0.029588679,0.05435229,0.9184109,-9.670302,9.919559,0.17879674,-1.001183,-0.27326646,0.4998765,0
1.6700000000000013,11.354337243619362,-1.0011830908661548,-0.2732664722460912,0.49987650447309984,12.959964,-1.2120111,-0.7445515,0.39198607,3.3602104,-3.0376637,1.7148068,0.38838103,-0.030153578,0.049293984,0.91968477,-9.671876,9.933143,0.19341312,-1.001183,-0.27326646,0.4998765,0
1.6800000000000013,11.352129835516306,-0.8807147007669432,0.4154240858088863,0.4774113689798179,12.706377,-1.2120594,-1.9255705,0.37740487,3.263481,-2.9382687,1.7168145,0.38599238,-0.030717475,0.044234034,0.9209281,-9.67405,9.945719,0.20813653,-1.001183,-0.27326646,0.4998765,0
1.6900000000000013,11.352129835516306,-0.8807147007669432,0.4154240858088863,0.4774113689798179,12.706377,-1.2120594,-1.9255705,0.37740487,3.1667266,-2.8387523,1.7189697,0.38356125,-0.03422404,0.041053105,0.92196697,-9.676988,9.957521,0.22290385,-0.8807147,0.41542408,0.47741136,0
1.7000000000000013,11.352129835516306,-0.8807147007669432,0.4154240858088863,0.4774113689798179,12.706377,-1.2120594,-1.9255705,0.37740487,3.0699377,-2.7391195,1.7212726,0.38111883,-0.037729602,0.037870966,0.9229787,-9.680966,9.968956,0.23767726,-0.8807147,0.41542408,0.47741136,0
1.7100000000000013,11.352129835516306,-0.8807147007669432,0.4154240858088863,0.4774113689798179,12.706377,-1.2120594,-1.9255705,0.37740487,2.9731038,-2.6393743,1.7237232,0.37866524,-0.041234054,0.034687713,0.92396325,-9.6859865,9.980016,0.25244662,-0.8807147,0.41542408,0.47741136,0
1.7200000000000013,11.235508351319934,-0.7056387397886542,-0.10709175047159358,0.47763060297316745,12.640318,-1.192135,-2.3662884,0.36012596,2.8762145,-2.5395207,1.7263215,0.3762005,-0.04473729,0.031503443,0.9249206,-9.692044,9.990694,0.26720178,-0.8807147,0.41542408,0.47741136,0
1.7300000000000013,11.235508351319934,-0.7056387397886542,-0.10709175047159358,0.47763060297316745,12.640318,-1.192135,-2.3662884,0.36012596,2.7792602,-2.4395628,1.7290614,0.3738472,-0.04549369,0.028145263,0.9259456,-9.698854,10.00078,0.28079566,-0.70563877,-0.10709175,0.47763062,0
1.7400000000000013,11.235508351319934,-0.7056387397886542,-0.10709175047159358,0.47763060297316745,12.640318,-1.192135,-2.3662884,0.36012596,2.6822357,-2.3395073,1.7319374,0.37148702,-0.04624925,0.024786565,0.92695355,-9.70613,10.010212,0.2944172,-0.70563877,-0.10709175,0.47763062,0
1.7500000000000013,11.235508351319934,-0.7056387397886542,-0.10709175047159358,0.47763060297316745,12.640318,-1.192135,-2.3662884,0.36012596,2.5851362,-2.2393606,1.7349498,0.36911997,-0.047003962,0.02142741,0.9279444,-9.713866,10.01899,0.30806112,-0.70563877,-0.10709175,0.47763062,0
1.7600000000000013,11.172487283747445,-0.5866873630161571,-0.029792171997933152,0.46847637302796896,12.534742,-1.3482968,-1.2933887,0.73734826,2.487957,-2.1391294,1.7380987,0.36674616,-0.047757808,0.01806786,0.9289181,-9.72206,10.027109,0.32172212,-0.70563877,-0.10709175,0.47763062,0
1.7700000000000014,11.172487283747445,-0.5866873630161571,-0.029792171997933152,0.46847637302796896,12.534742,-1.3482968,-1.2933887,0.73734826,2.390694,-2.0388205,1.7413812,0.3644303,-0.0486526,0.015400052,0.92983073,-9.730651,10.034584,0.33476496,-0.5866874,-0.029792173,0.46847638,0
1.7800000000000014,11.172487283747445,-0.5866873630161571,-0.029792171997933152,0.46847637302796896,12.534742,-1.3482968,-1.2933887,0.73734826,2.2933426,-1.9384394,1.744794,0.3621093,-0.049546707,0.012732027,0.9307302,-9.739663,10.041555,0.3478071,-0.5866874,-0.029792173,0.46847638,0
1.7900000000000014,11.172487283747445,-0.5866873630161571,-0.029792171997933152,0.46847637302796896,12.534742,-1.3482968,-1.2933887,0.73734826,2.1958992,-1.837991,1.7483373,0.35978317,-0.050440118,0.010063822,0.9316166,-9.749094,10.048022,0.3608451,-0.5866874,-0.029792173,0.46847638,0
1.8000000000000014,11.024902635930601,-0.5306281222396987,-0.6252628114007509,0.48238418945464423,13.018085,-0.98124814,-1.2325499,0.65802664,2.0983593,-1.7374806,1.752011,0.35745198,-0.051332816,0.007395476,0.9324898,-9.758941,10.053982,0.37387538,-0.5866874,-0.029792173,0.46847638,0
1.8100000000000014,11.024902635930601,-0.5306281222396987,-0.6252628114007509,0.48238418945464423,13.018085,-0.98124814,-1.2325499,0.65802664,2.0007203,-1.636914,1.7558075,0.35508576,-0.049347516,0.003927683,0.93352145,-9.768867,10.059213,0.3854516,-0.53062814,-0.6252628,0.48238418,0
1.8200000000000014,11.024902635930601,-0.5306281222396987,-0.6252628114007509,0.48238418945464423,13.018085,-0.98124814,-1.2325499,0.65802664,1.9029825,-1.5362996,1.7597202,0.35271153,-0.047361106,0.00045980047,0.93453205,-9.778669,10.06355,0.397078,-0.53062814,-0.6252628,0.48238418,0
1.8300000000000014,11.024902635930601,-0.5306281222396987,-0.6252628114007509,0.48238418945464423,13.018085,-0.98124814,-1.2325499,0.65802664,1.8051473,-1.4356462,1.7637492,0.35032934,-0.045373622,-0.0030080928,0.9355215,-9.788343,10.066993,0.40874746,-0.53062814,-0.6252628,0.48238418,0
1.8400000000000014,11.024902635930601,-0.5306281222396987,-0.6252628114007509,0.48238418945464423,12.903907,-0.90492296,-1.465566,0.79121107,1.7072159,-1.3349627,1.7678952,0.3479392,-0.043385115,-0.0064759175,0.9364897,-9.797886,10.069543,0.42045295,-0.53062814,-0.6252628,0.48238418,0
1.8500000000000014,11.024902635930601,-0.5306281222396987,-0.6252628114007509,0.48238418945464423,12.903907,-0.90492296,-1.465566,0.79121107,1.60919,-1.2342583,1.7721584,0.34554118,-0.04139562,-0.009943595,0.93743676,-9.807289,10.071198,0.43218747,-0.53062814,-0.6252628,0.48238418,0
1.8600000000000014,11.024902635930601,-0.5306281222396987,-0.6252628114007509,0.48238418945464423,12.903907,-0.90492296,-1.465566,0.79121107,1.5110707,-1.133542,1.776539,0.34313536,-0.039405193,-0.013411048,0.9383626,-9.816549,10.071963,0.44394398,-0.53062814,-0.6252628,0.48238418,0
1.8700000000000014,11.024902635930601,-0.5306281222396987,-0.6252628114007509,0.48238418945464423,12.903907,-0.90492296,-1.465566,0.79121107,1.4128596,-1.0328223,1.7810372,0.34072176,-0.037413873,-0.016878197,0.9392672,-9.825662,10.0718355,0.45571548,-0.53062814,-0.6252628,0.48238418,0
1.8800000000000014,10.927468890253836,-0.5001475971428981,-0.363517527287694,0.4992436453583046,13.417104,-1.0264053,-2.107739,0.6724244,1.3145579,-0.9321083,1.7856532,0.33830044,-0.035421707,-0.020344965,0.94015056,-9.83462,10.070816,0.4674949,-0.53062814,-0.6252628,0.48238418,0
1.8900000000000015,10.927468890253836,-0.5001475971428981,-0.363517527287694,0.4992436453583046,13.417104,-1.0264053,-2.107739,0.6724244,1.2161678,-0.83140874,1.7903821,0.33582538,-0.03460941,-0.023222338,0.9410011,-9.843418,10.069002,0.47829962,-0.5001476,-0.36351752,0.49924365,0
1.9000000000000015,10.927468890253836,-0.5001475971428981,-0.363517527287694,0.4992436453583046,13.417104,-1.0264053,-2.107739,0.6724244,1.1176894,-0.7307306,1.7952192,0.33334506,-0.033796564,-0.026099345,0.94183683,-9.852254,10.066514,0.48908788,-0.5001476,-0.36351752,0.49924365,0
1.9100000000000015,10.927468890253836,-0.5001475971428981,-0.363517527287694,0.4992436453583046,13.417104,-1.0264053,-2.107739,0.6724244,1.0191226,-0.63008076,1.800164,0.33085948,-0.032983188,-0.02897594,0.94265765,-9.861124,10.063352,0.49985585,-0.5001476,-0.36351752,0.49924365,0
1.9200000000000015,10.768575294105604,-0.5100788538569002,-0.4745171626728135,0.5291628494178975,13.422892,-1.0688311,-2.4825864,0.80418247,0.9204669,-0.5294659,1.8052163,0.32836866,-0.03216929,-0.031852078,0.9434636,-9.870026,10.059514,0.5105996,-0.5001476,-0.36351752,0.49924365,0
1.9300000000000015,10.768575294105604,-0.5100788538569002,-0.4745171626728135,0.5291628494178975,13.422892,-1.0688311,-2.4825864,0.80418247,0.82172275,-0.42889255,1.8103681,0.32571167,-0.03085228,-0.034951936,0.9443185,-9.878792,10.0550375,0.5197343,-0.51007885,-0.47451717,0.5291628,0
1.9400000000000015,10.768575294105604,-0.5100788538569002,-0.4745171626728135,0.5291628494178975,13.422892,-1.0688311,-2.4825864,0.80418247,0.7228913,-0.3283677,1.815611,0.32304847,-0.029534683,-0.038051125,0.9451552,-9.887494,10.049813,0.5288405,-0.51007885,-0.47451717,0.5291628,0
1.9500000000000015,10.768575294105604,-0.5100788538569002,-0.4745171626728135,0.5291628494178975,13.422892,-1.0688311,-2.4825864,0.80418247,0.62397313,-0.22789887,1.8209448,0.32037908,-0.028216518,-0.041149586,0.9459738,-9.896127,10.043842,0.53791326,-0.51007885,-0.47451717,0.5291628,0
1.9600000000000015,10.671383092509549,-0.5402213133806081,0.026315317956489972,0.5471278954011157,12.942355,-0.8828497,-1.4250331,0.58467,0.524969,-0.12749346,1.8263692,0.31770355,-0.026897814,-0.044247262,0.9467744,-9.904687,10.037127,0.5469478,-0.51007885,-0.47451717,0.5291628,0
1.9700000000000015,10.671383092509549,-0.5402213133806081,0.026315317956489972,0.5471278954011157,12.942355,-0.8828497,-1.4250331,0.58467,0.42587954,-0.027158266,1.8318789,0.31504434,-0.028001383,-0.04668888,0.94751346,-9.913259,10.029842,0.554967,-0.54022133,0.026315318,0.5471279,0
1.9800000000000015,10.671383092509549,-0.5402213133806081,0.026315317956489972,0.5471278954011157,12.942355,-0.8828497,-1.4250331,0.58467,0.32670254,0.07310187,1.8374684,0.31238046,-0.029104536,-0.04912981,0.9482385,-9.922196,10.022116,0.56292474,-0.54022133,0.026315318,0.5471279,0
1.9900000000000015,10.671383092509549,-0.5402213133806081,0.026315317956489972,0.5471278954011157,12.942355,-0.8828497,-1.4250331,0.58467,0.22743435,0.17328253,1.8431371,0.309712,-0.03020726,-0.051570013,0.9489495,-9.931498,10.013947,0.57081795,-0.54022133,0.026315318,0.5471279,0
2.0000000000000013,,,,,12.078228,-1.1787866,-2.1371202,0.5253627,0.12807135,0.27337927,1.8488847,0.3070389,-0.031309534,-0.054009456,0.9496465,-9.941158,10.005331,0.57864356,-0.54022133,0.026315318,0.5471279,0
2.010000000000001,,,,,12.078228,-1.1787866,-2.1371202,0.5253627,0.028610807,0.37338758,1.8547057,0.3040195,-0.030109493,-0.057519812,0.95045024,-9.950945,9.996204,0.5855351,-0.60325545,-0.4811368,0.587893,0
2.020000000000001,,,,,12.078228,-1.1787866,-2.1371202,0.5253627,-0.07094739,0.47330055,1.8605952,0.30099297,-0.028908746,-0.061028812,0.95123166,-9.960686,9.986265,0.59235716,-0.60325545,-0.4811368,0.587893,0
2.0300000000000007,,,,,12.078228,-1.1787866,-2.1371202,0.5253627,-0.17060274,0.57311004,1.8665526,0.2979593,-0.02770732,-0.06453638,0.95199066,-9.970375,9.975513,0.599104,-0.60325545,-0.4811368,0.587893,0
2.0400000000000005,,,,,12.078228,-1.1787866,-2.1371202,0.5253627,-0.2703547,0.672808,1.8725772,0.29491863,-0.026505241,-0.06804243,0.95272726,-9.980007,9.963953,0.6057698,-0.60325545,-0.4811368,0.587893,0
2.0500000000000003,,,,,12.04158,-1.1311129,-1.6853892,0.5653791,-0.37020263,0.7723863,1.8786678,0.29187104,-0.025302539,-0.071546875,0.95344144,-9.989576,9.95158,0.61234885,-0.60325545,-0.4811368,0.587893,1
2.06,,,,,12.04158,-1.1311129,-1.6853892,0.5653791,-0.47015157,0.8718264,1.8848958,0.2884136,-0.019119602,-0.07932306,0.9540221,-10.000065,9.936088,0.6332002,-1.1311129,-1.6853892,0.5653791,1
2.07,,,,,12.04158,-1.1311129,-1.6853892,0.5653791,-0.5702007,0.97110033,1.8913311,0.28492418,-0.012934541,-0.08709044,0.9544969,-10.009612,9.918352,0.6538175,-1.1311129,-1.6853892,0.5653791,1
2.0799999999999996,,,,,12.04158,-1.1311129,-1.6853892,0.5653791,-0.6703405,1.0701858,1.8979712,0.2814031,-0.006748046,-0.094848156,0.9548659,-10.018199,9.898386,0.67415357,-1.1311129,-1.6853892,0.5653791,1
2.0899999999999994,,,,,12.450915,-0.98447573,-1.1889442,0.8204116,-0.77056134,1.1690603,1.904813,0.2778508,-0.00056080206,-0.10259535,0.9551288,-10.02581,9.876203,0.6941615,-1.1311129,-1.6853892,0.5653791,1
2.099999999999999,,,,,12.450915,-0.98447573,-1.1889442,0.8204116,-0.8708549,1.2676985,1.9118732,0.2733096,0.0033286053,-0.1089423,0.9557304,-10.032814,9.851167,0.7178251,-0.98447573,-1.1889442,0.8204116,1
2.109999999999999,,,,,12.450915,-0.98447573,-1.1889442,0.8204116,-0.9712154,1.3660774,1.9191682,0.2687475,0.0072177583,-0.11528093,0.95625895,-10.039202,9.824345,0.7411416,-0.98447573,-1.1889442,0.8204116,1
2.1199999999999988,,,,,12.450915,-0.98447573,-1.1889442,0.8204116,-1.0716368,1.4641793,1.9266945,0.26416487,0.011106362,-0.12161075,0.9567145,-10.044958,9.795746,0.76408386,-0.98447573,-1.1889442,0.8204116,1
2.1299999999999986,,,,,12.948982,-1.0464717,-1.6247424,1.0602746,-1.1721125,1.5619863,1.9344482,0.25956208,0.014994116,-0.12793128,0.95709693,-10.050066,9.765384,0.78662485,-0.98447573,-1.1889442,0.8204116,1
2.1399999999999983,,,,,12.948982,-1.0464717,-1.6247424,1.0602746,-1.2726363,1.6594741,1.9424493,0.2535117,0.020731935,-0.13511936,0.9576236,-10.054519,9.731855,0.81351763,-1.0464717,-1.6247424,1.0602746,1
2.149999999999998,,,,,12.948982,-1.0464717,-1.6247424,1.0602746,-1.3731987,1.7566159,1.9507166,0.2474305,0.026467236,-0.14229101,0.9580339,-10.057809,9.696185,0.83985174,-1.0464717,-1.6247424,1.0602746,1
