time-since-start [s],throttle_mpc,roll_mpc,pitch_mpc,yaw_mpc,throttle_nw,roll_nw,pitch_nw,yaw_nw,position_x [m],position_y [m],position_z [m],rotation_w [quaternion],rotation_x [quaternion],rotation_y [quaternion],rotation_z [quaternion],velocity_x [m/s],velocity_y [m/s],velocity_z [m/s],omega_x [rad/s],omega_y [rad/s],omega_z [rad/s],network_used
0.0,10.63187956194011,5.9999995491553335,-5.999999909896813,-2.7157840686942207,13.3352785,-0.4554797,-5.185025,-1.1851382,20.15574,-8.777501,2.0057964,-0.109633654,-0.453784,0.273556,0.8409683,-9.820533,-6.597431,0.22611356,1.7295816,-0.4094239,-0.36768043,0
0.01,10.63187956194011,5.9999995491553335,-5.999999909896813,-2.7157840686942207,13.978076,0.06683698,-6.460556,-0.9457186,20.057102,-8.843274,2.007801,-0.07629625,-0.43511438,0.29563338,0.8470273,-9.906476,-6.556119,0.17496444,5.9999995,-6.0,-2.715784,0
0.02,10.63187956194011,5.9999995491553335,-5.999999909896813,-2.7157840686942207,13.978076,0.06683698,-6.460556,-0.9457186,19.957628,-8.908595,2.0092983,-0.042807467,-0.4155815,0.31712422,0.8514057,-9.987802,-6.5071063,0.12462623,5.9999995,-6.0,-2.715784,0
0.03,10.63187956194011,5.9999995491553335,-5.999999909896813,-2.7157840686942207,13.978076,0.06683698,-6.460556,-0.9457186,19.857367,-8.973391,2.0102959,-0.009233756,-0.39522406,0.33798584,0.8540949,-10.063844,-6.450822,0.07497304,5.9999995,-6.0,-2.715784,0
0.04,10.63187956194011,5.9999995491553335,-5.999999909896813,-2.7157840686942207,15.22617,-0.8039297,-5.403892,-0.9407539,19.756372,-9.037589,2.0108,0.024358278,-0.37408248,0.35817692,0.85508955,-10.133975,-6.3877516,0.025873588,5.9999995,-6.0,-2.715784,0
0.05,10.63187956194011,5.9999995491553335,-5.999999909896813,-2.7157840686942207,15.22617,-0.8039297,-5.403892,-0.9407539,19.654709,-9.101125,2.0108147,0.057901982,-0.35219872,0.37765732,0.8543876,-10.1976185,-6.318435,-0.022807822,5.9999995,-6.0,-2.715784,0
0.060000000000000005,10.63187956194011,5.9999995491553335,-5.999999909896813,-2.7157840686942207,15.22617,-0.8039297,-5.403892,-0.9407539,19.552443,-9.163938,2.0103443,0.09133081,-0.3296162,0.39638844,0.85199046,-10.254246,-6.243463,-0.07121019,5.9999995,-6.0,-2.715784,0
0.07,10.63187956194011,5.9999995491553335,-5.999999909896813,-2.7157840686942207,15.22617,-0.8039297,-5.403892,-0.9407539,19.449648,-9.225976,2.0093906,0.12457843,-0.30637968,0.41433308,0.84790295,-10.303387,-6.16347,-0.11947474,5.9999995,-6.0,-2.715784,0
0.08,18.2765148257783,5.999998141369835,-5.999999814966927,-1.139168666535064,15.759169,-2.0498664,-2.2901285,0.082580745,19.346401,-9.287191,2.0079544,0.15757889,-0.28253528,0.43145564,0.84213316,-10.344628,-6.0791297,-0.16774376,5.9999995,-6.0,-2.715784,0
0.09,18.2765148257783,5.999998141369835,-5.999999814966927,-1.139168666535064,15.759169,-2.0498664,-2.2901285,0.082580745,19.24266,-9.347231,2.006214,0.18364291,-0.25475103,0.44998196,0.8359982,-10.401352,-5.9278817,-0.18045875,5.999998,-6.0,-1.1391686,0
0.09999999999999999,18.2765148257783,5.999998141369835,-5.999999814966927,-1.139168666535064,15.759169,-2.0498664,-2.2901285,0.082580745,19.138426,-9.405732,2.004343,0.20937046,-0.22649999,0.46768382,0.82833153,-10.443449,-5.771555,-0.19385745,5.999998,-6.0,-1.1391686,0
0.10999999999999999,18.2765148257783,5.999998141369835,-5.999999814966927,-1.139168666535064,15.759169,-2.0498664,-2.2901285,0.082580745,19.033844,-9.462649,2.0023332,0.23471442,-0.19783397,0.4845288,0.8191472,-10.470582,-5.6113515,-0.2083932,5.999998,-6.0,-1.1391686,0
0.11999999999999998,18.2765148257783,5.999998141369835,-5.999999814966927,-1.139168666535064,15.759169,-2.0498664,-2.2901285,0.082580745,18.929066,-9.517951,2.0001702,0.25962833,-0.16880551,0.5004861,0.80846214,-10.482526,-5.4485,-0.22451107,5.999998,-6.0,-1.1391686,0
0.12999999999999998,20.99999821578701,2.5845575377991765,-5.9999991296104636,0.6247993756294613,14.812433,-1.8774059,-2.143966,-0.120545685,18.824245,-9.571615,1.9978361,0.28406656,-0.13946778,0.51552635,0.7962959,-10.479167,-5.284249,-0.24264452,5.999998,-6.0,-1.1391686,0
0.13999999999999999,20.99999821578701,2.5845575377991765,-5.9999991296104636,0.6247993756294613,14.812433,-1.8774059,-2.143966,-0.120545685,18.719543,-9.623514,1.9953728,0.29869145,-0.11022762,0.5174525,0.79427695,-10.459319,-5.096112,-0.24966341,2.5845575,-5.999999,0.6247994,0
0.15,20.99999821578701,2.5845575377991765,-5.9999991296104636,0.6247993756294613,14.812433,-1.8774059,-2.143966,-0.120545685,18.615105,-9.673547,1.9928498,0.31299478,-0.080868796,0.51882154,0.7914028,-10.426224,-4.910867,-0.25462723,2.5845575,-5.999999,0.6247994,0
0.16,20.999997841523182,-0.07747758711237587,-2.9486443563802163,0.6669378303281948,14.745931,-3.6396978,0.64208645,-0.38923985,18.511063,-9.7217455,1.9902856,0.3269611,-0.051422894,0.519632,0.7876766,-10.380001,-4.7292705,-0.2580092,2.5845575,-5.999999,0.6247994,0
0.17,20.999997841523182,-0.07747758711237587,-2.9486443563802163,0.6669378303281948,14.745931,-3.6396978,0.64208645,-0.38923985,18.407541,-9.7681465,1.9876953,0.33193803,-0.03819848,0.51461864,0.78963625,-10.32388,-4.5514045,-0.25961474,-0.07747759,-2.9486444,0.6669378,0
0.18000000000000002,20.999997841523182,-0.07747758711237587,-2.9486443563802163,0.6669378303281948,14.745931,-3.6396978,0.64208645,-0.38923985,18.304604,-9.812784,1.9851024,0.33683905,-0.02496533,0.5094876,0.79141533,-10.263037,-4.376564,-0.2585886,-0.07747759,-2.9486444,0.6669378,0
0.19000000000000003,20.999997841523182,-0.07747758711237587,-2.9486443563802163,0.6669378303281948,14.745931,-3.6396978,0.64208645,-0.38923985,18.202297,-9.855689,1.9825324,0.34166303,-0.0117264725,0.50424016,0.79301345,-10.197501,-4.204891,-0.25504923,-0.07747759,-2.9486444,0.6669378,0
0.20000000000000004,20.719501055360034,-0.7092588269526284,-0.3559523807924076,0.4313447041555198,15.156773,-4.145756,3.9842796,-0.19626838,18.10067,-9.896893,1.9800098,0.34640893,0.0015150651,0.49887747,0.7944303,-10.127308,-4.036525,-0.24911727,-0.07747759,-2.9486444,0.6669378,0
0.21000000000000005,20.719501055360034,-0.7092588269526284,-0.3559523807924076,0.4313447041555198,15.156773,-4.145756,3.9842796,-0.19626838,17.999758,-9.936439,1.9775498,0.3455853,0.002776415,0.4954353,0.79693574,-10.055288,-3.8728085,-0.24262452,-0.70925885,-0.35595238,0.43134472,0
0.22000000000000006,20.719501055360034,-0.7092588269526284,-0.3559523807924076,0.4313447041555198,15.156773,-4.145756,3.9842796,-0.19626838,17.899565,-9.974352,1.9751619,0.3447546,0.004037708,0.49198306,0.79942495,-9.983513,-3.709896,-0.23471834,-0.70925885,-0.35595238,0.43134472,0
0.23000000000000007,20.719501055360034,-0.7092588269526284,-0.3559523807924076,0.4313447041555198,15.156773,-4.145756,3.9842796,-0.19626838,17.800087,-10.010639,1.9728602,0.3439169,0.0052989186,0.4885208,0.8018979,-9.91198,-3.5478003,-0.22540581,-0.70925885,-0.35595238,0.43134472,0
0.24000000000000007,20.719501055360034,-0.7092588269526284,-0.3559523807924076,0.4313447041555198,16.21616,-3.7591372,5.516672,-0.16438872,17.701324,-10.04531,1.9706587,0.34307218,0.0065600215,0.48504853,0.8043544,-9.840686,-3.386534,-0.21469413,-0.70925885,-0.35595238,0.43134472,0
0.25000000000000006,20.719501055360034,-0.7092588269526284,-0.3559523807924076,0.4313447041555198,16.21616,-3.7591372,5.516672,-0.16438872,17.603273,-10.078374,1.9685712,0.34222043,0.007820991,0.4815664,0.8067946,-9.769631,-3.2261097,-0.20259054,-0.70925885,-0.35595238,0.43134472,0
0.26000000000000006,20.719501055360034,-0.7092588269526284,-0.3559523807924076,0.4313447041555198,16.21616,-3.7591372,5.516672,-0.16438872,17.505932,-10.109837,1.9666116,0.34136173,0.0090818,0.4780744,0.8092183,-9.6988125,-3.0665405,-0.18910247,-0.70925885,-0.35595238,0.43134472,0
0.2700000000000001,20.719501055360034,-0.7092588269526284,-0.3559523807924076,0.4313447041555198,16.21616,-3.7591372,5.516672,-0.16438872,17.409296,-10.139708,1.9647939,0.34049603,0.010342424,0.4745727,0.8116254,-9.628227,-2.9078386,-0.17423743,-0.70925885,-0.35595238,0.43134472,0
0.2800000000000001,19.140236157121034,-1.2398736790582265,1.489364536344963,0.21362022842848263,17.14035,-3.5853448,5.6573324,-0.3202129,17.313368,-10.167996,1.9631318,0.33962342,0.011602837,0.4710613,0.81401604,-9.557875,-2.7500172,-0.15800305,-0.70925885,-0.35595238,0.43134472,0
0.2900000000000001,19.140236157121034,-1.2398736790582265,1.489364536344963,0.21362022842848263,17.14035,-3.5853448,5.6573324,-0.3202129,17.21811,-10.194769,1.9615943,0.33530194,0.0039382633,0.4685093,0.81734675,-9.494325,-2.6044316,-0.14933217,-1.2398736,1.4893645,0.21362023,0
0.3000000000000001,19.140236157121034,-1.2398736790582265,1.489364536344963,0.21362022842848263,17.14035,-3.5853448,5.6573324,-0.3202129,17.12347,-10.220082,1.9601485,0.33094856,-0.0037266836,0.46591273,0.8205998,-9.434272,-2.4580638,-0.13971055,-1.2398736,1.4893645,0.21362023,0
0.3100000000000001,19.140236157121034,-1.2398736790582265,1.489364536344963,0.21362022842848263,17.14035,-3.5853448,5.6573324,-0.3202129,17.029413,-10.243928,1.9588034,0.32656375,-0.011391276,0.46327195,0.8237748,-9.377741,-2.3109732,-0.1291724,-1.2398736,1.4893645,0.21362023,0
0.3200000000000001,17.910013788569824,-1.5744268836656472,3.091168910011499,0.03418073478147012,17.666172,-3.408218,5.8983994,-0.29771072,16.935902,-10.266299,1.9575682,0.32214788,-0.019054785,0.4605871,0.8268716,-9.32475,-2.1632195,-0.1177523,-1.2398736,1.4893645,0.21362023,0
0.3300000000000001,17.910013788569824,-1.5744268836656472,3.091168910011499,0.03418073478147012,17.666172,-3.408218,5.8983994,-0.29771072,16.842886,-10.287235,1.9564153,0.3146897,-0.03428843,0.458991,0.8301334,-9.279477,-2.0239391,-0.11277345,-1.5744269,3.0911689,0.034180734,0
0.34000000000000014,17.910013788569824,-1.5744268836656472,3.091168910011499,0.03418073478147012,17.666172,-3.408218,5.8983994,-0.29771072,16.750292,-10.306772,1.9553132,0.30713683,-0.049511757,0.4572568,0.83314544,-9.240186,-1.882993,-0.10760582,-1.5744269,3.0911689,0.034180734,0
0.35000000000000014,17.910013788569824,-1.5744268836656472,3.091168910011499,0.03418073478147012,17.666172,-3.408218,5.8983994,-0.29771072,16.658062,-10.324892,1.9542632,0.29949158,-0.06472018,0.45538497,0.8359068,-9.206924,-1.7405515,-0.10237197,-1.5744269,3.0911689,0.034180734,0
0.36000000000000015,17.23299110852775,-1.6179233797757655,3.215136984818919,-0.12946834024164985,16.873356,-3.5536544,5.718386,-0.22346526,16.566133,-10.34158,1.9532654,0.2917562,-0.07990914,0.45337614,0.83841664,-9.179732,-1.5967872,-0.09719447,-1.5744269,3.0911689,0.034180734,0
0.37000000000000016,17.23299110852775,-1.6179233797757655,3.215136984818919,-0.12946834024164985,16.873356,-3.5536544,5.718386,-0.22346526,16.474442,-10.356852,1.9522992,0.28431728,-0.09602711,0.45115876,0.8404747,-9.159522,-1.4573314,-0.09610692,-1.6179234,3.215137,-0.12946834,0
0.38000000000000017,17.23299110852775,-1.6179233797757655,3.215136984818919,-0.12946834024164985,16.873356,-3.5536544,5.718386,-0.22346526,16.382921,-10.370723,1.9513422,0.27678615,-0.11211396,0.44879508,0.84226024,-9.145426,-1.3168881,-0.095356025,-1.6179234,3.215137,-0.12946834,0
0.3900000000000002,17.23299110852775,-1.6179233797757655,3.215136984818919,-0.12946834024164985,16.873356,-3.5536544,5.718386,-0.22346526,16.291512,-10.383185,1.9503905,0.2691653,-0.12816446,0.44628587,0.8437727,-9.137459,-1.1756346,-0.0950764,-1.6179234,3.215137,-0.12946834,0
0.4000000000000002,16.753324576636874,-1.3401330603065453,1.9539722586133625,-0.27140025142152713,15.773724,-3.4675875,4.539261,-0.4222172,16.200151,-10.394233,1.9494386,0.26145712,-0.14417337,0.4436319,0.84501153,-9.135632,-1.0337495,-0.095402025,-1.6179234,3.215137,-0.12946834,0
0.4100000000000002,16.753324576636874,-1.3401330603065453,1.9539722586133625,-0.27140025142152713,15.773724,-3.4675875,4.539261,-0.4222172,16.10878,-10.403879,1.9484671,0.25728503,-0.15477246,0.44029704,0.8461607,-9.139076,-0.8955292,-0.09890054,-1.3401331,1.9539722,-0.27140024,0
0.4200000000000002,16.753324576636874,-1.3401330603065453,1.9539722586133625,-0.27140025142152713,15.773724,-3.4675875,4.539261,-0.4222172,16.017355,-10.412144,1.9474603,0.25307634,-0.16534954,0.43689957,0.84718955,-9.146488,-0.75739825,-0.102496274,-1.3401331,1.9539722,-0.27140024,0
0.4300000000000002,16.753324576636874,-1.3401330603065453,1.9539722586133625,-0.27140025142152713,15.773724,-3.4675875,4.539261,-0.4222172,15.925837,-10.419027,1.9464167,0.2488317,-0.1759031,0.43344,0.848098,-9.157862,-0.61942804,-0.106251165,-1.3401331,1.9539722,-0.27140024,0
0.4400000000000002,16.753324576636874,-1.3401330603065453,1.9539722586133625,-0.27140025142152713,15.705261,-3.634626,4.1649218,-0.33178884,15.834185,-10.424533,1.9453346,0.24455167,-0.18643166,0.4299188,0.84888583,-9.173191,-0.48169,-0.11022707,-1.3401331,1.9539722,-0.27140024,0
0.45000000000000023,16.753324576636874,-1.3401330603065453,1.9539722586133625,-0.27140025142152713,15.705261,-3.634626,4.1649218,-0.33178884,15.742359,-10.428662,1.9442114,0.24023686,-0.19693372,0.42633647,0.8495529,-9.19247,-0.34425527,-0.1144857,-1.3401331,1.9539722,-0.27140024,0
0.46000000000000024,16.753324576636874,-1.3401330603065453,1.9539722586133625,-0.27140025142152713,15.705261,-3.634626,4.1649218,-0.33178884,15.650322,-10.431419,1.9430438,0.2358879,-0.20740776,0.42269352,0.8500992,-9.215684,-0.20719498,-0.11908864,-1.3401331,1.9539722,-0.27140024,0
0.47000000000000025,16.753324576636874,-1.3401330603065453,1.9539722586133625,-0.27140025142152713,15.705261,-3.634626,4.1649218,-0.33178884,15.558032,-10.432808,1.9418283,0.2315054,-0.21785232,0.41899046,0.85052466,-9.242823,-0.070579976,-0.12409725,-1.3401331,1.9539722,-0.27140024,0
0.48000000000000026,16.57647912438343,-1.1084949772103572,1.305887788911818,-0.3298713183551757,15.621564,-3.9467337,2.8518088,-0.21041399,15.465452,-10.432833,1.9405605,0.22708997,-0.22826591,0.4152278,0.8508292,-9.273869,0.06551918,-0.12957266,-1.3401331,1.9539722,-0.27140024,0
0.49000000000000027,16.57647912438343,-1.1084949772103572,1.305887788911818,-0.3298713183551757,15.621564,-3.9467337,2.8518088,-0.21041399,15.372544,-10.431506,1.9392308,0.22450832,-0.23575607,0.41160265,0.85123324,-9.308035,0.19960573,-0.13639946,-1.108495,1.3058878,-0.32987133,0
0.5000000000000002,16.57647912438343,-1.1084949772103572,1.305887788911818,-0.3298713183551757,15.621564,-3.9467337,2.8518088,-0.21041399,15.279282,-10.428843,1.9378319,0.2219096,-0.24322829,0.40794614,0.8515725,-9.344967,0.33307415,-0.14339778,-1.108495,1.3058878,-0.32987133,0
0.5100000000000002,16.57647912438343,-1.1084949772103572,1.305887788911818,-0.3298713183551757,15.621564,-3.9467337,2.8518088,-0.21041399,15.185636,-10.424847,1.9363621,0.21929398,-0.25068203,0.4042586,0.85184693,-9.384654,0.46589044,-0.1506021,-1.108495,1.3058878,-0.32987133,0
0.5200000000000002,16.172903737101315,-0.6968439089583349,0.04167881563633892,-0.3741043879880388,14.972396,-3.721343,2.1204045,-0.16068083,15.091579,-10.419527,1.9348191,0.21666169,-0.25811666,0.40054035,0.85205656,-9.427087,0.5980208,-0.15804693,-1.108495,1.3058878,-0.32987133,0
0.5300000000000002,16.172903737101315,-0.6968439089583349,0.04167881563633892,-0.3741043879880388,14.972396,-3.721343,2.1204045,-0.16068083,14.997092,-10.412905,1.9331902,0.21727099,-0.25979632,0.3971308,0.8529864,-9.470418,0.7262568,-0.16763632,-0.6968439,0.041678816,-0.37410438,0
0.5400000000000003,16.172903737101315,-0.6968439089583349,0.04167881563633892,-0.3741043879880388,14.972396,-3.721343,2.1204045,-0.16068083,14.902169,-10.405004,1.9314684,0.21787685,-0.2614719,0.39371502,0.8539029,-9.514451,0.8538394,-0.17663005,-0.6968439,0.041678816,-0.37410438,0
0.5500000000000003,16.172903737101315,-0.6968439089583349,0.04167881563633892,-0.3741043879880388,14.972396,-3.721343,2.1204045,-0.16068083,14.806802,-10.39583,1.9296595,0.2184793,-0.26314336,0.39029306,0.854806,-9.559186,0.98076326,-0.18503517,-0.6968439,0.041678816,-0.37410438,0
0.5600000000000003,16.00371668364562,-0.3652824294131421,-0.45162962764377923,-0.37793403563465583,15.065084,-3.3795412,1.8202008,-0.25871426,14.710983,-10.385391,1.9277695,0.21907835,-0.2648107,0.386865,0.85569566,-9.604627,1.1070231,-0.19285882,-0.6968439,0.041678816,-0.37410438,0
0.5700000000000003,16.00371668364562,-0.3652824294131421,-0.45162962764377923,-0.37793403563465583,15.065084,-3.3795412,1.8202008,-0.25871426,14.61471,-10.373699,1.9257997,0.22108395,-0.264008,0.3843047,0.8565811,-9.649948,1.2313699,-0.20098236,-0.36528242,-0.45162964,-0.37793404,0
0.5800000000000003,16.00371668364562,-0.3652824294131421,-0.45162962764377923,-0.37793403563465583,15.065084,-3.3795412,1.8202008,-0.25871426,14.517984,-10.360765,1.9237524,0.22308691,-0.26320213,0.38173983,0.8574562,-9.695057,1.3552353,-0.2083392,-0.36528242,-0.45162964,-0.37793404,0
0.5900000000000003,16.00371668364562,-0.3652824294131421,-0.45162962764377923,-0.37793403563465583,15.065084,-3.3795412,1.8202008,-0.25871426,14.420809,-10.346596,1.9216355,0.22508718,-0.2623931,0.37917033,0.8583211,-9.739957,1.4786142,-0.21493226,-0.36528242,-0.45162964,-0.37793404,0
0.6000000000000003,15.673362594415813,-0.1173224262601033,-0.7395116932900296,-0.37118142347811883,14.151932,-2.8683894,0.7000119,-0.2046085,14.323186,-10.331195,1.9194565,0.22708476,-0.2615809,0.3765963,0.8591756,-9.784648,1.601501,-0.22076458,-0.36528242,-0.45162964,-0.37793404,0
0.6100000000000003,15.673362594415813,-0.1173224262601033,-0.7395116932900296,-0.37118142347811883,14.151932,-2.8683894,0.7000119,-0.2046085,14.225122,-10.31458,1.9172134,0.22991635,-0.25923392,0.37476388,0.8599348,-9.828001,1.7214203,-0.22773144,-0.11732242,-0.73951167,-0.37118143,0
0.6200000000000003,15.673362594415813,-0.1173224262601033,-0.7395116932900296,-0.37118142347811883,14.151932,-2.8683894,0.7000119,-0.2046085,14.126629,-10.296767,1.9149047,0.23274395,-0.2568824,0.37292492,0.860679,-9.870581,1.8409947,-0.2338848,-0.11732242,-0.73951167,-0.37118143,0
0.6300000000000003,15.673362594415813,-0.1173224262601033,-0.7395116932900296,-0.37118142347811883,14.151932,-2.8683894,0.7000119,-0.2046085,14.027714,-10.277761,1.9125384,0.23556747,-0.25452638,0.37107947,0.8614081,-9.91239,1.9602152,-0.23922795,-0.11732242,-0.73951167,-0.37118143,0
0.6400000000000003,15.673362594415813,-0.1173224262601033,-0.7395116932900296,-0.37118142347811883,14.075597,-2.6135714,0.46962488,-0.24300104,13.928385,-10.257565,1.9101229,0.23838688,-0.2521659,0.3692275,0.8621222,-9.953427,2.0790727,-0.2437643,-0.11732242,-0.73951167,-0.37118143,0
0.6500000000000004,15.673362594415813,-0.1173224262601033,-0.7395116932900296,-0.37118142347811883,14.075597,-2.6135714,0.46962488,-0.24300104,13.828648,-10.236181,1.907666,0.24120213,-0.24980108,0.3673691,0.8628212,-9.993695,2.197558,-0.24749726,-0.11732242,-0.73951167,-0.37118143,0
0.6600000000000004,15.673362594415813,-0.1173224262601033,-0.7395116932900296,-0.37118142347811883,14.075597,-2.6135714,0.46962488,-0.24300104,13.728512,-10.213614,1.9051757,0.24401316,-0.24743187,0.3655043,0.8635052,-10.033194,2.3156617,-0.25043032,-0.11732242,-0.73951167,-0.37118143,0
0.6700000000000004,15.673362594415813,-0.1173224262601033,-0.7395116932900296,-0.37118142347811883,14.075597,-2.6135714,0.46962488,-0.24300104,13.627986,-10.18987,1.90266,0.24681994,-0.24505836,0.3636331,0.86417407,-10.071923,2.433375,-0.25256705,-0.11732242,-0.73951167,-0.37118143,0
0.6800000000000004,15.67158569435413,0.03462897982505544,-0.528970119445311,-0.3541378680660555,15.082206,-2.3324783,0.352876,-0.17193753,13.527078,-10.16495,1.900127,0.2496224,-0.24268055,0.36175555,0.8648279,-10.109885,2.5506885,-0.25391102,-0.11732242,-0.73951167,-0.37118143,0
0.6900000000000004,15.67158569435413,0.03462897982505544,-0.528970119445311,-0.3541378680660555,15.082206,-2.3324783,0.352876,-0.17193753,13.425792,-10.138858,1.8975842,0.25215128,-0.24098931,0.36081353,0.8649607,-10.147116,2.6676672,-0.25459602,0.03462898,-0.5289701,-0.35413787,0
0.7000000000000004,15.67158569435413,0.03462897982505544,-0.528970119445311,-0.3541378680660555,15.082206,-2.3324783,0.352876,-0.17193753,13.324138,-10.111597,1.8950368,0.2546776,-0.23929563,0.35986784,0.8650847,-10.183686,2.784462,-0.25481173,0.03462898,-0.5289701,-0.35413787,0
0.7100000000000004,15.67158569435413,0.03462897982505544,-0.528970119445311,-0.3541378680660555,15.082206,-2.3324783,0.352876,-0.17193753,13.222121,-10.083169,1.8924894,0.2572013,-0.23759952,0.3589185,0.8652,-10.219597,2.9010684,-0.2545593,0.03462898,-0.5289701,-0.35413787,0
0.7200000000000004,15.364859780292425,0.27830808795091816,-0.617667873363529,-0.3483164520923065,15.070077,-1.7862295,0.0589158,-0.24339896,13.119748,-10.053576,1.889947,0.2597224,-0.23590098,0.3579655,0.86530644,-10.254848,3.0174809,-0.2538399,0.03462898,-0.5289701,-0.35413787,0
0.7300000000000004,15.364859780292425,0.27830808795091816,-0.617667873363529,-0.3483164520923065,15.070077,-1.7862295,0.0589158,-0.24339896,13.01703,-10.022831,1.8874044,0.26266128,-0.23348893,0.35795406,0.8650783,-10.288638,3.1314905,-0.25463748,0.2783081,-0.61766785,-0.34831646,0
0.7400000000000004,15.364859780292425,0.27830808795091816,-0.617667873363529,-0.3483164520923065,15.070077,-1.7862295,0.0589158,-0.24339896,12.913979,-9.990946,1.8848555,0.26559633,-0.2310735,0.35793743,0.8648376,-10.321447,3.2454877,-0.25508532,0.2783081,-0.61766785,-0.34831646,0
0.7500000000000004,15.364859780292425,0.27830808795091816,-0.617667873363529,-0.3483164520923065,15.070077,-1.7862295,0.0589158,-0.24339896,12.810604,-9.957921,1.8823038,0.26852757,-0.22865468,0.35791558,0.86458427,-10.353276,3.359465,-0.25518543,0.2783081,-0.61766785,-0.34831646,0
0.7600000000000005,15.242355994755187,0.4178281268232751,-0.5554660204597701,-0.32800322144965166,14.870808,-1.2588505,-0.20399836,-0.21017176,12.706917,-9.923757,1.8797531,0.2714549,-0.22623259,0.35788858,0.86431843,-10.384124,3.4734137,-0.25493973,0.2783081,-0.61766785,-0.34831646,0
0.7700000000000005,15.242355994755187,0.4178281268232751,-0.5554660204597701,-0.32800322144965166,14.870808,-1.2588505,-0.20399836,-0.21017176,12.602927,-9.888457,1.8772024,0.274337,-0.22385025,0.3585667,0.8637475,-10.413726,3.5864773,-0.25519753,0.4178281,-0.555466,-0.32800323,0
0.7800000000000005,15.242355994755187,0.4178281268232751,-0.5554660204597701,-0.32800322144965166,14.870808,-1.2588505,-0.20399836,-0.21017176,12.498647,-9.852027,1.8746499,0.27721503,-0.22146462,0.3592395,0.8631638,-10.44229,3.6996539,-0.25527737,0.4178281,-0.555466,-0.32800323,0
0.7900000000000005,15.242355994755187,0.4178281268232751,-0.5554660204597701,-0.32800322144965166,14.870808,-1.2588505,-0.20399836,-0.21017176,12.394086,-9.814464,1.8720975,0.28008896,-0.21907571,0.359907,0.86256737,-10.469817,3.8129354,-0.25518134,0.4178281,-0.555466,-0.32800323,0
0.8000000000000005,14.92656447513383,0.5394885077110243,-0.9123833313764831,-0.33322847969682684,14.1669,-0.9312353,-0.45375744,-0.23233873,12.289254,-9.775767,1.8695469,0.28295878,-0.21668357,0.36056915,0.8619582,-10.496303,3.926314,-0.25491163,0.4178281,-0.555466,-0.32800323,0
0.8100000000000005,14.92656447513383,0.5394885077110243,-0.9123833313764831,-0.33322847969682684,14.1669,-0.9312353,-0.45375744,-0.23233873,12.184167,-9.735949,1.8669899,0.2866199,-0.21258557,0.3612368,0.8614893,-10.521026,4.037404,-0.2564311,0.5394885,-0.9123833,-0.33322847,0
0.8200000000000005,14.92656447513383,0.5394885077110243,-0.9123833313764831,-0.33322847969682684,14.1669,-0.9312353,-0.45375744,-0.23233873,12.078839,-9.695019,1.8644195,0.2902722,-0.208481,0.3618933,0.86099386,-10.544213,4.1484957,-0.25757197,0.5394885,-0.9123833,-0.33322847,0
0.8300000000000005,14.92656447513383,0.5394885077110243,-0.9123833313764831,-0.33322847969682684,14.1669,-0.9312353,-0.45375744,-0.23233873,11.973288,-9.652979,1.8618395,0.29391554,-0.20436999,0.36253864,0.86047184,-10.565864,4.2595725,-0.25834122,0.5394885,-0.9123833,-0.33322847,0
0.8400000000000005,14.92656447513383,0.5394885077110243,-0.9123833313764831,-0.33322847969682684,14.087175,-0.7903936,-0.5768148,-0.20275384,11.867527,-9.609828,1.8592538,0.2975498,-0.20025268,0.36317277,0.85992324,-10.585973,4.3706183,-0.2587461,0.5394885,-0.9123833,-0.33322847,0
0.8500000000000005,14.92656447513383,0.5394885077110243,-0.9123833313764831,-0.33322847969682684,14.087175,-0.7903936,-0.5768148,-0.20275384,11.761574,-9.565567,1.8566657,0.30117488,-0.19612919,0.3637957,0.8593481,-10.604541,4.481618,-0.25879368,0.5394885,-0.9123833,-0.33322847,0
0.8600000000000005,14.92656447513383,0.5394885077110243,-0.9123833313764831,-0.33322847969682684,14.087175,-0.7903936,-0.5768148,-0.20275384,11.655442,-9.520196,1.854079,0.30479068,-0.19199963,0.36440742,0.85874647,-10.621568,4.5925555,-0.25849122,0.5394885,-0.9123833,-0.33322847,0
0.8700000000000006,14.92656447513383,0.5394885077110243,-0.9123833313764831,-0.33322847969682684,14.087175,-0.7903936,-0.5768148,-0.20275384,11.549148,-9.473717,1.851497,0.30839705,-0.18786415,0.36500788,0.8581183,-10.6370535,4.703414,-0.25784597,0.5394885,-0.9123833,-0.33322847,0
0.8800000000000006,14.812538316225455,0.5173015263529586,-0.6123675261291183,-0.31042306277457454,13.974337,-0.6112721,-0.59256715,-0.16070086,11.442705,-9.426128,1.8489233,0.31199393,-0.18372288,0.36559707,0.85746366,-10.650996,4.814178,-0.25686523,0.5394885,-0.9123833,-0.33322847,0
0.8900000000000006,14.812538316225455,0.5173015263529586,-0.6123675261291183,-0.31042306277457454,13.974337,-0.6112721,-0.59256715,-0.16070086,11.336131,-9.377438,1.846357,0.31491652,-0.18085626,0.3665711,0.8565884,-10.663432,4.924047,-0.25639963,0.5173015,-0.6123675,-0.31042308,0
0.9000000000000006,14.812538316225455,0.5173015263529586,-0.6123675261291183,-0.31042306277457454,13.974337,-0.6112721,-0.59256715,-0.16070086,11.22944,-9.327648,1.8437957,0.3178333,-0.1779863,0.36753836,0.85569733,-10.674685,5.0339565,-0.25583702,0.5173015,-0.6123675,-0.31042308,0
0.9100000000000006,14.812538316225455,0.5173015263529586,-0.6123675261291183,-0.31042306277457454,13.974337,-0.6112721,-0.59256715,-0.16070086,11.1226425,-9.27676,1.8412405,0.32074422,-0.17511304,0.36849883,0.85479045,-10.684753,5.1438966,-0.255181,0.5173015,-0.6123675,-0.31042308,0
0.9200000000000006,14.421857387080227,0.5076531119224961,-0.963056860217683,-0.30579694124362883,13.905076,-0.51603436,-0.597006,-0.1612621,11.01575,-9.224771,1.8386923,0.32364917,-0.17223655,0.36945248,0.85386777,-10.693639,5.2538586,-0.25443524,0.5173015,-0.6123675,-0.31042308,0
0.9300000000000006,14.421857387080227,0.5076531119224961,-0.963056860217683,-0.30579694124362883,13.905076,-0.51603436,-0.597006,-0.1612621,10.908776,-9.171697,1.8361392,0.32716572,-0.16786559,0.3697921,0.85325086,-10.701002,5.360848,-0.25610927,0.5076531,-0.96305686,-0.30579695,0
0.9400000000000006,14.421857387080227,0.5076531119224961,-0.963056860217683,-0.30579694124362883,13.905076,-0.51603436,-0.597006,-0.1612621,10.801736,-9.117555,1.8335712,0.3306718,-0.16348925,0.3701199,0.85260665,-10.706852,5.467611,-0.25742996,0.5076531,-0.96305686,-0.30579695,0
0.9500000000000006,14.421857387080227,0.5076531119224961,-0.963056860217683,-0.30579694124362883,13.905076,-0.51603436,-0.597006,-0.1612621,10.694644,-9.0623455,1.8309917,0.33416733,-0.15910769,0.37043586,0.85193527,-10.711189,5.5741324,-0.25840536,0.5076531,-0.96305686,-0.30579695,0
0.9600000000000006,14.246098010250025,0.4247609932554804,-0.7858783419567769,-0.2716470958608436,13.427921,-0.39984676,-0.5507479,-0.11442453,10.587517,-9.006073,1.8284043,0.33765218,-0.15472105,0.37074003,0.8512366,-10.714014,5.6803966,-0.25904363,0.5076531,-0.96305686,-0.30579695,1
0.9700000000000006,14.246098010250025,0.4247609932554804,-0.7858783419567769,-0.2716470958608436,13.427921,-0.39984676,-0.5507479,-0.11442453,10.480368,-8.948776,1.8257788,0.33884877,-0.15326321,0.36801767,0.8522056,-10.715704,5.778952,-0.26595813,-0.39984676,-0.5507479,-0.11442453,1
0.9800000000000006,14.246098010250025,0.4247609932554804,-0.7858783419567769,-0.2716470958608436,13.427921,-0.39984676,-0.5507479,-0.11442453,10.373203,-8.890496,1.8230875,0.34004134,-0.15180354,0.36529094,0.85316443,-10.71723,5.8768964,-0.2722135,-0.39984676,-0.5507479,-0.11442453,1
0.9900000000000007,14.246098010250025,0.4247609932554804,-0.7858783419567769,-0.2716470958608436,13.427921,-0.39984676,-0.5507479,-0.11442453,10.266024,-8.83124,1.8203368,0.34122986,-0.15034206,0.36255985,0.8541131,-10.718592,5.974225,-0.2778138,-0.39984676,-0.5507479,-0.11442453,1
1.0000000000000007,14.027713904359794,0.6447294024868186,-1.2822829395184918,-0.24274902732795653,12.647313,-0.37391064,-1.3160866,-0.05993062,10.158832,-8.771013,1.8175333,0.34241432,-0.1488788,0.35982442,0.8550516,-10.719791,6.070933,-0.2827632,-0.39984676,-0.5507479,-0.11442453,0
1.0100000000000007,14.027713904359794,0.6447294024868186,-1.2822829395184918,-0.24274902732795653,12.647313,-0.37391064,-1.3160866,-0.05993062,10.051629,-8.709802,1.8147042,0.34622994,-0.14272572,0.36019516,0.8544079,-10.720219,6.1713996,-0.28296694,0.6447294,-1.282283,-0.24274902,0
1.0200000000000007,14.027713904359794,0.6447294024868186,-1.2822829395184918,-0.24274902732795653,12.647313,-0.37391064,-1.3160866,-0.05993062,9.944433,-8.647588,1.8118753,0.35002723,-0.13656509,0.36054683,0.853719,-10.718723,6.2714424,-0.28274846,0.6447294,-1.282283,-0.24274902,0
1.0300000000000007,14.027713904359794,0.6447294024868186,-1.2822829395184918,-0.24274902732795653,12.647313,-0.37391064,-1.3160866,-0.05993062,9.837261,-8.584374,1.8090507,0.353806,-0.13039722,0.36087942,0.85298485,-10.715306,6.371038,-0.2821247,0.6447294,-1.282283,-0.24274902,0
1.0400000000000007,14.027713904359794,0.6447294024868186,-1.2822829395184918,-0.24274902732795653,12.538265,-0.16506514,-1.536131,-0.07453412,9.730133,-8.520167,1.8062344,0.357566,-0.12422245,0.36119294,0.8522055,-10.70997,6.470163,-0.28111273,0.6447294,-1.282283,-0.24274902,0
1.0500000000000007,14.027713904359794,0.6447294024868186,-1.2822829395184918,-0.24274902732795653,12.538265,-0.16506514,-1.536131,-0.07453412,9.623069,-8.454972,1.80343,0.36130702,-0.1180411,0.36148727,0.85138106,-10.702719,6.5687933,-0.27972957,0.6447294,-1.282283,-0.24274902,0
1.0600000000000007,14.027713904359794,0.6447294024868186,-1.2822829395184918,-0.24274902732795653,12.538265,-0.16506514,-1.536131,-0.07453412,9.516086,-8.388793,1.8006412,0.36502895,-0.1118535,0.3617625,0.8505115,-10.693555,6.666905,-0.27799243,0.6447294,-1.282283,-0.24274902,0
1.0700000000000007,14.027713904359794,0.6447294024868186,-1.2822829395184918,-0.24274902732795653,12.538265,-0.16506514,-1.536131,-0.07453412,9.4092045,-8.321635,1.7978715,0.36873153,-0.105659984,0.36201856,0.84959686,-10.682483,6.764475,-0.27591848,0.6447294,-1.282283,-0.24274902,0
1.0800000000000007,13.843172685636263,0.35945382030503453,-0.9606621887427435,-0.20680764148810857,12.490464,0.102870256,-1.5895512,-0.06541771,9.3024435,-8.253505,1.795124,0.37241456,-0.09946086,0.36225542,0.8486372,-10.669503,6.86148,-0.2735251,0.6447294,-1.282283,-0.24274902,0
1.0900000000000007,13.843172685636263,0.35945382030503453,-0.9606621887427435,-0.20680764148810857,12.490464,0.102870256,-1.5895512,-0.06541771,9.19582,-8.184414,1.7923955,0.37520576,-0.09508851,0.36188403,0.8480672,-10.655039,6.956655,-0.27214783,0.35945383,-0.9606622,-0.20680764,0
1.1000000000000008,13.843172685636263,0.35945382030503453,-0.9606621887427435,-0.20680764148810857,12.490464,0.102870256,-1.5895512,-0.06541771,9.089347,-8.114372,1.7896821,0.3779867,-0.09071355,0.36150274,0.847474,-10.639292,7.0513034,-0.2704638,0.35945383,-0.9606622,-0.20680764,0
1.1100000000000008,13.843172685636263,0.35945382030503453,-0.9606621887427435,-0.20680764148810857,12.490464,0.102870256,-1.5895512,-0.06541771,8.983038,-8.043388,1.7869872,0.38075727,-0.08633611,0.36111155,0.84685755,-10.622265,7.1454144,-0.26848158,0.35945383,-0.9606622,-0.20680764,0
1.1200000000000008,13.455623269499604,-0.027264273317507325,-0.8997461623381193,-0.14929394511997798,12.238161,-0.11901042,-1.860705,-0.091229856,8.876905,-7.9714665,1.7843136,0.38351744,-0.081956305,0.36071047,0.84621793,-10.603962,7.238976,-0.26620972,0.35945383,-0.9606622,-0.20680764,0
1.1300000000000008,13.455623269499604,-0.027264273317507325,-0.8997461623381193,-0.14929394511997798,12.238161,-0.11901042,-1.860705,-0.091229856,8.77096,-7.898625,1.7816503,0.3857567,-0.07847009,0.35880485,0.8463407,-10.585093,7.3293037,-0.26638046,-0.027264273,-0.8997462,-0.14929394,0
1.1400000000000008,13.455623269499604,-0.027264273317507325,-0.8997461623381193,-0.14929394511997798,12.238161,-0.11901042,-1.860705,-0.091229856,8.665207,-7.824883,1.7789878,0.38798788,-0.074982256,0.35689175,0.84644586,-10.565414,7.418894,-0.26603433,-0.027264273,-0.8997462,-0.14929394,0
1.1500000000000008,13.455623269499604,-0.027264273317507325,-0.8997461623381193,-0.14929394511997798,12.238161,-0.11901042,-1.860705,-0.091229856,8.559654,-7.7502494,1.7763313,0.39021108,-0.07149285,0.35497123,0.84653336,-10.544929,7.5077376,-0.26517838,-0.027264273,-0.8997462,-0.14929394,0
1.1600000000000008,13.153965364416276,-0.3902777706408099,-0.8187498787865075,-0.08039813403512765,12.177239,-0.43084058,-1.2926582,-0.02356058,8.454311,-7.6747313,1.7736858,0.39242607,-0.06800196,0.35304332,0.84660333,-10.523639,7.5958285,-0.26381958,-0.027264273,-0.8997462,-0.14929394,1
1.1700000000000008,13.153965364416276,-0.3902777706408099,-0.8187498787865075,-0.08039813403512765,12.177239,-0.43084058,-1.2926582,-0.02356058,8.349174,-7.5983777,1.7710094,0.394652,-0.06341553,0.34866703,0.8477375,-10.503655,7.674668,-0.2712919,-0.43084058,-1.2926582,-0.02356058,1
1.1800000000000008,13.153965364416276,-0.3902777706408099,-0.8187498787865075,-0.08039813403512765,12.177239,-0.43084058,-1.2926582,-0.02356058,8.24424,-7.5212417,1.7682629,0.39685965,-0.058826152,0.34427455,0.8488323,-10.482975,7.752291,-0.27787584,-0.43084058,-1.2926582,-0.02356058,1
1.1900000000000008,13.153965364416276,-0.3902777706408099,-0.8187498787865075,-0.08039813403512765,12.177239,-0.43084058,-1.2926582,-0.02356058,8.139515,-7.443336,1.765455,0.39904884,-0.05423404,0.33986607,0.8498877,-10.461601,7.828685,-0.28358817,-0.43084058,-1.2926582,-0.02356058,1
1.2000000000000008,13.045276803794904,-0.6303654397930141,-0.7208888850913836,-0.0029227739153866155,12.420455,-0.5191754,-1.3954983,-0.16014773,8.035008,-7.3646727,1.7625942,0.40121946,-0.049639415,0.3354418,0.85090363,-10.439539,7.9038343,-0.28844592,-0.43084058,-1.2926582,-0.02356058,1
1.2100000000000009,13.045276803794904,-0.6303654397930141,-0.7208888850913836,-0.0029227739153866155,12.420455,-0.5191754,-1.3954983,-0.16014773,7.9307284,-7.2852564,1.7596984,0.40410122,-0.04501101,0.33038434,0.8517755,-10.416334,7.979151,-0.29054868,-0.5191754,-1.3954983,-0.16014773,1
1.2200000000000009,13.045276803794904,-0.6303654397930141,-0.7208888850913836,-0.0029227739153866155,12.420455,-0.5191754,-1.3954983,-0.16014773,7.826684,-7.205094,1.7567862,0.4069603,-0.040380083,0.32530838,0.85259974,-10.392433,8.053035,-0.29171374,-0.5191754,-1.3954983,-0.16014773,1
1.2300000000000009,13.045276803794904,-0.6303654397930141,-0.7208888850913836,-0.0029227739153866155,12.420455,-0.5191754,-1.3954983,-0.16014773,7.7228823,-7.1242003,1.7538671,0.40979663,-0.03574689,0.3202142,0.8533762,-10.367842,8.125468,-0.2919615,-0.5191754,-1.3954983,-0.16014773,1
1.2400000000000009,13.045276803794904,-0.6303654397930141,-0.7208888850913836,-0.0029227739153866155,12.693982,-0.71096456,-1.3944498,-0.22394174,7.6193295,-7.0425897,1.7509501,0.41260993,-0.031111699,0.31510204,0.8541048,-10.342567,8.196437,-0.29131252,-0.5191754,-1.3954983,-0.16014773,1
1.2500000000000009,13.045276803794904,-0.6303654397930141,-0.7208888850913836,-0.0029227739153866155,12.693982,-0.71096456,-1.3944498,-0.22394174,7.5160356,-6.9602695,1.7480551,0.41563973,-0.026975317,0.30914438,0.8549531,-10.316115,8.26741,-0.2875472,-0.71096456,-1.3944498,-0.22394174,1
1.260000000000001,13.045276803794904,-0.6303654397930141,-0.7208888850913836,-0.0029227739153866155,12.693982,-0.71096456,-1.3944498,-0.22394174,7.4130087,-6.877248,1.7452027,0.41864356,-0.02283725,0.30316746,0.855748,-10.289163,8.336738,-0.28278553,-0.71096456,-1.3944498,-0.22394174,1
1.270000000000001,13.045276803794904,-0.6303654397930141,-0.7208888850913836,-0.0029227739153866155,12.693982,-0.71096456,-1.3944498,-0.22394174,7.310254,-6.793541,1.7424028,0.42162123,-0.018697754,0.29717156,0.8564895,-10.261721,8.404404,-0.27705136,-0.71096456,-1.3944498,-0.22394174,1
1.280000000000001,12.888025434760618,-0.8765414755772298,-0.26261370256857547,0.10060332168674758,13.186846,-0.94453716,-1.3953276,-0.13228792,7.207776,-6.709166,1.7396649,0.42457253,-0.01455709,0.2911571,0.8571773,-10.233799,8.470391,-0.27036875,-0.71096456,-1.3944498,-0.22394174,0
1.290000000000001,12.888025434760618,-0.8765414755772298,-0.26261370256857547,0.10060332168674758,13.186846,-0.94453716,-1.3953276,-0.13228792,7.105581,-6.624133,1.7370063,0.42445537,-0.015145721,0.2868471,0.85867697,-10.205382,8.536024,-0.2612543,-0.8765415,-0.2626137,0.10060332,0
1.300000000000001,12.888025434760618,-0.8765414755772298,-0.26261370256857547,0.10060332168674758,13.186846,-0.94453716,-1.3953276,-0.13228792,7.0036664,-6.5384483,1.7344419,0.4243292,-0.015734032,0.28253102,0.8601584,-10.177583,8.600877,-0.25150558,-0.8765415,-0.2626137,0.10060332,0
1.310000000000001,12.888025434760618,-0.8765414755772298,-0.26261370256857547,0.10060332168674758,13.186846,-0.94453716,-1.3953276,-0.13228792,6.902027,-6.4521184,1.7319782,0.42419407,-0.01632201,0.27820897,0.8616217,-10.150401,8.664944,-0.24113142,-0.8765415,-0.2626137,0.10060332,0
1.320000000000001,12.519155852505241,-1.0814303562336125,-0.26254987169914784,0.20901125272810314,13.274559,-1.0727079,-1.507074,-0.14895421,6.8006563,-6.365152,1.7296213,0.42404994,-0.016909642,0.27388102,0.8630666,-10.123839,8.728218,-0.2301408,-0.8765415,-0.2626137,0.10060332,0
1.330000000000001,12.519155852505241,-1.0814303562336125,-0.26254987169914784,0.20901125272810314,13.274559,-1.0727079,-1.507074,-0.14895421,6.6995444,-6.277566,1.7273618,0.4234093,-0.017783059,0.26867092,0.8649991,-10.098712,8.788859,-0.22163872,-1.0814303,-0.26254988,0.20901126,0
1.340000000000001,12.519155852505241,-1.0814303562336125,-0.26254987169914784,0.20901125272810314,13.274559,-1.0727079,-1.507074,-0.14895421,6.5986795,-6.1893783,1.7251909,0.4227551,-0.018655906,0.2634522,0.8669038,-10.074378,8.84859,-0.21244124,-1.0814303,-0.26254988,0.20901126,0
1.350000000000001,12.519155852505241,-1.0814303562336125,-0.26254987169914784,0.20901125272810314,13.274559,-1.0727079,-1.507074,-0.14895421,6.498054,-6.100598,1.7231153,0.42208734,-0.019528152,0.25822505,0.86878073,-10.050838,8.907403,-0.20256127,-1.0814303,-0.26254988,0.20901126,0
1.360000000000001,12.117096726504393,-1.2603247103220483,-0.6595888246510043,0.28103473803280904,13.100216,-1.142548,-0.7413781,0.053734723,6.3976603,-6.0112333,1.7211419,0.42140603,-0.020399773,0.25298962,0.8706298,-10.028095,8.965289,-0.19201176,-1.0814303,-0.26254988,0.20901126,1
1.370000000000001,12.117096726504393,-1.2603247103220483,-0.6595888246510043,0.28103473803280904,13.100216,-1.142548,-0.7413781,0.053734723,6.2974954,-5.9212823,1.7193029,0.42198357,-0.019511389,0.2464535,0.87224364,-10.005,9.024696,-0.17566201,-1.142548,-0.7413781,0.053734723,1
1.380000000000001,12.117096726504393,-1.2603247103220483,-0.6595888246510043,0.28103473803280904,13.100216,-1.142548,-0.7413781,0.053734723,6.197559,-5.8307447,1.7176316,0.42254153,-0.018622097,0.23990591,0.87381697,-9.982395,9.082618,-0.15845568,-1.142548,-0.7413781,0.053734723,1
1.390000000000001,12.117096726504393,-1.2603247103220483,-0.6595888246510043,0.28103473803280904,13.100216,-1.142548,-0.7413781,0.053734723,6.0978456,-5.7396355,1.7161366,0.42307985,-0.01773194,0.23334719,0.87534976,-9.960285,9.139041,-0.14041416,-1.142548,-0.7413781,0.053734723,1
1.400000000000001,11.539904351817285,-1.397267825478584,-0.8785098113061407,0.36859373722028743,13.265165,-1.922257,-1.7792052,0.08604723,5.9983516,-5.6479692,1.7148262,0.42359853,-0.016840959,0.22677761,0.87684184,-9.938673,9.193955,-0.12155905,-1.142548,-0.7413781,0.053734723,0
1.410000000000001,11.539904351817285,-1.397267825478584,-0.8785098113061407,0.36859373722028743,13.265165,-1.922257,-1.7792052,0.08604723,5.8990583,-5.5557933,1.7136383,0.4228459,-0.01553026,0.21881406,0.87924945,-9.92012,9.240889,-0.11588197,-1.3972678,-0.8785098,0.36859372,0
1.420000000000001,11.539904351817285,-1.397267825478584,-0.8785098113061407,0.36859373722028743,13.265165,-1.922257,-1.7792052,0.08604723,5.7999477,-5.4631567,1.7125113,0.42206302,-0.014218452,0.21083486,0.8815943,-9.902126,9.286196,-0.10938678,-1.3972678,-0.8785098,0.36859372,0
1.430000000000001,11.539904351817285,-1.397267825478584,-0.8785098113061407,0.36859373722028743,13.265165,-1.922257,-1.7792052,0.08604723,5.701014,-5.3700757,1.7114533,0.42124996,-0.012905627,0.20284057,0.88387597,-9.884691,9.329863,-0.10210212,-1.3972678,-0.8785098,0.36859372,0
1.440000000000001,11.539904351817285,-1.397267825478584,-0.8785098113061407,0.36859373722028743,13.241696,-1.9112054,-2.2044358,0.09894401,5.6022515,-5.276566,1.710472,0.42040676,-0.011591878,0.19483179,0.8860945,-9.86781,9.371872,-0.09405684,-1.3972678,-0.8785098,0.36859372,0
1.450000000000001,11.539904351817285,-1.397267825478584,-0.8785098113061407,0.36859373722028743,13.241696,-1.9112054,-2.2044358,0.09894401,5.5036554,-5.1826444,1.7095748,0.4195335,-0.0102773,0.18680906,0.8882497,-9.851483,9.412212,-0.08528,-1.3972678,-0.8785098,0.36859372,0
1.460000000000001,11.539904351817285,-1.397267825478584,-0.8785098113061407,0.36859373722028743,13.241696,-1.9112054,-2.2044358,0.09894401,5.4052196,-5.0883274,1.708769,0.41863027,-0.008961989,0.17877299,0.89034134,-9.83571,9.450871,-0.07580089,-1.3972678,-0.8785098,0.36859372,0
1.470000000000001,11.539904351817285,-1.397267825478584,-0.8785098113061407,0.36859373722028743,13.241696,-1.9112054,-2.2044358,0.09894401,5.3069396,-4.993633,1.7080612,0.4176971,-0.007646036,0.17072411,0.89236933,-9.820485,9.487836,-0.06564896,-1.3972678,-0.8785098,0.36859372,0
1.480000000000001,11.43779860070097,-1.3903929895067975,-0.6648215433052999,0.41760998843441594,13.1927805,-1.6944906,-1.7852608,0.19970506,5.208809,-4.8985767,1.7074583,0.41673407,-0.006329537,0.16266303,0.89433354,-9.805806,9.523093,-0.054853894,-1.3972678,-0.8785098,0.36859372,0
1.490000000000001,11.43779860070097,-1.3903929895067975,-0.6648215433052999,0.41760998843441594,13.1927805,-1.6944906,-1.7852608,0.19970506,5.1108212,-4.803178,1.7069613,0.4153501,-0.005913951,0.15506849,0.896327,-9.791853,9.556403,-0.04442835,-1.390393,-0.66482157,0.41761,0
1.500000000000001,11.43779860070097,-1.3903929895067975,-0.6648215433052999,0.41760998843441594,13.1927805,-1.6944906,-1.7852608,0.19970506,5.012969,-4.707454,1.7065715,0.41393965,-0.005497988,0.14746408,0.89826345,-9.778591,9.588185,-0.03345931,-1.390393,-0.66482157,0.41761,0
1.5100000000000011,11.43779860070097,-1.3903929895067975,-0.6648215433052999,0.41760998843441594,13.1927805,-1.6944906,-1.7852608,0.19970506,4.9152465,-4.6114197,1.706294,0.41250283,-0.005081674,0.13985026,0.9001426,-9.766014,9.618429,-0.021972628,-1.390393,-0.66482157,0.41761,0
1.5200000000000011,11.338355843600715,-1.3112506321977642,-0.3565077228415902,0.440573464025643,13.628435,-1.5551362,-1.6612515,0.29380757,4.8176465,-4.515091,1.7061337,0.4110397,-0.004665036,0.13222754,0.90196437,-9.75412,9.647123,-0.009994288,-1.390393,-0.66482157,0.41761,0
1.5300000000000011,11.338355843600715,-1.3112506321977642,-0.3565077228415902,0.440573464025643,13.628435,-1.5551362,-1.6612515,0.29380757,4.7201614,-4.4184833,1.7060908,0.40924743,-0.0054607242,0.12558831,0.90372205,-9.743062,9.674141,0.0014659353,-1.3112507,-0.35650772,0.44057345,0
1.5400000000000011,11.338355843600715,-1.3112506321977642,-0.3565077228415902,0.440573464025643,13.628435,-1.5551362,-1.6612515,0.29380757,4.622782,-4.3216114,1.7061644,0.40743428,-0.0062561342,0.11894267,0.9054336,-9.732839,9.699919,0.01330502,-1.3112507,-0.35650772,0.44057345,0
1.5500000000000012,11.338355843600715,-1.3112506321977642,-0.3565077228415902,0.440573464025643,13.628435,-1.5551362,-1.6612515,0.29380757,4.5255013,-4.2244887,1.7063582,0.40560037,-0.0070512253,0.112290956,0.90709895,-9.723444,9.72445,0.025503006,-1.3112507,-0.35650772,0.44057345,0
1.5600000000000012,11.35006091608014,-1.1893130047215408,0.2584935770951762,0.43860502053774436,14.089835,-1.4130824,-1.067528,0.16659707,4.4283104,-4.1271267,1.7066756,0.40374574,-0.007845956,0.10563352,0.90871805,-9.714876,9.747725,0.03803986,-1.3112507,-0.35650772,0.44057345,0
1.5700000000000012,11.35006091608014,-1.1893130047215408,0.2584935770951762,0.43860502053774436,14.089835,-1.4130824,-1.067528,0.16659707,4.3312006,-4.029538,1.7071205,0.40156126,-0.011189502,0.10076663,0.91020244,-9.707258,9.769983,0.05097482,-1.189313,0.25849357,0.438605,0
1.5800000000000012,11.35006091608014,-1.1893130047215408,0.2584935770951762,0.43860502053774436,14.089835,-1.4130824,-1.067528,0.16659707,4.2341614,-3.93173,1.7076958,0.39936,-0.014532577,0.09589552,0.9116487,-9.70083,9.79157,0.0641175,-1.189313,0.25849357,0.438605,0
1.5900000000000012,11.35006091608014,-1.1893130047215408,0.2584935770951762,0.43860502053774436,14.089835,-1.4130824,-1.067528,0.16659707,4.1371803,-3.8337092,1.7084035,0.39714205,-0.017875046,0.0910204,0.9130568,-9.695589,9.812476,0.07745224,-1.189313,0.25849357,0.438605,0
1.6000000000000012,11.301359881560943,-1.0306102406950013,-0.2055081016210283,0.4402400799811963,13.443557,-1.5091766,-0.51447076,0.318052,4.0402455,-3.7354827,1.7092454,0.39490747,-0.021216765,0.086141475,0.91442674,-9.691532,9.832694,0.090963356,-1.189313,0.25849357,0.438605,0
1.6100000000000012,11.301359881560943,-1.0306102406950013,-0.2055081016210283,0.4402400799811963,13.443557,-1.5091766,-0.51447076,0.318052,3.9433463,-3.6370585,1.7102209,0.39286742,-0.02212217,0.08106893,0.91574687,-9.688485,9.852035,0.1041675,-1.0306102,-0.2055081,0.4402401,0
1.6200000000000012,11.301359881560943,-1.0306102406950013,-0.2055081016210283,0.4402400799811963,13.443557,-1.5091766,-0.51447076,0.318052,3.8464737,-3.5384455,1.7113293,0.3908146,-0.023026858,0.07599377,0.9170373,-9.68612,9.8704195,0.11755002,-1.0306102,-0.2055081,0.4402401,0
1.6300000000000012,11.301359881560943,-1.0306102406950013,-0.2055081016210283,0.4402400799811963,13.443557,-1.5091766,-0.51447076,0.318052,3.7496212,-3.4396536,1.7125725,0.38874912,-0.023930795,0.07091614,0.91829795,-9.684433,9.887843,0.13109902,-1.0306102,-0.2055081,0.4402401,0
1.6400000000000012,11.301359881560943,-1.0306102406950013,-0.2055081016210283,0.4402400799811963,13.28413,-1.3576651,-0.63714355,0.46849912,3.6527824,-3.340692,1.713952,0.386671,-0.024833957,0.065836206,0.9195288,-9.683422,9.904303,0.14480254,-1.0306102,-0.2055081,0.4402401,0
1.6500000000000012,11.301359881560943,-1.0306102406950013,-0.2055081016210283,0.4402400799811963,13.28413,-1.3576651,-0.63714355,0.46849912,3.5559504,-3.2415707,1.7154691,0.38458034,-0.025736311,0.060754128,0.92072976,-9.683081,9.919792,0.15864864,-1.0306102,-0.2055081,0.4402401,0
1.6600000000000013,11.301359881560943,-1.0306102406950013,-0.2055081016210283,0.4402400799811963,13.28413,-1.3576651,-0.63714355,0.46849912,3.4591184,-3.1422994,1.7171254,0.38247722,-0.026637832,0.05567008,0.92190087,-9.683405,9.934307,0.17262535,-1.0306102,-0.2055081,0.4402401,0
1.6700000000000013,11.301359881560943,-1.0306102406950013,-0.2055081016210283,0.4402400799811963,13.28413,-1.3576651,-0.63714355,0.46849912,3.3622797,-3.042888,1.7189221,0.38036168,-0.027538488,0.050584223,0.92304206,-9.68439,9.947843,0.18672068,-1.0306102,-0.2055081,0.4402401,0
1.6800000000000013,11.315888929055731,-0.9043192633268062,0.44891395926817695,0.4256080671102819,13.232265,-1.3863409,-1.3366898,0.4351725,3.265428,-2.943346,1.7208602,0.3782338,-0.02843825,0.04549673,0.9241533,-9.686032,9.960394,0.20092262,-1.0306102,-0.2055081,0.4402401,0
1.6900000000000013,11.315888929055731,-0.9043192633268062,0.44891395926817695,0.4256080671102819,13.232265,-1.3863409,-1.3366898,0.4351725,3.1685565,-2.8436828,1.7229415,0.37603077,-0.032125533,0.042226907,0.9250862,-9.68849,9.972204,0.21533626,-0.9043193,0.44891396,0.42560807,0
1.7000000000000013,11.315888929055731,-0.9043192633268062,0.44891395926817695,0.4256080671102819,13.232265,-1.3863409,-1.3366898,0.4351725,3.0716548,-2.7439034,1.725167,0.3738165,-0.03581185,0.038955815,0.92599136,-9.692026,9.983635,0.22976017,-0.9043193,0.44891396,0.42560807,0
1.7100000000000013,11.315888929055731,-0.9043192633268062,0.44891395926817695,0.4256080671102819,13.232265,-1.3863409,-1.3366898,0.4351725,2.9747124,-2.6440113,1.7275367,0.37159097,-0.039497092,0.035683554,0.9268687,-9.696638,9.994683,0.24418339,-0.9043193,0.44891396,0.42560807,0
1.7200000000000013,11.218463097944905,-0.7291585905040391,-0.11319000184048461,0.4344613054220567,13.127937,-1.3351978,-1.7560635,0.46319717,2.8777182,-2.5440109,1.7300506,0.36935434,-0.043181155,0.032410223,0.9277182,-9.702325,10.005343,0.25859496,-0.9043193,0.44891396,0.42560807,0
1.7300000000000013,11.218463097944905,-0.7291585905040391,-0.11319000184048461,0.4344613054220567,13.127937,-1.3351978,-1.7560635,0.46319717,2.780663,-2.4439068,1.7327037,0.3671966,-0.043931898,0.028912436,0.9286547,-9.708803,10.015413,0.27203855,-0.7291586,-0.11319,0.4344613,0
1.7400000000000013,11.218463097944905,-0.7291585905040391,-0.11319000184048461,0.4344613054220567,13.127937,-1.3351978,-1.7560635,0.46319717,2.6835406,-2.343705,1.7354914,0.3650321,-0.044681836,0.025414119,0.9295741,-9.71575,10.024801,0.2855134,-0.7291586,-0.11319,0.4344613,0
1.7500000000000013,11.218463097944905,-0.7291585905040391,-0.11319000184048461,0.4344613054220567,13.127937,-1.3351978,-1.7560635,0.46319717,2.5863461,-2.243413,1.738414,0.36286095,-0.04543096,0.021915335,0.9304765,-9.723161,10.0335045,0.29901385,-0.7291586,-0.11319,0.4344613,0
1.7600000000000013,11.168597472392323,-0.6040664557161758,-0.047179293260114157,0.43242115029751566,12.932254,-1.3265913,-1.4660352,0.72337383,2.4890754,-2.1430373,1.7414718,0.3606831,-0.04617925,0.01841615,0.93136173,-9.731034,10.041521,0.31253418,-0.7291586,-0.11319,0.4344613,0
1.7700000000000014,11.168597472392323,-0.6040664557161758,-0.047179293260114157,0.43242115029751566,12.932254,-1.3265913,-1.4660352,0.72337383,2.391724,-2.0425847,1.7446623,0.3585318,-0.04700879,0.0156177655,0.9322016,-9.739314,10.048874,0.32556984,-0.60406643,-0.047179293,0.43242115,0
1.7800000000000014,11.168597472392323,-0.6040664557161758,-0.047179293260114157,0.43242115029751566,12.932254,-1.3265913,-1.4660352,0.72337383,2.2942877,-1.9420614,1.7479832,0.3563755,-0.047837675,0.012819166,0.9330286,-9.748006,10.055689,0.3386081,-0.60406643,-0.047179293,0.43242115,0
1.7900000000000014,11.168597472392323,-0.6040664557161758,-0.047179293260114157,0.43242115029751566,12.932254,-1.3265913,-1.4660352,0.72337383,2.1967623,-1.8414726,1.7514344,0.35421425,-0.0486659,0.01002039,0.93384266,-9.75711,10.061967,0.3516451,-0.60406643,-0.047179293,0.43242115,0
1.8000000000000014,11.031595601628503,-0.5454672331956555,-0.6320867878501604,0.4524132636290998,13.725991,-1.0203424,-1.7694459,0.6841666,2.0991437,-1.7408239,1.7550161,0.35204813,-0.04949345,0.0072214752,0.9346438,-9.766621,10.067704,0.36467713,-0.60406643,-0.047179293,0.43242115,0
1.8100000000000014,11.031595601628503,-0.5454672331956555,-0.6320867878501604,0.4524132636290998,13.725991,-1.0203424,-1.7694459,0.6841666,2.0014296,-1.6401211,1.7587212,0.34981778,-0.04748284,0.0036716515,0.93560576,-9.776218,10.072696,0.376361,-0.54546726,-0.6320868,0.45241326,0
1.8200000000000014,11.031595601628503,-0.5454672331956555,-0.6320867878501604,0.4524132636290998,13.725991,-1.0203424,-1.7694459,0.6841666,1.9036199,-1.539373,1.7625436,0.34757957,-0.045471158,0.00012174522,0.93654656,-9.785687,10.0767765,0.3880937,-0.54546726,-0.6320868,0.45241326,0
1.8300000000000014,11.031595601628503,-0.5454672331956555,-0.6320867878501604,0.4524132636290998,13.725991,-1.0203424,-1.7694459,0.6841666,1.8057164,-1.4385887,1.7664833,0.3453335,-0.04345845,-0.003428164,0.9374663,-9.795024,10.079947,0.39986786,-0.54546726,-0.6320868,0.45241326,0
1.8400000000000014,11.031595601628503,-0.5454672331956555,-0.6320867878501604,0.4524132636290998,13.770292,-0.94278884,-1.9677018,0.9163522,1.7077202,-1.3377771,1.7705411,0.34307963,-0.041444767,-0.006977996,0.9383649,-9.804221,10.082208,0.41167617,-0.54546726,-0.6320868,0.45241326,0
1.8500000000000014,11.031595601628503,-0.5454672331956555,-0.6320867878501604,0.4524132636290998,13.770292,-0.94278884,-1.9677018,0.9163522,1.6096326,-1.2369475,1.774717,0.34081802,-0.039430145,-0.01052767,0.93924236,-9.813275,10.083559,0.42351133,-0.54546726,-0.6320868,0.45241326,0
1.8600000000000014,11.031595601628503,-0.5454672331956555,-0.6320867878501604,0.4524132636290998,13.770292,-0.94278884,-1.9677018,0.9163522,1.5114552,-1.136109,1.7790114,0.33854875,-0.037414636,-0.014077107,0.94009864,-9.822182,10.084002,0.43536595,-0.54546726,-0.6320868,0.45241326,0
1.8700000000000014,11.031595601628503,-0.5454672331956555,-0.6320867878501604,0.4524132636290998,13.770292,-0.94278884,-1.9677018,0.9163522,1.4131895,-1.0352706,1.7834244,0.33627185,-0.035398282,-0.017626226,0.9409337,-9.830936,10.083536,0.44723275,-0.54546726,-0.6320868,0.45241326,0
1.8800000000000014,10.9393173946641,-0.5101487892257391,-0.3593124441659655,0.4743594816858934,13.309074,-0.7827103,-2.21882,0.83721167,1.314837,-0.9344414,1.7879561,0.33398736,-0.033381134,-0.021174947,0.94174755,-9.839533,10.082163,0.45910436,-0.54546726,-0.6320868,0.45241326,0
1.8900000000000015,10.9393173946641,-0.5101487892257391,-0.3593124441659655,0.4743594816858934,13.309074,-0.7827103,-2.21882,0.83721167,1.2163994,-0.83363014,1.792602,0.33162796,-0.032591112,-0.024097791,0.94253844,-9.847975,10.079984,0.47004938,-0.51014876,-0.35931244,0.47435948,0
1.9000000000000015,10.9393173946641,-0.5101487892257391,-0.3593124441659655,0.4743594816858934,13.309074,-0.7827103,-2.21882,0.83721167,1.1178772,-0.73284405,1.7973571,0.32926348,-0.031800587,-0.027020263,0.94331485,-9.85646,10.077124,0.48097536,-0.51014876,-0.35931244,0.47435948,0
1.9100000000000015,10.9393173946641,-0.5101487892257391,-0.3593124441659655,0.4743594816858934,13.309074,-0.7827103,-2.21882,0.83721167,1.0192701,-0.6320899,1.8022214,0.32689396,-0.031009573,-0.02994232,0.9440767,-9.864984,10.073583,0.49187827,-0.51014876,-0.35931244,0.47435948,0
1.9200000000000015,10.785935517903908,-0.5162553140267098,-0.457218925721473,0.5084440744082933,13.360444,-0.8313725,-2.7206893,0.96428126,0.92057747,-0.5313747,1.8071946,0.32451943,-0.030218085,-0.03286392,0.9448241,-9.873543,10.06936,0.50275415,-0.51014876,-0.35931244,0.47435948,0
1.9300000000000015,10.785935517903908,-0.5162553140267098,-0.457218925721473,0.5084440744082933,13.360444,-0.8313725,-2.7206893,0.96428126,0.8217998,-0.4307048,1.8122689,0.32196137,-0.028979076,-0.03596752,0.9456247,-9.881984,10.064499,0.5120725,-0.5162553,-0.45721892,0.5084441,0
1.9400000000000015,10.785935517903908,-0.5162553140267098,-0.457218925721473,0.5084440744082933,13.360444,-0.8313725,-2.7206893,0.96428126,0.72293794,-0.33008724,1.817436,0.3193974,-0.027739536,-0.03907046,0.9464079,-9.890373,10.058897,0.5213588,-0.5162553,-0.45721892,0.5084441,0
1.9500000000000015,10.785935517903908,-0.5162553140267098,-0.457218925721473,0.5084440744082933,13.360444,-0.8313725,-2.7206893,0.96428126,0.6239925,-0.2295294,1.8226959,0.31682757,-0.026499486,-0.042172685,0.9471738,-9.898707,10.052553,0.53060824,-0.5162553,-0.45721892,0.5084441,0
1.9600000000000015,10.690261841890102,-0.541203508595824,0.04762676923667868,0.5297963706912204,12.753945,-0.7392528,-1.5954531,0.71914643,0.52496403,-0.12903869,1.828048,0.31425193,-0.025258949,-0.04527414,0.9479222,-9.906981,10.045469,0.5398161,-0.5162553,-0.45721892,0.5084441,0
1.9700000000000015,10.690261841890102,-0.541203508595824,0.04762676923667868,0.5297963706912204,12.753945,-0.7392528,-1.5954531,0.71914643,0.42585295,-0.028621864,1.833487,0.31168106,-0.026454797,-0.047697157,0.9486193,-9.915287,10.037829,0.54802126,-0.5412035,0.04762677,0.52979636,0
1.9800000000000015,10.690261841890102,-0.541203508595824,0.04762676923667868,0.5297963706912204,12.753945,-0.7392528,-1.5954531,0.71914643,0.32665694,0.0717164,1.839008,0.30910572,-0.027650267,-0.05011949,0.94930273,-9.923975,10.029756,0.55616385,-0.5412035,0.04762677,0.52979636,0
1.9900000000000015,10.690261841890102,-0.541203508595824,0.04762676923667868,0.5297963706912204,12.753945,-0.7392528,-1.5954531,0.71914643,0.22737215,0.17197175,1.8446101,0.30652592,-0.028845338,-0.0525411,0.9499725,-9.933041,10.021247,0.5642408,-0.5412035,0.04762677,0.52979636,0
2.0000000000000013,,,,,12.957611,-1.1519135,-2.7456412,0.62960607,0.12799482,0.27213985,1.8502926,0.30394173,-0.030039992,-0.05496195,0.9506286,-9.942483,10.012301,0.572249,-0.5412035,0.04762677,0.52979636,0
2.010000000000001,,,,,12.957611,-1.1519135,-2.7456412,0.62960607,0.028522035,0.37221628,1.8560506,0.3009992,-0.02892994,-0.058440838,0.9513914,-9.952069,10.002856,0.5793289,-0.60324454,-0.45945662,0.5727227,0
2.020000000000001,,,,,12.957611,-1.1519135,-2.7456412,0.62960607,-0.07104646,0.47219428,1.861879,0.29804987,-0.027819235,-0.06191841,0.95213276,-9.961623,9.992612,0.58633703,-0.60324454,-0.45945662,0.5727227,0
2.0300000000000007,,,,,12.957611,-1.1519135,-2.7456412,0.62960607,-0.1707103,0.57206583,1.8677771,0.29509383,-0.026707903,-0.06539459,0.95285267,-9.971139,9.981567,0.5932677,-0.60324454,-0.45945662,0.5727227,0
2.0400000000000005,,,,,12.957611,-1.1519135,-2.7456412,0.62960607,-0.2704691,0.6718229,1.8737441,0.29213113,-0.025595965,-0.06886928,0.95355105,-9.980613,9.969725,0.6001152,-0.60324454,-0.45945662,0.5727227,0
2.0500000000000003,,,,,12.549756,-1.0403161,-2.0584724,0.6645561,-0.37032235,0.77145755,1.8797791,0.28916183,-0.02448345,-0.07234242,0.9542279,-9.990036,9.957085,0.606874,-0.60324454,-0.45945662,0.5727227,1
2.06,,,,,12.549756,-1.0403161,-2.0584724,0.6645561,-0.47027674,0.87094796,1.8859773,0.28509846,-0.016405098,-0.08019532,0.9549957,-10.000611,9.940598,0.63273084,-1.0403161,-2.0584724,0.6645561,1
2.07,,,,,12.549756,-1.0403161,-2.0584724,0.6645561,-0.57032967,0.970261,1.8924329,0.28099406,-0.008324383,-0.088036664,0.95562595,-10.009735,9.9216175,0.65834624,-1.0403161,-2.0584724,0.6645561,1
2.0799999999999996,,,,,12.549756,-1.0403161,-2.0584724,0.6645561,-0.6704664,1.0693718,1.8991431,0.27684918,-0.00024246844,-0.09586533,0.9561186,-10.017385,9.900164,0.683657,-1.0403161,-2.0584724,0.6645561,1
2.0899999999999994,,,,,12.169803,-0.935722,-1.1989573,0.77964264,-0.7706722,1.1682558,1.9061046,0.2726644,0.007839481,-0.10368019,0.95647347,-10.023541,9.876259,0.7086002,-1.0403161,-2.0584724,0.6645561,1
2.099999999999999,,,,,12.169803,-0.935722,-1.1989573,0.77964264,-0.87093216,1.2668934,1.9132949,0.2683411,0.011893142,-0.109816425,0.9569694,-10.028353,9.850964,0.72944206,-0.935722,-1.1989573,0.77964264,1
2.109999999999999,,,,,12.169803,-0.935722,-1.1989573,0.77964264,-0.971237,1.3652694,1.9206922,0.26399818,0.015945936,-0.11594464,0.95739543,-10.032506,9.823975,0.7499358,-0.935722,-1.1989573,0.77964264,1
2.1199999999999988,,,,,12.169803,-0.935722,-1.1989573,0.77964264,-1.0715799,1.4633671,1.9282924,0.25963598,0.019997565,-0.12206438,0.9577516,-10.035986,9.795303,0.7700557,-0.935722,-1.1989573,0.77964264,1
2.1299999999999986,,,,,12.288262,-1.2096626,-1.3170253,0.8713649,-1.1719543,1.5611697,1.9360919,0.25525486,0.024047734,-0.12817521,0.95803773,-10.038778,9.764959,0.789776,-0.935722,-1.1989573,0.77964264,1
2.1399999999999983,,,,,12.288262,-1.2096626,-1.3170253,0.8713649,-1.2723533,1.6586587,1.944092,0.2503697,0.028252978,-0.13574891,0.95816886,-10.040905,9.732513,0.8101772,-1.2096626,-1.3170253,0.8713649,1
2.149999999999998,,,,,12.288262,-1.2096626,-1.3170253,0.8713649,-1.3727702,1.7558131,1.9522934,0.24545978,0.032455426,-0.14330919,0.95820516,-10.042345,9.698057,0.83001953,-1.2096626,-1.3170253,0.8713649,1
2.159999999999998,,,,,12.288262,-1.2096626,-1.3170253,0.8713649,-1.4731979,1.852613,1.9606904,0.24052557,0.036654662,-0.15085529,0.9581467,-10.043079,9.661605,0.84926736,-1.2096626,-1.3170253,0.8713649,1
