time-since-start [s],throttle_mpc,roll_mpc,pitch_mpc,yaw_mpc,throttle_nw,roll_nw,pitch_nw,yaw_nw,position_x [m],position_y [m],position_z [m],rotation_w [quaternion],rotation_x [quaternion],rotation_y [quaternion],rotation_z [quaternion],velocity_x [m/s],velocity_y [m/s],velocity_z [m/s],omega_x [rad/s],omega_y [rad/s],omega_z [rad/s],network_used
0.0,10.631879561940124,5.9999995491553335,-5.999999909896813,-2.7157840686942225,13.341669,-0.44558224,-5.20153,-1.1838135,20.15574,-8.777501,2.0057964,-0.109633654,-0.453784,0.273556,0.8409683,-9.820533,-6.597431,0.22611356,1.7295816,-0.4094239,-0.36768043,0
0.01,10.631879561940124,5.9999995491553335,-5.999999909896813,-2.7157840686942225,14.051585,0.061871078,-6.4911203,-0.93706006,20.057102,-8.843274,2.007801,-0.07629625,-0.43511438,0.29563338,0.8470273,-9.906476,-6.556119,0.17496444,5.9999995,-6.0,-2.715784,0
0.02,10.631879561940124,5.9999995491553335,-5.999999909896813,-2.7157840686942225,14.051585,0.061871078,-6.4911203,-0.93706006,19.957628,-8.908595,2.0092983,-0.042807467,-0.4155815,0.31712422,0.8514057,-9.987802,-6.5071063,0.12462623,5.9999995,-6.0,-2.715784,0
0.03,10.631879561940124,5.9999995491553335,-5.999999909896813,-2.7157840686942225,14.051585,0.061871078,-6.4911203,-0.93706006,19.857367,-8.973391,2.0102959,-0.009233756,-0.39522406,0.33798584,0.8540949,-10.063844,-6.450822,0.07497304,5.9999995,-6.0,-2.715784,0
0.04,10.631879561940124,5.9999995491553335,-5.999999909896813,-2.7157840686942225,15.29531,-0.8167242,-5.4279037,-0.94061536,19.756372,-9.037589,2.0108,0.024358278,-0.37408248,0.35817692,0.85508955,-10.133975,-6.3877516,0.025873588,5.9999995,-6.0,-2.715784,0
0.05,10.631879561940124,5.9999995491553335,-5.999999909896813,-2.7157840686942225,15.29531,-0.8167242,-5.4279037,-0.94061536,19.654709,-9.101125,2.0108147,0.057901982,-0.35219872,0.37765732,0.8543876,-10.1976185,-6.318435,-0.022807822,5.9999995,-6.0,-2.715784,0
0.060000000000000005,10.631879561940124,5.9999995491553335,-5.999999909896813,-2.7157840686942225,15.29531,-0.8167242,-5.4279037,-0.94061536,19.552443,-9.163938,2.0103443,0.09133081,-0.3296162,0.39638844,0.85199046,-10.254246,-6.243463,-0.07121019,5.9999995,-6.0,-2.715784,0
0.07,10.631879561940124,5.9999995491553335,-5.999999909896813,-2.7157840686942225,15.29531,-0.8167242,-5.4279037,-0.94061536,19.449648,-9.225976,2.0093906,0.12457843,-0.30637968,0.41433308,0.84790295,-10.303387,-6.16347,-0.11947474,5.9999995,-6.0,-2.715784,0
0.08,18.2765148257783,5.999998141369835,-5.999999814966927,-1.1391686665350635,15.87482,-1.8718615,-2.2341647,0.055893365,19.346401,-9.287191,2.0079544,0.15757889,-0.28253528,0.43145564,0.84213316,-10.344628,-6.0791297,-0.16774376,5.9999995,-6.0,-2.715784,0
0.09,18.2765148257783,5.999998141369835,-5.999999814966927,-1.1391686665350635,15.87482,-1.8718615,-2.2341647,0.055893365,19.24266,-9.347231,2.006214,0.18364291,-0.25475103,0.44998196,0.8359982,-10.401352,-5.9278817,-0.18045875,5.999998,-6.0,-1.1391686,0
0.09999999999999999,18.2765148257783,5.999998141369835,-5.999999814966927,-1.1391686665350635,15.87482,-1.8718615,-2.2341647,0.055893365,19.138426,-9.405732,2.004343,0.20937046,-0.22649999,0.46768382,0.82833153,-10.443449,-5.771555,-0.19385745,5.999998,-6.0,-1.1391686,0
0.10999999999999999,18.2765148257783,5.999998141369835,-5.999999814966927,-1.1391686665350635,15.87482,-1.8718615,-2.2341647,0.055893365,19.033844,-9.462649,2.0023332,0.23471442,-0.19783397,0.4845288,0.8191472,-10.470582,-5.6113515,-0.2083932,5.999998,-6.0,-1.1391686,0
0.11999999999999998,18.2765148257783,5.999998141369835,-5.999999814966927,-1.1391686665350635,15.87482,-1.8718615,-2.2341647,0.055893365,18.929066,-9.517951,2.0001702,0.25962833,-0.16880551,0.5004861,0.80846214,-10.482526,-5.4485,-0.22451107,5.999998,-6.0,-1.1391686,0
0.12999999999999998,20.99999821578701,2.584557537799172,-5.9999991296104636,0.6247993756294543,14.983079,-1.7978356,-2.1976173,-0.14966542,18.824245,-9.571615,1.9978361,0.28406656,-0.13946778,0.51552635,0.7962959,-10.479167,-5.284249,-0.24264452,5.999998,-6.0,-1.1391686,0
0.13999999999999999,20.99999821578701,2.584557537799172,-5.9999991296104636,0.6247993756294543,14.983079,-1.7978356,-2.1976173,-0.14966542,18.719543,-9.623514,1.9953728,0.29869145,-0.11022762,0.5174525,0.79427695,-10.459319,-5.096112,-0.24966341,2.5845575,-5.999999,0.6247994,0
0.15,20.99999821578701,2.584557537799172,-5.9999991296104636,0.6247993756294543,14.983079,-1.7978356,-2.1976173,-0.14966542,18.615105,-9.673547,1.9928498,0.31299478,-0.080868796,0.51882154,0.7914028,-10.426224,-4.910867,-0.25462723,2.5845575,-5.999999,0.6247994,0
0.16,20.999997841523182,-0.07747758711237518,-2.948644356380217,0.6669378303282169,14.785935,-3.6073697,0.09710682,-0.44782454,18.511063,-9.7217455,1.9902856,0.3269611,-0.051422894,0.519632,0.7876766,-10.380001,-4.7292705,-0.2580092,2.5845575,-5.999999,0.6247994,0
0.17,20.999997841523182,-0.07747758711237518,-2.948644356380217,0.6669378303282169,14.785935,-3.6073697,0.09710682,-0.44782454,18.407541,-9.7681465,1.9876953,0.33193803,-0.03819848,0.51461864,0.78963625,-10.32388,-4.5514045,-0.25961474,-0.07747759,-2.9486444,0.6669378,0
0.18000000000000002,20.999997841523182,-0.07747758711237518,-2.948644356380217,0.6669378303282169,14.785935,-3.6073697,0.09710682,-0.44782454,18.304604,-9.812784,1.9851024,0.33683905,-0.02496533,0.5094876,0.79141533,-10.263037,-4.376564,-0.2585886,-0.07747759,-2.9486444,0.6669378,0
0.19000000000000003,20.999997841523182,-0.07747758711237518,-2.948644356380217,0.6669378303282169,14.785935,-3.6073697,0.09710682,-0.44782454,18.202297,-9.855689,1.9825324,0.34166303,-0.0117264725,0.50424016,0.79301345,-10.197501,-4.204891,-0.25504923,-0.07747759,-2.9486444,0.6669378,0
0.20000000000000004,20.719501055360034,-0.7092588269526393,-0.35595238079238056,0.43134470415551485,15.212253,-4.2777896,3.8023083,-0.1781357,18.10067,-9.896893,1.9800098,0.34640893,0.0015150651,0.49887747,0.7944303,-10.127308,-4.036525,-0.24911727,-0.07747759,-2.9486444,0.6669378,0
0.21000000000000005,20.719501055360034,-0.7092588269526393,-0.35595238079238056,0.43134470415551485,15.212253,-4.2777896,3.8023083,-0.1781357,17.999758,-9.936439,1.9775498,0.3455853,0.002776415,0.4954353,0.79693574,-10.055288,-3.8728085,-0.24262452,-0.70925885,-0.35595238,0.43134472,0
0.22000000000000006,20.719501055360034,-0.7092588269526393,-0.35595238079238056,0.43134470415551485,15.212253,-4.2777896,3.8023083,-0.1781357,17.899565,-9.974352,1.9751619,0.3447546,0.004037708,0.49198306,0.79942495,-9.983513,-3.709896,-0.23471834,-0.70925885,-0.35595238,0.43134472,0
0.23000000000000007,20.719501055360034,-0.7092588269526393,-0.35595238079238056,0.43134470415551485,15.212253,-4.2777896,3.8023083,-0.1781357,17.800087,-10.010639,1.9728602,0.3439169,0.0052989186,0.4885208,0.8018979,-9.91198,-3.5478003,-0.22540581,-0.70925885,-0.35595238,0.43134472,0
0.24000000000000007,20.719501055360034,-0.7092588269526393,-0.35595238079238056,0.43134470415551485,15.99932,-3.7309196,5.477243,-0.19343597,17.701324,-10.04531,1.9706587,0.34307218,0.0065600215,0.48504853,0.8043544,-9.840686,-3.386534,-0.21469413,-0.70925885,-0.35595238,0.43134472,0
0.25000000000000006,20.719501055360034,-0.7092588269526393,-0.35595238079238056,0.43134470415551485,15.99932,-3.7309196,5.477243,-0.19343597,17.603273,-10.078374,1.9685712,0.34222043,0.007820991,0.4815664,0.8067946,-9.769631,-3.2261097,-0.20259054,-0.70925885,-0.35595238,0.43134472,0
0.26000000000000006,20.719501055360034,-0.7092588269526393,-0.35595238079238056,0.43134470415551485,15.99932,-3.7309196,5.477243,-0.19343597,17.505932,-10.109837,1.9666116,0.34136173,0.0090818,0.4780744,0.8092183,-9.6988125,-3.0665405,-0.18910247,-0.70925885,-0.35595238,0.43134472,0
0.2700000000000001,20.719501055360034,-0.7092588269526393,-0.35595238079238056,0.43134470415551485,15.99932,-3.7309196,5.477243,-0.19343597,17.409296,-10.139708,1.9647939,0.34049603,0.010342424,0.4745727,0.8116254,-9.628227,-2.9078386,-0.17423743,-0.70925885,-0.35595238,0.43134472,0
0.2800000000000001,19.14023615712103,-1.2398736790582285,1.4893645363449672,0.21362022842848447,17.197943,-3.4330323,5.7129107,-0.39187604,17.313368,-10.167996,1.9631318,0.33962342,0.011602837,0.4710613,0.81401604,-9.557875,-2.7500172,-0.15800305,-0.70925885,-0.35595238,0.43134472,0
0.2900000000000001,19.14023615712103,-1.2398736790582285,1.4893645363449672,0.21362022842848447,17.197943,-3.4330323,5.7129107,-0.39187604,17.21811,-10.194769,1.9615943,0.33530194,0.0039382633,0.4685093,0.81734675,-9.494325,-2.6044316,-0.14933217,-1.2398736,1.4893645,0.21362023,0
0.3000000000000001,19.14023615712103,-1.2398736790582285,1.4893645363449672,0.21362022842848447,17.197943,-3.4330323,5.7129107,-0.39187604,17.12347,-10.220082,1.9601485,0.33094856,-0.0037266836,0.46591273,0.8205998,-9.434272,-2.4580638,-0.13971055,-1.2398736,1.4893645,0.21362023,0
0.3100000000000001,19.14023615712103,-1.2398736790582285,1.4893645363449672,0.21362022842848447,17.197943,-3.4330323,5.7129107,-0.39187604,17.029413,-10.243928,1.9588034,0.32656375,-0.011391276,0.46327195,0.8237748,-9.377741,-2.3109732,-0.1291724,-1.2398736,1.4893645,0.21362023,0
0.3200000000000001,17.910013788569824,-1.5744268836656479,3.091168910011499,0.03418073478146709,17.746649,-3.337402,5.849839,-0.25911552,16.935902,-10.266299,1.9575682,0.32214788,-0.019054785,0.4605871,0.8268716,-9.32475,-2.1632195,-0.1177523,-1.2398736,1.4893645,0.21362023,0
0.3300000000000001,17.910013788569824,-1.5744268836656479,3.091168910011499,0.03418073478146709,17.746649,-3.337402,5.849839,-0.25911552,16.842886,-10.287235,1.9564153,0.3146897,-0.03428843,0.458991,0.8301334,-9.279477,-2.0239391,-0.11277345,-1.5744269,3.0911689,0.034180734,0
0.34000000000000014,17.910013788569824,-1.5744268836656479,3.091168910011499,0.03418073478146709,17.746649,-3.337402,5.849839,-0.25911552,16.750292,-10.306772,1.9553132,0.30713683,-0.049511757,0.4572568,0.83314544,-9.240186,-1.882993,-0.10760582,-1.5744269,3.0911689,0.034180734,0
0.35000000000000014,17.910013788569824,-1.5744268836656479,3.091168910011499,0.03418073478146709,17.746649,-3.337402,5.849839,-0.25911552,16.658062,-10.324892,1.9542632,0.29949158,-0.06472018,0.45538497,0.8359068,-9.206924,-1.7405515,-0.10237197,-1.5744269,3.0911689,0.034180734,0
0.36000000000000015,17.232991108527745,-1.6179233797757675,3.215136984818923,-0.12946834024165263,16.945482,-3.4257717,5.8796377,-0.25916988,16.566133,-10.34158,1.9532654,0.2917562,-0.07990914,0.45337614,0.83841664,-9.179732,-1.5967872,-0.09719447,-1.5744269,3.0911689,0.034180734,0
0.37000000000000016,17.232991108527745,-1.6179233797757675,3.215136984818923,-0.12946834024165263,16.945482,-3.4257717,5.8796377,-0.25916988,16.474442,-10.356852,1.9522992,0.28431728,-0.09602711,0.45115876,0.8404747,-9.159522,-1.4573314,-0.09610692,-1.6179234,3.215137,-0.12946834,0
0.38000000000000017,17.232991108527745,-1.6179233797757675,3.215136984818923,-0.12946834024165263,16.945482,-3.4257717,5.8796377,-0.25916988,16.382921,-10.370723,1.9513422,0.27678615,-0.11211396,0.44879508,0.84226024,-9.145426,-1.3168881,-0.095356025,-1.6179234,3.215137,-0.12946834,0
0.3900000000000002,17.232991108527745,-1.6179233797757675,3.215136984818923,-0.12946834024165263,16.945482,-3.4257717,5.8796377,-0.25916988,16.291512,-10.383185,1.9503905,0.2691653,-0.12816446,0.44628587,0.8437727,-9.137459,-1.1756346,-0.0950764,-1.6179234,3.215137,-0.12946834,0
0.4000000000000002,16.75332457663686,-1.3401330603065462,1.9539722586133477,-0.2714002514215257,16.267456,-3.672806,4.461273,-0.37333804,16.200151,-10.394233,1.9494386,0.26145712,-0.14417337,0.4436319,0.84501153,-9.135632,-1.0337495,-0.095402025,-1.6179234,3.215137,-0.12946834,0
0.4100000000000002,16.75332457663686,-1.3401330603065462,1.9539722586133477,-0.2714002514215257,16.267456,-3.672806,4.461273,-0.37333804,16.10878,-10.403879,1.9484671,0.25728503,-0.15477246,0.44029704,0.8461607,-9.139076,-0.8955292,-0.09890054,-1.3401331,1.9539722,-0.27140024,0
0.4200000000000002,16.75332457663686,-1.3401330603065462,1.9539722586133477,-0.2714002514215257,16.267456,-3.672806,4.461273,-0.37333804,16.017355,-10.412144,1.9474603,0.25307634,-0.16534954,0.43689957,0.84718955,-9.146488,-0.75739825,-0.102496274,-1.3401331,1.9539722,-0.27140024,0
0.4300000000000002,16.75332457663686,-1.3401330603065462,1.9539722586133477,-0.2714002514215257,16.267456,-3.672806,4.461273,-0.37333804,15.925837,-10.419027,1.9464167,0.2488317,-0.1759031,0.43344,0.848098,-9.157862,-0.61942804,-0.106251165,-1.3401331,1.9539722,-0.27140024,0
0.4400000000000002,16.75332457663686,-1.3401330603065462,1.9539722586133477,-0.2714002514215257,16.260916,-3.8386452,3.946588,-0.32684976,15.834185,-10.424533,1.9453346,0.24455167,-0.18643166,0.4299188,0.84888583,-9.173191,-0.48169,-0.11022707,-1.3401331,1.9539722,-0.27140024,0
0.45000000000000023,16.75332457663686,-1.3401330603065462,1.9539722586133477,-0.2714002514215257,16.260916,-3.8386452,3.946588,-0.32684976,15.742359,-10.428662,1.9442114,0.24023686,-0.19693372,0.42633647,0.8495529,-9.19247,-0.34425527,-0.1144857,-1.3401331,1.9539722,-0.27140024,0
0.46000000000000024,16.75332457663686,-1.3401330603065462,1.9539722586133477,-0.2714002514215257,16.260916,-3.8386452,3.946588,-0.32684976,15.650322,-10.431419,1.9430438,0.2358879,-0.20740776,0.42269352,0.8500992,-9.215684,-0.20719498,-0.11908864,-1.3401331,1.9539722,-0.27140024,0
0.47000000000000025,16.75332457663686,-1.3401330603065462,1.9539722586133477,-0.2714002514215257,16.260916,-3.8386452,3.946588,-0.32684976,15.558032,-10.432808,1.9418283,0.2315054,-0.21785232,0.41899046,0.85052466,-9.242823,-0.070579976,-0.12409725,-1.3401331,1.9539722,-0.27140024,0
0.48000000000000026,16.576479124383432,-1.108494977210353,1.3058877889118152,-0.329871318355174,15.970385,-3.7840054,2.6747124,-0.276779,15.465452,-10.432833,1.9405605,0.22708997,-0.22826591,0.4152278,0.8508292,-9.273869,0.06551918,-0.12957266,-1.3401331,1.9539722,-0.27140024,0
0.49000000000000027,16.576479124383432,-1.108494977210353,1.3058877889118152,-0.329871318355174,15.970385,-3.7840054,2.6747124,-0.276779,15.372544,-10.431506,1.9392308,0.22450832,-0.23575607,0.41160265,0.85123324,-9.308035,0.19960573,-0.13639946,-1.108495,1.3058878,-0.32987133,0
0.5000000000000002,16.576479124383432,-1.108494977210353,1.3058877889118152,-0.329871318355174,15.970385,-3.7840054,2.6747124,-0.276779,15.279282,-10.428843,1.9378319,0.2219096,-0.24322829,0.40794614,0.8515725,-9.344967,0.33307415,-0.14339778,-1.108495,1.3058878,-0.32987133,0
0.5100000000000002,16.576479124383432,-1.108494977210353,1.3058877889118152,-0.329871318355174,15.970385,-3.7840054,2.6747124,-0.276779,15.185636,-10.424847,1.9363621,0.21929398,-0.25068203,0.4042586,0.85184693,-9.384654,0.46589044,-0.1506021,-1.108495,1.3058878,-0.32987133,0
0.5200000000000002,16.172903737101315,-0.6968439089583354,0.04167881563633848,-0.3741043879880349,15.403353,-3.6062822,2.0023453,-0.25023252,15.091579,-10.419527,1.9348191,0.21666169,-0.25811666,0.40054035,0.85205656,-9.427087,0.5980208,-0.15804693,-1.108495,1.3058878,-0.32987133,0
0.5300000000000002,16.172903737101315,-0.6968439089583354,0.04167881563633848,-0.3741043879880349,15.403353,-3.6062822,2.0023453,-0.25023252,14.997092,-10.412905,1.9331902,0.21727099,-0.25979632,0.3971308,0.8529864,-9.470418,0.7262568,-0.16763632,-0.6968439,0.041678816,-0.37410438,0
0.5400000000000003,16.172903737101315,-0.6968439089583354,0.04167881563633848,-0.3741043879880349,15.403353,-3.6062822,2.0023453,-0.25023252,14.902169,-10.405004,1.9314684,0.21787685,-0.2614719,0.39371502,0.8539029,-9.514451,0.8538394,-0.17663005,-0.6968439,0.041678816,-0.37410438,0
0.5500000000000003,16.172903737101315,-0.6968439089583354,0.04167881563633848,-0.3741043879880349,15.403353,-3.6062822,2.0023453,-0.25023252,14.806802,-10.39583,1.9296595,0.2184793,-0.26314336,0.39029306,0.854806,-9.559186,0.98076326,-0.18503517,-0.6968439,0.041678816,-0.37410438,0
0.5600000000000003,16.003716683645617,-0.3652824294131437,-0.4516296276437757,-0.3779340356346551,15.1332445,-3.4433432,1.6081536,-0.21895558,14.710983,-10.385391,1.9277695,0.21907835,-0.2648107,0.386865,0.85569566,-9.604627,1.1070231,-0.19285882,-0.6968439,0.041678816,-0.37410438,0
0.5700000000000003,16.003716683645617,-0.3652824294131437,-0.4516296276437757,-0.3779340356346551,15.1332445,-3.4433432,1.6081536,-0.21895558,14.61471,-10.373699,1.9257997,0.22108395,-0.264008,0.3843047,0.8565811,-9.649948,1.2313699,-0.20098236,-0.36528242,-0.45162964,-0.37793404,0
0.5800000000000003,16.003716683645617,-0.3652824294131437,-0.4516296276437757,-0.3779340356346551,15.1332445,-3.4433432,1.6081536,-0.21895558,14.517984,-10.360765,1.9237524,0.22308691,-0.26320213,0.38173983,0.8574562,-9.695057,1.3552353,-0.2083392,-0.36528242,-0.45162964,-0.37793404,0
0.5900000000000003,16.003716683645617,-0.3652824294131437,-0.4516296276437757,-0.3779340356346551,15.1332445,-3.4433432,1.6081536,-0.21895558,14.420809,-10.346596,1.9216355,0.22508718,-0.2623931,0.37917033,0.8583211,-9.739957,1.4786142,-0.21493226,-0.36528242,-0.45162964,-0.37793404,0
0.6000000000000003,15.673362594415819,-0.11732242626010356,-0.7395116932900262,-0.3711814234781204,14.326049,-2.8634624,0.60383797,-0.15840513,14.323186,-10.331195,1.9194565,0.22708476,-0.2615809,0.3765963,0.8591756,-9.784648,1.601501,-0.22076458,-0.36528242,-0.45162964,-0.37793404,0
0.6100000000000003,15.673362594415819,-0.11732242626010356,-0.7395116932900262,-0.3711814234781204,14.326049,-2.8634624,0.60383797,-0.15840513,14.225122,-10.31458,1.9172134,0.22991635,-0.25923392,0.37476388,0.8599348,-9.828001,1.7214203,-0.22773144,-0.11732242,-0.73951167,-0.37118143,0
0.6200000000000003,15.673362594415819,-0.11732242626010356,-0.7395116932900262,-0.3711814234781204,14.326049,-2.8634624,0.60383797,-0.15840513,14.126629,-10.296767,1.9149047,0.23274395,-0.2568824,0.37292492,0.860679,-9.870581,1.8409947,-0.2338848,-0.11732242,-0.73951167,-0.37118143,0
0.6300000000000003,15.673362594415819,-0.11732242626010356,-0.7395116932900262,-0.3711814234781204,14.326049,-2.8634624,0.60383797,-0.15840513,14.027714,-10.277761,1.9125384,0.23556747,-0.25452638,0.37107947,0.8614081,-9.91239,1.9602152,-0.23922795,-0.11732242,-0.73951167,-0.37118143,0
0.6400000000000003,15.673362594415819,-0.11732242626010356,-0.7395116932900262,-0.3711814234781204,14.310429,-2.6391742,0.36202487,-0.198407,13.928385,-10.257565,1.9101229,0.23838688,-0.2521659,0.3692275,0.8621222,-9.953427,2.0790727,-0.2437643,-0.11732242,-0.73951167,-0.37118143,0
0.6500000000000004,15.673362594415819,-0.11732242626010356,-0.7395116932900262,-0.3711814234781204,14.310429,-2.6391742,0.36202487,-0.198407,13.828648,-10.236181,1.907666,0.24120213,-0.24980108,0.3673691,0.8628212,-9.993695,2.197558,-0.24749726,-0.11732242,-0.73951167,-0.37118143,0
0.6600000000000004,15.673362594415819,-0.11732242626010356,-0.7395116932900262,-0.3711814234781204,14.310429,-2.6391742,0.36202487,-0.198407,13.728512,-10.213614,1.9051757,0.24401316,-0.24743187,0.3655043,0.8635052,-10.033194,2.3156617,-0.25043032,-0.11732242,-0.73951167,-0.37118143,0
0.6700000000000004,15.673362594415819,-0.11732242626010356,-0.7395116932900262,-0.3711814234781204,14.310429,-2.6391742,0.36202487,-0.198407,13.627986,-10.18987,1.90266,0.24681994,-0.24505836,0.3636331,0.86417407,-10.071923,2.433375,-0.25256705,-0.11732242,-0.73951167,-0.37118143,0
0.6800000000000004,15.671585694354128,0.03462897982505568,-0.5289701194453074,-0.35413786806605524,15.111365,-2.4545648,0.39025602,-0.20470816,13.527078,-10.16495,1.900127,0.2496224,-0.24268055,0.36175555,0.8648279,-10.109885,2.5506885,-0.25391102,-0.11732242,-0.73951167,-0.37118143,0
0.6900000000000004,15.671585694354128,0.03462897982505568,-0.5289701194453074,-0.35413786806605524,15.111365,-2.4545648,0.39025602,-0.20470816,13.425792,-10.138858,1.8975842,0.25215128,-0.24098931,0.36081353,0.8649607,-10.147116,2.6676672,-0.25459602,0.03462898,-0.5289701,-0.35413787,0
0.7000000000000004,15.671585694354128,0.03462897982505568,-0.5289701194453074,-0.35413786806605524,15.111365,-2.4545648,0.39025602,-0.20470816,13.324138,-10.111597,1.8950368,0.2546776,-0.23929563,0.35986784,0.8650847,-10.183686,2.784462,-0.25481173,0.03462898,-0.5289701,-0.35413787,0
0.7100000000000004,15.671585694354128,0.03462897982505568,-0.5289701194453074,-0.35413786806605524,15.111365,-2.4545648,0.39025602,-0.20470816,13.222121,-10.083169,1.8924894,0.2572013,-0.23759952,0.3589185,0.8652,-10.219597,2.9010684,-0.2545593,0.03462898,-0.5289701,-0.35413787,0
0.7200000000000004,15.364859780292434,0.27830808795092615,-0.617667873363532,-0.3483164520923066,15.155279,-1.8808478,-0.01060559,-0.2587481,13.119748,-10.053576,1.889947,0.2597224,-0.23590098,0.3579655,0.86530644,-10.254848,3.0174809,-0.2538399,0.03462898,-0.5289701,-0.35413787,0
0.7300000000000004,15.364859780292434,0.27830808795092615,-0.617667873363532,-0.3483164520923066,15.155279,-1.8808478,-0.01060559,-0.2587481,13.01703,-10.022831,1.8874044,0.26266128,-0.23348893,0.35795406,0.8650783,-10.288638,3.1314905,-0.25463748,0.2783081,-0.61766785,-0.34831646,0
0.7400000000000004,15.364859780292434,0.27830808795092615,-0.617667873363532,-0.3483164520923066,15.155279,-1.8808478,-0.01060559,-0.2587481,12.913979,-9.990946,1.8848555,0.26559633,-0.2310735,0.35793743,0.8648376,-10.321447,3.2454877,-0.25508532,0.2783081,-0.61766785,-0.34831646,0
0.7500000000000004,15.364859780292434,0.27830808795092615,-0.617667873363532,-0.3483164520923066,15.155279,-1.8808478,-0.01060559,-0.2587481,12.810604,-9.957921,1.8823038,0.26852757,-0.22865468,0.35791558,0.86458427,-10.353276,3.359465,-0.25518543,0.2783081,-0.61766785,-0.34831646,0
0.7600000000000005,15.242355994755185,0.41782812682327014,-0.5554660204597692,-0.32800322144964905,14.823464,-1.2022825,-0.32197058,-0.19488579,12.706917,-9.923757,1.8797531,0.2714549,-0.22623259,0.35788858,0.86431843,-10.384124,3.4734137,-0.25493973,0.2783081,-0.61766785,-0.34831646,0
0.7700000000000005,15.242355994755185,0.41782812682327014,-0.5554660204597692,-0.32800322144964905,14.823464,-1.2022825,-0.32197058,-0.19488579,12.602927,-9.888457,1.8772024,0.274337,-0.22385025,0.3585667,0.8637475,-10.413726,3.5864773,-0.25519753,0.4178281,-0.555466,-0.32800323,0
0.7800000000000005,15.242355994755185,0.41782812682327014,-0.5554660204597692,-0.32800322144964905,14.823464,-1.2022825,-0.32197058,-0.19488579,12.498647,-9.852027,1.8746499,0.27721503,-0.22146462,0.3592395,0.8631638,-10.44229,3.6996539,-0.25527737,0.4178281,-0.555466,-0.32800323,0
0.7900000000000005,15.242355994755185,0.41782812682327014,-0.5554660204597692,-0.32800322144964905,14.823464,-1.2022825,-0.32197058,-0.19488579,12.394086,-9.814464,1.8720975,0.28008896,-0.21907571,0.359907,0.86256737,-10.469817,3.8129354,-0.25518134,0.4178281,-0.555466,-0.32800323,0
0.8000000000000005,14.926564475133828,0.5394885077110246,-0.9123833313764782,-0.3332284796968251,14.149784,-0.8752388,-0.34539717,-0.25970823,12.289254,-9.775767,1.8695469,0.28295878,-0.21668357,0.36056915,0.8619582,-10.496303,3.926314,-0.25491163,0.4178281,-0.555466,-0.32800323,0
0.8100000000000005,14.926564475133828,0.5394885077110246,-0.9123833313764782,-0.3332284796968251,14.149784,-0.8752388,-0.34539717,-0.25970823,12.184167,-9.735949,1.8669899,0.2866199,-0.21258557,0.3612368,0.8614893,-10.521026,4.037404,-0.2564311,0.5394885,-0.9123833,-0.33322847,0
0.8200000000000005,14.926564475133828,0.5394885077110246,-0.9123833313764782,-0.3332284796968251,14.149784,-0.8752388,-0.34539717,-0.25970823,12.078839,-9.695019,1.8644195,0.2902722,-0.208481,0.3618933,0.86099386,-10.544213,4.1484957,-0.25757197,0.5394885,-0.9123833,-0.33322847,0
0.8300000000000005,14.926564475133828,0.5394885077110246,-0.9123833313764782,-0.3332284796968251,14.149784,-0.8752388,-0.34539717,-0.25970823,11.973288,-9.652979,1.8618395,0.29391554,-0.20436999,0.36253864,0.86047184,-10.565864,4.2595725,-0.25834122,0.5394885,-0.9123833,-0.33322847,0
0.8400000000000005,14.926564475133828,0.5394885077110246,-0.9123833313764782,-0.3332284796968251,14.056016,-0.76385593,-0.36294097,-0.21824175,11.867527,-9.609828,1.8592538,0.2975498,-0.20025268,0.36317277,0.85992324,-10.585973,4.3706183,-0.2587461,0.5394885,-0.9123833,-0.33322847,0
0.8500000000000005,14.926564475133828,0.5394885077110246,-0.9123833313764782,-0.3332284796968251,14.056016,-0.76385593,-0.36294097,-0.21824175,11.761574,-9.565567,1.8566657,0.30117488,-0.19612919,0.3637957,0.8593481,-10.604541,4.481618,-0.25879368,0.5394885,-0.9123833,-0.33322847,0
0.8600000000000005,14.926564475133828,0.5394885077110246,-0.9123833313764782,-0.3332284796968251,14.056016,-0.76385593,-0.36294097,-0.21824175,11.655442,-9.520196,1.854079,0.30479068,-0.19199963,0.36440742,0.85874647,-10.621568,4.5925555,-0.25849122,0.5394885,-0.9123833,-0.33322847,0
0.8700000000000006,14.926564475133828,0.5394885077110246,-0.9123833313764782,-0.3332284796968251,14.056016,-0.76385593,-0.36294097,-0.21824175,11.549148,-9.473717,1.851497,0.30839705,-0.18786415,0.36500788,0.8581183,-10.6370535,4.703414,-0.25784597,0.5394885,-0.9123833,-0.33322847,0
0.8800000000000006,14.812538316225455,0.5173015263529566,-0.6123675261291133,-0.3104230627745724,13.855246,-0.60937667,-0.56244785,-0.16356641,11.442705,-9.426128,1.8489233,0.31199393,-0.18372288,0.36559707,0.85746366,-10.650996,4.814178,-0.25686523,0.5394885,-0.9123833,-0.33322847,0
0.8900000000000006,14.812538316225455,0.5173015263529566,-0.6123675261291133,-0.3104230627745724,13.855246,-0.60937667,-0.56244785,-0.16356641,11.336131,-9.377438,1.846357,0.31491652,-0.18085626,0.3665711,0.8565884,-10.663432,4.924047,-0.25639963,0.5173015,-0.6123675,-0.31042308,0
0.9000000000000006,14.812538316225455,0.5173015263529566,-0.6123675261291133,-0.3104230627745724,13.855246,-0.60937667,-0.56244785,-0.16356641,11.22944,-9.327648,1.8437957,0.3178333,-0.1779863,0.36753836,0.85569733,-10.674685,5.0339565,-0.25583702,0.5173015,-0.6123675,-0.31042308,0
0.9100000000000006,14.812538316225455,0.5173015263529566,-0.6123675261291133,-0.3104230627745724,13.855246,-0.60937667,-0.56244785,-0.16356641,11.1226425,-9.27676,1.8412405,0.32074422,-0.17511304,0.36849883,0.85479045,-10.684753,5.1438966,-0.255181,0.5173015,-0.6123675,-0.31042308,0
0.9200000000000006,14.42185738708023,0.5076531119224984,-0.9630568602176862,-0.30579694124363005,13.8060465,-0.47678956,-0.54287916,-0.15690762,11.01575,-9.224771,1.8386923,0.32364917,-0.17223655,0.36945248,0.85386777,-10.693639,5.2538586,-0.25443524,0.5173015,-0.6123675,-0.31042308,1
0.9300000000000006,14.42185738708023,0.5076531119224984,-0.9630568602176862,-0.30579694124363005,13.8060465,-0.47678956,-0.54287916,-0.15690762,10.908776,-9.171721,1.8361192,0.3249091,-0.17097905,0.36640072,0.85495627,-10.701193,5.3561087,-0.2600776,-0.47678956,-0.54287916,-0.15690762,1
0.9400000000000006,14.42185738708023,0.5076531119224984,-0.9630568602176862,-0.30579694124363005,13.8060465,-0.47678956,-0.54287916,-0.15690762,10.801726,-9.117652,1.8334934,0.32616457,-0.16971922,0.36334398,0.8560331,-10.708648,5.4576945,-0.2649825,-0.47678956,-0.54287916,-0.15690762,1
0.9500000000000006,14.42185738708023,0.5076531119224984,-0.9630568602176862,-0.30579694124363005,13.8060465,-0.47678956,-0.54287916,-0.15690762,10.694603,-9.06257,1.8308221,0.3274156,-0.16845706,0.36028227,0.8570982,-10.716004,5.5586104,-0.2691548,-0.47678956,-0.54287916,-0.15690762,1
0.9600000000000006,14.336394642921608,0.7446181446257543,-0.9757245987738548,-0.2744847965203021,13.494489,-0.5737238,-0.43700677,-0.13348824,10.587406,-9.006482,1.8281128,0.32866213,-0.16719261,0.35721564,0.8581517,-10.723265,5.6588516,-0.2725993,-0.47678956,-0.54287916,-0.15690762,0
0.9700000000000006,14.336394642921608,0.7446181446257543,-0.9757245987738548,-0.2744847965203021,13.494489,-0.5737238,-0.43700677,-0.13348824,10.480138,-8.949376,1.8253903,0.33219853,-0.16226935,0.35857067,0.8571694,-10.730085,5.762479,-0.2718667,0.7446181,-0.9757246,-0.27448478,0
0.9800000000000006,14.336394642921608,0.7446181446257543,-0.9757245987738548,-0.2744847965203021,13.494489,-0.5737238,-0.43700677,-0.13348824,10.37281,-8.8912325,1.8226761,0.33572182,-0.15733968,0.35991153,0.8561532,-10.735157,5.8660316,-0.27095145,0.7446181,-0.9757246,-0.27448478,0
0.9900000000000007,14.336394642921608,0.7446181446257543,-0.9757245987738548,-0.2744847965203021,13.494489,-0.5737238,-0.43700677,-0.13348824,10.265441,-8.832055,1.8199719,0.33923182,-0.15240377,0.36123815,0.85510314,-10.73848,5.9694915,-0.26986492,0.7446181,-0.9757246,-0.27448478,0
1.0000000000000007,13.979138278876635,0.6606580912664415,-1.3242174274033194,-0.244273950564664,12.502996,0.02570429,-1.1456703,-0.0808118,10.158048,-8.771843,1.8172795,0.3427284,-0.14746186,0.36255053,0.8540193,-10.740054,6.0728393,-0.26861864,0.7446181,-0.9757246,-0.27448478,0
1.0100000000000007,13.979138278876635,0.6606580912664415,-1.3242174274033194,-0.244273950564664,12.502996,0.02570429,-1.1456703,-0.0808118,10.050646,-8.710611,1.8145881,0.3466494,-0.1411139,0.36291206,0.8533554,-10.739783,6.173374,-0.26959,0.66065806,-1.3242174,-0.24427395,0
1.0200000000000007,13.979138278876635,0.6606580912664415,-1.3242174274033194,-0.244273950564664,12.502996,0.02570429,-1.1456703,-0.0808118,9.943257,-8.648376,1.811889,0.35055092,-0.13475803,0.36325318,0.85264355,-10.737538,6.273465,-0.2701292,0.66065806,-1.3242174,-0.24427395,0
1.0300000000000007,13.979138278876635,0.6606580912664415,-1.3242174274033194,-0.244273950564664,12.502996,0.02570429,-1.1456703,-0.0808118,9.835902,-8.585143,1.8091867,0.3544327,-0.12839456,0.36357388,0.85188377,-10.733321,6.3730865,-0.2702542,0.66065806,-1.3242174,-0.24427395,0
1.0400000000000007,13.979138278876635,0.6606580912664415,-1.3242174274033194,-0.244273950564664,12.4296055,-0.053209517,-1.1674498,-0.0425778,9.728599,-8.520917,1.8064853,0.35829455,-0.122023866,0.3638741,0.85107607,-10.727136,6.4722133,-0.26998293,0.66065806,-1.3242174,-0.24427395,0
1.0500000000000007,13.979138278876635,0.6606580912664415,-1.3242174274033194,-0.244273950564664,12.4296055,-0.053209517,-1.1674498,-0.0425778,9.6213665,-8.455701,1.8037884,0.36213624,-0.115646325,0.3641539,0.85022044,-10.718984,6.570821,-0.26933348,0.66065806,-1.3242174,-0.24427395,0
1.0600000000000007,13.979138278876635,0.6606580912664415,-1.3242174274033194,-0.244273950564664,12.4296055,-0.053209517,-1.1674498,-0.0425778,9.514226,-8.389502,1.8010999,0.36595756,-0.10926228,0.36441323,0.8493171,-10.708869,6.6688833,-0.26832402,0.66065806,-1.3242174,-0.24427395,0
1.0700000000000007,13.979138278876635,0.6606580912664415,-1.3242174274033194,-0.244273950564664,12.4296055,-0.053209517,-1.1674498,-0.0425778,9.407197,-8.322325,1.7984232,0.3697583,-0.10287208,0.36465207,0.8483659,-10.6967945,6.766377,-0.2669728,0.66065806,-1.3242174,-0.24427395,0
1.0800000000000007,13.805513806499684,0.3576554619569956,-0.9746578216090039,-0.20794315080023262,12.259631,-0.13778421,-1.0018014,-0.09812921,9.300297,-8.254176,1.7957616,0.37353826,-0.0964761,0.3648704,0.8473669,-10.682764,6.8632765,-0.2652982,0.66065806,-1.3242174,-0.24427395,0
1.0900000000000007,13.805513806499684,0.3576554619569956,-0.9746578216090039,-0.20794315080023262,12.259631,-0.13778421,-1.0018014,-0.09812921,9.193546,-8.185067,1.793112,0.3763647,-0.092056684,0.36445996,0.84678435,-10.66722,6.9583936,-0.26455373,0.35765547,-0.97465783,-0.20794316,0
1.1000000000000008,13.805513806499684,0.3576554619569956,-0.9746578216090039,-0.20794315080023262,12.259631,-0.13778421,-1.0018014,-0.09812921,9.086958,-8.11501,1.7904714,0.37918058,-0.08763468,0.36403927,0.846178,-10.650387,7.0529675,-0.26349983,0.35765547,-0.97465783,-0.20794316,0
1.1100000000000008,13.805513806499684,0.3576554619569956,-0.9746578216090039,-0.20794315080023262,12.259631,-0.13778421,-1.0018014,-0.09812921,8.980543,-8.044009,1.787843,0.3819858,-0.08321023,0.36360842,0.845548,-10.632267,7.146986,-0.26214516,0.35765547,-0.97465783,-0.20794316,0
1.1200000000000008,13.428944451081126,-0.04656944605834271,-0.8863512114842137,-0.1493049044279785,11.97081,-0.26750717,-1.1257735,-0.11731905,8.874317,-7.972072,1.7852294,0.38478035,-0.07878344,0.36316735,0.84489423,-10.612862,7.2404375,-0.2604985,0.35765547,-0.97465783,-0.20794316,0
1.1300000000000008,13.428944451081126,-0.04656944605834271,-0.8863512114842137,-0.1493049044279785,11.97081,-0.26750717,-1.1257735,-0.11731905,8.768287,-7.8992157,1.7826207,0.3869983,-0.07539899,0.3612029,0.8450321,-10.5929165,7.3307137,-0.2612027,-0.046569444,-0.8863512,-0.14930491,0
1.1400000000000008,13.428944451081126,-0.04656944605834271,-0.8863512114842137,-0.1493049044279785,11.97081,-0.26750717,-1.1257735,-0.11731905,8.66246,-7.82546,1.7800074,0.38920844,-0.07201302,0.3592311,0.845153,-10.572195,7.42025,-0.26138705,-0.046569444,-0.8863512,-0.14930491,0
1.1500000000000008,13.428944451081126,-0.04656944605834271,-0.8863512114842137,-0.1493049044279785,11.97081,-0.26750717,-1.1257735,-0.11731905,8.556847,-7.750813,1.7773948,0.39141068,-0.0686256,0.35725206,0.8452567,-10.5507,7.509038,-0.26105842,-0.046569444,-0.8863512,-0.14930491,0
1.1600000000000008,13.134163477733614,-0.4183696724624106,-0.7967217397504912,-0.07921742229266074,11.941557,-0.49779186,-0.8601123,-0.122870505,8.45145,-7.675282,1.774788,0.393605,-0.06523678,0.35526574,0.84534323,-10.528435,7.5970707,-0.26022354,-0.046569444,-0.8863512,-0.14930491,0
1.1700000000000008,13.134163477733614,-0.4183696724624106,-0.7967217397504912,-0.07921742229266074,11.941557,-0.49779186,-0.8601123,-0.122870505,8.346278,-7.5988836,1.7721814,0.3952146,-0.062832676,0.35189998,0.84618175,-10.506067,7.6823716,-0.26098868,-0.41836968,-0.79672176,-0.07921742,0
1.1800000000000008,13.134163477733614,-0.4183696724624106,-0.7967217397504912,-0.07921742229266074,11.941557,-0.49779186,-0.8601123,-0.122870505,8.24133,-7.5216374,1.7695707,0.3968161,-0.060427297,0.348527,0.84700304,-10.483381,7.7667775,-0.2610506,-0.41836968,-0.79672176,-0.07921742,0
1.1900000000000008,13.134163477733614,-0.4183696724624106,-0.7967217397504912,-0.07921742229266074,11.941557,-0.49779186,-0.8601123,-0.122870505,8.136611,-7.4435515,1.7669628,0.39840952,-0.05802069,0.34514698,0.847807,-10.460378,7.8502817,-0.26041692,-0.41836968,-0.79672176,-0.07921742,0
1.2000000000000008,12.807946243467708,-0.6791347721270686,-1.0084602327710677,0.006300416467738106,12.179307,-0.8087833,-1.3851362,-0.17569226,8.032124,-7.3646355,1.7643645,0.39999482,-0.055612896,0.3417599,0.84859365,-10.43706,7.932878,-0.25909537,-0.41836968,-0.79672176,-0.07921742,1
1.2100000000000009,12.807946243467708,-0.6791347721270686,-1.0084602327710677,0.006300416467738106,12.179307,-0.8087833,-1.3851362,-0.17569226,7.927862,-7.2849283,1.7617472,0.40286925,-0.05165181,0.3354981,0.84998184,-10.415095,8.0083685,-0.2641785,-0.8087833,-1.3851362,-0.17569226,1
1.2200000000000009,12.807946243467708,-0.6791347721270686,-1.0084602327710677,0.006300416467738106,12.179307,-0.8087833,-1.3851362,-0.17569226,7.8238225,-7.2044735,1.7590847,0.40571746,-0.04768736,0.32921445,0.85131466,-10.392709,8.08232,-0.26813382,-0.8087833,-1.3851362,-0.17569226,1
1.2300000000000009,12.807946243467708,-0.6791347721270686,-1.0084602327710677,0.006300416467738106,12.179307,-0.8087833,-1.3851362,-0.17569226,7.7200093,-7.123287,1.7563882,0.40853927,-0.043719806,0.3229094,0.8525921,-10.369908,8.154716,-0.2709845,-0.8087833,-1.3851362,-0.17569226,1
1.2400000000000009,12.807946243467708,-0.6791347721270686,-1.0084602327710677,0.006300416467738106,12.238739,-1.0148579,-1.5286944,-0.19816953,7.616426,-7.041385,1.7536687,0.41133448,-0.039749406,0.31658337,0.85381407,-10.346704,8.225534,-0.2727542,-0.8087833,-1.3851362,-0.17569226,1
1.2500000000000009,12.807946243467708,-0.6791347721270686,-1.0084602327710677,0.006300416467738106,12.238739,-1.0148579,-1.5286944,-0.19816953,7.5130773,-6.9587812,1.7509394,0.41438103,-0.035622586,0.3090541,0.8552804,-10.323013,8.295008,-0.2729227,-1.0148579,-1.5286944,-0.19816953,1
1.260000000000001,12.807946243467708,-0.6791347721270686,-1.0084602327710677,0.006300416467738106,12.238739,-1.0148579,-1.5286944,-0.19816953,7.409967,-6.875492,1.7482144,0.41739228,-0.03149273,0.3014985,0.8566739,-10.2990055,8.36262,-0.27187404,-1.0148579,-1.5286944,-0.19816953,1
1.270000000000001,12.807946243467708,-0.6791347721270686,-1.0084602327710677,0.006300416467738106,12.238739,-1.0148579,-1.5286944,-0.19816953,7.307098,-6.7915354,1.7455058,0.42036802,-0.027360193,0.29391724,0.85799444,-10.2746935,8.42835,-0.26964056,-1.0148579,-1.5286944,-0.19816953,1
1.280000000000001,12.705119281625787,-0.7837770408593362,-0.6312854086788782,0.1193845370650525,12.922612,-0.80918646,-1.4147937,-0.24657887,7.2044735,-6.7069316,1.7428254,0.42330796,-0.023225328,0.28631094,0.8592419,-10.250089,8.492175,-0.266255,-1.0148579,-1.5286944,-0.19816953,1
1.290000000000001,12.705119281625787,-0.7837770408593362,-0.6312854086788782,0.1193845370650525,12.922612,-0.80918646,-1.4147937,-0.24657887,7.102104,-6.621681,1.7402129,0.42628428,-0.019212,0.2798018,0.8600135,-10.223776,8.55762,-0.25607887,-0.80918646,-1.4147937,-0.24657887,1
1.300000000000001,12.705119281625787,-0.7837770408593362,-0.6312854086788782,0.1193845370650525,12.922612,-0.80918646,-1.4147937,-0.24657887,6.999999,-6.535785,1.7377073,0.42923167,-0.015197367,0.27327362,0.86072665,-10.197076,8.621244,-0.24491663,-0.80918646,-1.4147937,-0.24657887,1
1.310000000000001,12.705119281625787,-0.7837770408593362,-0.6312854086788782,0.1193845370650525,12.922612,-0.80918646,-1.4147937,-0.24657887,6.8981633,-6.449262,1.735318,0.4321499,-0.011181703,0.26672685,0.86138135,-10.170003,8.683029,-0.23279594,-0.80918646,-1.4147937,-0.24657887,1
1.320000000000001,12.392978090460595,-0.8735196623499668,-0.31292703962589064,0.2503322399238717,13.034123,-0.8985139,-1.4457648,-0.23285359,6.796601,-6.3621306,1.7330545,0.43503875,-0.0071652783,0.26016197,0.8619776,-10.142568,8.742961,-0.21974467,-0.80918646,-1.4147937,-0.24657887,0
1.330000000000001,12.392978090460595,-0.8735196623499668,-0.31292703962589064,0.2503322399238717,13.034123,-0.8985139,-1.4457648,-0.23285359,6.6953073,-6.2744203,1.7309029,0.43433058,-0.0073909545,0.2557225,0.8636597,-10.116261,8.79901,-0.21049055,-0.87351966,-0.31292704,0.25033224,0
1.340000000000001,12.392978090460595,-0.8735196623499668,-0.31292703962589064,0.2503322399238717,13.034123,-0.8985139,-1.4457648,-0.23285359,6.594274,-6.186153,1.7288467,0.4336124,-0.00761646,0.25127712,0.8653218,-10.0905285,8.854239,-0.20067295,-0.87351966,-0.31292704,0.25033224,0
1.350000000000001,12.392978090460595,-0.8735196623499668,-0.31292703962589064,0.2503322399238717,13.034123,-0.8985139,-1.4457648,-0.23285359,6.4934945,-6.097338,1.7268913,0.43288422,-0.007841789,0.24682596,0.8669639,-10.0653715,8.90864,-0.19030099,-0.87351966,-0.31292704,0.25033224,0
1.360000000000001,11.991632098697087,-1.0820786804094267,-0.26503104931844595,0.33732961979138626,12.9168825,-1.3438433,-1.0440081,-0.087837994,6.392964,-6.007983,1.7250425,0.432146,-0.008066937,0.2423691,0.868586,-10.040789,8.962207,-0.17938378,-0.87351966,-0.31292704,0.25033224,1
1.370000000000001,11.991632098697087,-1.0820786804094267,-0.26503104931844595,0.33732961979138626,12.9168825,-1.3438433,-1.0440081,-0.087837994,6.2926817,-5.9180865,1.7233292,0.4337228,-0.0065427376,0.23426482,0.87003535,-10.015717,9.016782,-0.1631283,-1.3438433,-1.0440081,-0.087837994,1
1.380000000000001,11.991632098697087,-1.0820786804094267,-0.26503104931844595,0.33732961979138626,12.9168825,-1.3438433,-1.0440081,-0.087837994,6.192648,-5.8276534,1.7217833,0.43526807,-0.0050180634,0.22614354,0.87142146,-9.9911175,9.069452,-0.14588155,-1.3438433,-1.0440081,-0.087837994,1
1.390000000000001,11.991632098697087,-1.0820786804094267,-0.26503104931844595,0.33732961979138626,12.9168825,-1.3438433,-1.0440081,-0.087837994,6.092858,-5.736704,1.7204148,0.43678173,-0.0034930247,0.21800585,0.8727443,-9.967001,9.120205,-0.12767683,-1.3438433,-1.0440081,-0.087837994,1
1.400000000000001,11.435012540897233,-1.118932911982553,-0.14246332059214112,0.4364789244832498,13.20787,-1.808869,-1.2587017,0.10899812,5.9933066,-5.645256,1.719233,0.43826368,-0.0019677326,0.20985234,0.8740039,-9.943375,9.1690235,-0.10854765,-1.3438433,-1.0440081,-0.087837994,0
1.410000000000001,11.435012540897233,-1.118932911982553,-0.14246332059214112,0.4364789244832498,13.20787,-1.808869,-1.2587017,0.10899812,5.8939753,-5.5533557,1.718179,0.43648675,-0.0033390785,0.2046509,0.8761198,-9.923064,9.210867,-0.102184646,-1.118933,-0.14246333,0.4364789,0
1.420000000000001,11.435012540897233,-1.118932911982553,-0.14246332059214112,0.4364789244832498,13.20787,-1.808869,-1.2587017,0.10899812,5.7948427,-5.461041,1.7171911,0.43469384,-0.004710302,0.19944195,0.8782037,-9.903634,9.251902,-0.09533493,-1.118933,-0.14246333,0.4364789,0
1.430000000000001,11.435012540897233,-1.118932911982553,-0.14246332059214112,0.4364789244832498,13.20787,-1.808869,-1.2587017,0.10899812,5.6959,-5.3683205,1.716274,0.43288505,-0.006081354,0.19422573,0.88025546,-9.885081,9.292119,-0.08801108,-1.118933,-0.14246333,0.4364789,0
1.440000000000001,11.435012540897233,-1.118932911982553,-0.14246332059214112,0.4364789244832498,12.840971,-1.7088867,-1.431839,0.19058293,5.5971384,-5.2752023,1.7154324,0.4310604,-0.0074521834,0.1890024,0.88227504,-9.867405,9.33151,-0.08022574,-1.118933,-0.14246333,0.4364789,0
1.450000000000001,11.435012540897233,-1.118932911982553,-0.14246332059214112,0.4364789244832498,12.840971,-1.7088867,-1.431839,0.19058293,5.4985495,-5.181694,1.7146709,0.42922,-0.008822741,0.18377215,0.8842623,-9.850604,9.370067,-0.07199163,-1.118933,-0.14246333,0.4364789,0
1.460000000000001,11.435012540897233,-1.118932911982553,-0.14246332059214112,0.4364789244832498,12.840971,-1.7088867,-1.431839,0.19058293,5.4001236,-5.0878043,1.713994,0.42736387,-0.0101929745,0.17853518,0.88621736,-9.834676,9.407779,-0.06332152,-1.118933,-0.14246333,0.4364789,0
1.470000000000001,11.435012540897233,-1.118932911982553,-0.14246332059214112,0.4364789244832498,12.840971,-1.7088867,-1.431839,0.19058293,5.3018527,-4.9935417,1.713406,0.42549214,-0.011562835,0.17329167,0.88813996,-9.819617,9.444639,-0.05422827,-1.118933,-0.14246333,0.4364789,0
1.480000000000001,11.338010963184871,-1.213833625168547,-0.3399654859023309,0.45573633027247135,13.145592,-1.9081933,-1.3678776,0.058293644,5.2037277,-4.898915,1.7129109,0.42360485,-0.012932273,0.16804183,0.8900301,-9.8054285,9.480639,-0.04472477,-1.118933,-0.14246333,0.4364789,0
1.490000000000001,11.338010963184871,-1.213833625168547,-0.3399654859023309,0.45573633027247135,13.145592,-1.9081933,-1.3678776,0.058293644,5.10574,-4.8039336,1.7125083,0.4217744,-0.013607094,0.16194578,0.89201725,-9.792195,9.515386,-0.035715036,-1.2138336,-0.3399655,0.45573634,0
1.500000000000001,11.338010963184871,-1.213833625168547,-0.3399654859023309,0.45573633027247135,13.145592,-1.9081933,-1.3678776,0.058293644,5.007881,-4.7086105,1.712198,0.419925,-0.014281305,0.15584244,0.8939643,-9.779756,9.549029,-0.026259402,-1.2138336,-0.3399655,0.45573634,0
1.5100000000000011,11.338010963184871,-1.213833625168547,-0.3399654859023309,0.45573633027247135,13.145592,-1.9081933,-1.3678776,0.058293644,4.910143,-4.6129565,1.7119845,0.41805676,-0.014954874,0.14973211,0.89587116,-9.768107,9.581563,-0.01637444,-1.2138336,-0.3399655,0.45573634,0
1.5200000000000011,11.252377306636427,-1.2484057223552538,-0.4684213324803455,0.46035774421831105,13.338655,-1.48653,-1.2569242,0.10414356,4.8125167,-4.516983,1.711872,0.41616973,-0.015627772,0.14361505,0.8977378,-9.757245,9.612977,-0.0060768016,-1.2138336,-0.3399655,0.45573634,0
1.5300000000000011,11.252377306636427,-1.2484057223552538,-0.4684213324803455,0.46035774421831105,13.338655,-1.48653,-1.2569242,0.10414356,4.714995,-4.420702,1.7118603,0.4143318,-0.015791956,0.13706908,0.8996064,-9.747218,9.642985,0.0038064355,-1.2484057,-0.46842134,0.46035776,0
1.5400000000000011,11.252377306636427,-1.2484057223552538,-0.4684213324803455,0.46035774421831105,13.338655,-1.48653,-1.2569242,0.10414356,4.6175694,-4.3241277,1.7119495,0.41247326,-0.015955355,0.13051629,0.9014302,-9.737899,9.671735,0.014094923,-1.2484057,-0.46842134,0.46035776,0
1.5500000000000012,11.252377306636427,-1.2484057223552538,-0.4684213324803455,0.46035774421831105,13.338655,-1.48653,-1.2569242,0.10414356,4.520234,-4.2272716,1.7121435,0.41059422,-0.01611796,0.12395702,0.90320915,-9.729284,9.699217,0.024769738,-1.2484057,-0.46842134,0.46035776,0
1.5600000000000012,11.288199459913148,-1.2029705047617714,-0.006159635382828331,0.45438322579384666,13.9947605,-1.5912771,-2.022745,0.043414537,4.4229813,-4.130148,1.7124461,0.40869474,-0.01627976,0.11739158,0.9049433,-9.721368,9.725423,0.035811882,-1.2484057,-0.46842134,0.46035776,0
1.5700000000000012,11.288199459913148,-1.2029705047617714,-0.006159635382828331,0.45438322579384666,13.9947605,-1.5912771,-2.022745,0.043414537,4.325804,-4.0327673,1.7128626,0.40653607,-0.018443072,0.111970484,0.9065597,-9.714238,9.750581,0.04752292,-1.2029705,-0.0061596353,0.45438322,0
1.5800000000000012,11.288199459913148,-1.2029705047617714,-0.006159635382828331,0.45438322579384666,13.9947605,-1.5912771,-2.022745,0.043414537,4.2286935,-3.9351397,1.7133975,0.40436056,-0.020605624,0.10654476,0.9081386,-9.708112,9.77486,0.059492037,-1.2029705,-0.0061596353,0.45438322,0
1.5900000000000012,11.288199459913148,-1.2029705047617714,-0.006159635382828331,0.45438322579384666,13.9947605,-1.5912771,-2.022745,0.043414537,4.1316385,-3.8372734,1.7140533,0.40216836,-0.022767324,0.101114646,0.90967995,-9.702985,9.798251,0.07170407,-1.2029705,-0.0061596353,0.45438322,0
1.6000000000000012,11.263251645305166,-1.0710198106912818,-0.39581139683236205,0.46273122077660583,13.476536,-1.7877921,-0.36012945,0.2546491,4.0346303,-3.7391775,1.7148323,0.3999595,-0.024928082,0.09568034,0.9111837,-9.698852,9.820748,0.084143795,-1.2029705,-0.0061596353,0.45438322,0
1.6100000000000012,11.263251645305166,-1.0710198106912818,-0.39581139683236205,0.46273122077660583,13.476536,-1.7877921,-0.36012945,0.2546491,3.9376585,-3.6408615,1.7157357,0.39789963,-0.025044775,0.09006521,0.9126535,-9.695566,9.842213,0.0965628,-1.0710198,-0.3958114,0.4627312,0
1.6200000000000012,11.263251645305166,-1.0710198106912818,-0.39581139683236205,0.46273122077660583,13.476536,-1.7877921,-0.36012945,0.2546491,3.8407168,-3.542337,1.7167643,0.39582464,-0.02516052,0.08444667,0.91408867,-9.692859,9.862552,0.109210156,-1.0710198,-0.3958114,0.4627312,0
1.6300000000000012,11.263251645305166,-1.0710198106912818,-0.39581139683236205,0.46273122077660583,13.476536,-1.7877921,-0.36012945,0.2546491,3.7437994,-3.4436145,1.7179205,0.39373466,-0.025275309,0.07882492,0.91548914,-9.690723,9.881759,0.122071795,-1.0710198,-0.3958114,0.4627312,0
1.6400000000000012,11.263251645305166,-1.0710198106912818,-0.39581139683236205,0.46273122077660583,13.381189,-1.6285273,-0.4877811,0.39256972,3.6469004,-3.3447058,1.7192065,0.39162973,-0.025389137,0.07320019,0.91685486,-9.6891575,9.89983,0.1351336,-1.0710198,-0.3958114,0.4627312,0
1.6500000000000012,11.263251645305166,-1.0710198106912818,-0.39581139683236205,0.46273122077660583,13.381189,-1.6285273,-0.4877811,0.39256972,3.550014,-3.2456222,1.720624,0.3895099,-0.025502002,0.06757267,0.91818583,-9.688154,9.9167595,0.14838141,-1.0710198,-0.3958114,0.4627312,0
1.6600000000000013,11.263251645305166,-1.0710198106912818,-0.39581139683236205,0.46273122077660583,13.381189,-1.6285273,-0.4877811,0.39256972,3.4531353,-3.1463747,1.7221748,0.3873753,-0.025613898,0.061942585,0.9194819,-9.687708,9.932543,0.16180104,-1.0710198,-0.3958114,0.4627312,0
1.6700000000000013,11.263251645305166,-1.0710198106912818,-0.39581139683236205,0.46273122077660583,13.381189,-1.6285273,-0.4877811,0.39256972,3.356258,-3.0469754,1.7238606,0.385226,-0.025724825,0.056310154,0.9207431,-9.687815,9.947176,0.17537834,-1.0710198,-0.3958114,0.4627312,0
1.6800000000000013,11.296386557966326,-0.9555923740635719,0.3463899166891347,0.449185061584911,13.097456,-1.4106287,-0.1250977,0.43446368,3.2593768,-2.9474354,1.725683,0.38306212,-0.025834775,0.050675586,0.92196935,-9.688468,9.960653,0.18909904,-1.0710198,-0.3958114,0.4627312,0
1.6900000000000013,11.296386557966326,-0.9555923740635719,0.3463899166891347,0.449185061584911,13.097456,-1.4106287,-0.1250977,0.43446368,3.162486,-2.8477654,1.7276447,0.38077435,-0.029147606,0.04699115,0.92301285,-9.689854,9.973264,0.20324783,-0.9555924,0.34638992,0.44918507,0
1.7000000000000013,11.296386557966326,-0.9555923740635719,0.3463899166891347,0.449185061584911,13.097456,-1.4106287,-0.1250977,0.43446368,3.0655763,-2.747972,1.7297481,0.3784748,-0.03245954,0.04330527,0.9240278,-9.69228,9.985387,0.21743265,-0.9555924,0.34638992,0.44918507,0
1.7100000000000013,11.296386557966326,-0.9555923740635719,0.3463899166891347,0.449185061584911,13.097456,-1.4106287,-0.1250977,0.43446368,2.9686372,-2.6480596,1.7319936,0.37616357,-0.03577047,0.03961805,0.92501426,-9.695742,9.997018,0.23164241,-0.9555924,0.34638992,0.44918507,0
1.7200000000000013,11.218741506496352,-0.7810512724989056,-0.11430791237377955,0.4601853759728766,12.938057,-1.4683005,-0.4399376,0.40960115,2.8716578,-2.5480332,1.7343811,0.37384072,-0.039080292,0.035929605,0.9259722,-9.700237,10.00815,0.24586608,-0.9555924,0.34638992,0.44918507,0
1.7300000000000013,11.218741506496352,-0.7810512724989056,-0.11430791237377955,0.4601853759728766,12.938057,-1.4683005,-0.4399376,0.40960115,2.7746294,-2.4478989,1.736907,0.37157413,-0.039927926,0.03218934,0.9269854,-9.705536,10.018623,0.25933748,-0.7810513,-0.11430791,0.46018538,0
1.7400000000000013,11.218741506496352,-0.7810512724989056,-0.11430791237377955,0.4601853759728766,12.938057,-1.4683005,-0.4399376,0.40960115,2.6775455,-2.3476632,1.739568,0.3692998,-0.040774725,0.028448401,0.92797923,-9.7113495,10.028377,0.27284858,-0.7810513,-0.11430791,0.46018538,0
1.7500000000000013,11.218741506496352,-0.7810512724989056,-0.11430791237377955,0.4601853759728766,12.938057,-1.4683005,-0.4399376,0.40960115,2.5804007,-2.247334,1.7423643,0.36701778,-0.04162067,0.024706872,0.9289537,-9.717673,10.037407,0.28639275,-0.7810513,-0.11430791,0.46018538,0
1.7600000000000013,11.180878151397723,-0.6534211087498069,-0.0028431914708062695,0.4559152476502805,13.30736,-1.4358591,-1.7031813,0.890897,2.4831903,-2.146918,1.7452961,0.36472812,-0.04246575,0.020964826,0.92990875,-9.7245035,10.045711,0.29996338,-0.7810513,-0.11430791,0.46018538,0
1.7700000000000014,11.180878151397723,-0.6534211087498069,-0.0028431914708062695,0.4559152476502805,13.30736,-1.4358591,-1.7031813,0.890897,2.385909,-2.0464225,1.7483618,0.36246696,-0.043596003,0.018018175,0.93080187,-9.73181,10.053331,0.3131724,-0.6534211,-0.0028431914,0.45591524,0
1.7800000000000014,11.180878151397723,-0.6534211087498069,-0.0028431914708062695,0.4559152476502805,13.30736,-1.4358591,-1.7031813,0.890897,2.2885523,-1.9458534,1.7515596,0.36020008,-0.044725567,0.015071237,0.9316802,-9.739607,10.060412,0.32638374,-0.6534211,-0.0028431914,0.45591524,0
1.7900000000000014,11.180878151397723,-0.6534211087498069,-0.0028431914708062695,0.4559152476502805,13.30736,-1.4358591,-1.7031813,0.890897,2.1911151,-1.845216,1.7548895,0.35792747,-0.04585442,0.012124063,0.93254375,-9.747892,10.066951,0.33959287,-0.6534211,-0.0028431914,0.45591524,0
1.8000000000000014,11.050765181780537,-0.5870447920446641,-0.5926362741513018,0.47367899932824414,13.856936,-1.2780355,-1.8273062,0.9024872,2.093593,-1.744516,1.7583514,0.35564917,-0.046982545,0.009176698,0.9333925,-9.756666,10.072944,0.35279542,-0.6534211,-0.0028431914,0.45591524,0
1.8100000000000014,11.050765181780537,-0.5870447920446641,-0.5926362741513018,0.47367899932824414,13.856936,-1.2780355,-1.8273062,0.9024872,1.9959815,-1.6437596,1.7619389,0.3533237,-0.04523838,0.00549431,0.9343903,-9.765615,10.078185,0.36471498,-0.5870448,-0.5926363,0.473679,0
1.8200000000000014,11.050765181780537,-0.5870447920446641,-0.5926362741513018,0.47367899932824414,13.856936,-1.2780355,-1.8273062,0.9024872,1.8982809,-1.5429554,1.7656459,0.35099012,-0.043493167,0.0018117966,0.9353665,-9.774507,10.082508,0.3766793,-0.5870448,-0.5926363,0.473679,0
1.8300000000000014,11.050765181780537,-0.5870447920446641,-0.5926362741513018,0.47367899932824414,13.856936,-1.2780355,-1.8273062,0.9024872,1.8004917,-1.4421127,1.7694727,0.34864846,-0.041746955,-0.0018707586,0.93632126,-9.783333,10.085912,0.38868102,-0.5870448,-0.5926363,0.473679,0
1.8400000000000014,11.050765181780537,-0.5870447920446641,-0.5926362741513018,0.47367899932824414,13.835337,-1.1599813,-2.0653071,1.0380495,1.7026147,-1.3412404,1.7734197,0.34629878,-0.039999783,-0.0055532707,0.9372544,-9.7920885,10.088397,0.40071285,-0.5870448,-0.5926363,0.473679,0
1.8500000000000014,11.050765181780537,-0.5870447920446641,-0.5926362741513018,0.47367899932824414,13.835337,-1.1599813,-2.0653071,1.0380495,1.6046504,-1.2403479,1.7774872,0.34394115,-0.03825169,-0.009235656,0.9381661,-9.800772,10.089964,0.41276744,-0.5870448,-0.5926363,0.473679,0
1.8600000000000014,11.050765181780537,-0.5870447920446641,-0.5926362741513018,0.47367899932824414,13.835337,-1.1599813,-2.0653071,1.0380495,1.5065995,-1.1394444,1.7816752,0.34157562,-0.03650272,-0.012917828,0.9390561,-9.809375,10.090612,0.42483747,-0.5870448,-0.5926363,0.473679,0
1.8700000000000014,11.050765181780537,-0.5870447920446641,-0.5926362741513018,0.47367899932824414,13.835337,-1.1599813,-2.0653071,1.0380495,1.4084631,-1.0385389,1.7859839,0.33920223,-0.03475291,-0.016599702,0.9399245,-9.817894,10.0903425,0.43691564,-0.5870448,-0.5926363,0.473679,0
1.8800000000000014,10.96203884689845,-0.5457611178265674,-0.33409793808975785,0.4934670304393757,13.950983,-0.9354484,-2.3648696,1.2203596,1.3102419,-0.93764067,1.7904134,0.33682105,-0.0330023,-0.020281196,0.9407713,-9.826324,10.089156,0.44899464,-0.5870448,-0.5926363,0.473679,0
1.8900000000000015,10.96203884689845,-0.5457611178265674,-0.33409793808975785,0.4934670304393757,13.950983,-0.9354484,-2.3648696,1.2203596,1.2119371,-0.8367586,1.7949592,0.33437315,-0.032399643,-0.023329433,0.9415945,-9.834664,10.08715,0.4601787,-0.5457611,-0.33409795,0.49346703,0
1.9000000000000015,10.96203884689845,-0.5457611178265674,-0.33409793808975785,0.4934670304393757,13.950983,-0.9354484,-2.3648696,1.2203596,1.1135483,-0.7359001,1.7996167,0.33191982,-0.031796455,-0.026377289,0.94240224,-9.843099,10.084448,0.47134066,-0.5457611,-0.33409795,0.49346703,0
1.9100000000000015,10.96203884689845,-0.5457611178265674,-0.33409793808975785,0.4934670304393757,13.950983,-0.9354484,-2.3648696,1.2203596,1.0150747,-0.63507205,1.8043858,0.32946107,-0.03119275,-0.029424712,0.9431946,-9.85162,10.081051,0.48247632,-0.5457611,-0.33409795,0.49346703,0
1.9200000000000015,10.811073175352337,-0.5420582523090188,-0.44915907113914977,0.5250039117692983,13.922119,-0.9759917,-2.707145,1.3749787,0.9165155,-0.53428143,1.8092661,0.32699695,-0.030588534,-0.032471657,0.94397163,-9.860227,10.076959,0.49358147,-0.5457611,-0.33409795,0.49346703,0
1.9300000000000015,10.811073175352337,-0.5420582523090188,-0.44915907113914977,0.5250039117692983,13.922119,-0.9759917,-2.707145,1.3749787,0.81787056,-0.43353498,1.8142498,0.32436004,-0.029439772,-0.035683848,0.9448016,-9.868758,10.072209,0.5031501,-0.5420582,-0.4491591,0.5250039,0
1.9400000000000015,10.811073175352337,-0.5420582523090188,-0.44915907113914977,0.5250039117692983,13.922119,-0.9759917,-2.707145,1.3749787,0.7191404,-0.33283985,1.819329,0.32171687,-0.028290443,-0.038895346,0.9456133,-9.877265,10.0667,0.5126844,-0.5420582,-0.4491591,0.5250039,0
1.9500000000000015,10.811073175352337,-0.5420582523090188,-0.44915907113914977,0.5250039117692983,13.922119,-0.9759917,-2.707145,1.3749787,0.6203253,-0.2322036,1.8245034,0.3190675,-0.027140565,-0.042106092,0.9464069,-9.885745,10.060431,0.5221795,-0.5420582,-0.4491591,0.5250039,0
1.9600000000000015,10.716816965981197,-0.5595481595214827,0.044021327020014,0.5440053860198741,12.793253,-0.73861086,-1.450111,0.70504683,0.5214256,-0.13163385,1.8297725,0.31641197,-0.025990166,-0.045316026,0.9471821,-9.894191,10.053402,0.53163016,-0.5420582,-0.4491591,0.5250039,0
1.9700000000000015,10.716816965981197,-0.5595481595214827,0.044021327020014,0.5440053860198741,12.793253,-0.73861086,-1.450111,0.70504683,0.4224415,-0.031137515,1.835131,0.31377044,-0.027206946,-0.047825307,0.947903,-9.902689,10.045795,0.5400896,-0.55954814,0.044021327,0.5440054,0
1.9800000000000015,10.716816965981197,-0.5595481595214827,0.044021327020014,0.5440053860198741,12.793253,-0.73861086,-1.450111,0.70504683,0.3233705,0.069280505,1.8405741,0.31112412,-0.02842331,-0.050333858,0.9486094,-9.91158,10.037739,0.54848397,-0.55954814,0.044021327,0.5440054,0
1.9900000000000015,10.716816965981197,-0.5595481595214827,0.044021327020014,0.5440053860198741,12.793253,-0.73861086,-1.450111,0.70504683,0.2242086,0.16961572,1.8461006,0.30847302,-0.029639238,-0.052841637,0.94930136,-9.920861,10.02923,0.5568097,-0.55954814,0.044021327,0.5440054,0
2.0000000000000013,,,,,12.506473,-1.2371079,-2.1488023,0.9229862,0.12495193,0.26986355,1.8517101,0.30581728,-0.030854715,-0.05534861,0.9499788,-9.930531,10.0202675,0.5650637,-0.55954814,0.044021327,0.5440054,0
2.010000000000001,,,,,12.506473,-1.2371079,-2.1488023,0.9229862,0.025597494,0.37001947,1.8573974,0.30281398,-0.029760761,-0.058884174,0.9507629,-9.9403515,10.01079,0.57238334,-0.6146895,-0.46218055,0.5846449,0
2.020000000000001,,,,,12.506473,-1.2371079,-2.1488023,0.9229862,-0.07385503,0.47007656,1.8631576,0.2998036,-0.02866611,-0.062418368,0.95152485,-9.950148,10.000498,0.57962906,-0.6146895,-0.46218055,0.5846449,0
2.0300000000000007,,,,,12.506473,-1.2371079,-2.1488023,0.9229862,-0.17340536,0.57002664,1.8689898,0.29678628,-0.027570793,-0.0659511,0.95226455,-9.959912,9.989393,0.58679503,-0.6146895,-0.46218055,0.5846449,0
2.0400000000000005,,,,,12.506473,-1.2371079,-2.1488023,0.9229862,-0.27305317,0.6698617,1.8748933,0.293762,-0.026474832,-0.0694823,0.952982,-9.969641,9.977477,0.5938755,-0.6146895,-0.46218055,0.5846449,0
2.0500000000000003,,,,,12.297166,-1.1052758,-1.6553048,0.9624477,-0.37279803,0.76957345,1.8808671,0.29073086,-0.025378251,-0.073011875,0.95367724,-9.979328,9.964749,0.6008647,-0.6146895,-0.46218055,0.5846449,1
2.06,,,,,12.297166,-1.1052758,-1.6553048,0.9624477,-0.47264615,0.86914194,1.8869925,0.28537935,-0.019441728,-0.08056176,0.95482457,-9.990146,9.948596,0.624188,-1.1052758,-1.6553048,0.9624477,1
2.07,,,,,12.297166,-1.1052758,-1.6553048,0.9624477,-0.5725977,0.9685377,1.8933499,0.27999297,-0.013502829,-0.08810179,0.9558552,-10.000001,9.930205,0.6472747,-1.1052758,-1.6553048,0.9624477,1
2.0799999999999996,,,,,12.297166,-1.1052758,-1.6553048,0.9624477,-0.6726428,1.0677383,1.8999368,0.27457234,-0.00756228,-0.095631056,0.95676905,-10.008868,9.909593,0.6700799,-1.1052758,-1.6553048,0.9624477,1
2.0899999999999994,,,,,12.166047,-1.0482941,-0.9200179,0.7174899,-0.77277166,1.1667219,1.9067502,0.2691182,-0.0016208068,-0.10314864,0.957566,-10.016722,9.886777,0.69255894,-1.1052758,-1.6553048,0.9624477,1
2.099999999999999,,,,,12.166047,-1.0482941,-0.9200179,0.7174899,-0.8729742,1.2654684,1.9137803,0.26519173,0.0010034901,-0.10939661,0.95796883,-10.023741,9.862236,0.7134106,-1.0482941,-0.9200179,0.7174899,1
2.109999999999999,,,,,12.166047,-1.0482941,-0.9200179,0.7174899,-0.9732454,1.3639611,1.9210172,0.261249,0.0036277252,-0.115637854,0.9583127,-10.030447,9.83606,0.7339313,-1.0482941,-0.9200179,0.7174899,1
2.1199999999999988,,,,,12.166047,-1.0482941,-0.9200179,0.7174899,-1.073582,1.462184,1.9284576,0.25729018,0.0062517375,-0.12187198,0.9585976,-10.036828,9.808256,0.7540991,-1.0482941,-0.9200179,0.7174899,1
2.1299999999999986,,,,,11.975044,-1.1837479,-1.0814478,0.76935905,-1.173981,1.5601206,1.9360979,0.25331557,0.008875364,-0.12809862,0.9588236,-10.0428705,9.778833,0.7738921,-1.0482941,-0.9200179,0.7174899,1
2.1399999999999983,,,,,11.975044,-1.1837479,-1.0814478,0.76935905,-1.2744378,1.6577572,1.9439249,0.2489771,0.012067482,-0.13517237,0.95895404,-10.048438,9.7481985,0.79142255,-1.1837479,-1.0814478,0.76935905,1
2.149999999999998,,,,,11.975044,-1.1837479,-1.0814478,0.76935905,-1.374948,1.7550783,1.9519249,0.24461892,0.015258646,-0.14223543,0.95900863,-10.0535555,9.715758,0.8084805,-1.1837479,-1.0814478,0.76935905,1
