time-since-start [s],throttle_mpc,roll_mpc,pitch_mpc,yaw_mpc,throttle_nw,roll_nw,pitch_nw,yaw_nw,position_x [m],position_y [m],position_z [m],rotation_w [quaternion],rotation_x [quaternion],rotation_y [quaternion],rotation_z [quaternion],velocity_x [m/s],velocity_y [m/s],velocity_z [m/s],omega_x [rad/s],omega_y [rad/s],omega_z [rad/s],network_used
0.0,10.63187956194011,5.9999995491553335,-5.999999909896813,-2.7157840686942247,13.495904,-0.50817347,-5.2542276,-1.2065485,20.15574,-8.777501,2.0057964,-0.109633654,-0.453784,0.273556,0.8409683,-9.820533,-6.597431,0.22611356,1.7295816,-0.4094239,-0.36768043,0
0.01,10.63187956194011,5.9999995491553335,-5.999999909896813,-2.7157840686942247,14.1152935,0.09546772,-6.7288594,-0.9699108,20.057102,-8.843274,2.007801,-0.07629625,-0.43511438,0.29563338,0.8470273,-9.906476,-6.556119,0.17496444,5.9999995,-6.0,-2.715784,0
0.02,10.63187956194011,5.9999995491553335,-5.999999909896813,-2.7157840686942247,14.1152935,0.09546772,-6.7288594,-0.9699108,19.957628,-8.908595,2.0092983,-0.042807467,-0.4155815,0.31712422,0.8514057,-9.987802,-6.5071063,0.12462623,5.9999995,-6.0,-2.715784,0
0.03,10.63187956194011,5.9999995491553335,-5.999999909896813,-2.7157840686942247,14.1152935,0.09546772,-6.7288594,-0.9699108,19.857367,-8.973391,2.0102959,-0.009233756,-0.39522406,0.33798584,0.8540949,-10.063844,-6.450822,0.07497304,5.9999995,-6.0,-2.715784,0
0.04,10.63187956194011,5.9999995491553335,-5.999999909896813,-2.7157840686942247,15.458943,-0.9954666,-5.508417,-0.90776557,19.756372,-9.037589,2.0108,0.024358278,-0.37408248,0.35817692,0.85508955,-10.133975,-6.3877516,0.025873588,5.9999995,-6.0,-2.715784,0
0.05,10.63187956194011,5.9999995491553335,-5.999999909896813,-2.7157840686942247,15.458943,-0.9954666,-5.508417,-0.90776557,19.654709,-9.101125,2.0108147,0.057901982,-0.35219872,0.37765732,0.8543876,-10.1976185,-6.318435,-0.022807822,5.9999995,-6.0,-2.715784,0
0.060000000000000005,10.63187956194011,5.9999995491553335,-5.999999909896813,-2.7157840686942247,15.458943,-0.9954666,-5.508417,-0.90776557,19.552443,-9.163938,2.0103443,0.09133081,-0.3296162,0.39638844,0.85199046,-10.254246,-6.243463,-0.07121019,5.9999995,-6.0,-2.715784,0
0.07,10.63187956194011,5.9999995491553335,-5.999999909896813,-2.7157840686942247,15.458943,-0.9954666,-5.508417,-0.90776557,19.449648,-9.225976,2.0093906,0.12457843,-0.30637968,0.41433308,0.84790295,-10.303387,-6.16347,-0.11947474,5.9999995,-6.0,-2.715784,0
0.08,18.2765148257783,5.999998141369835,-5.999999814966927,-1.139168666535062,15.909691,-1.7338288,-2.416164,-0.0005496107,19.346401,-9.287191,2.0079544,0.15757889,-0.28253528,0.43145564,0.84213316,-10.344628,-6.0791297,-0.16774376,5.9999995,-6.0,-2.715784,0
0.09,18.2765148257783,5.999998141369835,-5.999999814966927,-1.139168666535062,15.909691,-1.7338288,-2.416164,-0.0005496107,19.24266,-9.347231,2.006214,0.18364291,-0.25475103,0.44998196,0.8359982,-10.401352,-5.9278817,-0.18045875,5.999998,-6.0,-1.1391686,0
0.09999999999999999,18.2765148257783,5.999998141369835,-5.999999814966927,-1.139168666535062,15.909691,-1.7338288,-2.416164,-0.0005496107,19.138426,-9.405732,2.004343,0.20937046,-0.22649999,0.46768382,0.82833153,-10.443449,-5.771555,-0.19385745,5.999998,-6.0,-1.1391686,0
0.10999999999999999,18.2765148257783,5.999998141369835,-5.999999814966927,-1.139168666535062,15.909691,-1.7338288,-2.416164,-0.0005496107,19.033844,-9.462649,2.0023332,0.23471442,-0.19783397,0.4845288,0.8191472,-10.470582,-5.6113515,-0.2083932,5.999998,-6.0,-1.1391686,0
0.11999999999999998,18.2765148257783,5.999998141369835,-5.999999814966927,-1.139168666535062,15.909691,-1.7338288,-2.416164,-0.0005496107,18.929066,-9.517951,2.0001702,0.25962833,-0.16880551,0.5004861,0.80846214,-10.482526,-5.4485,-0.22451107,5.999998,-6.0,-1.1391686,0
0.12999999999999998,20.99999821578701,2.584557537799173,-5.9999991296104636,0.6247993756294608,14.988975,-1.6638296,-2.2805169,-0.14563352,18.824245,-9.571615,1.9978361,0.28406656,-0.13946778,0.51552635,0.7962959,-10.479167,-5.284249,-0.24264452,5.999998,-6.0,-1.1391686,0
0.13999999999999999,20.99999821578701,2.584557537799173,-5.9999991296104636,0.6247993756294608,14.988975,-1.6638296,-2.2805169,-0.14563352,18.719543,-9.623514,1.9953728,0.29869145,-0.11022762,0.5174525,0.79427695,-10.459319,-5.096112,-0.24966341,2.5845575,-5.999999,0.6247994,0
0.15,20.99999821578701,2.584557537799173,-5.9999991296104636,0.6247993756294608,14.988975,-1.6638296,-2.2805169,-0.14563352,18.615105,-9.673547,1.9928498,0.31299478,-0.080868796,0.51882154,0.7914028,-10.426224,-4.910867,-0.25462723,2.5845575,-5.999999,0.6247994,0
0.16,20.999997841523182,-0.07747758711237304,-2.9486443563802207,0.6669378303282071,14.640001,-3.370186,0.07072238,-0.4744168,18.511063,-9.7217455,1.9902856,0.3269611,-0.051422894,0.519632,0.7876766,-10.380001,-4.7292705,-0.2580092,2.5845575,-5.999999,0.6247994,0
0.17,20.999997841523182,-0.07747758711237304,-2.9486443563802207,0.6669378303282071,14.640001,-3.370186,0.07072238,-0.4744168,18.407541,-9.7681465,1.9876953,0.33193803,-0.03819848,0.51461864,0.78963625,-10.32388,-4.5514045,-0.25961474,-0.07747759,-2.9486444,0.6669378,0
0.18000000000000002,20.999997841523182,-0.07747758711237304,-2.9486443563802207,0.6669378303282071,14.640001,-3.370186,0.07072238,-0.4744168,18.304604,-9.812784,1.9851024,0.33683905,-0.02496533,0.5094876,0.79141533,-10.263037,-4.376564,-0.2585886,-0.07747759,-2.9486444,0.6669378,0
0.19000000000000003,20.999997841523182,-0.07747758711237304,-2.9486443563802207,0.6669378303282071,14.640001,-3.370186,0.07072238,-0.4744168,18.202297,-9.855689,1.9825324,0.34166303,-0.0117264725,0.50424016,0.79301345,-10.197501,-4.204891,-0.25504923,-0.07747759,-2.9486444,0.6669378,0
0.20000000000000004,20.71950105536004,-0.7092588269526329,-0.355952380792368,0.4313447041555196,14.517025,-4.100276,3.6863353,-0.20017415,18.10067,-9.896893,1.9800098,0.34640893,0.0015150651,0.49887747,0.7944303,-10.127308,-4.036525,-0.24911727,-0.07747759,-2.9486444,0.6669378,0
0.21000000000000005,20.71950105536004,-0.7092588269526329,-0.355952380792368,0.4313447041555196,14.517025,-4.100276,3.6863353,-0.20017415,17.999758,-9.936439,1.9775498,0.3455853,0.002776415,0.4954353,0.79693574,-10.055288,-3.8728085,-0.24262452,-0.70925885,-0.35595238,0.43134472,0
0.22000000000000006,20.71950105536004,-0.7092588269526329,-0.355952380792368,0.4313447041555196,14.517025,-4.100276,3.6863353,-0.20017415,17.899565,-9.974352,1.9751619,0.3447546,0.004037708,0.49198306,0.79942495,-9.983513,-3.709896,-0.23471834,-0.70925885,-0.35595238,0.43134472,0
0.23000000000000007,20.71950105536004,-0.7092588269526329,-0.355952380792368,0.4313447041555196,14.517025,-4.100276,3.6863353,-0.20017415,17.800087,-10.010639,1.9728602,0.3439169,0.0052989186,0.4885208,0.8018979,-9.91198,-3.5478003,-0.22540581,-0.70925885,-0.35595238,0.43134472,0
0.24000000000000007,20.71950105536004,-0.7092588269526329,-0.355952380792368,0.4313447041555196,15.567789,-3.7125158,5.121567,-0.11585814,17.701324,-10.04531,1.9706587,0.34307218,0.0065600215,0.48504853,0.8043544,-9.840686,-3.386534,-0.21469413,-0.70925885,-0.35595238,0.43134472,0
0.25000000000000006,20.71950105536004,-0.7092588269526329,-0.355952380792368,0.4313447041555196,15.567789,-3.7125158,5.121567,-0.11585814,17.603273,-10.078374,1.9685712,0.34222043,0.007820991,0.4815664,0.8067946,-9.769631,-3.2261097,-0.20259054,-0.70925885,-0.35595238,0.43134472,0
0.26000000000000006,20.71950105536004,-0.7092588269526329,-0.355952380792368,0.4313447041555196,15.567789,-3.7125158,5.121567,-0.11585814,17.505932,-10.109837,1.9666116,0.34136173,0.0090818,0.4780744,0.8092183,-9.6988125,-3.0665405,-0.18910247,-0.70925885,-0.35595238,0.43134472,0
0.2700000000000001,20.71950105536004,-0.7092588269526329,-0.355952380792368,0.4313447041555196,15.567789,-3.7125158,5.121567,-0.11585814,17.409296,-10.139708,1.9647939,0.34049603,0.010342424,0.4745727,0.8116254,-9.628227,-2.9078386,-0.17423743,-0.70925885,-0.35595238,0.43134472,0
0.2800000000000001,19.14023615712103,-1.2398736790582294,1.489364536344964,0.21362022842848544,17.018269,-3.3017442,5.8522596,-0.2980457,17.313368,-10.167996,1.9631318,0.33962342,0.011602837,0.4710613,0.81401604,-9.557875,-2.7500172,-0.15800305,-0.70925885,-0.35595238,0.43134472,0
0.2900000000000001,19.14023615712103,-1.2398736790582294,1.489364536344964,0.21362022842848544,17.018269,-3.3017442,5.8522596,-0.2980457,17.21811,-10.194769,1.9615943,0.33530194,0.0039382633,0.4685093,0.81734675,-9.494325,-2.6044316,-0.14933217,-1.2398736,1.4893645,0.21362023,0
0.3000000000000001,19.14023615712103,-1.2398736790582294,1.489364536344964,0.21362022842848544,17.018269,-3.3017442,5.8522596,-0.2980457,17.12347,-10.220082,1.9601485,0.33094856,-0.0037266836,0.46591273,0.8205998,-9.434272,-2.4580638,-0.13971055,-1.2398736,1.4893645,0.21362023,0
0.3100000000000001,19.14023615712103,-1.2398736790582294,1.489364536344964,0.21362022842848544,17.018269,-3.3017442,5.8522596,-0.2980457,17.029413,-10.243928,1.9588034,0.32656375,-0.011391276,0.46327195,0.8237748,-9.377741,-2.3109732,-0.1291724,-1.2398736,1.4893645,0.21362023,0
0.3200000000000001,17.91001378856982,-1.5744268836656532,3.091168910011505,0.034180734781462184,17.628834,-3.0478601,6.149932,-0.2533484,16.935902,-10.266299,1.9575682,0.32214788,-0.019054785,0.4605871,0.8268716,-9.32475,-2.1632195,-0.1177523,-1.2398736,1.4893645,0.21362023,0
0.3300000000000001,17.91001378856982,-1.5744268836656532,3.091168910011505,0.034180734781462184,17.628834,-3.0478601,6.149932,-0.2533484,16.842886,-10.287235,1.9564153,0.3146897,-0.03428843,0.458991,0.8301334,-9.279477,-2.0239391,-0.11277345,-1.5744269,3.0911689,0.034180734,0
0.34000000000000014,17.91001378856982,-1.5744268836656532,3.091168910011505,0.034180734781462184,17.628834,-3.0478601,6.149932,-0.2533484,16.750292,-10.306772,1.9553132,0.30713683,-0.049511757,0.4572568,0.83314544,-9.240186,-1.882993,-0.10760582,-1.5744269,3.0911689,0.034180734,0
0.35000000000000014,17.91001378856982,-1.5744268836656532,3.091168910011505,0.034180734781462184,17.628834,-3.0478601,6.149932,-0.2533484,16.658062,-10.324892,1.9542632,0.29949158,-0.06472018,0.45538497,0.8359068,-9.206924,-1.7405515,-0.10237197,-1.5744269,3.0911689,0.034180734,0
0.36000000000000015,17.232991108527745,-1.6179233797757666,3.2151369848189244,-0.1294683402416448,16.628958,-3.3591456,5.3193164,-0.35374123,16.566133,-10.34158,1.9532654,0.2917562,-0.07990914,0.45337614,0.83841664,-9.179732,-1.5967872,-0.09719447,-1.5744269,3.0911689,0.034180734,0
0.37000000000000016,17.232991108527745,-1.6179233797757666,3.2151369848189244,-0.1294683402416448,16.628958,-3.3591456,5.3193164,-0.35374123,16.474442,-10.356852,1.9522992,0.28431728,-0.09602711,0.45115876,0.8404747,-9.159522,-1.4573314,-0.09610692,-1.6179234,3.215137,-0.12946834,0
0.38000000000000017,17.232991108527745,-1.6179233797757666,3.2151369848189244,-0.1294683402416448,16.628958,-3.3591456,5.3193164,-0.35374123,16.382921,-10.370723,1.9513422,0.27678615,-0.11211396,0.44879508,0.84226024,-9.145426,-1.3168881,-0.095356025,-1.6179234,3.215137,-0.12946834,0
0.3900000000000002,17.232991108527745,-1.6179233797757666,3.2151369848189244,-0.1294683402416448,16.628958,-3.3591456,5.3193164,-0.35374123,16.291512,-10.383185,1.9503905,0.2691653,-0.12816446,0.44628587,0.8437727,-9.137459,-1.1756346,-0.0950764,-1.6179234,3.215137,-0.12946834,0
0.4000000000000002,16.75332457663686,-1.340133060306549,1.953972258613368,-0.2714002514215246,15.951841,-3.604366,4.4034834,-0.3399418,16.200151,-10.394233,1.9494386,0.26145712,-0.14417337,0.4436319,0.84501153,-9.135632,-1.0337495,-0.095402025,-1.6179234,3.215137,-0.12946834,0
0.4100000000000002,16.75332457663686,-1.340133060306549,1.953972258613368,-0.2714002514215246,15.951841,-3.604366,4.4034834,-0.3399418,16.10878,-10.403879,1.9484671,0.25728503,-0.15477246,0.44029704,0.8461607,-9.139076,-0.8955292,-0.09890054,-1.3401331,1.9539722,-0.27140024,0
0.4200000000000002,16.75332457663686,-1.340133060306549,1.953972258613368,-0.2714002514215246,15.951841,-3.604366,4.4034834,-0.3399418,16.017355,-10.412144,1.9474603,0.25307634,-0.16534954,0.43689957,0.84718955,-9.146488,-0.75739825,-0.102496274,-1.3401331,1.9539722,-0.27140024,0
0.4300000000000002,16.75332457663686,-1.340133060306549,1.953972258613368,-0.2714002514215246,15.951841,-3.604366,4.4034834,-0.3399418,15.925837,-10.419027,1.9464167,0.2488317,-0.1759031,0.43344,0.848098,-9.157862,-0.61942804,-0.106251165,-1.3401331,1.9539722,-0.27140024,0
0.4400000000000002,16.75332457663686,-1.340133060306549,1.953972258613368,-0.2714002514215246,15.879573,-3.8066316,3.8073795,-0.24285203,15.834185,-10.424533,1.9453346,0.24455167,-0.18643166,0.4299188,0.84888583,-9.173191,-0.48169,-0.11022707,-1.3401331,1.9539722,-0.27140024,0
0.45000000000000023,16.75332457663686,-1.340133060306549,1.953972258613368,-0.2714002514215246,15.879573,-3.8066316,3.8073795,-0.24285203,15.742359,-10.428662,1.9442114,0.24023686,-0.19693372,0.42633647,0.8495529,-9.19247,-0.34425527,-0.1144857,-1.3401331,1.9539722,-0.27140024,0
0.46000000000000024,16.75332457663686,-1.340133060306549,1.953972258613368,-0.2714002514215246,15.879573,-3.8066316,3.8073795,-0.24285203,15.650322,-10.431419,1.9430438,0.2358879,-0.20740776,0.42269352,0.8500992,-9.215684,-0.20719498,-0.11908864,-1.3401331,1.9539722,-0.27140024,0
0.47000000000000025,16.75332457663686,-1.340133060306549,1.953972258613368,-0.2714002514215246,15.879573,-3.8066316,3.8073795,-0.24285203,15.558032,-10.432808,1.9418283,0.2315054,-0.21785232,0.41899046,0.85052466,-9.242823,-0.070579976,-0.12409725,-1.3401331,1.9539722,-0.27140024,0
0.48000000000000026,16.576479124383436,-1.1084949772103538,1.305887788911813,-0.32987131835517597,15.672455,-3.7944124,2.728257,-0.23930365,15.465452,-10.432833,1.9405605,0.22708997,-0.22826591,0.4152278,0.8508292,-9.273869,0.06551918,-0.12957266,-1.3401331,1.9539722,-0.27140024,0
0.49000000000000027,16.576479124383436,-1.1084949772103538,1.305887788911813,-0.32987131835517597,15.672455,-3.7944124,2.728257,-0.23930365,15.372544,-10.431506,1.9392308,0.22450832,-0.23575607,0.41160265,0.85123324,-9.308035,0.19960573,-0.13639946,-1.108495,1.3058878,-0.32987133,0
0.5000000000000002,16.576479124383436,-1.1084949772103538,1.305887788911813,-0.32987131835517597,15.672455,-3.7944124,2.728257,-0.23930365,15.279282,-10.428843,1.9378319,0.2219096,-0.24322829,0.40794614,0.8515725,-9.344967,0.33307415,-0.14339778,-1.108495,1.3058878,-0.32987133,0
0.5100000000000002,16.576479124383436,-1.1084949772103538,1.305887788911813,-0.32987131835517597,15.672455,-3.7944124,2.728257,-0.23930365,15.185636,-10.424847,1.9363621,0.21929398,-0.25068203,0.4042586,0.85184693,-9.384654,0.46589044,-0.1506021,-1.108495,1.3058878,-0.32987133,0
0.5200000000000002,16.17290373710132,-0.6968439089583343,0.04167881563633839,-0.3741043879880406,14.983855,-3.5840871,1.9321774,-0.1985479,15.091579,-10.419527,1.9348191,0.21666169,-0.25811666,0.40054035,0.85205656,-9.427087,0.5980208,-0.15804693,-1.108495,1.3058878,-0.32987133,0
0.5300000000000002,16.17290373710132,-0.6968439089583343,0.04167881563633839,-0.3741043879880406,14.983855,-3.5840871,1.9321774,-0.1985479,14.997092,-10.412905,1.9331902,0.21727099,-0.25979632,0.3971308,0.8529864,-9.470418,0.7262568,-0.16763632,-0.6968439,0.041678816,-0.37410438,0
0.5400000000000003,16.17290373710132,-0.6968439089583343,0.04167881563633839,-0.3741043879880406,14.983855,-3.5840871,1.9321774,-0.1985479,14.902169,-10.405004,1.9314684,0.21787685,-0.2614719,0.39371502,0.8539029,-9.514451,0.8538394,-0.17663005,-0.6968439,0.041678816,-0.37410438,0
0.5500000000000003,16.17290373710132,-0.6968439089583343,0.04167881563633839,-0.3741043879880406,14.983855,-3.5840871,1.9321774,-0.1985479,14.806802,-10.39583,1.9296595,0.2184793,-0.26314336,0.39029306,0.854806,-9.559186,0.98076326,-0.18503517,-0.6968439,0.041678816,-0.37410438,0
0.5600000000000003,16.003716683645617,-0.3652824294131387,-0.45162962764378534,-0.3779340356346571,15.373264,-3.2571378,1.4339759,-0.24487096,14.710983,-10.385391,1.9277695,0.21907835,-0.2648107,0.386865,0.85569566,-9.604627,1.1070231,-0.19285882,-0.6968439,0.041678816,-0.37410438,0
0.5700000000000003,16.003716683645617,-0.3652824294131387,-0.45162962764378534,-0.3779340356346571,15.373264,-3.2571378,1.4339759,-0.24487096,14.61471,-10.373699,1.9257997,0.22108395,-0.264008,0.3843047,0.8565811,-9.649948,1.2313699,-0.20098236,-0.36528242,-0.45162964,-0.37793404,0
0.5800000000000003,16.003716683645617,-0.3652824294131387,-0.45162962764378534,-0.3779340356346571,15.373264,-3.2571378,1.4339759,-0.24487096,14.517984,-10.360765,1.9237524,0.22308691,-0.26320213,0.38173983,0.8574562,-9.695057,1.3552353,-0.2083392,-0.36528242,-0.45162964,-0.37793404,0
0.5900000000000003,16.003716683645617,-0.3652824294131387,-0.45162962764378534,-0.3779340356346571,15.373264,-3.2571378,1.4339759,-0.24487096,14.420809,-10.346596,1.9216355,0.22508718,-0.2623931,0.37917033,0.8583211,-9.739957,1.4786142,-0.21493226,-0.36528242,-0.45162964,-0.37793404,0
0.6000000000000003,15.67336259441581,-0.11732242626010281,-0.7395116932900305,-0.3711814234781202,14.7216215,-3.0617814,0.53640366,-0.1952973,14.323186,-10.331195,1.9194565,0.22708476,-0.2615809,0.3765963,0.8591756,-9.784648,1.601501,-0.22076458,-0.36528242,-0.45162964,-0.37793404,0
0.6100000000000003,15.67336259441581,-0.11732242626010281,-0.7395116932900305,-0.3711814234781202,14.7216215,-3.0617814,0.53640366,-0.1952973,14.225122,-10.31458,1.9172134,0.22991635,-0.25923392,0.37476388,0.8599348,-9.828001,1.7214203,-0.22773144,-0.11732242,-0.73951167,-0.37118143,0
0.6200000000000003,15.67336259441581,-0.11732242626010281,-0.7395116932900305,-0.3711814234781202,14.7216215,-3.0617814,0.53640366,-0.1952973,14.126629,-10.296767,1.9149047,0.23274395,-0.2568824,0.37292492,0.860679,-9.870581,1.8409947,-0.2338848,-0.11732242,-0.73951167,-0.37118143,0
0.6300000000000003,15.67336259441581,-0.11732242626010281,-0.7395116932900305,-0.3711814234781202,14.7216215,-3.0617814,0.53640366,-0.1952973,14.027714,-10.277761,1.9125384,0.23556747,-0.25452638,0.37107947,0.8614081,-9.91239,1.9602152,-0.23922795,-0.11732242,-0.73951167,-0.37118143,0
0.6400000000000003,15.67336259441581,-0.11732242626010281,-0.7395116932900305,-0.3711814234781202,14.572273,-2.857908,0.2521883,-0.24245554,13.928385,-10.257565,1.9101229,0.23838688,-0.2521659,0.3692275,0.8621222,-9.953427,2.0790727,-0.2437643,-0.11732242,-0.73951167,-0.37118143,0
0.6500000000000004,15.67336259441581,-0.11732242626010281,-0.7395116932900305,-0.3711814234781202,14.572273,-2.857908,0.2521883,-0.24245554,13.828648,-10.236181,1.907666,0.24120213,-0.24980108,0.3673691,0.8628212,-9.993695,2.197558,-0.24749726,-0.11732242,-0.73951167,-0.37118143,0
0.6600000000000004,15.67336259441581,-0.11732242626010281,-0.7395116932900305,-0.3711814234781202,14.572273,-2.857908,0.2521883,-0.24245554,13.728512,-10.213614,1.9051757,0.24401316,-0.24743187,0.3655043,0.8635052,-10.033194,2.3156617,-0.25043032,-0.11732242,-0.73951167,-0.37118143,0
0.6700000000000004,15.67336259441581,-0.11732242626010281,-0.7395116932900305,-0.3711814234781202,14.572273,-2.857908,0.2521883,-0.24245554,13.627986,-10.18987,1.90266,0.24681994,-0.24505836,0.3636331,0.86417407,-10.071923,2.433375,-0.25256705,-0.11732242,-0.73951167,-0.37118143,0
0.6800000000000004,15.671585694354125,0.034628979825055986,-0.5289701194453139,-0.3541378680660589,15.30322,-2.5679188,0.42554152,-0.16688377,13.527078,-10.16495,1.900127,0.2496224,-0.24268055,0.36175555,0.8648279,-10.109885,2.5506885,-0.25391102,-0.11732242,-0.73951167,-0.37118143,0
0.6900000000000004,15.671585694354125,0.034628979825055986,-0.5289701194453139,-0.3541378680660589,15.30322,-2.5679188,0.42554152,-0.16688377,13.425792,-10.138858,1.8975842,0.25215128,-0.24098931,0.36081353,0.8649607,-10.147116,2.6676672,-0.25459602,0.03462898,-0.5289701,-0.35413787,0
0.7000000000000004,15.671585694354125,0.034628979825055986,-0.5289701194453139,-0.3541378680660589,15.30322,-2.5679188,0.42554152,-0.16688377,13.324138,-10.111597,1.8950368,0.2546776,-0.23929563,0.35986784,0.8650847,-10.183686,2.784462,-0.25481173,0.03462898,-0.5289701,-0.35413787,0
0.7100000000000004,15.671585694354125,0.034628979825055986,-0.5289701194453139,-0.3541378680660589,15.30322,-2.5679188,0.42554152,-0.16688377,13.222121,-10.083169,1.8924894,0.2572013,-0.23759952,0.3589185,0.8652,-10.219597,2.9010684,-0.2545593,0.03462898,-0.5289701,-0.35413787,0
0.7200000000000004,15.364859780292424,0.2783080879509204,-0.6176678733635409,-0.3483164520923081,15.24816,-1.9988812,0.154529,-0.24016315,13.119748,-10.053576,1.889947,0.2597224,-0.23590098,0.3579655,0.86530644,-10.254848,3.0174809,-0.2538399,0.03462898,-0.5289701,-0.35413787,0
0.7300000000000004,15.364859780292424,0.2783080879509204,-0.6176678733635409,-0.3483164520923081,15.24816,-1.9988812,0.154529,-0.24016315,13.01703,-10.022831,1.8874044,0.26266128,-0.23348893,0.35795406,0.8650783,-10.288638,3.1314905,-0.25463748,0.2783081,-0.61766785,-0.34831646,0
0.7400000000000004,15.364859780292424,0.2783080879509204,-0.6176678733635409,-0.3483164520923081,15.24816,-1.9988812,0.154529,-0.24016315,12.913979,-9.990946,1.8848555,0.26559633,-0.2310735,0.35793743,0.8648376,-10.321447,3.2454877,-0.25508532,0.2783081,-0.61766785,-0.34831646,0
0.7500000000000004,15.364859780292424,0.2783080879509204,-0.6176678733635409,-0.3483164520923081,15.24816,-1.9988812,0.154529,-0.24016315,12.810604,-9.957921,1.8823038,0.26852757,-0.22865468,0.35791558,0.86458427,-10.353276,3.359465,-0.25518543,0.2783081,-0.61766785,-0.34831646,0
0.7600000000000005,15.24235599475518,0.41782812682327225,-0.555466020459772,-0.3280032214496466,15.142962,-1.449435,-0.10226024,-0.23276478,12.706917,-9.923757,1.8797531,0.2714549,-0.22623259,0.35788858,0.86431843,-10.384124,3.4734137,-0.25493973,0.2783081,-0.61766785,-0.34831646,0
0.7700000000000005,15.24235599475518,0.41782812682327225,-0.555466020459772,-0.3280032214496466,15.142962,-1.449435,-0.10226024,-0.23276478,12.602927,-9.888457,1.8772024,0.274337,-0.22385025,0.3585667,0.8637475,-10.413726,3.5864773,-0.25519753,0.4178281,-0.555466,-0.32800323,0
0.7800000000000005,15.24235599475518,0.41782812682327225,-0.555466020459772,-0.3280032214496466,15.142962,-1.449435,-0.10226024,-0.23276478,12.498647,-9.852027,1.8746499,0.27721503,-0.22146462,0.3592395,0.8631638,-10.44229,3.6996539,-0.25527737,0.4178281,-0.555466,-0.32800323,0
0.7900000000000005,15.24235599475518,0.41782812682327225,-0.555466020459772,-0.3280032214496466,15.142962,-1.449435,-0.10226024,-0.23276478,12.394086,-9.814464,1.8720975,0.28008896,-0.21907571,0.359907,0.86256737,-10.469817,3.8129354,-0.25518134,0.4178281,-0.555466,-0.32800323,0
0.8000000000000005,14.926564475133826,0.5394885077110259,-0.9123833313764897,-0.3332284796968257,14.375194,-1.0855571,-0.3431098,-0.21494752,12.289254,-9.775767,1.8695469,0.28295878,-0.21668357,0.36056915,0.8619582,-10.496303,3.926314,-0.25491163,0.4178281,-0.555466,-0.32800323,0
0.8100000000000005,14.926564475133826,0.5394885077110259,-0.9123833313764897,-0.3332284796968257,14.375194,-1.0855571,-0.3431098,-0.21494752,12.184167,-9.735949,1.8669899,0.2866199,-0.21258557,0.3612368,0.8614893,-10.521026,4.037404,-0.2564311,0.5394885,-0.9123833,-0.33322847,0
0.8200000000000005,14.926564475133826,0.5394885077110259,-0.9123833313764897,-0.3332284796968257,14.375194,-1.0855571,-0.3431098,-0.21494752,12.078839,-9.695019,1.8644195,0.2902722,-0.208481,0.3618933,0.86099386,-10.544213,4.1484957,-0.25757197,0.5394885,-0.9123833,-0.33322847,0
0.8300000000000005,14.926564475133826,0.5394885077110259,-0.9123833313764897,-0.3332284796968257,14.375194,-1.0855571,-0.3431098,-0.21494752,11.973288,-9.652979,1.8618395,0.29391554,-0.20436999,0.36253864,0.86047184,-10.565864,4.2595725,-0.25834122,0.5394885,-0.9123833,-0.33322847,0
0.8400000000000005,14.926564475133826,0.5394885077110259,-0.9123833313764897,-0.3332284796968257,14.394025,-0.9729601,-0.44670704,-0.18645555,11.867527,-9.609828,1.8592538,0.2975498,-0.20025268,0.36317277,0.85992324,-10.585973,4.3706183,-0.2587461,0.5394885,-0.9123833,-0.33322847,0
0.8500000000000005,14.926564475133826,0.5394885077110259,-0.9123833313764897,-0.3332284796968257,14.394025,-0.9729601,-0.44670704,-0.18645555,11.761574,-9.565567,1.8566657,0.30117488,-0.19612919,0.3637957,0.8593481,-10.604541,4.481618,-0.25879368,0.5394885,-0.9123833,-0.33322847,0
0.8600000000000005,14.926564475133826,0.5394885077110259,-0.9123833313764897,-0.3332284796968257,14.394025,-0.9729601,-0.44670704,-0.18645555,11.655442,-9.520196,1.854079,0.30479068,-0.19199963,0.36440742,0.85874647,-10.621568,4.5925555,-0.25849122,0.5394885,-0.9123833,-0.33322847,0
0.8700000000000006,14.926564475133826,0.5394885077110259,-0.9123833313764897,-0.3332284796968257,14.394025,-0.9729601,-0.44670704,-0.18645555,11.549148,-9.473717,1.851497,0.30839705,-0.18786415,0.36500788,0.8581183,-10.6370535,4.703414,-0.25784597,0.5394885,-0.9123833,-0.33322847,0
0.8800000000000006,14.812538316225451,0.5173015263529549,-0.612367526129116,-0.31042306277457343,14.155686,-0.65360916,-0.38393688,-0.13957411,11.442705,-9.426128,1.8489233,0.31199393,-0.18372288,0.36559707,0.85746366,-10.650996,4.814178,-0.25686523,0.5394885,-0.9123833,-0.33322847,0
0.8900000000000006,14.812538316225451,0.5173015263529549,-0.612367526129116,-0.31042306277457343,14.155686,-0.65360916,-0.38393688,-0.13957411,11.336131,-9.377438,1.846357,0.31491652,-0.18085626,0.3665711,0.8565884,-10.663432,4.924047,-0.25639963,0.5173015,-0.6123675,-0.31042308,0
0.9000000000000006,14.812538316225451,0.5173015263529549,-0.612367526129116,-0.31042306277457343,14.155686,-0.65360916,-0.38393688,-0.13957411,11.22944,-9.327648,1.8437957,0.3178333,-0.1779863,0.36753836,0.85569733,-10.674685,5.0339565,-0.25583702,0.5173015,-0.6123675,-0.31042308,0
0.9100000000000006,14.812538316225451,0.5173015263529549,-0.612367526129116,-0.31042306277457343,14.155686,-0.65360916,-0.38393688,-0.13957411,11.1226425,-9.27676,1.8412405,0.32074422,-0.17511304,0.36849883,0.85479045,-10.684753,5.1438966,-0.255181,0.5173015,-0.6123675,-0.31042308,0
0.9200000000000006,14.42185738708023,0.5076531119224993,-0.9630568602176797,-0.30579694124363016,14.10061,-0.55829,-0.42179385,-0.14603525,11.01575,-9.224771,1.8386923,0.32364917,-0.17223655,0.36945248,0.85386777,-10.693639,5.2538586,-0.25443524,0.5173015,-0.6123675,-0.31042308,0
0.9300000000000006,14.42185738708023,0.5076531119224993,-0.9630568602176797,-0.30579694124363016,14.10061,-0.55829,-0.42179385,-0.14603525,10.908776,-9.171697,1.8361392,0.32716572,-0.16786559,0.3697921,0.85325086,-10.701002,5.360848,-0.25610927,0.5076531,-0.96305686,-0.30579695,0
0.9400000000000006,14.42185738708023,0.5076531119224993,-0.9630568602176797,-0.30579694124363016,14.10061,-0.55829,-0.42179385,-0.14603525,10.801736,-9.117555,1.8335712,0.3306718,-0.16348925,0.3701199,0.85260665,-10.706852,5.467611,-0.25742996,0.5076531,-0.96305686,-0.30579695,0
0.9500000000000006,14.42185738708023,0.5076531119224993,-0.9630568602176797,-0.30579694124363016,14.10061,-0.55829,-0.42179385,-0.14603525,10.694644,-9.0623455,1.8309917,0.33416733,-0.15910769,0.37043586,0.85193527,-10.711189,5.5741324,-0.25840536,0.5076531,-0.96305686,-0.30579695,0
0.9600000000000006,14.246098010250028,0.42476099325548217,-0.7858783419567774,-0.2716470958608445,13.472012,-0.4939756,-0.25638467,-0.1009472,10.587517,-9.006073,1.8284043,0.33765218,-0.15472105,0.37074003,0.8512366,-10.714014,5.6803966,-0.25904363,0.5076531,-0.96305686,-0.30579695,1
0.9700000000000006,14.246098010250028,0.42476099325548217,-0.7858783419567774,-0.2716470958608445,13.472012,-0.4939756,-0.25638467,-0.1009472,10.480368,-8.948774,1.8257802,0.33817357,-0.1546503,0.36812517,0.8521768,-10.71585,5.7793207,-0.26570997,-0.4939756,-0.25638467,-0.1009472,1
0.9800000000000006,14.246098010250028,0.42476099325548217,-0.7858783419567774,-0.2716470958608445,13.472012,-0.4939756,-0.25638467,-0.1009472,10.3731985,-8.890489,1.8230919,0.33869228,-0.15457831,0.36550733,0.85311013,-10.7178955,5.8777523,-0.27185094,-0.4939756,-0.25638467,-0.1009472,1
0.9900000000000007,14.246098010250028,0.42476099325548217,-0.7858783419567774,-0.2716470958608445,13.472012,-0.4939756,-0.25638467,-0.1009472,10.266009,-8.831221,1.8203448,0.33920828,-0.15450509,0.36288664,0.85403675,-10.720151,5.975689,-0.2774696,-0.4939756,-0.25638467,-0.1009472,1
1.0000000000000007,14.019208523887702,0.6874465860118028,-1.4737782224451488,-0.2382491297344427,12.817961,-0.1812621,-1.088902,-0.03389102,10.158795,-8.770976,1.8175442,0.33972156,-0.15443063,0.36026296,0.85495645,-10.722617,6.0731277,-0.28256896,-0.4939756,-0.25638467,-0.1009472,0
1.0100000000000007,14.019208523887702,0.6874465860118028,-1.4737782224451488,-0.2382491297344427,12.817961,-0.1812621,-1.088902,-0.03389102,10.0515585,-8.70974,1.8147143,0.34391406,-0.14738686,0.36050215,0.85442257,-10.724512,6.1740155,-0.2833475,0.6874466,-1.4737782,-0.23824912,0
1.0200000000000007,14.019208523887702,0.6874465860118028,-1.4737782224451488,-0.2382491297344427,12.817961,-0.1812621,-1.088902,-0.03389102,9.944313,-8.647497,1.8118793,0.34808335,-0.14033318,0.36071703,0.85383093,-10.72425,6.274398,-0.28358656,0.6874466,-1.4737782,-0.23824912,0
1.0300000000000007,14.019208523887702,0.6874465860118028,-1.4737782224451488,-0.2382491297344427,12.817961,-0.1812621,-1.088902,-0.03389102,9.837081,-8.584253,1.8090444,0.35222912,-0.13327,0.36090747,0.8531817,-10.721833,6.374244,-0.28330836,0.6874466,-1.4737782,-0.23824912,0
1.0400000000000007,14.019208523887702,0.6874465860118028,-1.4737782224451488,-0.2382491297344427,12.708869,-0.032133553,-1.2894152,-0.023293193,9.729884,-8.520015,1.8062148,0.3563511,-0.12619781,0.36107358,0.85247487,-10.717265,6.4735246,-0.28253525,0.6874466,-1.4737782,-0.23824912,0
1.0500000000000007,14.019208523887702,0.6874465860118028,-1.4737782224451488,-0.2382491297344427,12.708869,-0.032133553,-1.2894152,-0.023293193,9.622743,-8.454786,1.8033954,0.36044902,-0.11911711,0.3612153,0.85171044,-10.7105465,6.57221,-0.28128973,0.6874466,-1.4737782,-0.23824912,0
1.0600000000000007,14.019208523887702,0.6874465860118028,-1.4737782224451488,-0.2382491297344427,12.708869,-0.032133553,-1.2894152,-0.023293193,9.51568,-8.388573,1.8005906,0.36452258,-0.11202836,0.36133263,0.8508885,-10.701683,6.6702695,-0.2795944,0.6874466,-1.4737782,-0.23824912,0
1.0700000000000007,14.019208523887702,0.6874465860118028,-1.4737782224451488,-0.2382491297344427,12.708869,-0.032133553,-1.2894152,-0.023293193,9.408717,-8.3213825,1.797805,0.36857152,-0.10493204,0.36142555,0.8500091,-10.690678,6.7676744,-0.27747193,0.6874466,-1.4737782,-0.23824912,0
1.0800000000000007,13.841179571219389,0.3875635457819834,-1.0471995790629922,-0.20561079093573534,12.599395,0.34121004,-0.99008816,-0.031732615,9.301874,-8.2532215,1.7950425,0.37259558,-0.097828634,0.36149406,0.8490723,-10.677536,6.8643956,-0.2749452,0.6874466,-1.4737782,-0.23824912,0
1.0900000000000007,13.841179571219389,0.3875635457819834,-1.0471995790629922,-0.20561079093573534,12.599395,0.34121004,-0.99008816,-0.031732615,9.195171,-8.184103,1.7923008,0.37554482,-0.09303095,0.3610821,0.84848726,-10.662722,6.9592385,-0.27333072,0.38756356,-1.0471996,-0.2056108,0
1.1000000000000008,13.841179571219389,0.3875635457819834,-1.0471995790629922,-0.20561079093573534,12.599395,0.34121004,-0.99008816,-0.031732615,9.088623,-8.114038,1.789577,0.37848195,-0.088230275,0.3606585,0.84787494,-10.646513,7.053502,-0.2713842,0.38756356,-1.0471996,-0.2056108,0
1.1100000000000008,13.841179571219389,0.3875635457819834,-1.0471995790629922,-0.20561079093573534,12.599395,0.34121004,-0.99008816,-0.031732615,8.9822445,-8.043035,1.7868743,0.3814069,-0.08342676,0.3602233,0.84723526,-10.628914,7.1471725,-0.2691161,0.38756356,-1.0471996,-0.2056108,0
1.1200000000000008,13.45737240860838,-0.01568197861955943,-0.8748083209733218,-0.15061449215564962,12.316427,0.13589624,-1.4151119,-0.08701366,8.876049,-7.971097,1.7841958,0.38431954,-0.078620546,0.35977647,0.8465683,-10.609927,7.2402363,-0.2665368,0.38756356,-1.0471996,-0.2056108,0
1.1300000000000008,13.45737240860838,-0.01568197861955943,-0.8748083209733218,-0.15061449215564962,12.316427,0.13589624,-1.4151119,-0.08701366,8.770048,-7.898245,1.7815307,0.38652074,-0.075217925,0.35796633,0.8466427,-10.590326,7.330078,-0.26638046,-0.015681978,-0.8748083,-0.15061449,0
1.1400000000000008,13.45737240860838,-0.01568197861955943,-0.8748083209733218,-0.15061449215564962,12.316427,0.13589624,-1.4151119,-0.08701366,8.664247,-7.824498,1.7788699,0.3887144,-0.07181382,0.35614914,0.8467004,-10.569928,7.419204,-0.26573604,-0.015681978,-0.8748083,-0.15061449,0
1.1500000000000008,13.45737240860838,-0.01568197861955943,-0.8748083209733218,-0.15061449215564962,12.316427,0.13589624,-1.4151119,-0.08701366,8.558652,-7.7498636,1.7762178,0.39090034,-0.06840831,0.3543249,0.8467414,-10.548734,7.5076065,-0.2646101,-0.015681978,-0.8748083,-0.15061449,0
1.1600000000000008,13.155157991235761,-0.3888421667103638,-0.7555164203589783,-0.08249851589114773,12.388812,-0.33586344,-0.57236767,-0.09445435,8.453274,-7.674349,1.7735794,0.39307863,-0.06500144,0.3524937,0.8467657,-10.52675,7.5952787,-0.2630093,-0.015681978,-0.8748083,-0.15061449,1
1.1700000000000008,13.155157991235761,-0.3888421667103638,-0.7555164203589783,-0.08249851589114773,12.388812,-0.33586344,-0.57236767,-0.09445435,8.34811,-7.597995,1.7709194,0.39437595,-0.063404344,0.3499141,0.8473532,-10.505986,7.675332,-0.26886708,-0.33586344,-0.57236767,-0.09445435,1
1.1800000000000008,13.155157991235761,-0.3888421667103638,-0.7555164203589783,-0.08249851589114773,12.388812,-0.33586344,-0.57236767,-0.09445435,8.243155,-7.5208445,1.7682036,0.39566883,-0.061806537,0.3473306,0.8479314,-10.485036,7.754758,-0.27422643,-0.33586344,-0.57236767,-0.09445435,1
1.1900000000000008,13.155157991235761,-0.3888421667103638,-0.7555164203589783,-0.08249851589114773,12.388812,-0.33586344,-0.57236767,-0.09445435,8.138411,-7.442902,1.7654366,0.39695728,-0.060208037,0.34474316,0.8485,-10.463902,7.8335533,-0.2790914,-0.33586344,-0.57236767,-0.09445435,1
1.2000000000000008,13.006032112528462,-0.6734523868712059,-1.1081078221454903,0.0033181117370902485,12.59369,-0.37004134,-0.8053037,-0.09792048,8.033876,-7.3641753,1.7626235,0.39824128,-0.058608864,0.3421519,0.8490591,-10.442586,7.911715,-0.28346577,-0.33586344,-0.57236767,-0.09445435,1
1.2100000000000009,13.006032112528462,-0.6734523868712059,-1.1081078221454903,0.0033181117370902485,12.59369,-0.37004134,-0.8053037,-0.09792048,7.92956,-7.2846637,1.7597771,0.39992225,-0.056093883,0.33894536,0.8497247,-10.420669,7.990444,-0.28574634,-0.37004134,-0.8053037,-0.09792048,1
1.2200000000000009,13.006032112528462,-0.6734523868712059,-1.1081078221454903,0.0033181117370902485,12.59369,-0.37004134,-0.8053037,-0.09792048,7.8254642,-7.204369,1.7569108,0.40159526,-0.05357779,0.33573207,0.85037345,-10.398401,8.068314,-0.28740683,-0.37004134,-0.8053037,-0.09792048,1
1.2300000000000009,13.006032112528462,-0.6734523868712059,-1.1081078221454903,0.0033181117370902485,12.59369,-0.37004134,-0.8053037,-0.09792048,7.721593,-7.1233,1.7540311,0.40326032,-0.051060632,0.3325121,0.85100526,-10.375788,8.145315,-0.2884545,-0.37004134,-0.8053037,-0.09792048,1
1.2400000000000009,13.006032112528462,-0.6734523868712059,-1.1081078221454903,0.0033181117370902485,12.711797,-0.6711533,-0.8705465,-0.14482552,7.6179495,-7.0414658,1.7511438,0.40491736,-0.048542455,0.32928556,0.8516202,-10.352831,8.221446,-0.2888966,-0.37004134,-0.8053037,-0.09792048,1
1.2500000000000009,13.006032112528462,-0.6734523868712059,-1.1081078221454903,0.0033181117370902485,12.711797,-0.6711533,-0.8705465,-0.14482552,7.5145383,-6.9588714,1.7482601,0.4067982,-0.046432097,0.32462502,0.85263014,-10.329397,8.2973175,-0.28773367,-0.6711533,-0.8705465,-0.14482552,1
1.260000000000001,13.006032112528462,-0.6734523868712059,-1.1081078221454903,0.0033181117370902485,12.711797,-0.6711533,-0.8705465,-0.14482552,7.4113617,-6.875524,1.7453921,0.40866655,-0.044320315,0.3199545,0.853614,-10.305845,8.3720665,-0.28574935,-0.6711533,-0.8705465,-0.14482552,1
1.270000000000001,13.006032112528462,-0.6734523868712059,-1.1081078221454903,0.0033181117370902485,12.711797,-0.6711533,-0.8705465,-0.14482552,7.308421,-6.7914343,1.742548,0.41052234,-0.04220717,0.31527418,0.8545716,-10.282179,8.445681,-0.28295535,-0.6711533,-0.8705465,-0.14482552,1
1.280000000000001,12.830268003423836,-1.0116455885972244,-1.249428528975881,0.10118424381405826,13.240717,-0.8036531,-1.4496787,-0.18099648,7.205718,-6.7066145,1.7397357,0.4123655,-0.040092725,0.31058416,0.85550284,-10.258404,8.518154,-0.2793634,-0.6711533,-0.8705465,-0.14482552,1
1.290000000000001,12.830268003423836,-1.0116455885972244,-1.249428528975881,0.10118424381405826,13.240717,-0.8036531,-1.4496787,-0.18099648,7.1032586,-6.6210613,1.7369851,0.4152155,-0.035828426,0.30411056,0.85663855,-10.233391,8.5922165,-0.27059704,-0.8036531,-1.4496787,-0.18099648,1
1.300000000000001,12.830268003423836,-1.0116455885972244,-1.249428528975881,0.10118424381405826,13.240717,-0.8036531,-1.4496787,-0.18099648,7.0010514,-6.534776,1.7343277,0.4180366,-0.031561635,0.2976158,0.85771465,-10.207904,8.664457,-0.26070184,-0.8036531,-1.4496787,-0.18099648,1
1.310000000000001,12.830268003423836,-1.0116455885972244,-1.249428528975881,0.10118424381405826,13.240717,-0.8036531,-1.4496787,-0.18099648,6.8991017,-6.4477787,1.7317747,0.42082867,-0.027292652,0.29110035,0.85873115,-10.181952,8.734858,-0.24970631,-0.8036531,-1.4496787,-0.18099648,1
1.320000000000001,12.457482722377947,-1.2787346952466376,-1.4472606156360748,0.234862662102624,13.110598,-1.0911946,-1.7352211,-0.15526348,6.797414,-6.360086,1.7293372,0.42359146,-0.023021776,0.2845647,0.859688,-10.15555,8.803396,-0.23763938,-0.8036531,-1.4496787,-0.18099648,1
1.330000000000001,12.457482722377947,-1.2787346952466376,-1.4472606156360748,0.234862662102624,13.110598,-1.0911946,-1.7352211,-0.15526348,6.6959906,-6.271721,1.7270204,0.42657974,-0.01809392,0.2761664,0.86106604,-10.128986,8.869229,-0.225519,-1.0911946,-1.7352211,-0.15526348,1
1.340000000000001,12.457482722377947,-1.2787346952466376,-1.4472606156360748,0.234862662102624,13.110598,-1.0911946,-1.7352211,-0.15526348,6.5948353,-6.1827097,1.7248311,0.42952296,-0.0131641505,0.26773894,0.86235315,-10.10204,8.932726,-0.21212776,-1.0911946,-1.7352211,-0.15526348,1
1.350000000000001,12.457482722377947,-1.2787346952466376,-1.4472606156360748,0.234862662102624,13.110598,-1.0911946,-1.7352211,-0.15526348,6.4939513,-6.093075,1.7227819,0.4324208,-0.008232991,0.25928316,0.8635491,-10.074728,8.993859,-0.19751146,-1.0911946,-1.7352211,-0.15526348,1
1.360000000000001,11.942754959771314,-1.4999830560890774,-1.0320171103984042,0.38471710824364036,12.570057,-1.1845927,-1.35743,-0.11809021,6.393342,-6.00284,1.7208848,0.43527296,-0.0033009616,0.2508,0.8646538,-10.047064,9.052603,-0.18171644,-1.0911946,-1.7352211,-0.15526348,1
1.370000000000001,11.942754959771314,-1.4999830560890774,-1.0320171103984042,0.38471710824364036,12.570057,-1.1845927,-1.35743,-0.11809021,6.293005,-5.912042,1.7191275,0.4374484,-0.00015852525,0.24271238,0.8658695,-10.020362,9.106723,-0.16955183,-1.1845927,-1.35743,-0.11809021,1
1.380000000000001,11.942754959771314,-1.4999830560890774,-1.0320171103984042,0.38471710824364036,12.570057,-1.1845927,-1.35743,-0.11809021,6.192935,-5.820713,1.717497,0.43958816,0.0029839242,0.23460497,0.86701465,-9.993733,9.158809,-0.15639436,-1.1845927,-1.35743,-0.11809021,1
1.390000000000001,11.942754959771314,-1.4999830560890774,-1.0320171103984042,0.38471710824364036,12.570057,-1.1845927,-1.35743,-0.11809021,6.09313,-5.728873,1.7160028,0.4416921,0.006126131,0.22647844,0.868089,-9.967191,9.208844,-0.14227967,-1.1845927,-1.35743,-0.11809021,1
1.400000000000001,11.46887389806155,-1.6375024224504815,-0.6098532938121267,0.5222836800946755,12.506036,-1.4974706,-2.686488,-0.07624,5.993591,-5.6365433,1.7146544,0.4437601,0.009267838,0.21833344,0.8690927,-9.9407425,9.256813,-0.1272437,-1.1845927,-1.35743,-0.11809021,0
1.410000000000001,11.46887389806155,-1.6375024224504815,-0.6098532938121267,0.5222836800946755,12.506036,-1.4974706,-2.686488,-0.07624,5.894303,-5.543764,1.7134111,0.44221374,0.008854423,0.20983142,0.8719747,-9.917052,9.298829,-0.12129274,-1.6375024,-0.60985327,0.5222837,0
1.420000000000001,11.46887389806155,-1.6375024224504815,-0.6098532938121267,0.5222836800946755,12.506036,-1.4974706,-2.686488,-0.07624,5.795246,-5.450572,1.7122314,0.44063058,0.008440272,0.20131196,0.87478423,-9.894378,9.339328,-0.11451691,-1.6375024,-0.60985327,0.5222837,0
1.430000000000001,11.46887389806155,-1.6375024224504815,-0.6098532938121267,0.5222836800946755,12.506036,-1.4974706,-2.686488,-0.07624,5.6964116,-5.3569827,1.7111235,0.4390108,0.008025418,0.19277577,0.877521,-9.872717,9.378291,-0.10694792,-1.6375024,-0.60985327,0.5222837,0
1.440000000000001,11.46887389806155,-1.6375024224504815,-0.6098532938121267,0.5222836800946755,12.462772,-1.4852847,-2.7979784,0.079208195,5.597789,-5.2630115,1.710095,0.43735453,0.0076098973,0.18422353,0.8801848,-9.852068,9.415701,-0.098617785,-1.6375024,-0.60985327,0.5222837,0
1.450000000000001,11.46887389806155,-1.6375024224504815,-0.6098532938121267,0.5222836800946755,12.462772,-1.4852847,-2.7979784,0.079208195,5.499367,-5.168674,1.7091535,0.43566188,0.0071937437,0.17565599,0.88277537,-9.83243,9.45154,-0.089558735,-1.6375024,-0.60985327,0.5222837,0
1.460000000000001,11.46887389806155,-1.6375024224504815,-0.6098532938121267,0.5222836800946755,12.462772,-1.4852847,-2.7979784,0.079208195,5.4011364,-5.073986,1.7083062,0.43393302,0.0067769927,0.16707383,0.8852926,-9.813797,9.485792,-0.07980325,-1.6375024,-0.60985327,0.5222837,0
1.470000000000001,11.46887389806155,-1.6375024224504815,-0.6098532938121267,0.5222836800946755,12.462772,-1.4852847,-2.7979784,0.079208195,5.3030877,-4.9789634,1.7075597,0.43216807,0.0063596773,0.15847778,0.8877362,-9.796167,9.518441,-0.06938405,-1.6375024,-0.60985327,0.5222837,0
1.480000000000001,11.394574728715002,-1.5355495779414057,-0.40583285504432204,0.544184750669991,12.379803,-1.6338252,-2.2375574,0.23949581,5.2052097,-4.883622,1.7069205,0.43036717,0.005941833,0.14986856,0.89010596,-9.779536,9.549472,-0.058334082,-1.6375024,-0.60985327,0.5222837,0
1.490000000000001,11.394574728715002,-1.5355495779414057,-0.40583285504432204,0.544184750669991,12.379803,-1.6338252,-2.2375574,0.23949581,5.107492,-4.78798,1.7063913,0.42827985,0.004851338,0.14213991,0.8923842,-9.764024,9.578772,-0.04741897,-1.5355495,-0.40583286,0.54418474,0
1.500000000000001,11.394574728715002,-1.5355495779414057,-0.40583285504432204,0.544184750669991,12.379803,-1.6338252,-2.2375574,0.23949581,5.0099244,-4.6920514,1.7059739,0.42616233,0.0037605017,0.13440125,0.89459956,-9.749555,9.606682,-0.035997033,-1.5355495,-0.40583286,0.54418474,0
1.5100000000000011,11.394574728715002,-1.5355495779414057,-0.40583285504432204,0.544184750669991,12.379803,-1.6338252,-2.2375574,0.23949581,4.9124966,-4.595851,1.7056731,0.4240148,0.0026694003,0.1266531,0.8967518,-9.736123,9.633189,-0.024095476,-1.5355495,-0.40583286,0.54418474,0
1.5200000000000011,11.318138082794231,-1.3502063841216214,-0.14165208065036589,0.5356414253937875,12.948242,-1.3632567,-1.9935092,0.25367588,4.8151984,-4.4993925,1.7054937,0.4218374,0.0015781105,0.118896045,0.8988409,-9.723726,9.658281,-0.01174164,-1.5355495,-0.40583286,0.54418474,0
1.5300000000000011,11.318138082794231,-1.3502063841216214,-0.14165208065036589,0.5356414253937875,12.948242,-1.3632567,-1.9935092,0.25367588,4.718018,-4.402691,1.705436,0.41951373,-0.00031471066,0.112521835,0.90074825,-9.712448,9.681921,0.0002662018,-1.3502064,-0.14165208,0.53564143,0
1.5400000000000011,11.318138082794231,-1.3502063841216214,-0.14165208065036589,0.5356414253937875,12.948242,-1.3632567,-1.9935092,0.25367588,4.620946,-4.305758,1.7055002,0.41716778,-0.002207515,0.106141634,0.9026076,-9.702221,9.704491,0.012601106,-1.3502064,-0.14165208,0.53564143,0
1.5500000000000012,11.318138082794231,-1.3502063841216214,-0.14165208065036589,0.5356414253937875,12.948242,-1.3632567,-1.9935092,0.25367588,4.5239706,-4.208605,1.7056892,0.4147996,-0.0041002017,0.09975579,0.904419,-9.693041,9.725979,0.025243316,-1.3502064,-0.14165208,0.53564143,0
1.5600000000000012,11.340929801346858,-1.1632805121028031,0.4116484187735908,0.5107174303593448,13.546731,-1.1658943,-1.3129628,0.10503024,4.4270816,-4.111242,1.7060059,0.41240934,-0.0059926705,0.09336462,0.90618217,-9.684904,9.746376,0.03817301,-1.3502064,-0.14165208,0.53564143,0
1.5700000000000012,11.340929801346858,-1.1632805121028031,0.4116484187735908,0.5107174303593448,13.546731,-1.1658943,-1.3129628,0.10503024,4.330269,-4.01368,1.7064544,0.40985912,-0.010017972,0.08895599,0.90774584,-9.677887,9.76594,0.051561125,-1.1632805,0.41164842,0.51071745,0
1.5800000000000012,11.340929801346858,-1.1632805121028031,0.4116484187735908,0.5107174303593448,13.546731,-1.1658943,-1.3129628,0.10503024,4.2335196,-3.9159248,1.7070378,0.40729064,-0.01404283,0.08454339,0.909269,-9.672165,9.784994,0.06511094,-1.1632805,0.41164842,0.51071745,0
1.5900000000000012,11.340929801346858,-1.1632805121028031,0.4116484187735908,0.5107174303593448,13.546731,-1.1658943,-1.3129628,0.10503024,4.136821,-3.8179817,1.7077574,0.40470403,-0.01806706,0.08012703,0.9107516,-9.667735,9.803533,0.078806415,-1.1632805,0.41164842,0.51071745,0
1.6000000000000012,11.296627234481704,-0.9717728288251869,-0.10564157599991217,0.4922739861521142,12.765948,-0.9465369,-0.57545674,0.19481772,4.04016,-3.719856,1.7086145,0.40209934,-0.022090485,0.07570709,0.91219354,-9.664596,9.821544,0.09263152,-1.1632805,0.41164842,0.51071745,0
1.6100000000000012,11.296627234481704,-0.9717728288251869,-0.10564157599991217,0.4922739861521142,12.765948,-0.9465369,-0.57545674,0.19481772,3.943525,-3.6215534,1.7096082,0.39978075,-0.023375722,0.07111574,0.9135491,-9.662542,9.838846,0.10614554,-0.97177285,-0.10564157,0.492274,0
1.6200000000000012,11.296627234481704,-0.9717728288251869,-0.10564157599991217,0.4922739861521142,12.765948,-0.9465369,-0.57545674,0.19481772,3.8469067,-3.5230818,1.7107378,0.39745015,-0.02466026,0.06652225,0.91487736,-9.661215,9.855326,0.119794846,-0.97177285,-0.10564157,0.492274,0
1.6300000000000012,11.296627234481704,-0.9717728288251869,-0.10564157599991217,0.4922739861521142,12.765948,-0.9465369,-0.57545674,0.19481772,3.7502983,-3.4244494,1.7120045,0.39510766,-0.025944058,0.06192677,0.91617817,-9.660608,9.870979,0.13356923,-0.97177285,-0.10564157,0.492274,0
1.6400000000000012,11.296627234481704,-0.9717728288251869,-0.10564157599991217,0.4922739861521142,12.618548,-0.87525296,-0.7241245,0.34145063,3.6536922,-3.3256648,1.7134095,0.39275336,-0.02722708,0.057329442,0.91745156,-9.660719,9.8858,0.14745846,-0.97177285,-0.10564157,0.492274,0
1.6500000000000012,11.296627234481704,-0.9717728288251869,-0.10564157599991217,0.4922739861521142,12.618548,-0.87525296,-0.7241245,0.34145063,3.5570815,-3.226736,1.714954,0.3903873,-0.028509287,0.052730396,0.9186974,-9.661543,9.899785,0.16145231,-0.97177285,-0.10564157,0.492274,0
1.6600000000000013,11.296627234481704,-0.9717728288251869,-0.10564157599991217,0.4922739861521142,12.618548,-0.87525296,-0.7241245,0.34145063,3.460459,-3.127672,1.7166388,0.38800955,-0.02979064,0.04812977,0.91991585,-9.6630745,9.912928,0.17554052,-0.97177285,-0.10564157,0.492274,0
1.6700000000000013,11.296627234481704,-0.9717728288251869,-0.10564157599991217,0.4922739861521142,12.618548,-0.87525296,-0.7241245,0.34145063,3.3638175,-3.0284805,1.718465,0.38562018,-0.0310711,0.043527704,0.92110664,-9.66531,9.925224,0.18971285,-0.97177285,-0.10564157,0.492274,0
1.6800000000000013,11.31287485721284,-0.8385898847641482,0.5163547142280575,0.4673613382239543,13.259999,-1.092435,-1.4770249,0.46621054,3.26715,-2.9291704,1.7204332,0.38321924,-0.032350633,0.03892433,0.92226994,-9.668245,9.936668,0.203959,-0.97177285,-0.10564157,0.492274,0
1.6900000000000013,11.31287485721284,-0.8385898847641482,0.5163547142280575,0.4673613382239543,13.259999,-1.092435,-1.4770249,0.46621054,3.1704495,-2.8297493,1.722545,0.38082227,-0.036247086,0.036121715,0.9232314,-9.672028,9.9475,0.21840413,-0.8385899,0.51635474,0.46736133,0
1.7000000000000013,11.31287485721284,-0.8385898847641482,0.5163547142280575,0.4673613382239543,13.259999,-1.092435,-1.4770249,0.46621054,3.073706,-2.7302213,1.7248012,0.37841398,-0.04014246,0.033318028,0.9241655,-9.676893,9.95807,0.23283248,-0.8385899,0.51635474,0.46736133,0
1.7100000000000013,11.31287485721284,-0.8385898847641482,0.5163547142280575,0.4673613382239543,13.259999,-1.092435,-1.4770249,0.46621054,2.976908,-2.6305885,1.7272016,0.37599444,-0.044036645,0.030513348,0.9250721,-9.682839,9.968372,0.24723364,-0.8385899,0.51635474,0.46736133,0
1.7200000000000013,11.213420682390433,-0.6567105620243637,-0.09096690190710821,0.463638604361096,13.181436,-1.113997,-2.0268583,0.45923823,2.8800452,-2.5308545,1.7297457,0.37356374,-0.04792952,0.027707765,0.92595124,-9.689865,9.978401,0.26159728,-0.8385899,0.51635474,0.46736133,0
1.7300000000000013,11.213420682390433,-0.6567105620243637,-0.09096690190710821,0.463638604361096,13.181436,-1.113997,-2.0268583,0.45923823,2.7831078,-2.4310224,1.7324284,0.37126938,-0.048670355,0.024608336,0.92692244,-9.697661,9.987946,0.27495208,-0.65671057,-0.0909669,0.4636386,0
1.7400000000000013,11.213420682390433,-0.6567105620243637,-0.09096690190710821,0.463638604361096,13.181436,-1.113997,-2.0268583,0.45923823,2.6860902,-2.3310978,1.7352448,0.36896896,-0.04941039,0.021508506,0.9278785,-9.705893,9.996887,0.28832552,-0.65671057,-0.0909669,0.4636386,0
1.7500000000000013,11.213420682390433,-0.6567105620243637,-0.09096690190710821,0.463638604361096,13.181436,-1.113997,-2.0268583,0.45923823,2.5889883,-2.231087,1.738195,0.3666625,-0.05014962,0.018408323,0.9288193,-9.714557,10.005224,0.301713,-0.65671057,-0.0909669,0.4636386,0
1.7600000000000013,11.163480802109705,-0.5362073382288033,-0.05488321597144325,0.4547854421076176,12.453058,-1.2749658,-1.6267,0.66632265,2.4917974,-2.1309955,1.741279,0.36435002,-0.05088803,0.015307839,0.9297449,-9.723651,10.012955,0.31511,-0.65671057,-0.0909669,0.4636386,0
1.7700000000000014,11.163480802109705,-0.5362073382288033,-0.05488321597144325,0.4547854421076176,12.453058,-1.2749658,-1.6267,0.66632265,2.394514,-2.03083,1.7444946,0.36210138,-0.051574603,0.012830801,0.93062264,-9.733105,10.020092,0.3280145,-0.5362073,-0.054883216,0.45478544,0
1.7800000000000014,11.163480802109705,-0.5362073382288033,-0.05488321597144325,0.4547854421076176,12.453058,-1.2749658,-1.6267,0.66632265,2.2971342,-1.9305954,1.7478392,0.3598482,-0.052260533,0.010353603,0.9314888,-9.742918,10.026747,0.34091774,-0.5362073,-0.054883216,0.45478544,0
1.7900000000000014,11.163480802109705,-0.5362073382288033,-0.05488321597144325,0.4547854421076176,12.453058,-1.2749658,-1.6267,0.66632265,2.1996546,-1.8302966,1.7513129,0.3575906,-0.052945815,0.007876277,0.93234336,-9.753088,10.032917,0.3538168,-0.5362073,-0.054883216,0.45478544,0
1.8000000000000014,11.023952389145759,-0.48485594195187315,-0.6479166966259254,0.46878067198276635,12.601622,-0.9542085,-1.757342,0.57572454,2.1020713,-1.7299387,1.7549155,0.3553285,-0.05363044,0.0053988528,0.93318635,-9.763614,10.038601,0.36670876,-0.5362073,-0.054883216,0.45478544,0
1.8100000000000014,11.023952389145759,-0.48485594195187315,-0.6479166966259254,0.46878067198276635,12.601622,-0.9542085,-1.757342,0.57572454,2.0043821,-1.6295271,1.7586402,0.3530248,-0.05145549,0.002111089,0.9341958,-9.774159,10.043586,0.3782292,-0.48485595,-0.6479167,0.46878067,0
1.8200000000000014,11.023952389145759,-0.48485594195187315,-0.6479166966259254,0.46878067198276635,12.601622,-0.9542085,-1.757342,0.57572454,1.9065887,-1.5290699,1.7624803,0.35071337,-0.049279414,-0.0011767207,0.9351849,-9.784525,10.047699,0.3898029,-0.48485595,-0.6479167,0.46878067,0
1.8300000000000014,11.023952389145759,-0.48485594195187315,-0.6479166966259254,0.46878067198276635,12.601622,-0.9542085,-1.757342,0.57572454,1.8086925,-1.428576,1.7664363,0.34839427,-0.047102258,-0.0044645043,0.9361535,-9.794706,10.05094,0.40142304,-0.48485595,-0.6479167,0.46878067,0
1.8400000000000014,11.023952389145759,-0.48485594195187315,-0.6479166966259254,0.46878067198276635,12.484336,-0.91750526,-1.8123277,0.6325441,1.7106954,-1.328054,1.7705088,0.34606755,-0.044924073,-0.0077521903,0.9371016,-9.8047,10.05331,0.41308278,-0.48485595,-0.6479167,0.46878067,0
1.8500000000000014,11.023952389145759,-0.48485594195187315,-0.6479166966259254,0.46878067198276635,12.484336,-0.91750526,-1.8123277,0.6325441,1.6125994,-1.2275126,1.7746981,0.34373328,-0.04274491,-0.011039707,0.9380293,-9.8145,10.0548115,0.42477533,-0.48485595,-0.6479167,0.46878067,0
1.8600000000000014,11.023952389145759,-0.48485594195187315,-0.6479166966259254,0.46878067198276635,12.484336,-0.91750526,-1.8123277,0.6325441,1.5144063,-1.1269606,1.7790045,0.34139147,-0.040564805,-0.014326983,0.9389365,-9.824102,10.055443,0.4364938,-0.48485595,-0.6479167,0.46878067,0
1.8700000000000014,11.023952389145759,-0.48485594195187315,-0.6479166966259254,0.46878067198276635,12.484336,-0.91750526,-1.8123277,0.6325441,1.4161181,-1.0264068,1.7834281,0.33904222,-0.038383815,-0.017613946,0.93982303,-9.833502,10.055204,0.44823137,-0.48485595,-0.6479167,0.46878067,0
1.8800000000000014,10.931477637312062,-0.45977218904156136,-0.37616588766959,0.486095474012477,12.875847,-1.1706184,-2.942249,0.5590492,1.3177371,-0.9258596,1.7879691,0.33668557,-0.03620199,-0.020900521,0.9406891,-9.842693,10.054099,0.45998117,-0.48485595,-0.6479167,0.46878067,0
1.8900000000000015,10.931477637312062,-0.45977218904156136,-0.37616588766959,0.486095474012477,12.875847,-1.1706184,-2.942249,0.5590492,1.2192652,-0.82532746,1.792623,0.33427423,-0.035257243,-0.023608133,0.94152045,-9.851677,10.052222,0.47080985,-0.4597722,-0.3761659,0.4860955,0
1.9000000000000015,10.931477637312062,-0.45977218904156136,-0.37616588766959,0.486095474012477,12.875847,-1.1706184,-2.942249,0.5590492,1.1207037,-0.72481734,1.7973852,0.33185798,-0.034311973,-0.026315397,0.942338,-9.860659,10.049696,0.48162556,-0.4597722,-0.3761659,0.4860955,0
1.9100000000000015,10.931477637312062,-0.45977218904156136,-0.37616588766959,0.486095474012477,12.875847,-1.1706184,-2.942249,0.5590492,1.022052,-0.6243357,1.8022555,0.32943684,-0.0333662,-0.029022273,0.9431417,-9.869635,10.04652,0.4924248,-0.4597722,-0.3761659,0.4860955,0
1.9200000000000015,10.7762947229987,-0.4786303241512724,-0.47571710407833645,0.5169487447851375,12.825997,-1.2612449,-3.3017914,0.54989,0.92331076,-0.5238892,1.8072337,0.3270108,-0.03241993,-0.031728722,0.94393146,-9.878601,10.042696,0.5032039,-0.4597722,-0.3761659,0.4860955,0
1.9300000000000015,10.7762947229987,-0.4786303241512724,-0.47571710407833645,0.5169487447851375,12.825997,-1.2612449,-3.3017914,0.54989,0.82448065,-0.42348388,1.8123118,0.32441497,-0.031039018,-0.034681424,0.9447693,-9.887401,10.038256,0.51241493,-0.47863033,-0.4757171,0.51694876,0
1.9400000000000015,10.7762947229987,-0.4786303241512724,-0.47571710407833645,0.5169487447851375,12.825997,-1.2612449,-3.3017914,0.54989,0.725563,-0.32312655,1.8174819,0.3218133,-0.029657543,-0.0376335,0.9455902,-9.896112,10.033093,0.5216009,-0.47863033,-0.4757171,0.51694876,0
1.9500000000000015,10.7762947229987,-0.4786303241512724,-0.47571710407833645,0.5169487447851375,12.825997,-1.2612449,-3.3017914,0.54989,0.6265587,-0.22282448,1.8227438,0.31920582,-0.028275533,-0.040584896,0.9463939,-9.904732,10.02721,0.5307572,-0.47863033,-0.4757171,0.51694876,0
1.9600000000000015,10.680736561071527,-0.5167317543536,0.02900813500054298,0.5362293150625186,12.650924,-0.91308343,-1.7939302,0.58955175,0.5274688,-0.12258482,1.828097,0.3165925,-0.02689301,-0.043535557,0.9471805,-9.913254,10.020608,0.5398793,-0.47863033,-0.4757171,0.51694876,0
1.9700000000000015,10.680736561071527,-0.5167317543536,0.02900813500054298,0.5362293150625186,12.650924,-0.91308343,-1.7939302,0.58955175,0.42829394,-0.02241415,1.8335364,0.3139876,-0.027964892,-0.04586442,0.9479064,-9.921772,10.01346,0.5480061,-0.51673174,0.029008135,0.5362293,0
1.9800000000000015,10.680736561071527,-0.5167317543536,0.02900813500054298,0.5362293150625186,12.650924,-0.91308343,-1.7939302,0.58955175,0.32903218,0.077682935,1.8390568,0.31137836,-0.029036386,-0.048192643,0.94861907,-9.930643,10.00589,0.55607486,-0.51673174,0.029008135,0.5362293,0
1.9900000000000015,10.680736561071527,-0.5167317543536,0.02900813500054298,0.5362293150625186,12.650924,-0.91308343,-1.7939302,0.58955175,0.22967991,0.1777022,1.8446578,0.30876476,-0.030107478,-0.050520197,0.9493186,-9.939863,9.997896,0.5640827,-0.51673174,0.029008135,0.5362293,0
2.0000000000000013,,,,,12.262777,-1.0696949,-1.6267253,0.6602685,0.13023372,0.2776394,1.8503385,0.30614686,-0.031178152,-0.05284705,0.950005,-9.94943,9.989477,0.5720269,-0.51673174,0.029008135,0.5362293,0
2.010000000000001,,,,,12.262777,-1.0696949,-1.6267253,0.6602685,0.030690946,0.37749022,1.8560939,0.3031779,-0.02995681,-0.05627841,0.950799,-9.959114,9.980563,0.5790376,-0.5873031,-0.47848925,0.5784189,0
2.020000000000001,,,,,12.262777,-1.0696949,-1.6267253,0.6602685,-0.06894839,0.47724792,1.861919,0.30020204,-0.02873479,-0.059708495,0.9515714,-9.968742,9.970852,0.5859827,-0.5873031,-0.47848925,0.5784189,0
2.0300000000000007,,,,,12.262777,-1.0696949,-1.6267253,0.6602685,-0.1686837,0.57690454,1.8678132,0.29721937,-0.027512116,-0.06313722,0.9523222,-9.97831,9.960343,0.5928566,-0.5873031,-0.47848925,0.5784189,0
2.0400000000000005,,,,,12.262777,-1.0696949,-1.6267253,0.6602685,-0.26851436,0.67645204,1.8737758,0.29422995,-0.026288817,-0.06656451,0.9530513,-9.98781,9.9490385,0.5996537,-0.5873031,-0.47848925,0.5784189,0
2.0500000000000003,,,,,12.212504,-0.99583805,-1.2140824,0.7849454,-0.36843967,0.7758825,1.879806,0.29123387,-0.025064921,-0.0699903,0.9537589,-9.997241,9.936938,0.6063685,-0.5873031,-0.47848925,0.5784189,1
2.06,,,,,12.212504,-0.99583805,-1.2140824,0.7849454,-0.46846557,0.87517726,1.885983,0.2869298,-0.0209991,-0.07640601,0.9546688,-10.007848,9.921733,0.6289769,-0.99583805,-1.2140824,0.7849454,1
2.07,,,,,12.212504,-0.99583805,-1.2140824,0.7849454,-0.5685947,0.9743109,1.892385,0.28260356,-0.01693166,-0.082815826,0.9555052,-10.01788,9.904706,0.65139115,-0.99583805,-1.2140824,0.7849454,1
2.0799999999999996,,,,,12.212504,-0.99583805,-1.2140824,0.7849454,-0.6688212,1.0732652,1.8990101,0.2782556,-0.012862918,-0.089219265,0.95626795,-10.027324,9.88587,0.6735833,-0.99583805,-1.2140824,0.7849454,1
2.0899999999999994,,,,,12.665352,-1.0595442,-1.188575,1.0774877,-0.7691391,1.1720221,1.9058558,0.2738862,-0.008793183,-0.09561583,0.95695704,-10.036161,9.865231,0.69552565,-0.99583805,-1.2140824,0.7849454,1
2.099999999999999,,,,,12.665352,-1.0595442,-1.188575,1.0774877,-0.8695439,1.2705595,1.9129417,0.26810327,-0.005071854,-0.10226129,0.9579341,-10.044707,9.8419485,0.721626,-1.0595442,-1.188575,1.0774877,1
2.109999999999999,,,,,12.665352,-1.0595442,-1.188575,1.0774877,-0.97003114,1.3688545,1.920287,0.26229557,-0.0013500573,-0.108897306,0.95882255,-10.052655,9.816769,0.74739546,-1.0595442,-1.188575,1.0774877,1
2.1199999999999988,,,,,12.665352,-1.0595442,-1.188575,1.0774877,-1.0705949,1.4668883,1.9278884,0.25646365,0.002371864,-0.11552326,0.9596225,-10.059982,9.789705,0.7728052,-1.0595442,-1.188575,1.0774877,1
2.1299999999999986,,,,,13.256033,-1.0079203,-1.676531,1.2692245,-1.1712285,1.5646422,1.9357419,0.25060803,0.0060935663,-0.122138545,0.9603338,-10.066667,9.760771,0.7978266,-1.0595442,-1.188575,1.0774877,1
2.1399999999999983,,,,,13.256033,-1.0079203,-1.676531,1.2692245,-1.2719266,1.6620901,1.9438721,0.24350363,0.0121050915,-0.12910922,0.96119225,-10.07274,9.728449,0.8281405,-1.0079203,-1.676531,1.2692245,1
2.149999999999998,,,,,13.256033,-1.0079203,-1.676531,1.2692245,-1.3726788,1.7592038,1.9523029,0.23636612,0.018114973,-0.13606234,0.96192,-10.077488,9.693957,0.85794467,-1.0079203,-1.676531,1.2692245,1
2.159999999999998,,,,,13.256033,-1.0079203,-1.676531,1.2692245,-1.4734716,1.8559619,1.9610292,0.22919649,0.024122389,-0.14299697,0.96251714,-10.080882,9.657324,0.8871955,-1.0079203,-1.676531,1.2692245,1
