time-since-start [s],throttle_mpc,roll_mpc,pitch_mpc,yaw_mpc,throttle_nw,roll_nw,pitch_nw,yaw_nw,position_x [m],position_y [m],position_z [m],rotation_w [quaternion],rotation_x [quaternion],rotation_y [quaternion],rotation_z [quaternion],velocity_x [m/s],velocity_y [m/s],velocity_z [m/s],omega_x [rad/s],omega_y [rad/s],omega_z [rad/s],network_used,gaze_2d_norm_x,gaze_2d_norm_y,gaze_2d_x,gaze_2d_y,gaze_3d_x,gaze_3d_y,gaze_3d_z,angle_rad,angle_deg,high_level_label
0.0,8.153397032324795,5.999999632331766,-5.999999853594769,-0.9686123508549613,12.868043,-0.5791044,-6.208536,-1.0208993,20.668882,-9.257061,2.4669077,0.050191548,0.54516506,-0.11933013,-0.82827306,-10.180127,-5.8289723,-0.48990312,1.4164588,-0.15426615,-0.06364053,0,0.040202479362487796,-0.3126898956298828,0.5201012396812439,0.3436550521850586,-0.9420043183421692,-0.0021947385930728425,-0.3355935746512647,0.5176864881640642,29.66125088275012,1
0.01,8.153397032324795,5.999999632331766,-5.999999853594769,-0.9686123508549613,15.383442,1.322097,-4.553732,-1.3470607,20.56671,-9.315285,2.4616754,0.026206836,0.5219105,-0.14292781,-0.8405322,-10.253854,-5.815167,-0.5561028,5.9999995,-6.0,-0.9686124,0,0.040202479362487796,-0.3126898956298828,0.5201012396812439,0.3436550521850586,-0.9420043183421692,-0.0021947385930728425,-0.3355935746512647,0.5176864881640642,29.66125088275012,1
0.02,8.153397032324795,5.999999632331766,-5.999999853594769,-0.9686123508549613,15.383442,1.322097,-4.553732,-1.3470607,20.463812,-9.373343,2.455796,0.0021743462,0.49770436,-0.1662649,-0.8512589,-10.324917,-5.795714,-0.6193346,5.9999995,-6.0,-0.9686124,0,0.040202479362487796,-0.3126898956298828,0.5201012396812439,0.3436550521850586,-0.9420043183421692,-0.0021947385930728425,-0.3355935746512647,0.5176864881640642,29.66125088275012,1
0.03,8.153397032324795,5.999999632331766,-5.999999853594769,-0.9686123508549613,15.383442,1.322097,-4.553732,-1.3470607,20.360222,-9.431181,2.4492984,-0.021862108,0.47259083,-0.18929888,-0.8604335,-10.392785,-5.77079,-0.6797955,5.9999995,-6.0,-0.9686124,0,0.040202479362487796,-0.3126898956298828,0.5201012396812439,0.3436550521850586,-0.9420043183421692,-0.0021947385930728425,-0.3355935746512647,0.5176864881640642,29.66125088275012,1
0.04,8.153397032324795,5.999999632331766,-5.999999853594769,-0.9686123508549613,13.137653,-0.053959675,-3.9726434,-1.2698618,20.25597,-9.488743,2.442209,-0.045858704,0.44661567,-0.21198773,-0.8680395,-10.456957,-5.7406116,-0.7377029,5.9999995,-6.0,-0.9686124,0,0.040202479362487796,-0.3126898956298828,0.5201012396812439,0.3436550521850586,-0.9420043183421692,-0.0021947385930728425,-0.3355935746512647,0.5176864881640642,29.66125088275012,1
0.05,8.153397032324795,5.999999632331766,-5.999999853594769,-0.9686123508549613,13.137653,-0.053959675,-3.9726434,-1.2698618,20.151098,-9.545977,2.4345527,-0.069771685,0.4198263,-0.23429008,-0.87406284,-10.5169525,-5.705433,-0.79329276,5.9999995,-6.0,-0.9686124,0,0.040202479362487796,-0.3126898956298828,0.5201012396812439,0.3436550521850586,-0.9420043183421692,-0.0021947385930728425,-0.3355935746512647,0.5176864881640642,29.66125088275012,1
0.060000000000000005,8.153397032324795,5.999999632331766,-5.999999853594769,-0.9686123508549613,13.137653,-0.053959675,-3.9726434,-1.2698618,20.045647,-9.602836,2.4263508,-0.09355746,0.3922715,-0.25616527,-0.87849265,-10.572325,-5.6655455,-0.8468179,5.9999995,-6.0,-0.9686124,0,0.040202479362487796,-0.3126898956298828,0.5201012396812439,0.3436550521850586,-0.9420043183421692,-0.0021947385930728425,-0.3355935746512647,0.5176864881640642,29.66125088275012,1
0.07,8.153397032324795,5.999999632331766,-5.999999853594769,-0.9686123508549613,13.137653,-0.053959675,-3.9726434,-1.2698618,19.939669,-9.659274,2.4176228,-0.11717267,0.36400148,-0.27757344,-0.8813208,-10.622662,-5.621274,-0.8985462,5.9999995,-6.0,-0.9686124,0,-0.054810094833374026,-0.2406280517578125,0.47259495258331297,0.37968597412109373,-0.930529660614418,0.3548357948578546,-0.09058757864305017,0.8510219701497297,48.75996716248783,1
0.08,15.909452218270207,5.999999325666069,-5.999999752227972,-0.26647697371284523,14.780461,-0.5855951,-3.329147,-1.5637912,19.833214,-9.715248,2.4083853,-0.14057425,0.33506787,-0.29847553,-0.88254213,-10.667584,-5.572976,-0.94875866,5.9999995,-6.0,-0.9686124,0,-0.054810094833374026,-0.2406280517578125,0.47259495258331297,0.37968597412109373,-0.930529660614418,0.3548357948578546,-0.09058757864305017,0.8510219701497297,48.75996716248783,1
0.09,15.909452218270207,5.999999325666069,-5.999999752227972,-0.26647697371284523,14.780461,-0.5855951,-3.329147,-1.5637912,19.726149,-9.770477,2.3988848,-0.16062374,0.30447936,-0.32001275,-0.88265735,-10.744025,-5.4716253,-0.9510374,5.9999995,-5.9999995,-0.26647696,0,-0.054810094833374026,-0.2406280517578125,0.47259495258331297,0.37968597412109373,-0.930529660614418,0.3548357948578546,-0.09058757864305017,0.8510219701497297,48.75996716248783,1
0.09999999999999999,15.909452218270207,5.999999325666069,-5.999999752227972,-0.26647697371284523,14.780461,-0.5855951,-3.329147,-1.5637912,19.618376,-9.824659,2.3893707,-0.18038388,0.2733423,-0.34097344,-0.8811825,-10.808686,-5.3639297,-0.9515802,5.9999995,-5.9999995,-0.26647696,0,-0.054810094833374026,-0.2406280517578125,0.47259495258331297,0.37968597412109373,-0.930529660614418,0.3548357948578546,-0.09058757864305017,0.8510219701497297,48.75996716248783,1
0.10999999999999999,15.909452218270207,5.999999325666069,-5.999999752227972,-0.26647697371284523,14.780461,-0.5855951,-3.329147,-1.5637912,19.510015,-9.877736,2.3798568,-0.19981904,0.24171284,-0.36131984,-0.8781202,-10.861096,-5.250685,-0.9510609,5.9999995,-5.9999995,-0.26647696,0,-0.054810094833374026,-0.2406280517578125,0.47259495258331297,0.37968597412109373,-0.930529660614418,0.3548357948578546,-0.09058757864305017,0.8510219701497297,48.75996716248783,1
0.11999999999999998,15.909452218270207,5.999999325666069,-5.999999752227972,-0.26647697371284523,14.780461,-0.5855951,-3.329147,-1.5637912,19.401197,-9.929656,2.3703508,-0.21889424,0.20964794,-0.38101536,-0.8734759,-10.900869,-5.1327276,-0.950161,5.9999995,-5.9999995,-0.26647696,0,-0.054810094833374026,-0.2406280517578125,0.47259495258331297,0.37968597412109373,-0.930529660614418,0.3548357948578546,-0.09058757864305017,0.8510219701497297,48.75996716248783,1
0.12999999999999998,20.99993328435801,3.826066319557031,-5.999998679515557,-0.16295709949312293,15.008252,-2.3453577,-1.2160746,-1.0116255,19.292044,-9.980377,2.360853,-0.23757511,0.17720534,-0.40002447,-0.8672581,-10.927713,-5.010927,-0.9495647,5.9999995,-5.9999995,-0.26647696,0,-0.054810094833374026,-0.2406280517578125,0.47259495258331297,0.37968597412109373,-0.930529660614418,0.3548357948578546,-0.09058757864305017,0.8510219701497297,48.75996716248783,1
0.13999999999999999,20.99993328435801,3.826066319557031,-5.999998679515557,-0.16295709949312293,15.008252,-2.3453577,-1.2160746,-1.0116255,19.18266,-10.029668,2.351516,-0.25351864,0.1468628,-0.4090885,-0.8641795,-10.94677,-4.8471985,-0.91761833,3.8260663,-5.9999986,-0.1629571,0,-0.0944981861114502,-0.023362139066060383,0.4527509069442749,0.48831893046696984,-0.7808833338736637,0.6245873473028298,-0.010576600000320568,1.0914956207413393,62.5380924254907,1
0.15,20.99993328435801,3.826066319557031,-5.999998679515557,-0.16295709949312293,15.008252,-2.3453577,-1.2160746,-1.0116255,19.073158,-10.077319,2.342503,-0.2691411,0.116334274,-0.4176344,-0.86000633,-10.950916,-4.6830587,-0.88486296,3.8260663,-5.9999986,-0.1629571,0,-0.0944981861114502,-0.023362139066060383,0.4527509069442749,0.48831893046696984,-0.7808833338736637,0.6245873473028298,-0.010576600000320568,1.0914956207413393,62.5380924254907,1
0.16,20.999980808463498,1.0479942101987372,-2.2147585072968217,-0.40755136337868786,15.007018,-2.5246463,-1.1098826,-1.4002149,18.963692,-10.123331,2.3338192,-0.28442267,0.08565841,-0.42565137,-0.854744,-10.940132,-4.519354,-0.85194176,3.8260663,-5.9999986,-0.1629571,0,-0.0944981861114502,-0.023362139066060383,0.4527509069442749,0.48831893046696984,-0.7808833338736637,0.6245873473028298,-0.010576600000320568,1.0914956207413393,62.5380924254907,1
0.17,20.999980808463498,1.0479942101987372,-2.2147585072968217,-0.40755136337868786,15.007018,-2.5246463,-1.1098826,-1.4002149,18.854397,-10.16771,2.325464,-0.29130474,0.07556382,-0.42677313,-0.8528167,-10.918139,-4.356656,-0.81910825,1.0479943,-2.2147584,-0.40755138,0,-0.0944981861114502,-0.023362139066060383,0.4527509069442749,0.48831893046696984,-0.7808833338736637,0.6245873473028298,-0.010576600000320568,1.0914956207413393,62.5380924254907,1
0.18000000000000002,20.999980808463498,1.0479942101987372,-2.2147585072968217,-0.40755136337868786,15.007018,-2.5246463,-1.1098826,-1.4002149,18.745346,-10.210467,2.3174384,-0.2981419,0.06545756,-0.4278291,-0.85075784,-10.891101,-4.1949296,-0.7860161,1.0479943,-2.2147584,-0.40755138,0,-0.0944981861114502,-0.023362139066060383,0.4527509069442749,0.48831893046696984,-0.7808833338736637,0.6245873473028298,-0.010576600000320568,1.0914956207413393,62.5380924254907,1
0.19000000000000003,20.999980808463498,1.0479942101987372,-2.2147585072968217,-0.40755136337868786,15.007018,-2.5246463,-1.1098826,-1.4002149,18.636591,-10.251613,2.3097446,-0.30493304,0.055341214,-0.42881906,-0.8485678,-10.859036,-4.0342846,-0.75272787,1.0479943,-2.2147584,-0.40755138,0,-0.0944981861114502,-0.023362139066060383,0.4527509069442749,0.48831893046696984,-0.7808833338736637,0.6245873473028298,-0.010576600000320568,1.0914956207413393,62.5380924254907,1
0.20000000000000004,20.168156646689713,0.3522679971201071,-0.04579915451353431,-0.5712248977418258,15.641685,-3.1317415,2.6658766,-0.74267614,18.528181,-10.291158,2.3023844,-0.31167716,0.04521633,-0.42974287,-0.8462469,-10.821968,-3.87483,-0.71930605,1.0479943,-2.2147584,-0.40755138,0,0.09326068878173828,-0.019605668385823567,0.5466303443908691,0.4901971658070882,-0.5322123372688791,0.8458444158897919,-0.03601738700758854,1.3530067911566448,77.52157878581414,1
0.21000000000000005,20.168156646689713,0.3522679971201071,-0.04579915451353431,-0.5712248977418258,15.641685,-3.1317415,2.6658766,-0.74267614,18.420155,-10.3291445,2.2953322,-0.31427044,0.045700718,-0.43103045,-0.8446054,-10.783196,-3.722356,-0.6912162,0.352268,-0.045799155,-0.57122487,0,0.09326068878173828,-0.019605668385823567,0.5466303443908691,0.4901971658070882,-0.5322123372688791,0.8458444158897919,-0.03601738700758854,1.3530067911566448,77.52157878581414,1
0.22000000000000006,20.168156646689713,0.3522679971201071,-0.04579915451353431,-0.5712248977418258,15.641685,-3.1317415,2.6658766,-0.74267614,18.312517,-10.365605,2.2885587,-0.31686014,0.04618459,-0.43231314,-0.84295434,-10.743947,-3.5696208,-0.663591,0.352268,-0.045799155,-0.57122487,0,0.09326068878173828,-0.019605668385823567,0.5466303443908691,0.4901971658070882,-0.5322123372688791,0.8458444158897919,-0.03601738700758854,1.3530067911566448,77.52157878581414,1
0.23000000000000007,20.168156646689713,0.3522679971201071,-0.04579915451353431,-0.5712248977418258,15.641685,-3.1317415,2.6658766,-0.74267614,18.205275,-10.400537,2.282059,-0.31944627,0.046667933,-0.43359095,-0.84129375,-10.704216,-3.4166284,-0.6364305,0.352268,-0.045799155,-0.57122487,0,0.09326068878173828,-0.019605668385823567,0.5466303443908691,0.4901971658070882,-0.5322123372688791,0.8458444158897919,-0.03601738700758854,1.3530067911566448,77.52157878581414,1
0.24000000000000007,20.168156646689713,0.3522679971201071,-0.04579915451353431,-0.5712248977418258,14.945329,-1.6454148,4.0376606,-1.0576482,18.098433,-10.433936,2.2758286,-0.3220288,0.047150753,-0.43486384,-0.83962363,-10.664001,-3.2633832,-0.60973424,0.352268,-0.045799155,-0.57122487,0,0.09326068878173828,-0.019605668385823567,0.5466303443908691,0.4901971658070882,-0.5322123372688791,0.8458444158897919,-0.03601738700758854,1.3530067911566448,77.52157878581414,1
0.25000000000000006,20.168156646689713,0.3522679971201071,-0.04579915451353431,-0.5712248977418258,14.945329,-1.6454148,4.0376606,-1.0576482,17.991995,-10.465802,2.2698627,-0.32460767,0.047633037,-0.43613183,-0.837944,-10.623302,-3.109889,-0.583502,0.352268,-0.045799155,-0.57122487,0,0.09326068878173828,-0.019605668385823567,0.5466303443908691,0.4901971658070882,-0.5322123372688791,0.8458444158897919,-0.03601738700758854,1.3530067911566448,77.52157878581414,1
0.26000000000000006,20.168156646689713,0.3522679971201071,-0.04579915451353431,-0.5712248977418258,14.945329,-1.6454148,4.0376606,-1.0576482,17.885967,-10.496133,2.2641568,-0.32718286,0.048114784,-0.4373949,-0.8362548,-10.582115,-2.9561505,-0.55773365,0.352268,-0.045799155,-0.57122487,0,0.09326068878173828,-0.019605668385823567,0.5466303443908691,0.4901971658070882,-0.5322123372688791,0.8458444158897919,-0.03601738700758854,1.3530067911566448,77.52157878581414,1
0.2700000000000001,20.168156646689713,0.3522679971201071,-0.04579915451353431,-0.5712248977418258,14.945329,-1.6454148,4.0376606,-1.0576482,17.780355,-10.524924,2.2587063,-0.32975435,0.048595987,-0.438653,-0.8345562,-10.540436,-2.8021715,-0.53242886,0.352268,-0.045799155,-0.57122487,0,-0.09734437942504882,0.09795625686645508,0.4513278102874756,0.5489781284332276,-0.6765668935857568,0.736180907845045,-0.017172927186854127,1.0874098009579587,62.30399219605194,1
0.2800000000000001,19.010932770599325,-0.1883558604681638,1.2543200262286356,-0.6496659550533284,17.126038,-1.6273998,3.5909913,-0.98919725,17.675161,-10.552175,2.2535064,-0.33232212,0.04907664,-0.43990615,-0.8328482,-10.498263,-2.6479564,-0.5075872,0.352268,-0.045799155,-0.57122487,0,-0.09734437942504882,0.09795625686645508,0.4513278102874756,0.5489781284332276,-0.6765668935857568,0.736180907845045,-0.017172927186854127,1.0874098009579587,62.30399219605194,1
0.2900000000000001,19.010932770599325,-0.1883558604681638,1.2543200262286356,-0.6496659550533284,17.126038,-1.6273998,3.5909913,-0.98919725,17.570375,-10.577926,2.2485173,-0.3322139,0.05604056,-0.44103536,-0.8318541,-10.458993,-2.5020506,-0.49031642,-0.18835586,1.25432,-0.64966595,0,-0.09734437942504882,0.09795625686645508,0.4513278102874756,0.5489781284332276,-0.6765668935857568,0.736180907845045,-0.017172927186854127,1.0874098009579587,62.30399219605194,1
0.3000000000000001,19.010932770599325,-0.1883558604681638,1.2543200262286356,-0.6496659550533284,17.126038,-1.6273998,3.5909913,-0.98919725,17.465973,-10.602212,2.2436976,-0.33208886,0.06300163,-0.44214216,-0.83081776,-10.421782,-2.3550825,-0.47371352,-0.18835586,1.25432,-0.64966595,0,-0.09734437942504882,0.09795625686645508,0.4513278102874756,0.5489781284332276,-0.6765668935857568,0.736180907845045,-0.017172927186854127,1.0874098009579587,62.30399219605194,1
0.3100000000000001,19.010932770599325,-0.1883558604681638,1.2543200262286356,-0.6496659550533284,17.126038,-1.6273998,3.5909913,-0.98919725,17.361933,-10.625023,2.2390406,-0.3319469,0.069959514,-0.44322655,-0.8297392,-10.386627,-2.207069,-0.45780864,-0.18835586,1.25432,-0.64966595,0,-0.09734437942504882,0.09795625686645508,0.4513278102874756,0.5489781284332276,-0.6765668935857568,0.736180907845045,-0.017172927186854127,1.0874098009579587,62.30399219605194,1
0.3200000000000001,18.16053403159962,-0.6760829089719493,2.364450358196902,-0.6611878474005133,16.980377,-1.8542482,3.9803543,-1.2341081,17.258234,-10.646349,2.234539,-0.33178812,0.07691383,-0.44428843,-0.8286186,-10.353528,-2.0580256,-0.44263175,-0.18835586,1.25432,-0.64966595,0,-0.09734437942504882,0.09795625686645508,0.4513278102874756,0.5489781284332276,-0.6765668935857568,0.736180907845045,-0.017172927186854127,1.0874098009579587,62.30399219605194,1
0.3300000000000001,18.16053403159962,-0.6760829089719493,2.364450358196902,-0.6611878474005133,16.980377,-1.8542482,3.9803543,-1.2341081,17.154846,-10.666212,2.2301598,-0.32898816,0.08929377,-0.44511953,-0.82804716,-10.324658,-1.9144521,-0.43334413,-0.6760829,2.3644505,-0.6611878,0,-0.09734437942504882,0.09795625686645508,0.4513278102874756,0.5489781284332276,-0.6765668935857568,0.736180907845045,-0.017172927186854127,1.0874098009579587,62.30399219605194,1
0.34000000000000014,18.16053403159962,-0.6760829089719493,2.364450358196902,-0.6611878474005133,16.980377,-1.8542482,3.9803543,-1.2341081,17.051727,-10.684631,2.2258682,-0.32613486,0.10165923,-0.44587848,-0.82734144,-10.2998495,-1.769347,-0.42510515,-0.6760829,2.3644505,-0.6611878,0,-0.3223684692382813,0.04428045272827148,0.33881576538085934,0.5221402263641357,-0.7868448858974767,0.6127571964570353,0.0735101607065435,0.831773281795634,47.65709855863554,1
0.35000000000000014,18.16053403159962,-0.6760829089719493,2.364450358196902,-0.6611878474005133,16.980377,-1.8542482,3.9803543,-1.2341081,16.948835,-10.701593,2.2216535,-0.3232287,0.11400822,-0.44656512,-0.8265016,-10.279105,-1.6227832,-0.41800198,-0.6760829,2.3644505,-0.6611878,0,-0.3223684692382813,0.04428045272827148,0.33881576538085934,0.5221402263641357,-0.7868448858974767,0.6127571964570353,0.0735101607065435,0.831773281795634,47.65709855863554,1
0.36000000000000015,17.59218920954242,-0.7154329137066452,2.0414432576610593,-0.6623214640117353,16.00618,-1.6179967,4.236742,-1.6826092,16.84613,-10.717083,2.217504,-0.32027012,0.12633872,-0.4471794,-0.8255278,-10.262427,-1.4748347,-0.412121,-0.6760829,2.3644505,-0.6611878,0,-0.3223684692382813,0.04428045272827148,0.33881576538085934,0.5221402263641357,-0.7868448858974767,0.6127571964570353,0.0735101607065435,0.831773281795634,47.65709855863554,1
0.37000000000000016,17.59218920954242,-0.7154329137066452,2.0414432576610593,-0.6623214640117353,16.00618,-1.6179967,4.236742,-1.6826092,16.743568,-10.73111,2.213391,-0.31796712,0.13738327,-0.4470484,-0.8247245,-10.250063,-1.3303443,-0.4106367,-0.71543294,2.0414433,-0.66232145,0,-0.3223684692382813,0.04428045272827148,0.33881576538085934,0.5221402263641357,-0.7868448858974767,0.6127571964570353,0.0735101607065435,0.831773281795634,47.65709855863554,1
0.38000000000000017,17.59218920954242,-0.7154329137066452,2.0414432576610593,-0.6623214640117353,16.00618,-1.6179967,4.236742,-1.6826092,16.641115,-10.743687,2.2092876,-0.3156234,0.14841025,-0.44686022,-0.82381564,-10.241243,-1.1849058,-0.4101608,-0.71543294,2.0414433,-0.66232145,0,-0.3223684692382813,0.04428045272827148,0.33881576538085934,0.5221402263641357,-0.7868448858974767,0.6127571964570353,0.0735101607065435,0.831773281795634,47.65709855863554,1
0.3900000000000002,17.59218920954242,-0.7154329137066452,2.0414432576610593,-0.6623214640117353,16.00618,-1.6179967,4.236742,-1.6826092,16.538733,-10.754806,2.205184,-0.31323934,0.15941826,-0.4466149,-0.8228014,-10.235963,-1.0385742,-0.41075918,-0.71543294,2.0414433,-0.66232145,0,-0.3223684692382813,0.04428045272827148,0.33881576538085934,0.5221402263641357,-0.7868448858974767,0.6127571964570353,0.0735101607065435,0.831773281795634,47.65709855863554,1
0.4000000000000002,17.265869302909003,-0.5899526564802055,1.2072116737037255,-0.6345263393059465,15.534164,-1.9209828,3.4534807,-1.2048994,16.436384,-10.764456,2.2010686,-0.3108152,0.17040585,-0.4463124,-0.82168186,-10.234216,-0.89140546,-0.41249704,-0.71543294,2.0414433,-0.66232145,0,-0.18813053131103516,-0.12635965983072917,0.4059347343444824,0.4368201700846354,-0.7094033862809783,0.704800667433661,0.0016895911182554235,0.8690248510291791,49.791456255957065,1
0.4100000000000002,17.265869302909003,-0.5899526564802055,1.2072116737037255,-0.6345263393059465,15.534164,-1.9209828,3.4534807,-1.2048994,16.334036,-10.772644,2.1969218,-0.31021687,0.17769362,-0.4452118,-0.820961,-10.235502,-0.74635637,-0.41695035,-0.58995265,1.2072117,-0.6345263,0,-0.18813053131103516,-0.12635965983072917,0.4059347343444824,0.4368201700846354,-0.7094033862809783,0.704800667433661,0.0016895911182554235,0.8690248510291791,49.791456255957065,1
0.4200000000000002,17.265869302909003,-0.5899526564802055,1.2072116737037255,-0.6345263393059465,15.534164,-1.9209828,3.4534807,-1.2048994,16.231667,-10.779381,2.1927278,-0.30960143,0.18497159,-0.44408658,-0.82019484,-10.23902,-0.60099185,-0.42195162,-0.58995265,1.2072117,-0.6345263,0,-0.18813053131103516,-0.12635965983072917,0.4059347343444824,0.4368201700846354,-0.7094033862809783,0.704800667433661,0.0016895911182554235,0.8690248510291791,49.791456255957065,1
0.4300000000000002,17.265869302909003,-0.5899526564802055,1.2072116737037255,-0.6345263393059465,15.534164,-1.9209828,3.4534807,-1.2048994,16.12925,-10.784662,2.1884809,-0.3089689,0.19223934,-0.4429369,-0.8193834,-10.244765,-0.45533037,-0.42752957,-0.58995265,1.2072117,-0.6345263,0,-0.18813053131103516,-0.12635965983072917,0.4059347343444824,0.4368201700846354,-0.7094033862809783,0.704800667433661,0.0016895911182554235,0.8690248510291791,49.791456255957065,1
0.4400000000000002,17.265869302909003,-0.5899526564802055,1.2072116737037255,-0.6345263393059465,15.94389,-2.2640631,2.1064034,-1.068692,16.026764,-10.7884865,2.184175,-0.30831933,0.19949646,-0.44176275,-0.81852674,-10.252734,-0.30939066,-0.43371272,-0.58995265,1.2072117,-0.6345263,0,-0.18813053131103516,-0.12635965983072917,0.4059347343444824,0.4368201700846354,-0.7094033862809783,0.704800667433661,0.0016895911182554235,0.8690248510291791,49.791456255957065,1
0.45000000000000023,17.265869302909003,-0.5899526564802055,1.2072116737037255,-0.6345263393059465,15.94389,-2.2640631,2.1064034,-1.068692,15.924188,-10.79085,2.1798043,-0.30765274,0.20674257,-0.4405642,-0.81762487,-10.2629175,-0.16319132,-0.44052947,-0.58995265,1.2072117,-0.6345263,0,-0.18813053131103516,-0.12635965983072917,0.4059347343444824,0.4368201700846354,-0.7094033862809783,0.704800667433661,0.0016895911182554235,0.8690248510291791,49.791456255957065,1
0.46000000000000024,17.265869302909003,-0.5899526564802055,1.2072116737037255,-0.6345263393059465,15.94389,-2.2640631,2.1064034,-1.068692,15.821499,-10.79175,2.1753619,-0.30696917,0.21397728,-0.4393413,-0.81667787,-10.275312,-0.016751103,-0.4480081,-0.58995265,1.2072117,-0.6345263,0,-0.18813053131103516,-0.12635965983072917,0.4059347343444824,0.4368201700846354,-0.7094033862809783,0.704800667433661,0.0016895911182554235,0.8690248510291791,49.791456255957065,1
0.47000000000000025,17.265869302909003,-0.5899526564802055,1.2072116737037255,-0.6345263393059465,15.94389,-2.2640631,2.1064034,-1.068692,15.718675,-10.791185,2.1708417,-0.30626863,0.22120017,-0.4380942,-0.8156858,-10.289911,0.12991121,-0.45617676,-0.58995265,1.2072117,-0.6345263,0,-0.2298823356628418,-0.18152918497721354,0.3850588321685791,0.4092354075113932,-0.7429495655074843,0.6692119779456824,-0.01346371740149982,0.720605013700466,41.287625981003565,1
0.48000000000000026,17.00431223791931,-0.3448699182860368,0.3410216577295327,-0.5962079163640596,15.900247,-2.4075916,1.5363274,-0.7972375,15.615693,-10.789152,2.166236,-0.3055512,0.22841084,-0.43682292,-0.81464875,-10.306706,0.2767768,-0.46506345,-0.58995265,1.2072117,-0.6345263,0,-0.2298823356628418,-0.18152918497721354,0.3850588321685791,0.4092354075113932,-0.7429495655074843,0.6692119779456824,-0.01346371740149982,0.720605013700466,41.287625981003565,1
0.49000000000000027,17.00431223791931,-0.3448699182860368,0.3410216577295327,-0.5962079163640596,15.900247,-2.4075916,1.5363274,-0.7972375,15.512536,-10.78566,2.1615314,-0.30683878,0.23162727,-0.43525508,-0.8140956,-10.3249035,0.4215038,-0.4757703,-0.3448699,0.34102166,-0.5962079,0,-0.2298823356628418,-0.18152918497721354,0.3850588321685791,0.4092354075113932,-0.7429495655074843,0.6692119779456824,-0.01346371740149982,0.720605013700466,41.287625981003565,1
0.5000000000000002,17.00431223791931,-0.3448699182860368,0.3410216577295327,-0.5962079163640596,15.900247,-2.4075916,1.5363274,-0.7972375,15.409192,-10.780722,2.1567202,-0.3081218,0.23484029,-0.4336808,-0.8135305,-10.343921,0.56614995,-0.4865177,-0.3448699,0.34102166,-0.5962079,0,-0.2298823356628418,-0.18152918497721354,0.3850588321685791,0.4092354075113932,-0.7429495655074843,0.6692119779456824,-0.01346371740149982,0.720605013700466,41.287625981003565,1
0.5100000000000002,17.00431223791931,-0.3448699182860368,0.3410216577295327,-0.5962079163640596,15.900247,-2.4075916,1.5363274,-0.7972375,15.3056555,-10.774337,2.1518009,-0.30940026,0.23804983,-0.4321001,-0.81295335,-10.363756,0.7107143,-0.49731198,-0.3448699,0.34102166,-0.5962079,0,-0.2298823356628418,-0.18152918497721354,0.3850588321685791,0.4092354075113932,-0.7429495655074843,0.6692119779456824,-0.01346371740149982,0.720605013700466,41.287625981003565,1
0.5200000000000002,16.81743011486139,-0.12078462569015258,-0.3377592163364092,-0.5297370130244603,16.121544,-2.340129,1.3206066,-0.70876896,15.201915,-10.766507,2.1467736,-0.31067416,0.24125586,-0.43051302,-0.8123642,-10.384411,0.855196,-0.50815934,-0.3448699,0.34102166,-0.5962079,0,-0.2298823356628418,-0.18152918497721354,0.3850588321685791,0.4092354075113932,-0.7429495655074843,0.6692119779456824,-0.01346371740149982,0.720605013700466,41.287625981003565,1
0.5300000000000002,16.81743011486139,-0.12078462569015258,-0.3377592163364092,-0.5297370130244603,16.121544,-2.340129,1.3206066,-0.70876896,15.097966,-10.757241,2.1416333,-0.3134056,0.24121064,-0.42885655,-0.8122046,-10.4052515,0.9979415,-0.519819,-0.120784625,-0.33775923,-0.529737,0,-0.2298823356628418,-0.18152918497721354,0.3850588321685791,0.4092354075113932,-0.7429495655074843,0.6692119779456824,-0.01346371740149982,0.720605013700466,41.287625981003565,1
0.5400000000000003,16.81743011486139,-0.12078462569015258,-0.3377592163364092,-0.5297370130244603,16.121544,-2.340129,1.3206066,-0.70876896,14.99381,-10.746549,2.136379,-0.31613386,0.24116293,-0.42719567,-0.8120367,-10.425847,1.1404272,-0.5309926,-0.120784625,-0.33775923,-0.529737,0,-0.3189101219177246,-0.3206926727294922,0.3405449390411377,0.3396536636352539,-0.734870325414382,0.6708919135541989,0.09934608775863224,0.6309665205936357,36.15171864406967,1
0.5500000000000003,16.81743011486139,-0.12078462569015258,-0.3377592163364092,-0.5297370130244603,16.121544,-2.340129,1.3206066,-0.70876896,14.88945,-10.734433,2.1310155,-0.31885886,0.24111275,-0.42553043,-0.8118605,-10.4462,1.2826504,-0.5416804,-0.120784625,-0.33775923,-0.529737,0,-0.3189101219177246,-0.3206926727294922,0.3405449390411377,0.3396536636352539,-0.734870325414382,0.6708919135541989,0.09934608775863224,0.6309665205936357,36.15171864406967,1
0.5600000000000003,16.498545220815437,0.04821412527884358,-0.85403709284174,-0.4601457263008137,16.268188,-2.5942962,1.4069588,-0.5137613,14.784887,-10.720897,2.1255472,-0.3215806,0.24106011,-0.42386085,-0.81167597,-10.466313,1.424608,-0.55188245,-0.120784625,-0.33775923,-0.529737,0,-0.3189101219177246,-0.3206926727294922,0.3405449390411377,0.3396536636352539,-0.734870325414382,0.6708919135541989,0.09934608775863224,0.6309665205936357,36.15171864406967,1
0.5700000000000003,16.498545220815437,0.04821412527884358,-0.85403709284174,-0.4601457263008137,16.268188,-2.5942962,1.4069588,-0.5137613,14.680127,-10.705956,2.1199715,-0.32531232,0.23848893,-0.42212367,-0.8118537,-10.48552,1.5635535,-0.5631189,0.048214126,-0.8540371,-0.4601457,0,-0.3189101219177246,-0.3206926727294922,0.3405449390411377,0.3396536636352539,-0.734870325414382,0.6708919135541989,0.09934608775863224,0.6309665205936357,36.15171864406967,1
0.5800000000000003,16.498545220815437,0.04821412527884358,-0.85403709284174,-0.4601457263008137,16.268188,-2.5942962,1.4069588,-0.5137613,14.575181,-10.689628,2.1142879,-0.32903636,0.23591213,-0.4203766,-0.81201226,-10.50372,1.7020743,-0.5734645,0.048214126,-0.8540371,-0.4601457,0,-0.3189101219177246,-0.3206926727294922,0.3405449390411377,0.3396536636352539,-0.734870325414382,0.6708919135541989,0.09934608775863224,0.6309665205936357,36.15171864406967,1
0.5900000000000003,16.498545220815437,0.04821412527884358,-0.85403709284174,-0.4601457263008137,16.268188,-2.5942962,1.4069588,-0.5137613,14.4700575,-10.671916,2.1085055,-0.33275265,0.23332976,-0.41861957,-0.81215173,-10.520913,1.8401575,-0.58292216,0.048214126,-0.8540371,-0.4601457,0,-0.3189101219177246,-0.3206926727294922,0.3405449390411377,0.3396536636352539,-0.734870325414382,0.6708919135541989,0.09934608775863224,0.6309665205936357,36.15171864406967,1
0.6000000000000003,16.43369652592717,0.07630274903788209,-0.6937301072268454,-0.4006565522236083,16.261787,-2.2879016,1.2098061,-0.44700357,14.364767,-10.652826,2.1026328,-0.33646107,0.23074187,-0.41685268,-0.8122721,-10.537104,1.9777901,-0.5914946,0.048214126,-0.8540371,-0.4601457,0,-0.3071343994140625,-0.17951616923014324,0.34643280029296875,0.4102419153849284,-0.7599915111718824,0.649872138402032,0.008894193355709679,0.521911097971195,29.903303194788293,1
0.6100000000000003,16.43369652592717,0.07630274903788209,-0.6937301072268454,-0.4006565522236083,16.261787,-2.2879016,1.2098061,-0.44700357,14.259319,-10.632365,2.0966768,-0.33961952,0.22862923,-0.4155299,-0.8122328,-10.552287,2.1144629,-0.5996138,0.07630275,-0.6937301,-0.40065655,0,-0.3071343994140625,-0.17951616923014324,0.34643280029296875,0.4102419153849284,-0.7599915111718824,0.649872138402032,0.008894193355709679,0.521911097971195,29.903303194788293,1
0.6200000000000003,16.43369652592717,0.07630274903788209,-0.6937301072268454,-0.4006565522236083,16.261787,-2.2879016,1.2098061,-0.44700357,14.153724,-10.6105385,2.0906432,-0.34277242,0.22651288,-0.41420037,-0.81218034,-10.56662,2.2507772,-0.60705274,0.07630275,-0.6937301,-0.40065655,0,-0.3071343994140625,-0.17951616923014324,0.34643280029296875,0.4102419153849284,-0.7599915111718824,0.649872138402032,0.008894193355709679,0.521911097971195,29.903303194788293,1
0.6300000000000003,16.43369652592717,0.07630274903788209,-0.6937301072268454,-0.4006565522236083,16.261787,-2.2879016,1.2098061,-0.44700357,14.04799,-10.587351,2.0845382,-0.34591982,0.22439286,-0.41286415,-0.8121148,-10.580104,2.386725,-0.61381316,0.07630275,-0.6937301,-0.40065655,0,-0.3071343994140625,-0.17951616923014324,0.34643280029296875,0.4102419153849284,-0.7599915111718824,0.649872138402032,0.008894193355709679,0.521911097971195,29.903303194788293,1
0.6400000000000003,16.43369652592717,0.07630274903788209,-0.6937301072268454,-0.4006565522236083,16.410269,-2.2265682,1.2367669,-0.3453209,13.942125,-10.562805,2.0783691,-0.34906158,0.22226922,-0.41152126,-0.81203604,-10.592742,2.5222971,-0.6198968,0.07630275,-0.6937301,-0.40065655,0,-0.3071343994140625,-0.17951616923014324,0.34643280029296875,0.4102419153849284,-0.7599915111718824,0.649872138402032,0.008894193355709679,0.521911097971195,29.903303194788293,1
0.6500000000000004,16.43369652592717,0.07630274903788209,-0.6937301072268454,-0.4006565522236083,16.410269,-2.2265682,1.2367669,-0.3453209,13.836139,-10.536906,2.0721426,-0.35219774,0.22014196,-0.4101717,-0.8119442,-10.604536,2.657485,-0.62530553,0.07630275,-0.6937301,-0.40065655,0,-0.3071343994140625,-0.17951616923014324,0.34643280029296875,0.4102419153849284,-0.7599915111718824,0.649872138402032,0.008894193355709679,0.521911097971195,29.903303194788293,1
0.6600000000000004,16.43369652592717,0.07630274903788209,-0.6937301072268454,-0.4006565522236083,16.410269,-2.2265682,1.2367669,-0.3453209,13.730039,-10.509657,2.0658653,-0.35532817,0.21801116,-0.40881544,-0.81183916,-10.61549,2.79228,-0.6300412,0.07630275,-0.6937301,-0.40065655,0,-0.3071343994140625,-0.17951616923014324,0.34643280029296875,0.4102419153849284,-0.7599915111718824,0.649872138402032,0.008894193355709679,0.521911097971195,29.903303194788293,1
0.6700000000000004,16.43369652592717,0.07630274903788209,-0.6937301072268454,-0.4006565522236083,16.410269,-2.2265682,1.2367669,-0.3453209,13.623833,-10.481062,2.059544,-0.35845286,0.21587682,-0.40745264,-0.811721,-10.625605,2.9266734,-0.6341057,0.07630275,-0.6937301,-0.40065655,0,-0.42755664825439454,-0.23266807556152344,0.2862216758728027,0.38366596221923827,-0.7661753715485236,0.6305190975500242,0.12418118882175805,0.4198038776489632,24.052990412511985,0
0.6800000000000004,16.134349519165706,0.09998309469226127,-0.7864423932424149,-0.3464339514662074,15.34176,-1.3603765,1.59719,0.14456058,13.517529,-10.451125,2.0531855,-0.36157173,0.21373898,-0.40608323,-0.8115897,-10.634882,3.0606563,-0.6375009,0.07630275,-0.6937301,-0.40065655,0,-0.42755664825439454,-0.23266807556152344,0.2862216758728027,0.38366596221923827,-0.7661753715485236,0.6305190975500242,0.12418118882175805,0.4198038776489632,24.052990412511985,0
0.6900000000000004,16.134349519165706,0.09998309469226127,-0.7864423932424149,-0.3464339514662074,15.34176,-1.3603765,1.59719,0.14456058,13.411138,-10.419864,2.0467875,-0.36467782,0.21106829,-0.40469313,-0.8115933,-10.643126,3.19177,-0.64193743,0.099983096,-0.7864424,-0.34643394,0,-0.42755664825439454,-0.23266807556152344,0.2862216758728027,0.38366596221923827,-0.7661753715485236,0.6305190975500242,0.12418118882175805,0.4198038776489632,24.052990412511985,0
0.7000000000000004,16.134349519165706,0.09998309469226127,-0.7864423932424149,-0.3464339514662074,15.34176,-1.3603765,1.59719,0.14456058,13.304668,-10.387292,2.040349,-0.36777708,0.20839365,-0.4032955,-0.8115816,-10.650427,3.3224163,-0.64564544,0.099983096,-0.7864424,-0.34643394,0,-0.42755664825439454,-0.23266807556152344,0.2862216758728027,0.38366596221923827,-0.7661753715485236,0.6305190975500242,0.12418118882175805,0.4198038776489632,24.052990412511985,0
0.7100000000000004,16.134349519165706,0.09998309469226127,-0.7864423932424149,-0.3464339514662074,15.34176,-1.3603765,1.59719,0.14456058,13.198132,-10.353416,2.0338771,-0.37086943,0.20571512,-0.40189028,-0.81155485,-10.656789,3.4525847,-0.6486283,0.099983096,-0.7864424,-0.34643394,0,-0.42755664825439454,-0.23266807556152344,0.2862216758728027,0.38366596221923827,-0.7661753715485236,0.6305190975500242,0.12418118882175805,0.4198038776489632,24.052990412511985,0
0.7200000000000004,15.912595300031883,0.03438437473897195,-0.6722230277043232,-0.29484760772834506,15.258902,-1.4290109,1.6980003,0.13953257,13.091536,-10.318243,2.027379,-0.37395486,0.20303273,-0.40047756,-0.8115129,-10.662214,3.5822656,-0.65088946,0.099983096,-0.7864424,-0.34643394,0,-0.42755664825439454,-0.23266807556152344,0.2862216758728027,0.38366596221923827,-0.7661753715485236,0.6305190975500242,0.12418118882175805,0.4198038776489632,24.052990412511985,0
0.7300000000000004,15.912595300031883,0.03438437473897195,-0.6722230277043232,-0.29484760772834506,15.258902,-1.4290109,1.6980003,0.13953257,12.98489,-10.281782,2.0208552,-0.37652966,0.2008299,-0.39905813,-0.81156963,-10.666718,3.7096877,-0.6537827,0.034384374,-0.67222303,-0.2948476,0,-0.42755664825439454,-0.23266807556152344,0.2862216758728027,0.38366596221923827,-0.7661753715485236,0.6305190975500242,0.12418118882175805,0.4198038776489632,24.052990412511985,0
0.7400000000000004,15.912595300031883,0.03438437473897195,-0.6722230277043232,-0.29484760772834506,15.258902,-1.4290109,1.6980003,0.13953257,12.878203,-10.24405,2.0143056,-0.37909937,0.19862434,-0.39763334,-0.8116154,-10.670498,3.8366501,-0.6560327,0.034384374,-0.67222303,-0.2948476,0,-0.20056499481201173,-0.11762902577718098,0.39971750259399413,0.4411854871114095,-0.6615511162751431,0.748871377463306,-0.039265513766189725,0.5020666992285192,28.766302899858257,1
0.7500000000000004,15.912595300031883,0.03438437473897195,-0.6722230277043232,-0.29484760772834506,15.258902,-1.4290109,1.6980003,0.13953257,12.771483,-10.20505,2.007737,-0.38166395,0.1964161,-0.3962032,-0.81165034,-10.673559,3.9631457,-0.657642,0.034384374,-0.67222303,-0.2948476,0,-0.20056499481201173,-0.11762902577718098,0.39971750259399413,0.4411854871114095,-0.6615511162751431,0.748871377463306,-0.039265513766189725,0.5020666992285192,28.766302899858257,1
0.7600000000000005,15.52258580228623,0.011815002112504235,-0.7825967871419233,-0.2454889636509027,15.955665,-1.3530525,0.47736353,-0.34153607,12.664735,-10.164788,2.0011554,-0.3842234,0.19420521,-0.39476767,-0.8116743,-10.675901,4.089168,-0.65861344,0.034384374,-0.67222303,-0.2948476,0,-0.20056499481201173,-0.11762902577718098,0.39971750259399413,0.4411854871114095,-0.6615511162751431,0.748871377463306,-0.039265513766189725,0.5020666992285192,28.766302899858257,1
0.7700000000000005,15.52258580228623,0.011815002112504235,-0.7825967871419233,-0.2454889636509027,15.955665,-1.3530525,0.47736353,-0.34153607,12.557967,-10.123284,1.9945552,-0.38677263,0.19148937,-0.3930705,-0.81193244,-10.677456,4.2115965,-0.66129977,0.011815002,-0.78259677,-0.24548896,0,-0.20056499481201173,-0.11762902577718098,0.39971750259399413,0.4411854871114095,-0.6615511162751431,0.748871377463306,-0.039265513766189725,0.5020666992285192,28.766302899858257,1
0.7800000000000005,15.52258580228623,0.011815002112504235,-0.7825967871419233,-0.2454889636509027,15.955665,-1.3530525,0.47736353,-0.34153607,12.451188,-10.08056,1.987932,-0.38931537,0.18877031,-0.39136666,-0.81217694,-10.678236,4.333453,-0.6632474,0.011815002,-0.78259677,-0.24548896,0,-0.20056499481201173,-0.11762902577718098,0.39971750259399413,0.4411854871114095,-0.6615511162751431,0.748871377463306,-0.039265513766189725,0.5020666992285192,28.766302899858257,1
0.7900000000000005,15.52258580228623,0.011815002112504235,-0.7825967871419233,-0.2454889636509027,15.955665,-1.3530525,0.47736353,-0.34153607,12.344405,-10.036618,1.9812928,-0.39185154,0.18604808,-0.38965625,-0.8124078,-10.678241,4.45473,-0.66446084,0.011815002,-0.78259677,-0.24548896,0,-0.20056499481201173,-0.11762902577718098,0.39971750259399413,0.4411854871114095,-0.6615511162751431,0.748871377463306,-0.039265513766189725,0.5020666992285192,28.766302899858257,1
0.8000000000000005,15.250201831052088,-0.11718104502175136,-0.5525914198026015,-0.20336130467373933,15.434796,-1.147832,0.8935951,0.039484866,12.237626,-9.9914665,1.9746453,-0.39438117,0.1833227,-0.3879393,-0.81262493,-10.677474,4.575417,-0.6649444,0.011815002,-0.78259677,-0.24548896,0,-0.33007476806640623,-0.12020183563232421,0.3349626159667969,0.4398990821838379,-0.7120530063801919,0.7001831162910499,0.052193100749858556,0.37215247033472076,21.32276588554707,0
0.8100000000000005,15.250201831052088,-0.11718104502175136,-0.5525914198026015,-0.20336130467373933,15.434796,-1.147832,0.8935951,0.039484866,12.130858,-9.945122,1.9679878,-0.39617014,0.18170214,-0.38618538,-0.81295407,-10.676103,4.693437,-0.6664718,-0.11718105,-0.55259144,-0.2033613,0,-0.33007476806640623,-0.12020183563232421,0.3349626159667969,0.4398990821838379,-0.7120530063801919,0.7001831162910499,0.052193100749858556,0.37215247033472076,21.32276588554707,0
0.8200000000000005,15.250201831052088,-0.11718104502175136,-0.5525914198026015,-0.20336130467373933,15.434796,-1.147832,0.8935951,0.039484866,12.024106,-9.8976,1.9613178,-0.39795554,0.18007997,-0.38442796,-0.8132759,-10.67435,4.810963,-0.6674055,-0.11718105,-0.55259144,-0.2033613,0,-0.33007476806640623,-0.12020183563232421,0.3349626159667969,0.4398990821838379,-0.7120530063801919,0.7001831162910499,0.052193100749858556,0.37215247033472076,21.32276588554707,0
0.8300000000000005,15.250201831052088,-0.11718104502175136,-0.5525914198026015,-0.20336130467373933,15.434796,-1.147832,0.8935951,0.039484866,11.917373,-9.848905,1.9546416,-0.39973733,0.17845616,-0.3826671,-0.8135904,-10.672215,4.927992,-0.66774803,-0.11718105,-0.55259144,-0.2033613,0,-0.33007476806640623,-0.12020183563232421,0.3349626159667969,0.4398990821838379,-0.7120530063801919,0.7001831162910499,0.052193100749858556,0.37215247033472076,21.32276588554707,0
0.8400000000000005,15.250201831052088,-0.11718104502175136,-0.5525914198026015,-0.20336130467373933,15.397505,-1.0094501,0.60886806,0.0032037552,11.810662,-9.799042,1.9479648,-0.4015155,0.17683074,-0.38090277,-0.81389755,-10.669702,5.0445194,-0.66750205,-0.11718105,-0.55259144,-0.2033613,0,-0.33007476806640623,-0.12020183563232421,0.3349626159667969,0.4398990821838379,-0.7120530063801919,0.7001831162910499,0.052193100749858556,0.37215247033472076,21.32276588554707,0
0.8500000000000005,15.250201831052088,-0.11718104502175136,-0.5525914198026015,-0.20336130467373933,15.397505,-1.0094501,0.60886806,0.0032037552,11.70398,-9.748016,1.9412935,-0.4032901,0.17520373,-0.379135,-0.81419736,-10.66681,5.16054,-0.6666699,-0.11718105,-0.55259144,-0.2033613,0,-0.33007476806640623,-0.12020183563232421,0.3349626159667969,0.4398990821838379,-0.7120530063801919,0.7001831162910499,0.052193100749858556,0.37215247033472076,21.32276588554707,0
0.8600000000000005,15.250201831052088,-0.11718104502175136,-0.5525914198026015,-0.20336130467373933,15.397505,-1.0094501,0.60886806,0.0032037552,11.597329,-9.695833,1.9346334,-0.40506104,0.17357515,-0.37736386,-0.81448984,-10.663543,5.276051,-0.6652543,-0.11718105,-0.55259144,-0.2033613,0,-0.33007476806640623,-0.12020183563232421,0.3349626159667969,0.4398990821838379,-0.7120530063801919,0.7001831162910499,0.052193100749858556,0.37215247033472076,21.32276588554707,0
0.8700000000000006,15.250201831052088,-0.11718104502175136,-0.5525914198026015,-0.20336130467373933,15.397505,-1.0094501,0.60886806,0.0032037552,11.490711,-9.642497,1.9279903,-0.40682834,0.17194499,-0.37558928,-0.814775,-10.659902,5.391048,-0.6632577,-0.11718105,-0.55259144,-0.2033613,0,-0.33521121978759766,-0.0817279561360677,0.3323943901062012,0.4591360219319661,-0.7130002994137805,0.6995119020996488,0.048100642997689014,0.30762693603269664,17.625725099214467,0
0.8800000000000006,14.83613435816698,-0.15347446186442562,-0.899815702991983,-0.151286136525942,15.322703,-1.0289037,0.2772015,-0.014555091,11.384132,-9.588014,1.9213701,-0.408592,0.17031328,-0.37381133,-0.8150528,-10.655888,5.505526,-0.6606828,-0.11718105,-0.55259144,-0.2033613,0,-0.33521121978759766,-0.0817279561360677,0.3323943901062012,0.4591360219319661,-0.7130002994137805,0.6995119020996488,0.048100642997689014,0.30762693603269664,17.625725099214467,0
0.8900000000000006,14.83613435816698,-0.15347446186442562,-0.899815702991983,-0.151286136525942,15.322703,-1.0289037,0.2772015,-0.014555091,11.277595,-9.532403,1.9147652,-0.41075525,0.16724078,-0.37121478,-0.81578815,-10.65152,5.6162753,-0.66015965,-0.15347447,-0.8998157,-0.15128614,0,-0.33521121978759766,-0.0817279561360677,0.3323943901062012,0.4591360219319661,-0.7130002994137805,0.6995119020996488,0.048100642997689014,0.30762693603269664,17.625725099214467,0
0.9000000000000006,14.83613435816698,-0.15347446186442562,-0.899815702991983,-0.151286136525942,15.322703,-1.0289037,0.2772015,-0.014555091,11.1711035,-9.47569,1.9081699,-0.41290972,0.1641647,-0.3686103,-0.81650597,-10.646523,5.7262087,-0.65875757,-0.15347447,-0.8998157,-0.15128614,0,-0.33521121978759766,-0.0817279561360677,0.3323943901062012,0.4591360219319661,-0.7130002994137805,0.6995119020996488,0.048100642997689014,0.30762693603269664,17.625725099214467,0
0.9100000000000006,14.83613435816698,-0.15347446186442562,-0.899815702991983,-0.151286136525942,15.322703,-1.0289037,0.2772015,-0.014555091,11.064667,-9.417882,1.9015931,-0.41505536,0.16108511,-0.36599788,-0.8172063,-10.640899,5.835316,-0.65648407,-0.15347447,-0.8998157,-0.15128614,0,-0.33521121978759766,-0.0817279561360677,0.3323943901062012,0.4591360219319661,-0.7130002994137805,0.6995119020996488,0.048100642997689014,0.30762693603269664,17.625725099214467,0
0.9200000000000006,14.521780874981957,-0.28768298663014563,-0.7034961289666665,-0.10173249272375687,15.649445,-0.9790325,0.044364356,-0.053208105,10.958288,-9.358986,1.8950433,-0.4171921,0.15800208,-0.36337766,-0.8178892,-10.63465,5.9435887,-0.65334684,-0.15347447,-0.8998157,-0.15128614,0,-0.33521121978759766,-0.0817279561360677,0.3323943901062012,0.4591360219319661,-0.7130002994137805,0.6995119020996488,0.048100642997689014,0.30762693603269664,17.625725099214467,0
0.9300000000000006,14.521780874981957,-0.28768298663014563,-0.7034961289666665,-0.10173249272375687,15.649445,-0.9790325,0.044364356,-0.053208105,10.8519745,-9.299025,1.8885182,-0.41865593,0.15590896,-0.3606507,-0.8187494,-10.628048,6.048773,-0.65154266,-0.28768298,-0.70349616,-0.10173249,0,-0.33521121978759766,-0.0817279561360677,0.3323943901062012,0.4591360219319661,-0.7130002994137805,0.6995119020996488,0.048100642997689014,0.30762693603269664,17.625725099214467,0
0.9400000000000006,14.521780874981957,-0.28768298663014563,-0.7034961289666665,-0.10173249272375687,15.649445,-0.9790325,0.044364356,-0.053208105,10.745728,-9.238014,1.8820151,-0.42011368,0.15381353,-0.35791844,-0.81959766,-10.621164,6.153209,-0.6489763,-0.28768298,-0.70349616,-0.10173249,0,-0.34658504486083985,-0.028972193400065103,0.3267074775695801,0.48551390329996746,-0.7196916030922922,0.6924543465685744,0.05050717133967597,0.24102686799353812,13.80982228528656,0
0.9500000000000006,14.521780874981957,-0.28768298663014563,-0.7034961289666665,-0.10173249272375687,15.649445,-0.9790325,0.044364356,-0.053208105,10.639552,-9.175964,1.8755413,-0.42156523,0.15171584,-0.35518086,-0.8204338,-10.614002,6.2568927,-0.6456534,-0.28768298,-0.70349616,-0.10173249,0,-0.34658504486083985,-0.028972193400065103,0.3267074775695801,0.48551390329996746,-0.7196916030922922,0.6924543465685744,0.05050717133967597,0.24102686799353812,13.80982228528656,0
0.9600000000000006,14.043414645032527,-0.3955636831064007,-0.8319623378243713,-0.028127409001526937,15.796571,-1.0298966,0.2849528,-0.08487975,10.533448,-9.112881,1.8691046,-0.4230106,0.14961593,-0.35243815,-0.8212578,-10.606563,6.3598166,-0.6415795,-0.28768298,-0.70349616,-0.10173249,0,-0.34658504486083985,-0.028972193400065103,0.3267074775695801,0.48551390329996746,-0.7196916030922922,0.6924543465685744,0.05050717133967597,0.24102686799353812,13.80982228528656,0
0.9700000000000006,14.043414645032527,-0.3955636831064007,-0.8319623378243713,-0.028127409001526937,15.796571,-1.0298966,0.2849528,-0.08487975,10.427421,-9.048789,1.8626957,-0.42429176,0.14708427,-0.34902942,-0.82250905,-10.599105,6.4585466,-0.6400884,-0.3955637,-0.83196235,-0.02812741,0,-0.34658504486083985,-0.028972193400065103,0.3267074775695801,0.48551390329996746,-0.7196916030922922,0.6924543465685744,0.05050717133967597,0.24102686799353812,13.80982228528656,0
0.9800000000000006,14.043414645032527,-0.3955636831064007,-0.8319623378243713,-0.028127409001526937,15.796571,-1.0298966,0.2849528,-0.08487975,10.321469,-8.983714,1.856306,-0.4255639,0.14454949,-0.3456133,-0.8237428,-10.591395,6.556362,-0.63771784,-0.3955637,-0.83196235,-0.02812741,0,-0.34658504486083985,-0.028972193400065103,0.3267074775695801,0.48551390329996746,-0.7196916030922922,0.6924543465685744,0.05050717133967597,0.24102686799353812,13.80982228528656,0
0.9900000000000007,14.043414645032527,-0.3955636831064007,-0.8319623378243713,-0.028127409001526937,15.796571,-1.0298966,0.2849528,-0.08487975,10.215595,-8.9176655,1.8499445,-0.42682698,0.14201164,-0.34218985,-0.8249591,-10.583434,6.6532545,-0.63447636,-0.3955637,-0.83196235,-0.02812741,0,-0.34658504486083985,-0.028972193400065103,0.3267074775695801,0.48551390329996746,-0.7196916030922922,0.6924543465685744,0.05050717133967597,0.24102686799353812,13.80982228528656,0
1.0000000000000007,13.769611606719941,-0.5222023489628611,-0.696864834525304,0.023855872955966827,15.806808,-1.0531664,0.19166479,-0.14755857,10.109802,-8.850652,1.8436196,-0.428081,0.13947079,-0.3387591,-0.8261578,-10.575223,6.7492156,-0.63037246,-0.3955637,-0.83196235,-0.02812741,0,-0.31430604934692385,0.023100541432698567,0.3428469753265381,0.5115502707163493,-0.7107527678367943,0.7027464027326604,0.031272934922102466,0.21169157834238606,12.129033997481743,0
1.0100000000000007,13.769611606719941,-0.5222023489628611,-0.696864834525304,0.023855872955966827,15.806808,-1.0531664,0.19166479,-0.14755857,10.004091,-8.782692,1.8373299,-0.42879456,0.13766819,-0.33512384,-0.8275715,-10.56702,6.842401,-0.6274315,-0.5222024,-0.69686484,0.023855872,0,-0.31430604934692385,0.023100541432698567,0.3428469753265381,0.5115502707163493,-0.7107527678367943,0.7027464027326604,0.031272934922102466,0.21169157834238606,12.129033997481743,0
1.0200000000000007,13.769611606719941,-0.5222023489628611,-0.696864834525304,0.023855872955966827,15.806808,-1.0531664,0.19166479,-0.14755857,9.898462,-8.713806,1.8310736,-0.42949998,0.13586298,-0.33148223,-0.8289695,-10.558825,6.9347024,-0.6236812,-0.5222024,-0.69686484,0.023855872,0,-0.31430604934692385,0.023100541432698567,0.3428469753265381,0.5115502707163493,-0.7107527678367943,0.7027464027326604,0.031272934922102466,0.21169157834238606,12.129033997481743,0
1.0300000000000007,13.769611606719941,-0.5222023489628611,-0.696864834525304,0.023855872955966827,15.806808,-1.0531664,0.19166479,-0.14755857,9.792914,-8.644001,1.8248589,-0.4301973,0.13405518,-0.32783437,-0.8303517,-10.550635,7.026112,-0.6191293,-0.5222024,-0.69686484,0.023855872,0,-0.31430604934692385,0.023100541432698567,0.3428469753265381,0.5115502707163493,-0.7107527678367943,0.7027464027326604,0.031272934922102466,0.21169157834238606,12.129033997481743,0
1.0400000000000007,13.769611606719941,-0.5222023489628611,-0.696864834525304,0.023855872955966827,15.397942,-1.1208662,0.27459154,-0.088373534,9.687449,-8.573287,1.8186936,-0.43088642,0.13224486,-0.3241803,-0.8317182,-10.542453,7.116623,-0.61378366,-0.5222024,-0.69686484,0.023855872,0,-0.31430604934692385,0.023100541432698567,0.3428469753265381,0.5115502707163493,-0.7107527678367943,0.7027464027326604,0.031272934922102466,0.21169157834238606,12.129033997481743,0
1.0500000000000007,13.769611606719941,-0.5222023489628611,-0.696864834525304,0.023855872955966827,15.397942,-1.1208662,0.27459154,-0.088373534,9.582066,-8.501673,1.8125858,-0.4315674,0.13043201,-0.32052004,-0.83306897,-10.534278,7.206228,-0.607652,-0.5222024,-0.69686484,0.023855872,0,-0.31430604934692385,0.023100541432698567,0.3428469753265381,0.5115502707163493,-0.7107527678367943,0.7027464027326604,0.031272934922102466,0.21169157834238606,12.129033997481743,0
1.0600000000000007,13.769611606719941,-0.5222023489628611,-0.696864834525304,0.023855872955966827,15.397942,-1.1208662,0.27459154,-0.088373534,9.476764,-8.429167,1.8065432,-0.43224016,0.1286167,-0.3168537,-0.8344039,-10.526111,7.2949204,-0.6007424,-0.5222024,-0.69686484,0.023855872,0,-0.31430604934692385,0.023100541432698567,0.3428469753265381,0.5115502707163493,-0.7107527678367943,0.7027464027326604,0.031272934922102466,0.21169157834238606,12.129033997481743,0
1.0700000000000007,13.769611606719941,-0.5222023489628611,-0.696864834525304,0.023855872955966827,15.397942,-1.1208662,0.27459154,-0.088373534,9.371543,-8.355778,1.8005736,-0.43290472,0.12679894,-0.31318134,-0.835723,-10.517951,7.382694,-0.5930627,-0.5222024,-0.69686484,0.023855872,0,-0.33995758056640624,0.05964211146036784,0.3300212097167969,0.5298210557301839,-0.7351437029027832,0.6759983175392366,0.05089214837777829,0.13150034664507215,7.534414867269949,0
1.0800000000000007,13.352389987415112,-0.6038629141729337,-0.8298870138724804,0.1042413080440727,15.122265,-1.1054038,0.29398367,-0.14704621,9.266404,-8.281515,1.7946845,-0.4335611,0.12497879,-0.30950305,-0.8370262,-10.5098,7.469541,-0.584621,-0.5222024,-0.69686484,0.023855872,0,-0.33995758056640624,0.05964211146036784,0.3300212097167969,0.5298210557301839,-0.7351437029027832,0.6759983175392366,0.05089214837777829,0.13150034664507215,7.534414867269949,0
1.0900000000000007,13.352389987415112,-0.6038629141729337,-0.8298870138724804,0.1042413080440727,15.122265,-1.1054038,0.29398367,-0.14704621,9.1613455,-8.206403,1.7888676,-0.43402597,0.12265169,-0.3052378,-0.8386941,-10.501898,7.5527925,-0.5786283,-0.60386294,-0.82988703,0.10424131,0,-0.33995758056640624,0.05964211146036784,0.3300212097167969,0.5298210557301839,-0.7351437029027832,0.6759983175392366,0.05089214837777829,0.13150034664507215,7.534414867269949,0
1.1000000000000008,13.352389987415112,-0.6038629141729337,-0.8298870138724804,0.1042413080440727,15.122265,-1.1054038,0.29398367,-0.14704621,9.056366,-8.130464,1.7831148,-0.4344793,0.12032133,-0.30096444,-0.84033966,-10.493986,7.6349688,-0.57178557,-0.60386294,-0.82988703,0.10424131,0,-0.33995758056640624,0.05964211146036784,0.3300212097167969,0.5298210557301839,-0.7351437029027832,0.6759983175392366,0.05089214837777829,0.13150034664507215,7.534414867269949,0
1.1100000000000008,13.352389987415112,-0.6038629141729337,-0.8298870138724804,0.1042413080440727,15.122265,-1.1054038,0.29398367,-0.14704621,8.951466,-8.053707,1.7774347,-0.43492106,0.117987774,-0.29668307,-0.84196293,-10.486064,7.7160616,-0.564104,-0.60386294,-0.82988703,0.10424131,0,-0.33995758056640624,0.05964211146036784,0.3300212097167969,0.5298210557301839,-0.7351437029027832,0.6759983175392366,0.05089214837777829,0.13150034664507215,7.534414867269949,0
1.1200000000000008,12.985143401465647,-0.7977308842765308,-0.8546096414444518,0.16429697227149256,14.727362,-1.1478025,0.27996632,-0.16437781,8.846644,-7.9761453,1.7718356,-0.43535125,0.11565107,-0.2923938,-0.8435638,-10.47813,7.7960615,-0.555595,-0.60386294,-0.82988703,0.10424131,0,-0.33995758056640624,0.05964211146036784,0.3300212097167969,0.5298210557301839,-0.7351437029027832,0.6759983175392366,0.05089214837777829,0.13150034664507215,7.534414867269949,0
1.1300000000000008,12.985143401465647,-0.7977308842765308,-0.8546096414444518,0.16429697227149256,14.727362,-1.1478025,0.27996632,-0.16437781,8.741902,-7.8978004,1.7663109,-0.4354388,0.113540746,-0.2872588,-0.8455671,-10.470472,7.8727403,-0.54918206,-0.79773086,-0.85460967,0.16429697,0,-0.33995758056640624,0.05964211146036784,0.3300212097167969,0.5298210557301839,-0.7351437029027832,0.6759983175392366,0.05089214837777829,0.13150034664507215,7.534414867269949,0
1.1400000000000008,12.985143401465647,-0.7977308842765308,-0.8546096414444518,0.16429697227149256,14.727362,-1.1478025,0.27996632,-0.16437781,8.637236,-7.8186946,1.760855,-0.4355112,0.111426465,-0.2821138,-0.8475411,-10.462985,7.9482036,-0.54187584,-0.79773086,-0.85460967,0.16429697,0,-0.27758737564086916,0.24229042053222657,0.36120631217956545,0.6211452102661132,-0.7450945942464957,0.6620074566103342,-0.0811182656185815,0.07676989879324791,4.398591194499577,0
1.1500000000000008,12.985143401465647,-0.7977308842765308,-0.8546096414444518,0.16429697227149256,14.727362,-1.1478025,0.27996632,-0.16437781,8.532642,-7.738841,1.7554764,-0.43556842,0.1093083,-0.27695894,-0.8494855,-10.455667,8.022441,-0.5336908,-0.79773086,-0.85460967,0.16429697,0,-0.27758737564086916,0.24229042053222657,0.36120631217956545,0.6211452102661132,-0.7450945942464957,0.6620074566103342,-0.0811182656185815,0.07676989879324791,4.398591194499577,0
1.1600000000000008,12.553998029900278,-0.9237597592622828,-1.0552589571104858,0.26221845328631277,14.312823,-1.194542,0.22603521,-0.12819207,8.428122,-7.6582503,1.750184,-0.43561047,0.10718633,-0.27179444,-0.8514004,-10.448516,8.095441,-0.52464134,-0.79773086,-0.85460967,0.16429697,0,-0.27758737564086916,0.24229042053222657,0.36120631217956545,0.6211452102661132,-0.7450945942464957,0.6620074566103342,-0.0811182656185815,0.07676989879324791,4.398591194499577,0
1.1700000000000008,12.553998029900278,-0.9237597592622828,-1.0552589571104858,0.26221845328631277,14.312823,-1.194542,0.22603521,-0.12819207,8.32367,-7.5769486,1.7449687,-0.43542212,0.10434704,-0.26569724,-0.85377073,-10.441753,8.164719,-0.51826715,-0.92375976,-1.055259,0.26221845,0,-0.27758737564086916,0.24229042053222657,0.36120631217956545,0.6211452102661132,-0.7450945942464957,0.6620074566103342,-0.0811182656185815,0.07676989879324791,4.398591194499577,0
1.1800000000000008,12.553998029900278,-0.9237597592622828,-1.0552589571104858,0.26221845328631277,14.312823,-1.194542,0.22603521,-0.12819207,8.219286,-7.4949613,1.7398219,-0.4352116,0.10150244,-0.25958657,-0.85609764,-10.435123,8.232531,-0.5109271,-0.92375976,-1.055259,0.26221845,0,-0.27758737564086916,0.24229042053222657,0.36120631217956545,0.6211452102661132,-0.7450945942464957,0.6620074566103342,-0.0811182656185815,0.07676989879324791,4.398591194499577,0
1.1900000000000008,12.553998029900278,-0.9237597592622828,-1.0552589571104858,0.26221845328631277,14.312823,-1.194542,0.22603521,-0.12819207,8.114967,-7.4123034,1.7347534,-0.43497896,0.098652676,-0.25346264,-0.858381,-10.428623,8.298862,-0.5026418,-0.92375976,-1.055259,0.26221845,0,-0.27758737564086916,0.24229042053222657,0.36120631217956545,0.6211452102661132,-0.7450945942464957,0.6620074566103342,-0.0811182656185815,0.07676989879324791,4.398591194499577,0
1.2000000000000008,12.290000267196259,-1.1200451775694038,-0.7167189234132146,0.30643603613542575,13.97985,-1.2177624,0.15742585,-0.14340675,8.010713,-7.3289895,1.7297722,-0.43472415,0.09579789,-0.24732582,-0.8606207,-10.42225,8.363702,-0.49343237,-0.92375976,-1.055259,0.26221845,0,-0.3167732238769531,0.21567972819010417,0.3416133880615234,0.6078398640950521,-0.7696519145605739,0.6384241028164866,0.007113041276925039,0.016215625731373695,0.9290869165714515,0
1.2100000000000009,12.290000267196259,-1.1200451775694038,-0.7167189234132146,0.30643603613542575,13.97985,-1.2177624,0.15742585,-0.14340675,7.90652,-7.245041,1.7248763,-0.43374524,0.09476716,-0.24108934,-0.8629951,-10.416297,8.425767,-0.48562345,-1.1200452,-0.7167189,0.30643603,0,-0.3167732238769531,0.21567972819010417,0.3416133880615234,0.6078398640950521,-0.7696519145605739,0.6384241028164866,0.007113041276925039,0.016215625731373695,0.9290869165714515,0
1.2200000000000009,12.290000267196259,-1.1200451775694038,-0.7167189234132146,0.30643603613542575,13.97985,-1.2177624,0.15742585,-0.14340675,7.8023844,-7.160479,1.7200626,-0.4327461,0.09373202,-0.23484164,-0.8653293,-10.410905,8.486516,-0.47702435,-1.1200452,-0.7167189,0.30643603,0,-0.3167732238769531,0.21567972819010417,0.3416133880615234,0.6078398640950521,-0.7696519145605739,0.6384241028164866,0.007113041276925039,0.016215625731373695,0.9290869165714515,0
1.2300000000000009,12.290000267196259,-1.1200451775694038,-0.7167189234132146,0.30643603613542575,13.97985,-1.2177624,0.15742585,-0.14340675,7.6983,-7.075316,1.7153386,-0.43172687,0.09269252,-0.22858302,-0.86762327,-10.40607,8.545937,-0.46765327,-1.1200452,-0.7167189,0.30643603,0,-0.3167732238769531,0.21567972819010417,0.3416133880615234,0.6078398640950521,-0.7696519145605739,0.6384241028164866,0.007113041276925039,0.016215625731373695,0.9290869165714515,0
1.2400000000000009,12.290000267196259,-1.1200451775694038,-0.7167189234132146,0.30643603613542575,13.7246,-1.2667271,0.013611518,-0.12865996,7.594261,-6.9895654,1.7107122,-0.4306875,0.09164869,-0.22231375,-0.8698768,-10.401786,8.604016,-0.4575285,-1.1200452,-0.7167189,0.30643603,0,-0.3167732238769531,0.21567972819010417,0.3416133880615234,0.6078398640950521,-0.7696519145605739,0.6384241028164866,0.007113041276925039,0.016215625731373695,0.9290869165714515,0
1.2500000000000009,12.290000267196259,-1.1200451775694038,-0.7167189234132146,0.30643603613542575,13.7246,-1.2667271,0.013611518,-0.12865996,7.490262,-6.903241,1.7061907,-0.42962807,0.0906006,-0.21603413,-0.87208986,-10.398051,8.660743,-0.4466686,-1.1200452,-0.7167189,0.30643603,0,-0.3167732238769531,0.21567972819010417,0.3416133880615234,0.6078398640950521,-0.7696519145605739,0.6384241028164866,0.007113041276925039,0.016215625731373695,0.9290869165714515,0
1.260000000000001,12.290000267196259,-1.1200451775694038,-0.7167189234132146,0.30643603613542575,13.7246,-1.2667271,0.013611518,-0.12865996,7.3862977,-6.8163557,1.7017813,-0.42854866,0.0895483,-0.20974445,-0.87426233,-10.394862,8.716105,-0.43509212,-1.1200452,-0.7167189,0.30643603,0,-0.3167732238769531,0.21567972819010417,0.3416133880615234,0.6078398640950521,-0.7696519145605739,0.6384241028164866,0.007113041276925039,0.016215625731373695,0.9290869165714515,0
1.270000000000001,12.290000267196259,-1.1200451775694038,-0.7167189234132146,0.30643603613542575,13.7246,-1.2667271,0.013611518,-0.12865996,7.2823625,-6.728924,1.6974912,-0.42744932,0.08849182,-0.20344503,-0.8763941,-10.392214,8.770093,-0.42281783,-1.1200452,-0.7167189,0.30643603,0,-0.21493778228759766,0.10198334376017253,0.3925311088562012,0.5509916718800862,-0.7088006424973886,0.6940125536310155,0.12628628032310468,0.0739089035559708,4.234668242196569,0
