time-since-start [s],throttle_mpc,roll_mpc,pitch_mpc,yaw_mpc,throttle_nw,roll_nw,pitch_nw,yaw_nw,position_x [m],position_y [m],position_z [m],rotation_w [quaternion],rotation_x [quaternion],rotation_y [quaternion],rotation_z [quaternion],velocity_x [m/s],velocity_y [m/s],velocity_z [m/s],omega_x [rad/s],omega_y [rad/s],omega_z [rad/s],network_used
0.0,9.056360699912668,5.999999669998201,-5.999999917673724,-4.4770157639795585,10.70667,0.15105566,-3.885772,-0.87896377,18.534008,-9.471707,2.1169748,0.02284832,0.38699266,-0.2633276,-0.8833873,-10.956827,-4.328376,0.55791456,1.4621272,-0.13551906,-0.22049215,0
0.01,9.056360699912668,5.999999669998201,-5.999999917673724,-4.4770157639795585,14.442592,0.88979304,-5.1881323,0.18785314,18.423876,-9.5146265,2.1225185,0.018476753,0.38655558,-0.26914677,-0.881926,-11.069297,-4.255103,0.5504596,1.425974,-0.3064289,-0.36285618,0
0.02,9.056360699912668,5.999999669998201,-5.999999917673724,-4.4770157639795585,14.442592,0.88979304,-5.1881323,0.18785314,18.312632,-9.556807,2.1279767,0.013297529,0.38553283,-0.27460572,-0.8807834,-11.1793785,-4.1808577,0.54084647,1.4205424,-0.47579792,-0.5004788,0
0.03,9.056360699912668,5.999999669998201,-5.999999917673724,-4.4770157639795585,14.442592,0.88979304,-5.1881323,0.18785314,18.2003,-9.59824,2.1333287,0.0072739897,0.3839284,-0.2798331,-0.87990886,-11.286853,-4.105685,0.52925384,1.4414314,-0.6442616,-0.63362753,0
0.04,9.056360699912668,5.999999669998201,-5.999999917673724,-4.4770157639795585,9.030491,0.71588457,-4.794226,-1.5558281,18.086906,-9.638916,2.1385555,0.00037597725,0.3817404,-0.28493738,-0.8792525,-11.391509,-4.0295987,0.5158376,1.4848367,-0.8122646,-0.76254857,0
0.05,9.056360699912668,5.999999669998201,-5.999999917673724,-4.4770157639795585,9.030491,0.71588457,-4.794226,-1.5558281,17.97248,-9.678827,2.1436396,-0.0074207583,0.37896198,-0.29000917,-0.87876475,-11.493138,-3.9525895,0.50073403,1.5474653,-0.98010015,-0.88746893,0
0.060000000000000005,9.056360699912668,5.999999669998201,-5.999999917673724,-4.4770157639795585,9.030491,0.71588457,-4.794226,-1.5558281,17.857056,-9.717964,2.1485646,-0.01613505,0.37558237,-0.29512355,-0.8783961,-11.591536,-3.8746347,0.484062,1.626465,-1.1479414,-1.008598,0
0.07,9.056360699912668,5.999999669998201,-5.999999917673724,-4.4770157639795585,9.030491,0.71588457,-4.794226,-1.5558281,17.740664,-9.756316,2.1533158,-0.025780732,0.37158754,-0.3003417,-0.8780962,-11.6865,-3.7957044,0.46592543,1.7193621,-1.3158675,-1.1261287,0
0.08,10.924097415457794,5.999999807447206,-5.999999947428934,-4.386911859796392,13.877215,1.8769426,-5.5701647,-0.63249654,17.623339,-9.793875,2.1578784,-0.036366962,0.36696082,-0.3057125,-0.8778138,-11.777827,-3.7157676,0.44641516,1.8240107,-1.4838862,-1.2402395,0
0.09,10.924097415457794,5.999999807447206,-5.999999947428934,-4.386911859796392,13.877215,1.8769426,-5.5701647,-0.63249654,17.505081,-9.830592,2.162274,-0.04800824,0.36153713,-0.31140566,-0.87750363,-11.873088,-3.6275861,0.4324863,2.0015116,-1.7150295,-1.3523029,0
0.09999999999999999,10.924097415457794,5.999999807447206,-5.999999947428934,-4.386911859796392,13.877215,1.8769426,-5.5701647,-0.63249654,17.385893,-9.866423,2.1665227,-0.06080457,0.35516003,-0.3175619,-0.87710804,-11.963714,-3.538331,0.41709682,2.1824048,-1.9412509,-1.4616477,0
0.10999999999999999,10.924097415457794,5.999999807447206,-5.999999947428934,-4.386911859796392,13.877215,1.8769426,-5.5701647,-0.63249654,17.265823,-9.901355,2.1706107,-0.07473722,0.34782228,-0.32417232,-0.87655365,-12.049417,-3.4479172,0.40033603,2.3657255,-2.1628795,-1.5683681,0
0.11999999999999998,10.924097415457794,5.999999807447206,-5.999999947428934,-4.386911859796392,13.877215,1.8769426,-5.5701647,-0.63249654,17.144922,-9.935378,2.1745248,-0.08978397,0.33951402,-0.33122113,-0.8757635,-12.129916,-3.3562977,0.3822771,2.5506496,-2.3801825,-1.6725527,0
0.12999999999999998,14.038969358689377,5.999999896006177,-5.999999970613872,-4.1010859733526575,14.640385,1.2930048,-5.9001417,-0.54683906,17.023243,-9.968478,2.178252,-0.105918854,0.33022338,-0.33868632,-0.8746572,-12.204936,-3.263466,0.3629779,2.736474,-2.5933785,-1.7742856,0
0.13999999999999999,14.038969358689377,5.999999896006177,-5.999999970613872,-4.1010859733526575,14.640385,1.2930048,-5.9001417,-0.54683906,16.900793,-10.000579,2.1818337,-0.12331449,0.31962284,-0.3467798,-0.8731429,-12.283696,-3.156529,0.3531428,3.0464783,-2.926816,-1.8706985,0
0.15,14.038969358689377,5.999999896006177,-5.999999970613872,-4.1010859733526575,14.640385,1.2930048,-5.9001417,-0.54683906,16.777592,-10.031605,2.1853094,-0.1421144,0.3074056,-0.3556639,-0.87109613,-12.355191,-3.048558,0.34172702,3.3459458,-3.2461064,-1.9657627,0
0.16,17.690786123325825,5.999999933835105,-5.999999981292327,-3.3852799959596416,14.535581,2.291021,-6.93985,0.20314614,16.653713,-10.061546,2.188663,-0.1622424,0.29358864,-0.36523518,-0.8683815,-12.418979,-2.9395785,0.32878405,3.6354012,-3.5523322,-2.0594444,0
0.17,17.690786123325825,5.999999933835105,-5.999999981292327,-3.3852799959596416,14.535581,2.291021,-6.93985,0.20314614,16.529188,-10.090293,2.1919568,-0.18371654,0.27791065,-0.37557316,-0.8648461,-12.485072,-2.8090305,0.33007398,4.003481,-3.9347072,-2.1245036,0
0.18000000000000002,17.690786123325825,5.999999933835105,-5.999999981292327,-3.3852799959596416,14.535581,2.291021,-6.93985,0.20314614,16.404045,-10.117715,2.1952658,-0.20643033,0.26027113,-0.38662708,-0.8603285,-12.542159,-2.6746266,0.33179793,4.3142204,-4.2573915,-2.1863704,0
0.19000000000000003,17.690786123325825,5.999999933835105,-5.999999981292327,-3.3852799959596416,14.535581,2.291021,-6.93985,0.20314614,16.27838,-10.143774,2.1985939,-0.23013502,0.24090768,-0.39812574,-0.85469145,-12.589256,-2.5366488,0.33385235,4.576556,-4.529699,-2.2452013,0
0.20000000000000004,20.99999210289123,5.999999947486805,-5.999999984039839,-2.858717666975579,15.182668,1.3207366,-6.957887,-0.119584754,16.152298,-10.168437,2.2019434,-0.25460657,0.22003166,-0.40983668,-0.8478182,-12.625491,-2.3955572,0.33608204,4.7980328,-4.75949,-2.3011453,0
0.21000000000000005,20.99999210289123,5.999999947486805,-5.999999984039839,-2.858717666975579,15.182668,1.3207366,-6.957887,-0.119584754,16.025887,-10.191542,2.2054095,-0.27958733,0.19780622,-0.42157543,-0.8396297,-12.654719,-2.22511,0.35705033,4.9851003,-4.953316,-2.3285055,0
0.22000000000000006,20.99999210289123,5.999999947486805,-5.999999984039839,-2.858717666975579,15.182668,1.3207366,-6.957887,-0.119584754,15.899255,-10.212932,2.2090838,-0.30484313,0.17437802,-0.43318447,-0.83006895,-12.66942,-2.0525901,0.37770775,5.1430387,-5.116873,-2.3545232,0
0.23000000000000007,20.99999210289123,5.999999947486805,-5.999999984039839,-2.858717666975579,15.182668,1.3207366,-6.957887,-0.119584754,15.772551,-10.23259,2.2129617,-0.33021352,0.14990625,-0.4445161,-0.81908053,-12.6690035,-1.8790182,0.3977349,5.2763853,-5.2548857,-2.379264,0
0.24000000000000007,20.99999210289123,5.999999947486805,-5.999999984039839,-2.858717666975579,14.919383,1.8606111,-6.2807045,-0.48097628,15.645928,-10.250512,2.2170353,-0.35555246,0.124537386,-0.45544422,-0.8066249,-12.653041,-1.7055193,0.4167835,5.38897,-5.371343,-2.402791,0
0.25000000000000006,20.99999210289123,5.999999947486805,-5.999999984039839,-2.858717666975579,14.919383,1.8606111,-6.2807045,-0.48097628,15.519545,-10.266705,2.2212927,-0.38072672,0.09840704,-0.46586132,-0.792677,-12.621261,-1.5332992,0.43448496,5.4840264,-5.4696107,-2.4251635,0
0.26000000000000006,20.99999210289123,5.999999947486805,-5.999999984039839,-2.858717666975579,14.919383,1.8606111,-6.2807045,-0.48097628,15.3935585,-10.281187,2.225719,-0.40561426,0.07164127,-0.4756758,-0.7772242,-12.573555,-1.3636215,0.45045805,5.564285,-5.552529,-2.4464383,0
0.2700000000000001,20.99999210289123,5.999999947486805,-5.999999984039839,-2.858717666975579,14.919383,1.8606111,-6.2807045,-0.48097628,15.268128,-10.293991,2.230295,-0.43010324,0.04435774,-0.4848098,-0.76026535,-12.509976,-1.1977859,0.46431676,5.632049,-5.6224937,-2.4666688,0
0.2800000000000001,20.99999951094492,4.483398254931241,-5.999997918794846,-1.126721362896138,13.979119,1.3455838,-5.685514,-0.5135092,15.143413,-10.305161,2.2349968,-0.45409092,0.016666682,-0.49319732,-0.7418089,-12.4307375,-1.0371073,0.47567677,5.689265,-5.6815286,-2.4859068,0
0.2900000000000001,20.99999951094492,4.483398254931241,-5.999997918794846,-1.126721362896138,13.979119,1.3455838,-5.685514,-0.5135092,15.019566,-10.314755,2.2397983,-0.477326,-0.011153333,-0.50034577,-0.7222811,-12.336243,-0.8829013,0.48420307,5.5013804,-5.7306504,-2.4192114,0
0.3000000000000001,20.99999951094492,4.483398254931241,-5.999997918794846,-1.126721362896138,13.979119,1.3455838,-5.685514,-0.5135092,14.896737,-10.322845,2.2446706,-0.49962527,-0.03886854,-0.50589556,-0.70209247,-12.227257,-0.7364587,0.4898093,5.342799,-5.7721844,-2.3557885,0
0.3100000000000001,20.99999951094492,4.483398254931241,-5.999997918794846,-1.126721362896138,13.979119,1.3455838,-5.685514,-0.5135092,14.775068,-10.329515,2.2495844,-0.5209897,-0.0664452,-0.5099729,-0.68123615,-12.104692,-0.5989717,0.49247754,5.20895,-5.807301,-2.2954779,0
0.3200000000000001,20.7008493529684,2.531702599596753,-3.99933495188895,-0.43890287453478843,13.365768,-0.15895054,-3.9842057,0.44881397,14.654688,-10.33486,2.25451,-0.5414153,-0.09385195,-0.5126837,-0.65970975,-11.969517,-0.47152108,0.49216884,5.095974,-5.8369923,-2.2381268,0
0.3300000000000001,20.7008493529684,2.531702599596753,-3.99933495188895,-0.43890287453478843,13.365768,-0.15895054,-3.9842057,0.44881397,14.535708,-10.338992,2.2594106,-0.5605234,-0.12015519,-0.51405436,-0.63806313,-11.824905,-0.35666883,0.48750293,4.6968155,-5.5495567,-2.1498382,0
0.34000000000000014,20.7008493529684,2.531702599596753,-3.99933495188895,-0.43890287453478843,13.365768,-0.15895054,-3.9842057,0.44881397,14.418224,-10.342032,2.26425,-0.5780899,-0.14463522,-0.51420045,-0.61683947,-11.670396,-0.25295356,0.47998673,4.3597975,-5.307089,-2.0658822,0
0.35000000000000014,20.7008493529684,2.531702599596753,-3.99933495188895,-0.43890287453478843,13.365768,-0.15895054,-3.9842057,0.44881397,14.30233,-10.34409,2.269001,-0.59430903,-0.16755618,-0.5133115,-0.5960145,-11.507428,-0.16047527,0.46978593,4.075248,-5.1025496,-1.986046,0
0.36000000000000015,17.966824236727398,0.46203172661017317,-1.6452743736662485,0.4321671627632528,12.542102,-1.8561306,-1.4860198,0.8579039,14.188101,-10.345281,2.273637,-0.60933864,-0.18914354,-0.5115361,-0.5755539,-11.337267,-0.07926275,0.4570579,3.835,-4.9300027,-1.9101272,0
0.37000000000000016,17.966824236727398,0.46203172661017317,-1.6452743736662485,0.4321671627632528,12.542102,-1.8561306,-1.4860198,0.8579039,14.075489,-10.345761,2.2780788,-0.6229417,-0.20860438,-0.5090915,-0.55610627,-11.184355,-0.018451013,0.4310107,3.3099587,-4.416847,-1.7951902,0
0.38000000000000017,17.966824236727398,0.46203172661017317,-1.6452743736662485,0.4321671627632528,12.542102,-1.8561306,-1.4860198,0.8579039,13.964428,-10.34568,2.2822511,-0.6350063,-0.22535715,-0.5062229,-0.53825635,-11.027343,0.033320107,0.40320036,2.8666174,-3.9838974,-1.6858932,0
0.3900000000000002,17.966824236727398,0.46203172661017317,-1.6452743736662485,0.4321671627632528,12.542102,-1.8561306,-1.4860198,0.8579039,13.854953,-10.345123,2.2861378,-0.6458048,-0.23986045,-0.5030562,-0.52186006,-10.867204,0.076823644,0.3739353,2.492271,-3.618609,-1.5819592,0
0.4000000000000002,15.987360847401009,-1.143280497074143,0.4471942979897512,0.9725458096020395,13.156094,-1.8411282,0.07358599,0.19058637,13.747091,-10.34417,2.289726,-0.65555215,-0.25249845,-0.49967706,-0.50677323,-10.704701,0.11276284,0.3434934,2.176188,-3.3104014,-1.4831254,0
0.4100000000000002,15.987360847401009,-1.143280497074143,0.4471942979897512,0.9725458096020395,13.156094,-1.8411282,0.07358599,0.19058637,13.640774,-10.342907,2.2929678,-0.6641404,-0.26278558,-0.4963619,-0.49344343,-10.558551,0.13864253,0.3047833,1.6593014,-2.7237742,-1.3626249,0
0.4200000000000002,15.987360847401009,-1.143280497074143,0.4471942979897512,0.9725458096020395,13.156094,-1.8411282,0.07358599,0.19058637,13.535924,-10.341413,2.2958198,-0.67152077,-0.2703733,-0.4933575,-0.48224148,-10.41137,0.1593933,0.26554856,1.2228479,-2.2287827,-1.2480375,0
0.4300000000000002,15.987360847401009,-1.143280497074143,0.4471942979897512,0.9725458096020395,13.156094,-1.8411282,0.07358599,0.19058637,13.4325485,-10.339733,2.2982779,-0.67791384,-0.27573526,-0.4906608,-0.472922,-10.263566,0.17600077,0.2260698,0.85432094,-1.8111038,-1.1390729,0
0.4400000000000002,15.987360847401009,-1.143280497074143,0.4471942979897512,0.9725458096020395,14.497754,-2.5560308,1.5949857,0.22577576,13.330652,-10.337905,2.3003411,-0.6834886,-0.27926272,-0.48825097,-0.4652601,-10.115425,0.18931346,0.18658718,0.5431571,-1.4586546,-1.0354553,0
0.45000000000000023,15.987360847401009,-1.143280497074143,0.4471942979897512,0.9725458096020395,14.497754,-2.5560308,1.5949857,0.22577576,13.23024,-10.335957,2.3020105,-0.6883755,-0.28127936,-0.48609793,-0.45905358,-9.967154,0.20005801,0.14730333,0.28043413,-1.1612425,-0.93692213,0
0.46000000000000024,15.987360847401009,-1.143280497074143,0.4471942979897512,0.9725458096020395,14.497754,-2.5560308,1.5949857,0.22577576,13.1313095,-10.33391,2.3032885,-0.6926762,-0.28205302,-0.48416758,-0.45412305,-9.8189,0.20885457,0.10838738,0.05861603,-0.91026795,-0.843224,0
0.47000000000000025,15.987360847401009,-1.143280497074143,0.4471942979897512,0.9725458096020395,14.497754,-2.5560308,1.5949857,0.22577576,13.033861,-10.331783,2.30418,-0.696471,-0.28180572,-0.48242518,-0.4503108,-9.670773,0.21623111,0.069979206,-0.12866166,-0.69847643,-0.75412357,0
0.48000000000000026,16.46125869797747,-4.170678564474899,3.34385626375073,2.86435558375963,16.42339,-3.1415486,2.745679,0.9678826,12.937893,-10.329588,2.3046901,-0.6998238,-0.2807216,-0.48083746,-0.447479,-9.522852,0.22263637,0.032193594,-0.28677395,-0.5197475,-0.6693954,0
0.49000000000000027,16.46125869797747,-4.170678564474899,3.34385626375073,2.86435558375963,16.42339,-3.1415486,2.745679,0.9678826,12.843471,-10.32733,2.304854,-0.7024707,-0.2776889,-0.4795906,-0.446561,-9.362403,0.22907828,0.00045876484,-0.8902557,0.0849036,-0.50449,0
0.5000000000000002,16.46125869797747,-4.170678564474899,3.34385626375073,2.86435558375963,16.42339,-3.1415486,2.745679,0.9678826,12.75063,-10.325005,2.3046975,-0.7041675,-0.27184752,-0.4788214,-0.44830492,-9.206423,0.23598243,-0.03179971,-1.3983928,0.59649277,-0.34366876,0
0.5100000000000002,16.46125869797747,-4.170678564474899,3.34385626375073,2.86435558375963,16.42339,-3.1415486,2.745679,0.9678826,12.659327,-10.322604,2.3042173,-0.7049731,-0.2636687,-0.47841543,-0.45233902,-9.054763,0.24450013,-0.064174086,-1.8282973,1.0272926,-0.18707538,0
0.5200000000000002,18.63472494937014,-5.999997786119337,5.76977720023213,3.5219525220320733,17.708847,-4.29989,4.32856,1.5690255,12.56953,-10.3201065,2.3034186,-0.70493305,-0.25353497,-0.4782464,-0.45833388,-8.904836,0.25571588,-0.09525014,-2.19368,1.3883917,-0.03734078,0
0.5300000000000002,18.63472494937014,-5.999997786119337,5.76977720023213,3.5219525220320733,17.708847,-4.29989,4.32856,1.5690255,12.481333,-10.317468,2.3023677,-0.7037833,-0.24082017,-0.4784749,-0.46664402,-8.735049,0.27266943,-0.1147383,-2.803083,2.0557702,0.13589972,0
0.5400000000000003,18.63472494937014,-5.999997786119337,5.76977720023213,3.5219525220320733,17.708847,-4.29989,4.32856,1.5690255,12.394816,-10.314634,2.3011296,-0.70119447,-0.22504584,-0.47926486,-0.47747883,-8.568399,0.29502472,-0.13251519,-3.3020384,2.6345034,0.3020482,0
0.5500000000000003,18.63472494937014,-5.999997786119337,5.76977720023213,3.5219525220320733,17.708847,-4.29989,4.32856,1.5690255,12.309957,-10.311543,2.2997258,-0.6971456,-0.2066796,-0.48042887,-0.490367,-8.404065,0.32427627,-0.14780004,-3.7231987,3.122984,0.46004987,0
0.5600000000000003,18.61107330428684,-5.999999570084491,5.999998909120763,3.7759773830681045,18.196758,-4.494102,5.74408,1.0683856,12.226727,-10.308122,2.298182,-0.691626,-0.18610924,-0.48176458,-0.5048959,-8.242682,0.3615302,-0.160542,-4.0787315,3.535246,0.61029834,0
0.5700000000000003,18.61107330428684,-5.999999570084491,5.999998909120763,3.7759773830681045,18.196758,-4.494102,5.74408,1.0683856,12.14509,-10.304283,2.2965229,-0.6845576,-0.16363524,-0.48315248,-0.5207383,-8.085182,0.40760255,-0.17089306,-4.3788996,3.9190621,0.76563907,0
0.5800000000000003,18.61107330428684,-5.999999570084491,5.999998909120763,3.7759773830681045,18.196758,-4.494102,5.74408,1.0683856,12.065007,-10.299936,2.2947721,-0.6758684,-0.13952035,-0.48448282,-0.5375989,-7.9321704,0.46323088,-0.1788816,-4.632278,4.243012,0.91335726,0
0.5900000000000003,18.61107330428684,-5.999999570084491,5.999998909120763,3.7759773830681045,18.196758,-4.494102,5.74408,1.0683856,11.986428,-10.294983,2.2929528,-0.66555375,-0.11402631,-0.48560634,-0.5551783,-7.784522,0.52890414,-0.1847147,-4.846148,4.5164433,1.0538268,0
0.6000000000000003,20.220895198582234,-5.999999350227144,5.999975259867961,3.8227718191363946,17.84904,-4.5318403,6.197573,0.48805338,11.909294,-10.289322,2.2910845,-0.6536133,-0.087384716,-0.48639756,-0.5732112,-7.643165,0.6049071,-0.18865259,-5.026661,4.7472425,1.1874034,0
0.6100000000000003,20.220895198582234,-5.999999350227144,5.999975259867961,3.8227718191363946,17.84904,-4.5318403,6.197573,0.48805338,11.833598,-10.282812,2.2892265,-0.64005005,-0.059804954,-0.48675206,-0.5914659,-7.4974527,0.69880825,-0.18271744,-5.179019,4.9420524,1.3167217,0
0.6200000000000003,20.220895198582234,-5.999999350227144,5.999975259867961,3.8227718191363946,17.84904,-4.5318403,6.197573,0.48805338,11.7593155,-10.275307,2.2874348,-0.6248734,-0.031475168,-0.48658422,-0.60973644,-7.3606615,0.8039379,-0.17542416,-5.3076,5.106499,1.4396943,0
0.6300000000000003,20.220895198582234,-5.999999350227144,5.999975259867961,3.8227718191363946,17.84904,-4.5318403,6.197573,0.48805338,11.686351,-10.266696,2.2857213,-0.6081034,-0.0025627036,-0.48582542,-0.62783563,-7.233831,0.9200166,-0.16717316,-5.416109,5.245322,1.5566326,0
0.6400000000000003,20.220895198582234,-5.999999350227144,5.999975259867961,3.8227718191363946,18.454544,-4.6119313,6.3899417,0.9520505,11.6146,-10.256871,2.2840931,-0.5897666,0.026780427,-0.48442116,-0.64559615,-7.1179705,1.0465932,-0.15838702,-5.5076737,5.362519,1.6678327,0
0.6500000000000004,20.220895198582234,-5.999999350227144,5.999975259867961,3.8227718191363946,18.454544,-4.6119313,6.3899417,0.9520505,11.54395,-10.245731,2.282554,-0.56989634,0.056415472,-0.48232895,-0.66286826,-7.0140424,1.1830581,-0.14950277,-5.5849357,5.461461,1.7735763,0
0.6600000000000004,20.220895198582234,-5.999999350227144,5.999975259867961,3.8227718191363946,18.454544,-4.6119313,6.3899417,0.9520505,11.474276,-10.23318,2.2811022,-0.54853165,0.08621521,-0.47951666,-0.6795173,-6.9229465,1.3286561,-0.14096482,-5.6501245,5.5449963,1.8741308,0
0.6700000000000004,20.220895198582234,-5.999999350227144,5.999975259867961,3.8227718191363946,18.454544,-4.6119313,6.3899417,0.9520505,11.405444,-10.2191305,2.279732,-0.525717,0.11606254,-0.47596094,-0.6954224,-6.845507,1.4825,-0.13321833,-5.705124,5.6155276,1.9697512,0
0.6800000000000004,19.32906907254782,-5.911632241246234,3.7015939535507285,1.5594319645749606,18.147861,-4.5000043,4.5348516,1.0880098,11.337315,-10.2035055,2.2784333,-0.501502,0.14584921,-0.4716459,-0.7104745,-6.782457,1.6435843,-0.1267031,-5.751522,5.6750817,2.0606794,0
0.6900000000000004,19.32906907254782,-5.911632241246234,3.7015939535507285,1.5594319645749606,18.147861,-4.5000043,4.5348516,1.0880098,11.2697315,-10.1862755,2.2771697,-0.4765882,0.17493407,-0.46610135,-0.7245767,-6.736507,1.8033822,-0.1263357,-5.7759924,5.3673773,2.036083,0
0.7000000000000004,19.32906907254782,-5.911632241246234,3.7015939535507285,1.5594319645749606,18.147861,-4.5000043,4.5348516,1.0880098,11.202535,-10.167423,2.2759013,-0.45161033,0.202814,-0.45900545,-0.7377186,-6.7050977,1.9676012,-0.12753901,-5.796723,5.1076603,2.0126936,0
0.7100000000000004,19.32906907254782,-5.911632241246234,3.7015939535507285,1.5594319645749606,18.147861,-4.5000043,4.5348516,1.0880098,11.135579,-10.146914,2.2746136,-0.42652538,0.22958566,-0.45054382,-0.74991786,-6.6882687,2.1348252,-0.13026108,-5.814285,4.888447,1.9904519,0
0.7200000000000004,17.224562406156863,-4.170756723989206,1.717348231580619,0.867520768225419,17.237194,-4.644558,2.4752731,0.7624119,11.06872,-10.124721,2.2732909,-0.40129966,0.25533122,-0.44087103,-0.76118153,-6.6859746,2.30372,-0.13447843,-5.829161,4.7034187,1.9693016,1
0.7300000000000004,17.224562406156863,-4.170756723989206,1.717348231580619,0.867520768225419,17.237194,-4.644558,2.4752731,0.7624119,11.001816,-10.100928,2.2718685,-0.37633863,0.27959335,-0.43029404,-0.7713909,-6.696728,2.4546988,-0.1501812,-5.643809,4.356396,1.910079,1
0.7400000000000004,17.224562406156863,-4.170756723989206,1.717348231580619,0.867520768225419,17.237194,-4.644558,2.4752731,0.7624119,10.934744,-10.075629,2.2702827,-0.3520112,0.30204672,-0.41910437,-0.78051746,-6.719761,2.6049936,-0.16715406,-5.4874625,4.0634317,1.8537626,1
0.7500000000000004,17.224562406156863,-4.170756723989206,1.717348231580619,0.867520768225419,17.237194,-4.644558,2.4752731,0.7624119,10.867382,-10.048834,2.268521,-0.32823825,0.32293212,-0.407392,-0.7886738,-6.7544537,2.7536874,-0.18532814,-5.35558,3.8161056,1.8002099,1
0.7600000000000005,15.346601303686308,-2.016891851240526,-0.36116215487699366,0.22626061016180032,12.728367,-4.765861,0.40316308,-1.0164665,10.799618,-10.020563,2.266572,-0.3049482,0.34245205,-0.39522508,-0.79594624,-6.800218,2.8999784,-0.20464462,-5.2443314,3.6073081,1.7492849,0
0.7700000000000005,15.346601303686308,-2.016891851240526,-0.36116215487699366,0.22626061016180032,12.728367,-4.765861,0.40316308,-1.0164665,10.731361,-9.990892,2.2643979,-0.28279227,0.3597979,-0.38305455,-0.80239844,-6.8523417,3.0328894,-0.23061335,-4.807451,3.0563452,1.680597,0
0.7800000000000005,15.346601303686308,-2.016891851240526,-0.36116215487699366,0.22626061016180032,12.728367,-4.765861,0.40316308,-1.0164665,10.662547,-9.9599285,2.2619498,-0.26244673,0.37422395,-0.371378,-0.808181,-6.911358,3.158849,-0.25935882,-4.391644,2.5440996,1.6110634,0
0.7900000000000005,15.346601303686308,-2.016891851240526,-0.36116215487699366,0.22626061016180032,12.728367,-4.765861,0.40316308,-1.0164665,10.593112,-9.9277315,2.2592063,-0.24383625,0.38602927,-0.36027178,-0.81346756,-6.976787,3.279838,-0.28942853,-4.0207343,2.0915933,1.5431106,0
0.8000000000000005,14.302341662152537,0.07052637447852102,-2.1969790204708093,-0.34033471017752476,13.3501625,-2.8113272,0.42587906,-0.14694513,10.52299,-9.894343,2.256161,-0.22676282,0.395622,-0.34970844,-0.8183922,-7.048377,3.3973832,-0.31965864,-3.7077792,1.7095586,1.4784924,0
0.8100000000000005,14.302341662152537,0.07052637447852102,-2.1969790204708093,-0.34033471017752476,13.3501625,-2.8113272,0.42587906,-0.14694513,10.452113,-9.859778,2.252825,-0.21132867,0.40303436,-0.33989462,-0.82302797,-7.1275125,3.514844,-0.34779552,-3.2732913,1.2561538,1.4031556,0
0.8200000000000005,14.302341662152537,0.07052637447852102,-2.1969790204708093,-0.34033471017752476,13.3501625,-2.8113272,0.42587906,-0.14694513,10.380432,-9.82407,2.2491999,-0.19772778,0.40817356,-0.33107954,-0.8274565,-7.208916,3.6258597,-0.3774407,-2.8626,0.8293657,1.3275784,0
0.8300000000000005,14.302341662152537,0.07052637447852102,-2.1969790204708093,-0.34033471017752476,13.3501625,-2.8113272,0.42587906,-0.14694513,10.30793,-9.787281,2.245272,-0.18588804,0.4112186,-0.32326412,-0.8317722,-7.2915797,3.7309825,-0.4082665,-2.473877,0.4269352,1.2519414,0
0.8400000000000005,14.302341662152537,0.07052637447852102,-2.1969790204708093,-0.34033471017752476,13.359961,-2.0751197,-0.5749636,-0.60804254,10.234598,-9.749469,2.2410312,-0.17573595,0.41232577,-0.31643897,-0.83604455,-7.3746448,3.8307688,-0.43997929,-2.1054468,0.046824075,1.1764046,0
0.8500000000000005,14.302341662152537,0.07052637447852102,-2.1969790204708093,-0.34033471017752476,13.359961,-2.0751197,-0.5749636,-0.60804254,10.160437,-9.71068,2.2364714,-0.16718633,0.4116451,-0.31057748,-0.84032047,-7.4579816,3.92645,-0.47184035,-1.7669598,-0.30164197,1.1020813,0
0.8600000000000005,14.302341662152537,0.07052637447852102,-2.1969790204708093,-0.34033471017752476,13.359961,-2.0751197,-0.5749636,-0.60804254,10.085436,-9.670945,2.2315989,-0.1600656,0.4094182,-0.3055749,-0.844618,-7.5424275,4.020106,-0.5024666,-1.4802198,-0.59694403,1.0313015,0
0.8700000000000006,14.302341662152537,0.07052637447852102,-2.1969790204708093,-0.34033471017752476,13.359961,-2.0751197,-0.5749636,-0.60804254,10.009586,-9.630282,2.226427,-0.15417707,0.4059008,-0.30129907,-0.84893626,-7.6275187,4.112095,-0.5316263,-1.2382511,-0.8462512,0.963995,0
0.8800000000000006,14.569112434048526,1.6922430998532323,-3.3798295717109887,-0.8825948049106492,13.52889,-1.3229582,-1.0136305,-0.8907643,9.932884,-9.588708,2.2209718,-0.14935231,0.4013045,-0.29763347,-0.853266,-7.712809,4.2026663,-0.5591736,-1.0340594,-1.0567248,0.8999911,0
0.8900000000000006,14.569112434048526,1.6922430998532323,-3.3798295717109887,-0.8825948049106492,13.52889,-1.3229582,-1.0136305,-0.8907643,9.855308,-9.546209,2.2152686,-0.14580414,0.39545155,-0.29484713,-0.85756886,-7.8020487,4.296429,-0.58146083,-0.6532827,-1.3742503,0.81652904,0
0.9000000000000006,14.569112434048526,1.6922430998532323,-3.3798295717109887,-0.8825948049106492,13.52889,-1.3229582,-1.0136305,-0.8907643,9.776854,-9.5027895,2.2093427,-0.14379126,0.38808614,-0.29323167,-0.8618169,-7.888464,4.3871837,-0.60360545,-0.29587868,-1.6783601,0.7339321,0
0.9100000000000006,14.569112434048526,1.6922430998532323,-3.3798295717109887,-0.8825948049106492,13.52889,-1.3229582,-1.0136305,-0.8907643,9.697545,-9.458468,2.203202,-0.14318724,0.37932983,-0.2926729,-0.8659958,-7.97305,4.476972,-0.62419015,0.014194682,-1.9435549,0.6546086,0
0.9200000000000006,15.121145859408433,2.7115085542587773,-4.111840945158124,-1.2726339182325987,13.650359,-0.7356318,-1.3474495,-1.2255661,9.617399,-9.413251,2.196866,-0.14380144,0.36938614,-0.29299664,-0.8700735,-8.055792,4.56666,-0.6426961,0.27587482,-2.1674426,0.5791776,0
0.9300000000000006,15.121145859408433,2.7115085542587773,-4.111840945158124,-1.2726339182325987,13.650359,-0.7356318,-1.3474495,-1.2255661,9.536416,-9.367112,2.1903765,-0.1457008,0.3581869,-0.29430318,-0.8739902,-8.140085,4.6608567,-0.655151,0.6407615,-2.4556532,0.4896732,0
0.9400000000000006,15.121145859408433,2.7115085542587773,-4.111840945158124,-1.2726339182325987,13.650359,-0.7356318,-1.3474495,-1.2255661,9.454609,-9.320035,2.183768,-0.1489884,0.34559909,-0.29671526,-0.8776808,-8.220582,4.7546883,-0.66619074,0.96362346,-2.713885,0.40319628,0
0.9500000000000006,15.121145859408433,2.7115085542587773,-4.111840945158124,-1.2726339182325987,13.650359,-0.7356318,-1.3474495,-1.2255661,9.372016,-9.272016,2.1770604,-0.15348063,0.3317998,-0.30004513,-0.8810932,-8.29753,4.8493834,-0.67498773,1.2361058,-2.9318893,0.3209628,0
0.9600000000000006,15.7261243066123,3.031521004809926,-4.238860054992443,-1.5291325541659155,14.031104,-0.6094326,-1.7284191,-1.5511172,9.288673,-9.223043,2.1702762,-0.15900402,0.31696042,-0.3041155,-0.884176,-8.370419,4.945177,-0.68157786,1.4660741,-3.1159284,0.24276453,0
0.9700000000000006,15.7261243066123,3.031521004809926,-4.238860054992443,-1.5291325541659155,14.031104,-0.6094326,-1.7284191,-1.5511172,9.204611,-9.173089,2.1634552,-0.16549352,0.30116996,-0.3088699,-0.88685256,-8.441515,5.0461173,-0.68228656,1.7100463,-3.2911067,0.15581705,0
0.9800000000000006,15.7261243066123,3.031521004809926,-4.238860054992443,-1.5291325541659155,14.031104,-0.6094326,-1.7284191,-1.5511172,9.119863,-9.122118,2.1566381,-0.17288922,0.2845068,-0.31425202,-0.8890503,-8.50743,5.1485105,-0.6808918,1.9159595,-3.43899,0.073136084,0
0.9900000000000007,15.7261243066123,3.031521004809926,-4.238860054992443,-1.5291325541659155,14.031104,-0.6094326,-1.7284191,-1.5511172,9.034482,-9.070115,2.1498444,-0.1810599,0.267092,-0.32012212,-0.8907303,-8.567726,5.252435,-0.6775422,2.0897543,-3.5638278,-0.0054876916,0
1.0000000000000007,15.919472931604103,2.721727764332844,-3.832969613705923,-1.6593388430760148,14.223465,0.068760365,-2.0032387,-1.4874916,8.948528,-9.017065,2.1430933,-0.18989241,0.2490301,-0.32636142,-0.8918591,-8.622013,5.357906,-0.67241096,2.2364435,-3.6692078,-0.08025339,0
1.0100000000000007,15.919472931604103,2.721727764332844,-3.832969613705923,-1.6593388430760148,14.223465,0.068760365,-2.0032387,-1.4874916,8.862061,-8.962946,2.136408,-0.19922031,0.23058693,-0.3327868,-0.89240885,-8.670545,5.4661903,-0.6644053,2.3119357,-3.694867,-0.15773956,0
1.0200000000000007,15.919472931604103,2.721727764332844,-3.832969613705923,-1.6593388430760148,14.223465,0.068760365,-2.0032387,-1.4874916,8.775141,-8.907736,2.12981,-0.20891014,0.2119855,-0.33925316,-0.89237076,-8.712437,5.5758753,-0.6550181,2.3756616,-3.7165244,-0.23142347,0
1.0300000000000007,15.919472931604103,2.721727764332844,-3.832969613705923,-1.6593388430760148,14.223465,0.068760365,-2.0032387,-1.4874916,8.687836,-8.851423,2.123312,-0.21891476,0.19325256,-0.34571865,-0.8917443,-8.747527,5.686805,-0.6444798,2.429457,-3.7348027,-0.30149168,0
1.0400000000000007,15.919472931604103,2.721727764332844,-3.832969613705923,-1.6593388430760148,13.773607,-0.43545017,-2.0044825,-1.6111587,8.600214,-8.793997,2.1169238,-0.22919191,0.17441238,-0.35214803,-0.89052945,-8.775678,5.7988024,-0.63302094,2.4748704,-3.750228,-0.3681216,0
1.0500000000000007,15.919472931604103,2.721727764332844,-3.832969613705923,-1.6593388430760148,13.773607,-0.43545017,-2.0044825,-1.6111587,8.512345,-8.735445,2.1106536,-0.23970345,0.15548702,-0.3585116,-0.88872665,-8.79677,5.9116697,-0.6208711,2.5132093,-3.7632446,-0.43148202,0
1.0600000000000007,15.919472931604103,2.721727764332844,-3.832969613705923,-1.6593388430760148,13.773607,-0.43545017,-2.0044825,-1.6111587,8.424302,-8.675761,2.1045077,-0.2504147,0.13649666,-0.3647843,-0.8863369,-8.810711,6.025192,-0.60825866,2.5455763,-3.7742271,-0.49173328,0
1.0700000000000007,15.919472931604103,2.721727764332844,-3.832969613705923,-1.6593388430760148,13.773607,-0.43545017,-2.0044825,-1.6111587,8.336156,-8.61494,2.0984893,-0.26129392,0.11745996,-0.370945,-0.8833618,-8.817428,6.139139,-0.5954098,2.5729027,-3.7834928,-0.549028,0
1.0800000000000007,15.32009072925929,1.9255291428245658,-3.0421503145233135,-1.6239819429360711,12.693167,-0.5502411,-1.2171783,-1.6169119,8.247978,-8.552978,2.0925996,-0.2723118,0.098394096,-0.37697586,-0.87980324,-8.816869,6.2532706,-0.5825482,2.5959747,-3.7913094,-0.6035112,0
1.0900000000000007,15.32009072925929,1.9255291428245658,-3.0421503145233135,-1.6239819429360711,12.693167,-0.5502411,-1.2171783,-1.6169119,8.1598425,-8.489896,2.086817,-0.28329006,0.079680026,-0.3826723,-0.8757621,-8.80933,6.3630376,-0.5740591,2.4913447,-3.6745186,-0.65358603,0
1.1000000000000008,15.32009072925929,1.9255291428245658,-3.0421503145233135,-1.6239819429360711,12.693167,-0.5502411,-1.2171783,-1.6169119,8.0718155,-8.425718,2.0811172,-0.2940953,0.061625805,-0.38788694,-0.8713515,-8.794977,6.4724736,-0.5659303,2.403037,-3.5759382,-0.70120364,0
1.1100000000000008,15.32009072925929,1.9255291428245658,-3.0421503145233135,-1.6239819429360711,12.693167,-0.5502411,-1.2171783,-1.6169119,7.9839654,-8.360449,2.0754962,-0.30476165,0.044146657,-0.39268154,-0.86658645,-8.774044,6.5813327,-0.55830103,2.3285046,-3.4927292,-0.7464847,0
1.1200000000000008,14.549840918584835,0.7222607690925531,-2.159994569321814,-1.4543040635155413,12.312884,-1.0719254,-0.68263024,-1.5584095,7.8963566,-8.294094,2.0699484,-0.3153152,0.027170144,-0.39710718,-0.8614775,-8.746738,6.689384,-0.5512976,2.2655985,-3.4224946,-0.78954375,0
1.1300000000000008,14.549840918584835,0.7222607690925531,-2.159994569321814,-1.4543040635155413,12.312884,-1.0719254,-0.68263024,-1.5584095,7.8090434,-8.226691,2.0644412,-0.32560876,0.011083487,-0.40090826,-0.856229,-8.714975,6.791029,-0.5502688,2.0249481,-3.225528,-0.82216376,0
1.1400000000000008,14.549840918584835,0.7222607690925531,-2.159994569321814,-1.4543040635155413,12.312884,-1.0719254,-0.68263024,-1.5584095,7.722076,-8.158278,2.0589406,-0.3355388,-0.003807843,-0.40390176,-0.8510359,-8.677785,6.8915,-0.5499312,1.8218215,-3.059287,-0.8531831,0
1.1500000000000008,14.549840918584835,0.7222607690925531,-2.159994569321814,-1.4543040635155413,12.312884,-1.0719254,-0.68263024,-1.5584095,7.6355057,-8.088867,2.05344,-0.3451792,-0.017672839,-0.40622115,-0.8458859,-8.635588,6.9906254,-0.55024964,1.6503671,-2.9189796,-0.88268024,0
1.1600000000000008,14.01603095070852,-0.690337544450852,-1.036633238356195,-1.1194230528807196,12.353148,-1.9004593,-0.022746742,-1.1495723,7.5493803,-8.018471,2.0479333,-0.35458887,-0.030656174,-0.4079761,-0.84076273,-8.588743,7.088264,-0.5511882,1.5056463,-2.8005607,-0.91073,0
1.1700000000000008,14.01603095070852,-0.690337544450852,-1.036633238356195,-1.1194230528807196,12.353148,-1.9004593,-0.022746742,-1.1495723,7.463736,-7.947124,2.0423965,-0.36361793,-0.04231909,-0.40894473,-0.8359155,-8.539484,7.180776,-0.55623716,1.1633301,-2.5252821,-0.9209706,0
1.1800000000000008,14.01603095070852,-0.690337544450852,-1.036633238356195,-1.1194230528807196,12.353148,-1.9004593,-0.022746742,-1.1495723,7.378603,-7.8748603,2.036807,-0.37215856,-0.052321836,-0.40897065,-0.8315665,-8.486621,7.2716765,-0.56167436,0.8743763,-2.2929604,-0.9307087,0
1.1900000000000008,14.01603095070852,-0.690337544450852,-1.036633238356195,-1.1194230528807196,12.353148,-1.9004593,-0.022746742,-1.1495723,7.2940145,-7.8016963,2.0311623,-0.38030633,-0.060913112,-0.40822017,-0.8276548,-8.430678,7.3609304,-0.56731737,0.6304662,-2.0968933,-0.939969,0
1.2000000000000008,13.932113482105242,-2.0362494236862925,0.07478990427358166,-0.6445486476224271,11.984379,-3.260098,0.99901813,-0.8212375,7.209999,-7.727648,2.0254607,-0.38813716,-0.06830439,-0.40682814,-0.8241204,-8.372101,7.4485235,-0.57300305,0.4245776,-1.9314227,-0.9487748,0
1.2100000000000009,13.932113482105242,-2.0362494236862925,0.07478990427358166,-0.6445486476224271,11.984379,-3.260098,0.99901813,-0.8212375,7.126579,-7.652734,2.0196998,-0.39552134,-0.07412276,-0.40463248,-0.82118255,-8.311666,7.5339456,-0.57912266,0.041022122,-1.6183175,-0.93384635,0
1.2200000000000009,13.932113482105242,-2.0362494236862925,0.07478990427358166,-0.6445486476224271,11.984379,-3.260098,0.99901813,-0.8212375,7.0437713,-7.576974,2.0138793,-0.4023583,-0.078083836,-0.40151578,-0.819021,-8.249588,7.6177793,-0.5848735,-0.28275397,-1.3540843,-0.91965044,0
1.2300000000000009,13.932113482105242,-2.0362494236862925,0.07478990427358166,-0.6445486476224271,11.984379,-3.260098,0.99901813,-0.8212375,6.961591,-7.5003834,2.0080044,-0.40873843,-0.080472834,-0.39763436,-0.81752276,-8.186422,7.7001023,-0.59000427,-0.556067,-1.1310931,-0.90615106,0
1.2400000000000009,13.932113482105242,-2.0362494236862925,0.07478990427358166,-0.6445486476224271,12.839369,-3.7291026,1.8449428,0.2456746,6.880045,-7.4229765,2.0020819,-0.41473302,-0.08153093,-0.39311457,-0.81658417,-8.122638,7.7809906,-0.5943025,-0.7867816,-0.9429067,-0.8933142,0
1.2500000000000009,13.932113482105242,-2.0362494236862925,0.07478990427358166,-0.6445486476224271,12.839369,-3.7291026,1.8449428,0.2456746,6.799139,-7.344768,1.9961214,-0.42039853,-0.0814621,-0.38805902,-0.8161119,-8.058632,7.860515,-0.59759176,-0.9815366,-0.7840919,-0.88110715,0
1.260000000000001,13.932113482105242,-2.0362494236862925,0.07478990427358166,-0.6445486476224271,12.839369,-3.7291026,1.8449428,0.2456746,6.718872,-7.265771,1.9901339,-0.42577997,-0.080438934,-0.38255152,-0.8160237,-7.994741,7.9387407,-0.59972835,-1.1459365,-0.65006423,-0.86949915,0
1.270000000000001,13.932113482105242,-2.0362494236862925,0.07478990427358166,-0.6445486476224271,12.839369,-3.7291026,1.8449428,0.2456746,6.6392426,-7.1859975,1.9841312,-0.43091357,-0.078607485,-0.37666082,-0.8162477,-7.9312596,8.015723,-0.60059726,-1.2847124,-0.5369542,-0.8584608,0
1.280000000000001,14.408190297391078,-3.0230538496010566,1.024269833424784,-0.04020670170967288,14.007717,-4.3648562,2.457816,0.9373877,6.560245,-7.105461,1.9781265,-0.43582854,-0.076091416,-0.37044373,-0.8167217,-7.8684387,8.091513,-0.6001089,-1.4018579,-0.44149706,-0.84796405,0
1.290000000000001,14.408190297391078,-3.0230538496010566,1.024269833424784,-0.04020670170967288,14.007717,-4.3648562,2.457816,0.9373877,6.4818816,-7.0241594,1.9721508,-0.44037664,-0.07253974,-0.36378497,-0.8175978,-7.8044114,8.16871,-0.59476614,-1.6545504,-0.21281444,-0.80832714,0
1.300000000000001,14.408190297391078,-3.0230538496010566,1.024269833424784,-0.04020670170967288,14.007717,-4.3648562,2.457816,0.9373877,6.4041524,-6.9420905,1.9662366,-0.44443032,-0.06768047,-0.35659352,-0.818988,-7.7417297,8.244825,-0.587811,-1.8678656,-0.01982518,-0.7706352,0
1.310000000000001,14.408190297391078,-3.0230538496010566,1.024269833424784,-0.04020670170967288,14.007717,-4.3648562,2.457816,0.9373877,6.327041,-6.859266,1.9604005,-0.44803786,-0.06171693,-0.348944,-0.8207865,-7.680808,8.319961,-0.57913053,-2.0479379,0.14304362,-0.7347929,0
1.320000000000001,14.601271709275606,-3.717393055755532,1.414216134069909,0.5520290466839328,14.055626,-4.5010104,2.643273,1.6630722,6.250529,-6.775695,1.95466,-0.4512384,-0.054821216,-0.34089792,-0.82290125,-7.622006,8.394199,-0.56865,-2.199947,0.28049436,-0.7007094,0
1.330000000000001,14.601271709275606,-3.717393055755532,1.414216134069909,0.5520290466839328,14.055626,-4.5010104,2.643273,1.6630722,6.1745963,-6.69138,1.9490411,-0.45396438,-0.0469096,-0.3323437,-0.8253864,-7.5648994,8.468588,-0.55483913,-2.4365292,0.45730835,-0.6392372,0
1.340000000000001,14.601271709275606,-3.717393055755532,1.414216134069909,0.5520290466839328,14.055626,-4.5010104,2.643273,1.6630722,6.0992208,-6.6063256,1.94357,-0.4561494,-0.037924863,-0.32319188,-0.8282727,-7.510682,8.542186,-0.5390862,-2.6362398,0.6065206,-0.5807814,0
1.350000000000001,14.601271709275606,-3.717393055755532,1.414216134069909,0.5520290466839328,14.055626,-4.5010104,2.643273,1.6630722,6.0243716,-6.520539,1.9382662,-0.4578242,-0.028037706,-0.31351966,-0.8314539,-7.4597435,8.6150255,-0.52135026,-2.8048236,0.7324425,-0.52519405,0
1.360000000000001,14.787668484445044,-4.0838068065546445,1.5061202639209732,1.0574685931895038,15.286784,-4.3346815,1.8366475,2.415916,5.9500136,-6.4340277,1.9331496,-0.45901453,-0.017393032,-0.3033923,-0.8348386,-7.412428,8.687123,-0.5016313,-2.947131,0.8387121,-0.4723344,0
1.370000000000001,14.787668484445044,-4.0838068065546445,1.5061202639209732,1.0574685931895038,15.286784,-4.3346815,1.8366475,2.415916,5.876112,-6.3467946,1.9282478,-0.4596807,-0.006034684,-0.2927585,-0.8384205,-7.368489,8.759384,-0.47843194,-3.1244087,0.94269603,-0.39726654,0
1.380000000000001,14.787668484445044,-4.0838068065546445,1.5061202639209732,1.0574685931895038,15.286784,-4.3346815,1.8366475,2.415916,5.8026285,-6.2588434,1.9235878,-0.4597809,0.0059937946,-0.28157967,-0.8421863,-7.328856,8.830853,-0.4532965,-3.2740514,1.0304483,-0.32588226,0
1.390000000000001,14.787668484445044,-4.0838068065546445,1.5061202639209732,1.0574685931895038,15.286784,-4.3346815,1.8366475,2.415916,5.729519,-6.1701813,1.9191884,-0.45933378,0.018578734,-0.26992533,-0.8460537,-7.2938304,8.901478,-0.42629313,-3.4003654,1.1045058,-0.2580008,0
1.400000000000001,14.772862667222942,-4.050642826980059,1.157435969591764,1.408227641480083,14.550249,-4.1427827,1.1790779,3.0565352,5.656735,-6.0808177,1.9150679,-0.45835653,0.03162331,-0.25785545,-0.84995246,-7.263673,8.9711895,-0.39752284,-3.5069861,1.167008,-0.19345032,0
1.410000000000001,14.772862667222942,-4.050642826980059,1.157435969591764,1.408227641480083,14.550249,-4.1427827,1.1790779,3.0565352,5.5842276,-5.990762,1.9112428,-0.45686468,0.044909053,-0.24537136,-0.85384434,-7.2386284,9.039835,-0.3672407,-3.591829,1.1653422,-0.1148555,0
1.420000000000001,14.772862667222942,-4.050642826980059,1.157435969591764,1.408227641480083,14.550249,-4.1427827,1.1790779,3.0565352,5.511945,-5.9000254,1.9077282,-0.45486715,0.058256425,-0.23248026,-0.857703,-7.2188196,9.107352,-0.33545482,-3.6634376,1.1639365,-0.040117357,0
1.430000000000001,14.772862667222942,-4.050642826980059,1.157435969591764,1.408227641480083,14.550249,-4.1427827,1.1790779,3.0565352,5.4398327,-5.8086195,1.9045384,-0.45237154,0.071641795,-0.21923913,-0.8614876,-7.204361,9.173594,-0.3023144,-3.7238762,1.1627522,0.030953348,0
1.440000000000001,14.772862667222942,-4.050642826980059,1.157435969591764,1.408227641480083,14.5079565,-4.2114596,0.56188506,3.5088933,5.3678384,-5.7165585,1.901686,-0.44938672,0.08504495,-0.2056975,-0.86516285,-7.1953483,9.23842,-0.2679847,-3.7748866,1.1617557,0.098536596,0
1.450000000000001,14.772862667222942,-4.050642826980059,1.157435969591764,1.408227641480083,14.5079565,-4.2114596,0.56188506,3.5088933,5.2959065,-5.6238565,1.8991822,-0.44592258,0.09844859,-0.19189864,-0.86869735,-7.1918554,9.301684,-0.23264399,-3.817939,1.1609193,0.1628035,0
1.460000000000001,14.772862667222942,-4.050642826980059,1.157435969591764,1.408227641480083,14.5079565,-4.2114596,0.56188506,3.5088933,5.223982,-5.530531,1.897036,-0.44198978,0.111837775,-0.1778804,-0.87206376,-7.1939383,9.36325,-0.19648135,-3.8542752,1.1602188,0.22391683,0
1.470000000000001,14.772862667222942,-4.050642826980059,1.157435969591764,1.408227641480083,14.5079565,-4.2114596,0.56188506,3.5088933,5.152008,-5.4365983,1.8952546,-0.4375995,0.12519956,-0.16367607,-0.87523776,-7.201634,9.422975,-0.15969427,-3.8849423,1.1596332,0.2820313,0
1.480000000000001,14.49963635017212,-3.7089808222469722,0.4821014735209407,1.5744182725987115,14.96037,-4.0605154,0.6523848,3.2718313,5.0799294,-5.342078,1.8938434,-0.43276343,0.13852261,-0.14931501,-0.8781979,-7.2149615,9.480725,-0.12248707,-3.910825,1.159145,0.33729407,0
1.490000000000001,14.49963635017212,-3.7089808222469722,0.4821014735209407,1.5744182725987115,14.96037,-4.0605154,0.6523848,3.2718313,5.007691,-5.2469964,1.8927932,-0.42753515,0.15149784,-0.13483031,-0.8809552,-7.233556,9.535333,-0.08756999,-3.8793662,1.0534139,0.3980001,0
1.500000000000001,14.49963635017212,-3.7089808222469722,0.4821014735209407,1.5744182725987115,14.96037,-4.0605154,0.6523848,3.2718313,4.93524,-5.1513796,1.8920923,-0.42195925,0.16388106,-0.12025484,-0.8835335,-7.2575374,9.5876875,-0.052609496,-3.8528082,0.9641799,0.45572728,0
1.5100000000000011,14.49963635017212,-3.7089808222469722,0.4821014735209407,1.5744182725987115,14.96037,-4.0605154,0.6523848,3.2718313,4.8625226,-5.055251,1.8917406,-0.41603547,0.17575075,-0.10561206,-0.88592976,-7.28675,9.637617,-0.017761737,-3.830388,0.88886964,0.5106218,0
1.5200000000000011,13.894856344118516,-3.1151115981898125,-0.5887388617276476,1.5701709558900914,16.177965,-4.305644,-1.089293,3.2195585,4.7894874,-4.958636,1.891736,-0.40976578,0.18717328,-0.09092197,-0.8881389,-7.3210444,9.68496,0.01681789,-3.8114617,0.8253109,0.5628226,0
1.5300000000000011,13.894856344118516,-3.1151115981898125,-0.5887388617276476,1.5701709558900914,16.177965,-4.305644,-1.089293,3.2195585,4.716092,-4.86157,1.8920478,-0.40323833,0.19772775,-0.076238595,-0.89021885,-7.3586144,9.727705,0.045469314,-3.7028053,0.60471094,0.6122535,0
1.5400000000000011,13.894856344118516,-3.1151115981898125,-0.5887388617276476,1.5701709558900914,16.177965,-4.305644,-1.089293,3.2195585,4.6422997,-4.764091,1.8926437,-0.39652675,0.20708749,-0.06161075,-0.89223576,-7.4005814,9.76764,0.07365677,-3.6110938,0.4185188,0.6592588,0
1.5500000000000012,13.894856344118516,-3.1151115981898125,-0.5887388617276476,1.5701709558900914,16.177965,-4.305644,-1.089293,3.2195585,4.568066,-4.6662273,1.8935192,-0.38961554,0.2154309,-0.047045857,-0.89418966,-7.446617,9.804593,0.101334095,-3.533686,0.26136756,0.7039575,0
1.5600000000000012,13.546866220820858,-2.358599561605288,-1.5105518717638324,1.4104052087174317,16.924128,-3.978282,-3.6102018,3.6156766,4.493354,-4.56801,1.8946686,-0.38249305,0.22290862,-0.032549083,-0.89607507,-7.49643,9.838413,0.12845296,-3.4683526,0.12872761,0.7464628,0
1.5700000000000012,13.546866220820858,-2.358599561605288,-1.5105518717638324,1.4104052087174317,16.924128,-3.978282,-3.6102018,3.6156766,4.418133,-4.4694743,1.8960706,-0.37524876,0.22920324,-0.01825108,-0.8979534,-7.548396,9.868203,0.15185268,-3.2951608,-0.12690312,0.77904266,0
1.5800000000000012,13.546866220820858,-2.358599561605288,-1.5105518717638324,1.4104052087174317,16.924128,-3.978282,-3.6102018,3.6156766,4.3423758,-4.370657,1.8977036,-0.3679582,0.23407413,-0.0042579635,-0.89988726,-7.603361,9.8946905,0.17469697,-3.1489887,-0.34267205,0.8100238,0
1.5900000000000012,13.546866220820858,-2.358599561605288,-1.5105518717638324,1.4104052087174317,16.924128,-3.978282,-3.6102018,3.6156766,4.266056,-4.271592,1.8995627,-0.360595,0.23774111,0.009461399,-0.90186477,-7.660923,9.917773,0.19703028,-3.0256221,-0.5247956,0.83948463,0
1.6000000000000012,13.295572100441866,-1.535661865431379,-2.1384944047958707,1.138415515278895,17.123075,-3.6470318,-4.538714,3.3718176,4.1891494,-4.172314,1.9016428,-0.3531379,0.24038891,0.022934785,-0.9038694,-7.7207303,9.937369,0.21888644,-2.921504,-0.67852044,0.8674999,0
1.6100000000000012,13.295572100441866,-1.535661865431379,-2.1384944047958707,1.138415515278895,17.123075,-3.6470318,-4.538714,3.3718176,4.111641,-4.072859,1.9039279,-0.34567422,0.24182995,0.035985023,-0.90594244,-7.781309,9.953117,0.2380819,-2.7052462,-0.9061041,0.8807938,0
1.6200000000000012,13.295572100441866,-1.535661865431379,-2.1384944047958707,1.138415515278895,17.123075,-3.6470318,-4.538714,3.3718176,4.0335183,-3.9732637,1.9064033,-0.33827773,0.2419269,0.04847261,-0.9081239,-7.8433604,9.9653635,0.25692564,-2.522731,-1.0982112,0.8934354,0
1.6300000000000012,13.295572100441866,-1.535661865431379,-2.1384944047958707,1.138415515278895,17.123075,-3.6470318,-4.538714,3.3718176,3.9547698,-3.8735635,1.9090656,-0.3309148,0.2408895,0.060471952,-0.9103899,-7.9064884,9.974107,0.27550727,-2.368694,-1.2603718,0.90545666,0
1.6400000000000012,13.295572100441866,-1.535661865431379,-2.1384944047958707,1.138415515278895,17.277126,-3.603741,-4.705023,3.2427816,3.8753862,-3.7737935,1.9119127,-0.32355788,0.23889366,0.07204708,-0.91271484,-7.9703507,9.979355,0.2938987,-2.238692,-1.3972545,0.916888,0
1.6500000000000012,13.295572100441866,-1.535661865431379,-2.1384944047958707,1.138415515278895,17.277126,-3.603741,-4.705023,3.2427816,3.7953615,-3.6739883,1.914943,-0.31618464,0.23608692,0.08325297,-0.91507286,-8.03465,9.981117,0.31215498,-2.1289754,-1.5128,0.92775846,0
1.6600000000000013,13.295572100441866,-1.535661865431379,-2.1384944047958707,1.138415515278895,17.277126,-3.603741,-4.705023,3.2427816,3.7146926,-3.574183,1.9181554,-0.3087772,0.23259324,0.09413675,-0.9174391,-8.099124,9.97941,0.33031547,-2.0363789,-1.6103344,0.93809545,0
1.6700000000000013,13.295572100441866,-1.535661865431379,-2.1384944047958707,1.138415515278895,17.277126,-3.603741,-4.705023,3.2427816,3.633379,-3.474412,1.9215491,-0.3013217,0.22851679,0.104738794,-0.9197903,-8.163542,9.974251,0.34840536,-1.9582312,-1.6926657,0.9479252,0
1.6800000000000013,13.138251660869795,-0.8305092401865138,-2.4292251349992524,0.8402392210018591,17.858192,-3.5624118,-4.998907,2.984163,3.5514224,-3.3747098,1.9251235,-0.29380742,0.22394523,0.11509359,-0.9221054,-8.227697,9.96566,0.36643732,-1.8922781,-1.7621633,0.9572726,0
1.6900000000000013,13.138251660869795,-0.8305092401865138,-2.4292251349992524,0.8402392210018591,17.858192,-3.5624118,-4.998907,2.984163,3.4688303,-3.2751098,1.9288709,-0.2863099,0.21875887,0.12501232,-0.9244145,-8.290639,9.953812,0.3830477,-1.7266382,-1.8660815,0.9515297,0
1.7000000000000013,13.138251660869795,-0.8305092401865138,-2.4292251349992524,0.8402392210018591,17.858192,-3.5624118,-4.998907,2.984163,3.3856122,-3.1756446,1.9327846,-0.27889258,0.21286851,0.13434687,-0.9267448,-8.352878,9.938692,0.3996573,-1.5868402,-1.9538112,0.94606864,0
1.7100000000000013,13.138251660869795,-0.8305092401865138,-2.4292251349992524,0.8402392210018591,17.858192,-3.5624118,-4.998907,2.984163,3.3017764,-3.076347,1.9368644,-0.27153236,0.2063826,0.14317957,-0.92907214,-8.414171,9.920402,0.41631442,-1.4688519,-2.027874,0.94087553,0
1.7200000000000013,12.654857803402079,-0.20478826110467246,-2.5883184530001646,0.49701618372198614,17.86257,-3.4165707,-5.187919,2.9925437,3.217333,-2.977248,1.9411112,-0.2642105,0.19939215,0.15158027,-0.93137425,-8.474306,9.899032,0.43305206,-1.3692713,-2.0903993,0.9359373,0
1.7300000000000013,12.654857803402079,-0.20478826110467246,-2.5883184530001646,0.49701618372198614,17.86257,-3.4165707,-5.187919,2.9925437,3.1323059,-2.8783727,1.9455048,-0.25699118,0.19184244,0.15939999,-0.9336716,-8.530925,9.875574,0.44566745,-1.1876539,-2.1679223,0.91439927,0
1.7400000000000013,12.654857803402079,-0.20478826110467246,-2.5883184530001646,0.49701618372198614,17.86257,-3.4165707,-5.187919,2.9925437,3.0467198,-2.7797458,1.9500251,-0.24992889,0.18369481,0.16652396,-0.935981,-8.586023,9.849383,0.45843682,-1.0343674,-2.2333777,0.89391816,0
1.7500000000000013,12.654857803402079,-0.20478826110467246,-2.5883184530001646,0.49701618372198614,17.86257,-3.4165707,-5.187919,2.9925437,2.960591,-2.6813939,1.9546742,-0.24299678,0.17504086,0.17305318,-0.9382774,-8.639399,9.820607,0.47140837,-0.9049918,-2.2886436,0.87444204,0
1.7600000000000013,12.244430916476322,0.3245482394597884,-2.309649731294325,0.16620057665643362,15.8473015,-2.5266664,-4.101889,0.7862786,2.8739383,-2.583342,1.9594542,-0.23617268,0.16595736,0.179073,-0.9405383,-8.69087,9.789376,0.48461413,-0.795797,-2.3353057,0.8559216,0
1.7700000000000014,12.244430916476322,0.3245482394597884,-2.309649731294325,0.16620057665643362,15.8473015,-2.5266664,-4.101889,0.7862786,2.786789,-2.4856088,1.9643494,-0.22953185,0.15655719,0.1844372,-0.94275486,-8.738685,9.756912,0.49445742,-0.6211337,-2.3311932,0.82207686,0
1.7800000000000014,12.244430916476322,0.3245482394597884,-2.309649731294325,0.16620057665643362,15.8473015,-2.5266664,-4.101889,0.7862786,2.6991718,-2.3882108,1.9693444,-0.22313875,0.14693433,0.18903556,-0.94492525,-8.784386,9.722392,0.5045777,-0.4737058,-2.3277447,0.78989285,0
1.7900000000000014,12.244430916476322,0.3245482394597884,-2.309649731294325,0.16620057665643362,15.8473015,-2.5266664,-4.101889,0.7862786,2.6111085,-2.2911673,1.9744421,-0.21696174,0.13712227,0.19298308,-0.94703823,-8.82787,9.686007,0.51500034,-0.34926638,-2.3248518,0.7592881,0
1.8000000000000014,11.900326332053353,0.6346174468807877,-1.8135751818873336,-0.11657380925309842,16.002893,-2.1128607,-3.549838,0.49777302,2.522622,-2.1944964,1.9796455,-0.21097411,0.12714878,0.19637667,-0.94908273,-8.869047,9.647924,0.5257402,-0.24423067,-2.3224242,0.73018515,0
1.8100000000000014,11.900326332053353,0.6346174468807877,-1.8135751818873336,-0.11657380925309842,16.002893,-2.1128607,-3.549838,0.49777302,2.433741,-2.0982087,1.9849427,-0.20524146,0.11719291,0.19914348,-0.9510428,-8.906757,9.609417,0.533736,-0.107273504,-2.2430015,0.68863446,0
1.8200000000000014,11.900326332053353,0.6346174468807877,-1.8135751818873336,-0.11657380925309842,16.002893,-2.1128607,-3.549838,0.49777302,2.3444946,-2.0023127,1.9903215,-0.19981985,0.10739846,0.20123239,-0.9529122,-8.942141,9.569608,0.5420529,0.0083378125,-2.175981,0.64912266,0
1.8300000000000014,11.900326332053353,0.6346174468807877,-1.8135751818873336,-0.11657380925309842,16.002893,-2.1128607,-3.549838,0.49777302,2.254906,-1.9068204,1.995785,-0.19467528,0.09773872,0.20274767,-0.95469403,-8.975197,9.528686,0.55069524,0.10592997,-2.1194253,0.61154974,0
1.8400000000000014,11.900326332053353,0.6346174468807877,-1.8135751818873336,-0.11657380925309842,15.474867,-1.7602993,-3.2057946,0.28777727,2.1649985,-1.8117423,2.0013366,-0.18977858,0.08819076,0.2037769,-0.95638907,-9.005928,9.486812,0.5596627,0.18831125,-2.0716996,0.57582045,0
1.8500000000000014,11.900326332053353,0.6346174468807877,-1.8135751818873336,-0.11657380925309842,15.474867,-1.7602993,-3.2057946,0.28777727,2.0747955,-1.717087,2.0069797,-0.18510461,0.07873496,0.20439363,-0.9579973,-9.034336,9.444127,0.5689507,0.2578524,-2.031425,0.5418444,0
1.8600000000000014,11.900326332053353,0.6346174468807877,-1.8135751818873336,-0.11657380925309842,15.474867,-1.7602993,-3.2057946,0.28777727,1.9843198,-1.6228621,2.0127168,-0.18063171,0.06935465,0.20465972,-0.95951813,-9.060424,9.400751,0.5785506,0.31655458,-1.9974374,0.5095357,0
1.8700000000000014,11.900326332053353,0.6346174468807877,-1.8135751818873336,-0.11657380925309842,15.474867,-1.7602993,-3.2057946,0.28777727,1.893595,-1.529074,2.0185513,-0.17634112,0.060035724,0.20462716,-0.96095043,-9.084193,9.356791,0.5884501,0.3661072,-1.9687549,0.47881228,0
1.8800000000000014,11.506112912318102,0.720307391583357,-1.2731270966979422,-0.3367180316455801,15.461443,-2.1540842,-3.0296617,0.5046437,1.802644,-1.435728,2.0244868,-0.17221653,0.05076632,0.2043396,-0.96229315,-9.105643,9.312339,0.5986333,0.40793654,-1.9445493,0.44959652,0
1.8900000000000015,11.506112912318102,0.720307391583357,-1.2731270966979422,-0.3367180316455801,15.461443,-2.1540842,-3.0296617,0.5046437,1.7114933,-1.3428211,2.0305073,-0.16831598,0.041733377,0.2037654,-0.9635384,-9.124153,9.268969,0.60548615,0.4565735,-1.8398386,0.41101182,0
1.9000000000000015,11.506112912318102,0.720307391583357,-1.2731270966979422,-0.3367180316455801,15.461443,-2.1540842,-3.0296617,0.5046437,1.6201683,-1.2503494,2.0365975,-0.16468836,0.033084515,0.20288318,-0.9646866,-9.140501,9.225314,0.6125796,0.497637,-1.7514613,0.3743205,0
1.9100000000000015,11.506112912318102,0.720307391583357,-1.2731270966979422,-0.3367180316455801,15.461443,-2.1540842,-3.0296617,0.5046437,1.5286903,-1.1583153,2.0427597,-0.16130787,0.024757493,0.20174012,-0.9657466,-9.154763,9.181473,0.61989915,0.53230596,-1.6768688,0.33942965,0
1.9200000000000015,11.089170961453243,0.6480441788540859,-0.8080406738475785,-0.5013912203619401,14.979132,-2.0366104,-2.5455923,0.46316132,1.43708,-1.0667202,2.048996,-0.15815195,0.016699746,0.20037566,-0.9667251,-9.167006,9.137532,0.62743074,0.56157607,-1.613911,0.3062509,0
1.9300000000000015,11.089170961453243,0.6480441788540859,-0.8080406738475785,-0.5013912203619401,14.979132,-2.0366104,-2.5455923,0.46316132,1.345359,-0.97555673,2.0552895,-0.15525746,0.00904742,0.19882207,-0.96761656,-9.176922,9.09516,0.63132507,0.5749969,-1.4882481,0.26661965,0
1.9400000000000015,11.089170961453243,0.6480441788540859,-0.8080406738475785,-0.5013912203619401,14.979132,-2.0366104,-2.5455923,0.46316132,1.2535477,-0.88481677,2.0616229,-0.15265529,0.0019057549,0.19710766,-0.96842134,-9.185062,9.052832,0.63539535,0.5863362,-1.3821826,0.22893313,0
1.9500000000000015,11.089170961453243,0.6480441788540859,-0.8080406738475785,-0.5013912203619401,14.979132,-2.0366104,-2.5455923,0.46316132,1.1616635,-0.79449964,2.0679977,-0.15031856,-0.0048077637,0.19525716,-0.9691514,-9.191536,9.010611,0.6396292,0.59591585,-1.292658,0.1930959,0
1.9600000000000015,10.695594505439027,0.5005660731631338,-0.22257522175741776,-0.5910897050826475,13.82468,-1.807377,-1.9322151,-0.075623535,1.0697224,-0.70460397,2.074416,-0.14822364,-0.01116271,0.1932911,-0.9698155,-9.196435,8.968548,0.64401597,0.6040085,-1.2170945,0.1590172,0
1.9700000000000015,10.695594505439027,0.5005660731631338,-0.22257522175741776,-0.5910897050826475,13.82468,-1.807377,-1.9322151,-0.075623535,0.9777405,-0.61512053,2.0808604,-0.14640655,-0.016983876,0.19124922,-0.97041166,-9.199729,8.928174,0.64490366,0.5878349,-1.0620158,0.12220922,0
1.9800000000000015,10.695594505439027,0.5005660731631338,-0.22257522175741776,-0.5910897050826475,13.82468,-1.807377,-1.9322151,-0.075623535,0.8857322,-0.5260397,2.0873146,-0.14489587,-0.02213564,0.18916485,-0.9709429,-9.201733,8.888035,0.64592165,0.5741934,-0.93111974,0.08720743,0
1.9900000000000015,10.695594505439027,0.5005660731631338,-0.22257522175741776,-0.5910897050826475,13.82468,-1.807377,-1.9322151,-0.075623535,0.79370975,-0.4373589,2.093779,-0.14366181,-0.02672534,0.1870446,-0.9714215,-9.202588,8.848165,0.6470645,0.56268704,-0.8206355,0.053923186,0
2.0000000000000013,,,,,13.288612,-1.6029555,-1.5135204,-0.06714728,0.701684,-0.34907535,2.1002562,-0.14267834,-0.030843461,0.18489373,-0.97185606,-9.202413,8.808591,0.648329,0.5529809,-0.72738016,0.022272207,0
2.010000000000001,,,,,13.288612,-1.6029555,-1.5135204,-0.06714728,0.60966456,-0.26117992,2.106731,-0.14196502,-0.03435989,0.18274541,-0.97224885,-9.201354,8.770546,0.6466421,0.5215081,-0.5691316,-0.008991003,0
2.020000000000001,,,,,13.288612,-1.6029555,-1.5135204,-0.06714728,0.51765954,-0.17366333,2.1131892,-0.1415358,-0.037175406,0.18062647,-0.97260374,-9.199553,8.732826,0.6450718,0.49494958,-0.4355602,-0.038720127,0
2.0300000000000007,,,,,13.288612,-1.6029555,-1.5135204,-0.06714728,0.42567563,-0.08652225,2.1196325,-0.14136156,-0.039401848,0.17853197,-0.97292805,-9.197151,8.695445,0.64362043,0.47253743,-0.32281807,-0.066990435,0
2.0400000000000005,,,,,13.288612,-1.6029555,-1.5135204,-0.06714728,0.3337182,0.00024676695,2.126062,-0.14141692,-0.04113345,0.17645752,-0.9732268,-9.194274,8.658415,0.64229083,0.4536238,-0.22765668,-0.09387351,0
2.0500000000000003,,,,,12.673813,-1.5476624,-1.0525781,-0.2460053,0.24179149,0.08664728,2.1324787,-0.14167975,-0.0424496,0.17439927,-0.97350293,-9.191023,8.621744,0.6410862,0.43766207,-0.14733492,-0.11943742,1
2.06,,,,,12.673813,-1.5476624,-1.0525781,-0.2460053,0.14990269,0.1726423,2.138992,-0.14202575,-0.043823555,0.17317185,-0.9736107,-9.186677,8.577308,0.6615993,0.12803978,-0.2884836,-0.12564814,1
2.07,,,,,12.673813,-1.5476624,-1.0525781,-0.2460053,0.058059264,0.25819376,2.1457107,-0.14235064,-0.04563247,0.17342131,-0.97343576,-9.181941,8.532973,0.68213576,-0.13329627,-0.4076218,-0.13155411,1
2.0799999999999996,,,,,12.673813,-1.5476624,-1.0525781,-0.2460053,-0.033734642,0.3433009,2.1526344,-0.14266258,-0.047808483,0.17491667,-0.973018,-9.176767,8.488397,0.70256275,-0.35387635,-0.5081821,-0.13717024,1
2.0899999999999994,,,,,12.038906,-2.01471,-1.1436182,-0.013914013,-0.12547445,0.42795983,2.1597614,-0.14296725,-0.050294142,0.17746218,-0.9723868,-9.171117,8.443286,0.7227655,-0.5400563,-0.59306175,-0.14251082,1
2.099999999999999,,,,,12.038906,-2.01471,-1.1436182,-0.013914013,-0.21715675,0.5121754,2.1670592,-0.1432437,-0.053044338,0.18108027,-0.9715326,-9.165265,8.399686,0.7367291,-0.7700329,-0.67890257,-0.13620053,1
2.109999999999999,,,,,12.038906,-2.01471,-1.1436182,-0.013914013,-0.30877805,0.5959501,2.1744945,-0.14347096,-0.056019634,0.18577941,-0.97044426,-9.158912,8.355081,0.75026894,-0.9641431,-0.75136125,-0.13019991,1
2.1199999999999988,,,,,12.038906,-2.01471,-1.1436182,-0.013914013,-0.40033323,0.67927283,2.1820626,-0.14365245,-0.059182744,0.19138746,-0.96913904,-9.152045,8.30924,0.7632761,-1.1279807,-0.8125238,-0.12449372,1
2.1299999999999986,,,,,11.358023,-1.8973328,-0.97111005,0.1566334,-0.49181718,0.7621301,2.1897576,-0.1437907,-0.06250206,0.19775863,-0.96762985,-9.144658,8.261971,0.7756493,-1.266267,-0.8641511,-0.11906753,1
2.1399999999999983,,,,,11.358023,-1.8973328,-0.97111005,0.1566334,-0.58322686,0.84452057,2.197542,-0.14387813,-0.065886594,0.20471549,-0.96594405,-9.137195,8.215883,0.7810882,-1.3646748,-0.88083565,-0.1055388,1
2.149999999999998,,,,,11.358023,-1.8973328,-0.97111005,0.1566334,-0.6745595,0.92644227,2.205377,-0.1439064,-0.06926229,0.21211144,-0.96410626,-9.1292515,8.168199,0.7857662,-1.4477359,-0.8949203,-0.09267396,1
2.159999999999998,,,,,11.358023,-1.8973328,-0.97111005,0.1566334,-0.76581025,1.0078789,2.2132547,-0.14387643,-0.07262714,0.21987401,-0.96212196,-9.120845,8.118844,0.7896151,-1.5178437,-0.9068099,-0.08044037,1
2.1699999999999977,,,,,11.303036,-1.4196616,-0.9278931,0.28577825,-0.8569748,1.0888133,2.2211661,-0.1437892,-0.07597941,0.22794186,-0.95999616,-9.111994,8.067758,0.7925698,-1.5770184,-0.91684645,-0.06880709,1
2.1799999999999975,,,,,11.303036,-1.4196616,-0.9278931,0.28577825,-0.94804883,1.1692294,2.2291002,-0.14361976,-0.07932493,0.23607859,-0.9577819,-9.102754,8.01516,0.7940871,-1.5524682,-0.918588,-0.05140748,1
2.1899999999999973,,,,,11.303036,-1.4196616,-0.9278931,0.28577825,-1.0390284,1.2491107,2.2370446,-0.1433465,-0.08266785,0.24409582,-0.9555278,-9.09308,7.960823,0.79462534,-1.5317471,-0.92005634,-0.03486168,1
