time-since-start [s],throttle_mpc,roll_mpc,pitch_mpc,yaw_mpc,throttle_nw,roll_nw,pitch_nw,yaw_nw,position_x [m],position_y [m],position_z [m],rotation_w [quaternion],rotation_x [quaternion],rotation_y [quaternion],rotation_z [quaternion],velocity_x [m/s],velocity_y [m/s],velocity_z [m/s],omega_x [rad/s],omega_y [rad/s],omega_z [rad/s],network_used
0.0,6.068986465644944,-2.221435830792923,-5.999999701118602,1.4741796908857425,11.659164,-1.6268084,-0.42212495,0.45475477,12.912894,-11.834263,1.0952393,-0.28953838,0.46283114,-0.235157,-0.80414927,-3.2239192,3.3651,0.09970869,0.13888502,0.9221162,0.8751289,0
0.01,6.068986465644944,-2.221435830792923,-5.999999701118602,1.4741796908857425,9.575928,-1.7906201,-0.65479213,0.40603864,12.880389,-11.80033,1.0959464,-0.28562206,0.46371028,-0.23829708,-0.804119,-3.2767549,3.4212508,0.04140948,0.042526856,0.11383341,0.8802469,0
0.02,6.068986465644944,-2.221435830792923,-5.999999701118602,1.4741796908857425,9.575928,-1.7906201,-0.65479213,0.40603864,12.847365,-11.765845,1.0960617,-0.28233284,0.46166155,-0.2399312,-0.8059714,-3.3276312,3.4753509,-0.018565461,-0.073091246,-0.60265046,0.88817626,0
0.03,6.068986465644944,-2.221435830792923,-5.999999701118602,1.4741796908857425,9.575928,-1.7906201,-0.65479213,0.40603864,12.813843,-11.73083,1.0955718,-0.27952442,0.4570378,-0.24012916,-0.8095187,-3.3764966,3.5273297,-0.079578176,-0.20270832,-1.2394011,0.8985781,0
0.04,6.068986465644944,-2.221435830792923,-5.999999701118602,1.4741796908857425,10.872637,-1.693587,-0.974571,-0.00045741862,12.779841,-11.695307,1.0944685,-0.27706623,0.45012686,-0.23895244,-0.8145685,-3.4233303,3.5771356,-0.14111416,-0.34207508,-1.8067923,0.91114676,0
0.05,6.068986465644944,-2.221435830792923,-5.999999701118602,1.4741796908857425,10.872637,-1.693587,-0.974571,-0.00045741862,12.745382,-11.659295,1.092749,-0.2748432,0.44116467,-0.23645581,-0.8209286,-3.4681277,3.624727,-0.20276347,-0.48777926,-2.3137531,0.92560726,0
0.060000000000000005,6.068986465644944,-2.221435830792923,-5.999999701118602,1.4741796908857425,10.872637,-1.693587,-0.974571,-0.00045741862,12.710485,-11.62282,1.0904139,-0.27275464,0.43034586,-0.23268859,-0.82841027,-3.5108917,3.6700673,-0.26420468,-0.6370994,-2.7679782,0.9417121,0
0.07,6.068986465644944,-2.221435830792923,-5.999999701118602,1.4741796908857425,10.872637,-1.693587,-0.974571,-0.00045741862,12.675172,-11.585902,1.0874666,-0.27071318,0.41783217,-0.22769581,-0.8368306,-3.5516262,3.713122,-0.32519153,-0.78788364,-3.1761065,0.95923877,0
0.08,9.42334239343103,-2.9387204535348794,-5.9999997725904395,2.1439361239688206,11.476238,-2.1397433,-0.88905054,0.05023237,12.6394615,-11.548567,1.0839124,-0.26864332,0.40375924,-0.22151919,-0.84601337,-3.5903325,3.753857,-0.38554168,-0.93844676,-3.5438712,0.9779875,0
0.09,9.42334239343103,-2.9387204535348794,-5.9999997725904395,2.1439361239688206,11.476238,-2.1397433,-0.88905054,0.05023237,12.603271,-11.510728,1.0798647,-0.26631558,0.38834864,-0.21407376,-0.85582346,-3.6473908,3.8135552,-0.42373058,-1.1691937,-3.8462107,1.0279489,0
0.09999999999999999,9.42334239343103,-2.9387204535348794,-5.9999997725904395,2.1439361239688206,11.476238,-2.1397433,-0.88905054,0.05023237,12.566523,-11.472309,1.0754433,-0.26353288,0.37176916,-0.2052765,-0.8661407,-3.7016144,3.869783,-0.46029872,-1.3908756,-4.1283345,1.0778661,0
0.10999999999999999,9.42334239343103,-2.9387204535348794,-5.9999997725904395,2.1439361239688206,11.476238,-2.1397433,-0.88905054,0.05023237,12.529246,-11.433345,1.0706646,-0.26027775,0.35405615,-0.19516823,-0.87681764,-3.7529857,3.922385,-0.4951932,-1.6037962,-4.392284,1.1276424,0
0.11999999999999998,9.42334239343103,-2.9387204535348794,-5.9999997725904395,2.1439361239688206,11.476238,-2.1397433,-0.88905054,0.05023237,12.491472,-11.393874,1.0655454,-0.25653458,0.33524176,-0.18378867,-0.8877076,-3.8015347,3.971283,-0.52831995,-1.8068519,-4.638418,1.177069,0
0.12999999999999998,13.255325539909013,-1.7237352919698599,-5.831932265428708,0.5575206014082126,12.01196,-2.1993454,-0.30459294,0.7200061,12.453223,-11.35393,1.0601087,-0.2523002,0.31538638,-0.17122851,-0.8986417,-3.8480287,4.0171523,-0.55850464,-1.9830536,-4.8509526,1.2245134,0
0.13999999999999999,13.255325539909013,-1.7237352919698599,-5.831932265428708,0.5575206014082126,12.01196,-2.1993454,-0.30459294,0.7200061,12.414428,-11.313455,1.0545301,-0.24790397,0.29456365,-0.1580382,-0.9092854,-3.9105954,4.077389,-0.55648744,-1.9425977,-5.003862,1.1917839,0
0.15,13.255325539909013,-1.7237352919698599,-5.831932265428708,0.5575206014082126,12.01196,-2.1993454,-0.30459294,0.7200061,12.375022,-11.272399,1.0489941,-0.2436319,0.27285832,-0.14467618,-0.91938066,-3.9699483,4.133141,-0.55001557,-1.9084702,-5.1329336,1.1606605,0
0.16,15.026409992562346,-0.5235739506902437,-4.179188170647638,-0.6153435541946615,13.750413,-1.1082786,0.28965655,0.21607162,12.335041,-11.230808,1.0435442,-0.2394376,0.2503775,-0.13115902,-0.9288586,-4.0256996,4.184275,-0.53928906,-1.8796794,-5.2418838,1.1310642,0
0.17,15.026409992562346,-0.5235739506902437,-4.179188170647638,-0.6153435541946615,13.750413,-1.1082786,0.28965655,0.21607162,12.294487,-11.188698,1.0382969,-0.23545453,0.2277412,-0.11807372,-0.9374187,-4.0844264,4.2369146,-0.50950515,-1.6686016,-5.075907,1.0453675,0
0.18000000000000002,15.026409992562346,-0.5235739506902437,-4.179188170647638,-0.6153435541946615,13.750413,-1.1082786,0.28965655,0.21607162,12.253368,-11.146088,1.0333681,-0.23181967,0.20547162,-0.10589513,-0.9448954,-4.138431,4.2844024,-0.4756853,-1.490393,-4.935863,0.963876,0
0.19000000000000003,15.026409992562346,-0.5235739506902437,-4.179188170647638,-0.6153435541946615,13.750413,-1.1082786,0.28965655,0.21607162,12.211735,-11.103026,1.0287955,-0.22850108,0.18352075,-0.09448554,-0.9514094,-4.187542,4.326984,-0.43832445,-1.3399361,-4.8176975,0.8863833,0
0.20000000000000004,15.239924217068406,-0.029623041005403684,-2.8162038943300076,-1.0948444721196926,13.87133,-0.44245675,0.79560786,-0.50229204,12.169636,-11.059565,1.0246122,-0.22547033,0.1618457,-0.08372804,-0.95705736,-4.23162,4.364874,-0.3978733,-1.2129095,-4.717991,0.8126931,0
0.21000000000000005,15.239924217068406,-0.029623041005403684,-2.8162038943300076,-1.0948444721196926,13.87133,-0.44245675,0.79560786,-0.50229204,12.127118,-11.015742,1.0208572,-0.22274783,0.14089377,-0.07382685,-0.96181184,-4.27113,4.398762,-0.35275334,-1.0288044,-4.4212475,0.7190897,0
0.22000000000000006,15.239924217068406,-0.029623041005403684,-2.8162038943300076,-1.0948444721196926,13.87133,-0.44245675,0.79560786,-0.50229204,12.084231,-10.971603,1.0175648,-0.22036496,0.121024445,-0.06494064,-0.96569926,-4.305525,4.4284563,-0.30539832,-0.87334293,-4.170818,0.63007945,0
0.23000000000000007,15.239924217068406,-0.029623041005403684,-2.8162038943300076,-1.0948444721196926,13.87133,-0.44245675,0.79560786,-0.50229204,12.041025,-10.927187,1.0147554,-0.21831053,0.10208134,-0.056915987,-0.9688552,-4.3349376,4.4543104,-0.25622705,-0.74207103,-3.9594712,0.5454369,0
0.24000000000000007,15.239924217068406,-0.029623041005403684,-2.8162038943300076,-1.0948444721196926,13.788292,-0.12992695,0.8608008,-0.5703177,11.99755,-10.88253,1.0124452,-0.21657196,0.083929144,-0.049622804,-0.9713856,-4.3594923,4.476628,-0.20559348,-0.63122743,-3.7811065,0.46494782,0
0.25000000000000006,15.239924217068406,-0.029623041005403684,-2.8162038943300076,-1.0948444721196926,13.788292,-0.12992695,0.8608008,-0.5703177,11.953853,-10.8376665,1.0106474,-0.21513589,0.06645135,-0.042951033,-0.97337353,-4.3793044,4.4956684,-0.15380068,-0.53763473,-3.630575,0.38840836,0
0.26000000000000006,15.239924217068406,-0.029623041005403684,-2.8162038943300076,-1.0948444721196926,13.788292,-0.12992695,0.8608008,-0.5703177,11.909981,-10.792627,1.0093722,-0.21398863,0.049548093,-0.036807764,-0.97488415,-4.3944798,4.511655,-0.10111177,-0.45860907,-3.5035322,0.3156247,0
0.2700000000000001,15.239924217068406,-0.029623041005403684,-2.8162038943300076,-1.0948444721196926,13.788292,-0.12992695,0.8608008,-0.5703177,11.865978,-10.747443,1.0086275,-0.21311651,0.033134054,-0.031114692,-0.9759689,-4.4051127,4.5247765,-0.047758523,-0.39188448,-3.396312,0.24641258,0
0.2800000000000001,16.059331832455413,0.4772389446214854,-0.3673010714235926,-1.3186547104694053,13.714737,-0.051716127,1.5388298,-0.26104024,11.821894,-10.702142,1.0084188,-0.21250597,0.0171366,-0.025805898,-0.9766686,-4.41129,4.5351934,0.0060519017,-0.33554664,-3.3058207,0.18059672,0
0.2900000000000001,16.059331832455413,0.4772389446214854,-0.3673010714235926,-1.3186547104694053,13.714737,-0.051716127,1.5388298,-0.26104024,11.777768,-10.656746,1.0087905,-0.21215177,0.0024091108,-0.021231992,-0.97700304,-4.4132447,4.5435057,0.068311825,-0.20898487,-2.847535,0.10702804,0
0.3000000000000001,16.059331832455413,0.4772389446214854,-0.3673010714235926,-1.3186547104694053,13.714737,-0.051716127,1.5388298,-0.26104024,11.733643,-10.611279,1.0097854,-0.21206093,-0.010375487,-0.017668843,-0.9770416,-4.4111023,4.5495543,0.13067225,-0.10210906,-2.4607315,0.037069388,0
0.3100000000000001,16.059331832455413,0.4772389446214854,-0.3673010714235926,-1.3186547104694053,13.714737,-0.051716127,1.5388298,-0.26104024,11.689557,-10.565761,1.0114039,-0.21223438,-0.021518508,-0.01496416,-0.97686726,-4.405368,4.553762,0.19300455,-0.011861235,-2.1342592,-0.029456383,0
0.3200000000000001,16.586762662704597,0.8482111337562472,2.0098602530217575,-1.3951935451281632,14.114987,-0.38233128,2.3342192,0.25102782,11.645545,-10.520209,1.0136452,-0.21266893,-0.031275425,-0.012988972,-0.97653735,-4.396471,4.5564837,0.25522554,0.06434171,-1.858707,-0.09271771,0
0.3300000000000001,16.586762662704597,0.8482111337562472,2.0098602530217575,-1.3951935451281632,14.114987,-0.38233128,2.3342192,0.25102782,11.601639,-10.474637,1.0165341,-0.21335207,-0.03896525,-0.011982031,-0.9761246,-4.3844523,4.558109,0.3225474,0.18656832,-1.2554209,-0.15663058,0
0.34000000000000014,16.586762662704597,0.8482111337562472,2.0098602530217575,-1.3951935451281632,14.114987,-0.38233128,2.3342192,0.25102782,11.557864,-10.429051,1.0200956,-0.21427508,-0.044060905,-0.012127569,-0.97570384,-4.370311,4.559068,0.38970754,0.28977236,-0.74622387,-0.21740726,0
0.35000000000000014,16.586762662704597,0.8482111337562472,2.0098602530217575,-1.3951935451281632,14.114987,-0.38233128,2.3342192,0.25102782,11.514237,-10.383456,1.024328,-0.21543397,-0.046968553,-0.013250984,-0.97529835,-4.354759,4.55988,0.4567422,0.37690842,-0.31644046,-0.27520156,0
0.36000000000000015,17.416968937650168,1.0915553987861881,3.960646577197108,-1.369369442566164,14.094849,-0.46890846,2.7757678,0.6302765,11.470772,-10.3378525,1.0292301,-0.21682085,-0.048030294,-0.015204292,-0.97491074,-4.3383956,4.5609813,0.5236969,0.45047373,0.046315603,-0.3301599,0
0.37000000000000016,17.416968937650168,1.0915553987861881,3.960646577197108,-1.369369442566164,14.094849,-0.46890846,2.7757678,0.6302765,11.427475,-10.292233,1.034843,-0.21840513,-0.04679436,-0.018126553,-0.9745672,-4.3209405,4.5628653,0.59887916,0.55060196,0.6567137,-0.38115418,0
0.38000000000000017,17.416968937650168,1.0915553987861881,3.960646577197108,-1.369369442566164,14.094849,-0.46890846,2.7757678,0.6302765,11.384352,-10.246591,1.0412079,-0.22015435,-0.04291709,-0.022121986,-0.9742695,-4.303994,4.566027,0.6740928,0.6351272,1.1719191,-0.42964622,0
0.3900000000000002,17.416968937650168,1.0915553987861881,3.960646577197108,-1.369369442566164,14.094849,-0.46890846,2.7757678,0.6302765,11.341392,-10.200907,1.0483252,-0.22205405,-0.03680919,-0.027026864,-0.9739646,-4.2883153,4.570998,0.74938256,0.7064761,1.6067785,-0.4757587,0
0.4000000000000002,17.649083166166648,1.096122972904898,4.789480693249385,-1.2692647268585047,15.102787,-0.32355323,2.9897273,0.8381026,11.298579,-10.155162,1.0561957,-0.22408837,-0.028816875,-0.032701448,-0.9735939,-4.274541,4.5782356,0.82475334,0.76669854,1.9738226,-0.5196085,0
0.4100000000000002,17.649083166166648,1.096122972904898,4.789480693249385,-1.2692647268585047,15.102787,-0.32355323,2.9897273,0.8381026,11.255894,-10.109331,1.064832,-0.22621705,-0.018910427,-0.03910221,-0.9731083,-4.2630777,4.5882716,0.9024817,0.8182778,2.4128857,-0.55639434,0
0.4200000000000002,17.649083166166648,1.096122972904898,4.789480693249385,-1.2692647268585047,15.102787,-0.32355323,2.9897273,0.8381026,11.213307,-10.063385,1.0742453,-0.22839859,-0.007082225,-0.046187256,-0.97244596,-4.2547164,4.601424,0.980178,0.8618049,2.7834792,-0.5913751,0
0.4300000000000002,17.649083166166648,1.096122972904898,4.789480693249385,-1.2692647268585047,15.102787,-0.32355323,2.9897273,0.8381026,11.170787,-10.01729,1.084435,-0.23061565,0.0063672625,-0.053847153,-0.97153324,-4.25001,4.618071,1.0577126,0.89853394,3.0962806,-0.6246394,0
0.4400000000000002,17.649083166166648,1.096122972904898,4.789480693249385,-1.2692647268585047,16.549755,-0.13598767,2.350731,0.41811907,11.128294,-9.971011,1.0953985,-0.232852,0.021182556,-0.06198729,-0.9703037,-4.249417,4.63853,1.1349049,0.9295242,3.3603027,-0.65627134,0
0.45000000000000023,17.649083166166648,1.096122972904898,4.789480693249385,-1.2692647268585047,16.549755,-0.13598767,2.350731,0.41811907,11.085784,-9.924506,1.1071312,-0.23509274,0.03714583,-0.07052561,-0.9686992,-4.253312,4.6630692,1.211529,0.9556704,3.5831523,-0.68635106,0
0.46000000000000024,17.649083166166648,1.096122972904898,4.789480693249385,-1.2692647268585047,16.549755,-0.13598767,2.350731,0.41811907,11.043211,-9.877734,1.1196262,-0.23732442,0.054070845,-0.07939079,-0.9666701,-4.261999,4.6919107,1.2873204,0.9777281,3.7712505,-0.71495485,0
0.47000000000000025,17.649083166166648,1.096122972904898,4.789480693249385,-1.2692647268585047,16.549755,-0.13598767,2.350731,0.41811907,11.000526,-9.830652,1.1328737,-0.23953484,0.071797945,-0.088520594,-0.9641746,-4.275717,4.725236,1.3619816,0.9963351,3.9300165,-0.74215496,0
0.48000000000000026,15.940386866432357,0.8696552276968665,4.480021742442961,-1.1301908752487655,15.734083,0.9683586,2.6028614,-0.33783227,10.957679,-9.783214,1.1468607,-0.24171314,0.090189874,-0.09786066,-0.9611786,-4.294645,4.763188,1.4351892,1.01203,4.0640244,-0.7680204,0
0.49000000000000027,15.940386866432357,0.8696552276968665,4.480021742442961,-1.1301908752487655,15.734083,0.9683586,2.6028614,-0.33783227,10.914626,-9.735393,1.161489,-0.24383724,0.109029874,-0.10724807,-0.9576817,-4.3165593,4.801733,1.4901909,0.9899069,4.1288986,-0.78579223,0
0.5000000000000002,15.940386866432357,0.8696552276968665,4.480021742442961,-1.1301908752487655,15.734083,0.9683586,2.6028614,-0.33783227,10.87133,-9.687165,1.176658,-0.24588774,0.12813891,-0.11655132,-0.95369595,-4.343338,4.844553,1.5432706,0.97122794,4.183655,-0.802692,0
0.5100000000000002,15.940386866432357,0.8696552276968665,4.480021742442961,-1.1301908752487655,15.734083,0.9683586,2.6028614,-0.33783227,10.827742,-9.638487,1.1923468,-0.24785925,0.14745772,-0.12576835,-0.94921273,-4.374986,4.8916245,1.594129,0.95545626,4.2298717,-0.8187625,0
0.5200000000000002,12.521151575701142,0.489907797990937,3.201838786377622,-0.961835517909625,12.282346,1.3656957,2.207005,-0.8545431,10.783813,-9.589318,1.208532,-0.24974717,0.16693434,-0.1348964,-0.94422597,-4.4114847,4.9429097,1.6424649,0.94213885,4.26888,-0.8340444,1
0.5300000000000002,12.521151575701142,0.489907797990937,3.201838786377622,-0.961835517909625,12.282346,1.3656957,2.207005,-0.8545431,10.739542,-9.539678,1.2250212,-0.25167808,0.18561362,-0.14389864,-0.93888193,-4.443264,4.9856267,1.6550392,1.0080202,3.9472954,-0.8350503,1
0.5400000000000003,12.521151575701142,0.489907797990937,3.201838786377622,-0.961835517909625,12.282346,1.3656957,2.207005,-0.8545431,10.694937,-9.489594,1.241625,-0.253773,0.20274806,-0.15275007,-0.9333597,-4.4783506,5.0314236,1.6653609,1.0636542,3.675867,-0.8360068,1
0.5500000000000003,12.521151575701142,0.489907797990937,3.201838786377622,-0.961835517909625,12.282346,1.3656957,2.207005,-0.8545431,10.649965,-9.439038,1.2583206,-0.2560169,0.218575,-0.16146407,-0.92769074,-4.5163493,5.080173,1.6733905,1.1106347,3.4467726,-0.8369164,1
0.5600000000000003,9.838895631227182,0.029181759277993997,1.5580730171422574,-0.7767423566622277,10.726073,1.1227893,0.93797153,-0.91332644,10.604601,-9.387981,1.275085,-0.25839335,0.23329405,-0.17005208,-0.92189455,-4.5569205,5.131763,1.6791006,1.1503079,3.2534094,-0.83778137,0
0.5700000000000003,9.838895631227182,0.029181759277993997,1.5580730171422574,-0.7767423566622277,10.726073,1.1227893,0.93797153,-0.91332644,10.558862,-9.336448,1.2917933,-0.26079553,0.24697249,-0.17796765,-0.9161432,-4.5912504,5.175263,1.6622947,0.97531885,2.9891198,-0.8347861,0
0.5800000000000003,9.838895631227182,0.029181759277993997,1.5580730171422574,-0.7767423566622277,10.726073,1.1227893,0.93797153,-0.91332644,10.512771,-9.284469,1.3083247,-0.26313266,0.2596787,-0.18478517,-0.91059494,-4.62724,5.2207127,1.6436849,0.8276429,2.7660303,-0.8319379,0
0.5900000000000003,9.838895631227182,0.029181759277993997,1.5580730171422574,-0.7767423566622277,10.726073,1.1227893,0.93797153,-0.91332644,10.466312,-9.232026,1.3246613,-0.26541084,0.27156767,-0.19067594,-0.90523547,-4.6647563,5.267881,1.6233505,0.70301676,2.5777187,-0.8292294,0
0.6000000000000003,7.853077102808975,-0.5568798182377677,-0.28171896601809987,-0.5753287671111093,11.119138,-0.22565475,-0.98539263,-0.003420902,10.419471,-9.179105,1.3407861,-0.2676345,0.28276873,-0.19578408,-0.900046,-4.703687,5.3165736,1.6013641,0.5978427,2.4187634,-0.82665384,0
0.6100000000000003,7.853077102808975,-0.5568798182377677,-0.28171896601809987,-0.5753287671111093,11.119138,-0.22565475,-0.98539263,-0.003420902,10.372273,-9.12574,1.3566077,-0.2698643,0.29278827,-0.19983058,-0.89527464,-4.735803,5.3565097,1.5627663,0.41752163,1.9977249,-0.8143212,0
0.6200000000000003,7.853077102808975,-0.5568798182377677,-0.28171896601809987,-0.5753287671111093,11.119138,-0.22565475,-0.98539263,-0.003420902,10.324752,-9.071972,1.3720378,-0.27215144,0.30124962,-0.20260513,-0.8911421,-4.768815,5.397306,1.5230851,0.2653631,1.6423296,-0.8025938,0
0.6300000000000003,7.853077102808975,-0.5568798182377677,-0.28171896601809987,-0.5753287671111093,11.119138,-0.22565475,-0.98539263,-0.003420902,10.2768955,-9.017793,1.3870664,-0.27448452,0.3084068,-0.2043109,-0.8875817,-4.8025827,5.438757,1.4825048,0.13696827,1.3423434,-0.79144186,0
0.6400000000000003,7.853077102808975,-0.5568798182377677,-0.28171896601809987,-0.5753287671111093,12.846049,-0.9482505,-2.336349,0.27943704,10.228698,-8.963196,1.4016854,-0.2768522,0.31447092,-0.2051179,-0.88452715,-4.836994,5.480693,1.4411877,0.028624972,1.0891279,-0.7808371,0
0.6500000000000004,7.853077102808975,-0.5568798182377677,-0.28171896601809987,-0.5753287671111093,12.846049,-0.9482505,-2.336349,0.27943704,10.180154,-8.908178,1.4158882,-0.2792438,0.3196177,-0.20516865,-0.8819149,-4.8719583,5.522972,1.3992755,-0.06279853,0.87539124,-0.7707527,0
0.6600000000000004,7.853077102808975,-0.5568798182377677,-0.28171896601809987,-0.5753287671111093,12.846049,-0.9482505,-2.336349,0.27943704,10.131258,-8.8527355,1.4296694,-0.28164977,0.3239936,-0.20458269,-0.87968636,-4.9074016,5.565477,1.3568904,-0.13994512,0.6949785,-0.76116323,0
0.6700000000000004,7.853077102808975,-0.5568798182377677,-0.28171896601809987,-0.5753287671111093,12.846049,-0.9482505,-2.336349,0.27943704,10.082005,-8.796868,1.4430248,-0.28406182,0.32772094,-0.20346047,-0.87778836,-4.943266,5.608109,1.3141376,-0.20504458,0.5426941,-0.7520443,0
0.6800000000000004,6.722926493407288,-0.9199618523351436,-1.5375756778483407,-0.3725891267442325,13.242403,0.21097395,-1.855438,-1.2306046,10.032391,-8.740575,1.4559512,-0.2864728,0.33090186,-0.20188642,-0.87617344,-4.979504,5.6507854,1.2711064,-0.2599783,0.41415277,-0.74337286,0
0.6900000000000004,6.722926493407288,-0.9199618523351436,-1.5375756778483407,-0.3725891267442325,13.242403,0.21097395,-1.855438,-1.2306046,9.982439,-8.683885,1.4684067,-0.2889079,0.33321875,-0.1996682,-0.87500334,-5.0108075,5.6872897,1.2199882,-0.36305106,0.10982744,-0.7251784,0
0.7000000000000004,6.722926493407288,-0.9199618523351436,-1.5375756778483407,-0.3725891267442325,13.242403,0.21097395,-1.855438,-1.2306046,9.932174,-8.626829,1.4803507,-0.291382,0.3344242,-0.19665696,-0.8744048,-5.0423226,5.7236543,1.168837,-0.45002073,-0.14704819,-0.7078768,0
0.7100000000000004,6.722926493407288,-0.9199618523351436,-1.5375756778483407,-0.3725891267442325,13.242403,0.21097395,-1.855438,-1.2306046,9.881592,-8.569412,1.4917836,-0.2938757,0.33469015,-0.19297633,-0.87428856,-5.0739803,5.759768,1.1177835,-0.52340394,-0.36387193,-0.69142413,0
0.7200000000000004,5.881016067153796,-1.1098075708563437,-2.5695837090826052,-0.1848841396894186,13.07721,0.9027043,-2.199079,-2.0520883,9.830693,-8.511635,1.502707,-0.2963723,0.33416036,-0.18873014,-0.8745753,-5.1057243,5.7955346,1.0669366,-0.58532387,-0.5468885,-0.67577887,0
0.7300000000000004,5.881016067153796,-1.1098075708563437,-2.5695837090826052,-0.1848841396894186,13.07721,0.9027043,-2.199079,-2.0520883,9.779494,-8.453523,1.5130969,-0.29889452,0.33262607,-0.18385145,-0.8753407,-5.133822,5.826776,1.0108875,-0.66085553,-0.8559189,-0.6522762,0
0.7400000000000004,5.881016067153796,-1.1098075708563437,-2.5695837090826052,-0.1848841396894186,13.07721,0.9027043,-2.199079,-2.0520883,9.728017,-8.395102,1.5229249,-0.30144492,0.32990265,-0.17824714,-0.876655,-5.1615777,5.857202,0.95476925,-0.7309662,-1.1231451,-0.6293412,0
0.7500000000000004,5.881016067153796,-1.1098075708563437,-2.5695837090826052,-0.1848841396894186,13.07721,0.9027043,-2.199079,-2.0520883,9.676263,-8.33638,1.5321941,-0.3039936,0.32616082,-0.17201686,-0.8784179,-5.189224,5.887045,0.8991391,-0.7901197,-1.3487034,-0.60753155,0
0.7600000000000005,5.125429492487656,-1.166645683943037,-3.189317111701472,0.005496666861482598,10.348921,-0.108167924,-1.3587697,-1.3173804,9.624234,-8.277363,1.5409096,-0.3065174,0.3215491,-0.16525489,-0.8805367,-5.2166996,5.916213,0.8440836,-0.8400294,-1.5390906,-0.58679205,0
0.7700000000000005,5.125429492487656,-1.166645683943037,-3.189317111701472,0.005496666861482598,10.348921,-0.108167924,-1.3587697,-1.3173804,9.571943,-8.218071,1.5490574,-0.3090217,0.31600854,-0.1580146,-0.8829928,-5.2412868,5.9418483,0.7854017,-0.87238216,-1.7778032,-0.55940676,0
0.7800000000000005,5.125429492487656,-1.166645683943037,-3.189317111701472,0.005496666861482598,10.348921,-0.108167924,-1.3587697,-1.3173804,9.519411,-8.158531,1.5566164,-0.3114934,0.3094684,-0.15028645,-0.8857855,-5.2649875,5.9660883,0.72634774,-0.91373396,-1.9933474,-0.5321073,0
0.7900000000000005,5.125429492487656,-1.166645683943037,-3.189317111701472,0.005496666861482598,10.348921,-0.108167924,-1.3587697,-1.3173804,9.466645,-8.098754,1.5635858,-0.3138937,0.30203974,-0.14208288,-0.8888509,-5.288161,5.9892983,0.6676331,-0.9532028,-2.1798608,-0.50572693,0
0.8000000000000005,4.935415021939061,-1.1796666116224628,-3.6322569735084427,0.1846502574968628,6.781405,-0.8842551,-1.0538538,0.014813887,9.41365,-8.038749,1.5699716,-0.31620055,0.29384267,-0.13346666,-0.8921105,-5.310962,6.011618,0.6096434,-0.98650277,-2.3372903,-0.48064107,0
0.8100000000000005,4.935415021939061,-1.1796666116224628,-3.6322569735084427,0.1846502574968628,6.781405,-0.8842551,-1.0538538,0.014813887,9.360429,-7.978526,1.5757803,-0.31840944,0.28484884,-0.12449629,-0.8955323,-5.3331532,6.032799,0.5520616,-1.0014988,-2.5241203,-0.4493581,0
0.8200000000000005,4.935415021939061,-1.1796666116224628,-3.6322569735084427,0.1846502574968628,6.781405,-0.8842551,-1.0538538,0.014813887,9.30699,-7.918098,1.5810122,-0.3205016,0.27501637,-0.11517371,-0.8990998,-5.3543816,6.05251,0.49433634,-1.0258824,-2.6935496,-0.4185595,0
0.8300000000000005,4.935415021939061,-1.1796666116224628,-3.6322569735084427,0.1846502574968628,6.781405,-0.8842551,-1.0538538,0.014813887,9.253343,-7.857479,1.5856688,-0.32244673,0.26443595,-0.105501816,-0.90275794,-5.37494,6.071023,0.43710536,-1.0498502,-2.8399544,-0.3889598,0
0.8400000000000005,4.935415021939061,-1.1796666116224628,-3.6322569735084427,0.1846502574968628,4.638821,-0.4937822,-1.270945,0.14724627,9.199492,-7.7966814,1.589757,-0.32422855,0.25320643,-0.095526986,-0.90644234,-5.3949213,6.0884085,0.38064852,-1.0700722,-2.963528,-0.3608126,0
0.8500000000000005,4.935415021939061,-1.1796666116224628,-3.6322569735084427,0.1846502574968628,4.638821,-0.4937822,-1.270945,0.14724627,9.145446,-7.7357154,1.5932844,-0.3258354,0.24141519,-0.085294396,-0.9100965,-5.414277,6.1046047,0.32495916,-1.0871345,-3.0678308,-0.33404657,0
0.8600000000000005,4.935415021939061,-1.1796666116224628,-3.6322569735084427,0.1846502574968628,4.638821,-0.4937822,-1.270945,0.14724627,9.091209,-7.6745934,1.5962586,-0.3272584,0.22913727,-0.07484284,-0.9136725,-5.432963,6.119557,0.27002028,-1.1015316,-3.1558678,-0.308594,0
0.8700000000000006,4.935415021939061,-1.1796666116224628,-3.6322569735084427,0.1846502574968628,4.638821,-0.4937822,-1.270945,0.14724627,9.036789,-7.6133285,1.5986873,-0.3284911,0.21643732,-0.06420569,-0.91712976,-5.4509377,6.133217,0.21580581,-1.1136807,-3.2301757,-0.28439036,0
0.8800000000000006,5.194951412950178,-1.1544550476593485,-3.1650640986267655,0.3400688254938544,3.2646513,-0.015654957,-0.8578263,0.03193425,8.982193,-7.5519333,1.6005772,-0.329529,0.20337114,-0.05341176,-0.92043406,-5.4681625,6.1455393,0.16228224,-1.1239334,-3.2928948,-0.2613744,0
0.8900000000000006,5.194951412950178,-1.1544550476593485,-3.1650640986267655,0.3400688254938544,3.2646513,-0.015654957,-0.8578263,0.03193425,8.927424,-7.490419,1.6019471,-0.33034495,0.19015552,-0.04256092,-0.9235273,-5.4854703,6.157064,0.111786164,-1.128627,-3.2729805,-0.23186141,0
0.9000000000000006,5.194951412950178,-1.1544550476593485,-3.1650640986267655,0.3400688254938544,3.2646513,-0.015654957,-0.8578263,0.03193425,8.872487,-7.428797,1.6028152,-0.33092052,0.17696825,-0.03173496,-0.9263735,-5.50194,6.167124,0.06191533,-1.1325928,-3.256171,-0.20379663,0
0.9100000000000006,5.194951412950178,-1.1544550476593485,-3.1650640986267655,0.3400688254938544,3.2646513,-0.015654957,-0.8578263,0.03193425,8.817389,-7.367082,1.6031873,-0.3312649,0.16380149,-0.020932438,-0.9289755,-5.5175624,6.1757083,0.012608051,-1.1359439,-3.2419825,-0.17710899,0
0.9200000000000006,5.197962573800879,-0.9811406208080318,-2.1861290126770694,0.48204116245985856,2.513171,-0.026707565,-0.18017705,0.1568306,8.762138,-7.3052883,1.6030691,-0.33138645,0.15064926,-0.010152343,-0.9313355,-5.5323296,6.1828084,-0.036196776,-1.138776,-3.2300057,-0.15173092,0
0.9300000000000006,5.197962573800879,-0.9811406208080318,-2.1861290126770694,0.48204116245985856,2.513171,-0.026707565,-0.18017705,0.1568306,8.706744,-7.2434306,1.6024652,-0.33128554,0.13784976,0.000408852,-0.9334068,-5.546245,6.188428,-0.084533215,-1.1141144,-3.067239,-0.12063157,0
0.9400000000000006,5.197962573800879,-0.9811406208080318,-2.1861290126770694,0.48204116245985856,2.513171,-0.026707565,-0.18017705,0.1568306,8.651216,-7.1815243,1.6013798,-0.33097035,0.12567462,0.010595185,-0.9351756,-5.5593295,6.192602,-0.13250312,-1.0933096,-2.929853,-0.09105825,0
0.9500000000000006,5.197962573800879,-0.9811406208080318,-2.1861290126770694,0.48204116245985856,2.513171,-0.026707565,-0.18017705,0.1568306,8.595559,-7.1195836,1.5998162,-0.33045775,0.11402944,0.020462194,-0.93668425,-5.571619,6.1953797,-0.1801756,-1.0757585,-2.8138905,-0.0629361,0
0.9600000000000006,5.226564896182178,-0.7994045079764884,-0.8872369177502086,0.5984838044630797,2.9929216,-0.7627725,0.27711192,0.7261132,8.539784,-7.057622,1.5977771,-0.32976156,0.10283402,0.030057058,-0.937966,-5.5831428,6.1968026,-0.22761138,-1.0609515,-2.7160106,-0.036193915,0
0.9700000000000006,5.226564896182178,-0.7994045079764884,-0.8872369177502086,0.5984838044630797,2.9929216,-0.7627725,0.27711192,0.7261132,8.483895,-6.995652,1.5952797,-0.32890183,0.09243917,0.0392747,-0.93900865,-5.594533,6.1969233,-0.272053,-1.0469067,-2.45763,-0.007457517,0
0.9800000000000006,5.226564896182178,-0.7994045079764884,-0.8872369177502086,0.5984838044630797,2.9929216,-0.7627725,0.27711192,0.7261132,8.427897,-6.9336877,1.5923318,-0.3279058,0.08315078,0.04797337,-0.939821,-5.6049585,6.1957707,-0.3177206,-1.0206559,-2.2251372,0.021156944,0
0.9900000000000007,5.226564896182178,-0.7994045079764884,-0.8872369177502086,0.5984838044630797,2.9929216,-0.7627725,0.27711192,0.7261132,8.371799,-6.871741,1.5889215,-0.3267921,0.07484247,0.05614672,-0.94045436,-5.614584,6.193485,-0.3643976,-0.98711306,-2.0175056,0.04939365,0
1.0000000000000007,5.443004055219083,-0.5904306933924839,-0.23282381891998863,0.6953622073385979,3.2375834,-0.1936473,0.69063574,0.7156823,8.315609,-6.8098216,1.5850437,-0.32557264,0.06738294,0.06383967,-0.94095045,-5.623677,6.190133,-0.41113928,-0.95781314,-1.8412569,0.07633766,0
1.0100000000000007,5.443004055219083,-0.5904306933924839,-0.23282381891998863,0.6953622073385979,3.2375834,-0.1936473,0.69063574,0.7156823,8.259327,-6.747943,1.5807172,-0.32426488,0.060836844,0.07101622,-0.94133365,-5.632907,6.185494,-0.45438564,-0.91477394,-1.6047107,0.10542511,0
1.0200000000000007,5.443004055219083,-0.5904306933924839,-0.23282381891998863,0.6953622073385979,3.2375834,-0.1936473,0.69063574,0.7156823,8.202954,-6.6861153,1.5759515,-0.32288662,0.055278014,0.077593155,-0.9416311,-5.641538,6.180011,-0.49885985,-0.86578566,-1.3923833,0.1342244,0
1.0300000000000007,5.443004055219083,-0.5904306933924839,-0.23282381891998863,0.6953622073385979,3.2375834,-0.1936473,0.69063574,0.7156823,8.146497,-6.6243463,1.5707395,-0.32144254,0.050577566,0.08362059,-0.9418734,-5.6498218,6.1736965,-0.54353625,-0.82283795,-1.2115618,0.16175959,0
1.0400000000000007,5.443004055219083,-0.5904306933924839,-0.23282381891998863,0.6953622073385979,4.0817146,0.075720154,1.3300021,0.97746915,8.089958,-6.5626445,1.5650805,-0.3199339,0.046605445,0.089183226,-0.94208163,-5.657845,6.166618,-0.58826864,-0.786592,-1.0589379,0.18794362,0
1.0500000000000007,5.443004055219083,-0.5904306933924839,-0.23282381891998863,0.6953622073385979,4.0817146,0.075720154,1.3300021,0.97746915,8.03334,-6.5010166,1.5589739,-0.31836095,0.043250654,0.09435424,-0.9422708,-5.6656604,6.1588445,-0.63306683,-0.7560014,-0.9301144,0.21284278,0
1.0600000000000007,5.443004055219083,-0.5904306933924839,-0.23282381891998863,0.6953622073385979,4.0817146,0.075720154,1.3300021,0.97746915,7.9766445,-6.4394693,1.552419,-0.31672367,0.040419247,0.09919524,-0.9424511,-5.673311,6.150435,-0.67793775,-0.730183,-0.8213801,0.23652016,0
1.0700000000000007,5.443004055219083,-0.5904306933924839,-0.23282381891998863,0.6953622073385979,4.0817146,0.075720154,1.3300021,0.97746915,7.919874,-6.3780093,1.5454149,-0.31502187,0.03803175,0.10375807,-0.9426295,-5.6808357,6.141439,-0.7228867,-0.708392,-0.7296021,0.25903565,0
1.0800000000000007,6.56056068129641,-0.37831876523880853,0.6551788420411075,0.7343316488134501,5.2493005,0.15285298,2.3875942,1.0350134,7.8630285,-6.3166423,1.537961,-0.31325543,0.036020946,0.108086355,-0.94281083,-5.6882653,6.1318984,-0.7679172,-0.68999994,-0.6521363,0.28044632,0
1.0900000000000007,6.56056068129641,-0.37831876523880853,0.6551788420411075,0.7343316488134501,5.2493005,0.15285298,2.3875942,1.0350134,7.8061013,-6.255384,1.5301107,-0.311462,0.0346391,0.112025656,-0.9429969,-5.6971445,6.119792,-0.8021529,-0.64142406,-0.4482617,0.3027186,0
1.1000000000000008,6.56056068129641,-0.37831876523880853,0.6551788420411075,0.7343316488134501,5.2493005,0.15285298,2.3875942,1.0350134,7.7490854,-6.1942487,1.5219177,-0.30967328,0.034083515,0.11545636,-0.9431924,-5.70602,6.1071677,-0.8364882,-0.60042304,-0.27618098,0.323898,0
1.1100000000000008,6.56056068129641,-0.37831876523880853,0.6551788420411075,0.7343316488134501,5.2493005,0.15285298,2.3875942,1.0350134,7.6919804,-6.1332417,1.5133806,-0.30788064,0.034227535,0.118458904,-0.9434018,-5.714967,6.094117,-0.8709194,-0.5658149,-0.13093606,0.34403813,0
1.1200000000000008,8.685930841846577,-0.10361383686243784,1.6263325163050064,0.7021261365391912,7.5321374,0.41740724,3.2603908,0.9615487,7.6347847,-6.072367,1.5044988,-0.30607632,0.034964044,0.12110081,-0.94362646,-5.7240486,6.0807157,-0.90544266,-0.53660226,-0.008342076,0.36318997,0
1.1300000000000008,8.685930841846577,-0.10361383686243784,1.6263325163050064,0.7021261365391912,7.5321374,0.41740724,3.2603908,0.9615487,7.577483,-6.0116506,1.4953743,-0.30430862,0.036535226,0.12321649,-0.94386476,-5.736333,6.0626044,-0.9194855,-0.4691408,0.24659537,0.37982163,0
1.1400000000000008,8.685930841846577,-0.10361383686243784,1.6263325163050064,0.7021261365391912,7.5321374,0.41740724,3.2603908,0.9615487,7.5200567,-5.9511156,1.4861088,-0.3026168,0.039128367,0.12467805,-0.94411284,-5.749003,6.0442758,-0.9336328,-0.41219497,0.46177438,0.3956372,0
1.1500000000000008,8.685930841846577,-0.10361383686243784,1.6263325163050064,0.7021261365391912,7.5321374,0.41740724,3.2603908,0.9615487,7.462501,-5.890765,1.4767014,-0.30098158,0.042585757,0.125588,-0.94436526,-5.762184,6.02588,-0.9478736,-0.36412492,0.64339536,0.4106767,0
1.1600000000000008,11.39166716889693,0.16857415990680247,2.521868457918891,0.5959926593508846,10.622537,0.43980917,3.4455,0.7699394,7.404811,-5.830598,1.467151,-0.29938596,0.046773955,0.12603228,-0.94461507,-5.7759843,6.007543,-0.9622011,-0.3235466,0.7966917,0.42497823,1
1.1700000000000008,11.39166716889693,0.16857415990680247,2.521868457918891,0.5959926593508846,10.622537,0.43980917,3.4455,0.7699394,7.3469634,-5.7706337,1.4575503,-0.29790884,0.05220386,0.12565936,-0.9448473,-5.793751,5.985347,-0.95795155,-0.204629,1.2098025,0.4419056,1
1.1800000000000008,11.39166716889693,0.16857415990680247,2.521868457918891,0.5959926593508846,10.622537,0.43980917,3.4455,0.7699394,7.288933,-5.7108893,1.4479916,-0.29660818,0.05927427,0.12419371,-0.9450332,-5.8126493,5.963674,-0.9537931,-0.104245715,1.5584861,0.45800227,1
1.1900000000000008,11.39166716889693,0.16857415990680247,2.521868457918891,0.5959926593508846,10.622537,0.43980917,3.4455,0.7699394,7.2307057,-5.6513577,1.438474,-0.29544017,0.06772916,0.121803015,-0.94514215,-5.832929,5.942827,-0.949728,-0.019506777,1.8527899,0.47330916,1
1.2000000000000008,13.027504279609543,0.3778601711244166,2.5405955455337224,0.45442292242273774,12.198543,0.6720308,3.6127017,0.6255094,7.172269,-5.592029,1.4289966,-0.29436585,0.077351175,0.118627734,-0.94514275,-5.8547997,5.9230633,-0.9457765,0.05202706,2.1011946,0.4878649,0
1.2100000000000009,13.027504279609543,0.3778601711244166,2.5405955455337224,0.45442292242273774,12.198543,0.6720308,3.6127017,0.6255094,7.113578,-5.5329127,1.4196732,-0.29334435,0.087616235,0.11491903,-0.9450227,-5.8837724,5.900405,-0.91890395,0.10282118,2.169735,0.48622394,0
1.2200000000000009,13.027504279609543,0.3778601711244166,2.5405955455337224,0.45442292242273774,12.198543,0.6720308,3.6127017,0.6255094,7.054586,-5.4740148,1.4106175,-0.29235077,0.0980989,0.110883504,-0.9447827,-5.9149666,5.879465,-0.8922667,0.14569727,2.227584,0.48466346,0
1.2300000000000009,13.027504279609543,0.3778601711244166,2.5405955455337224,0.45442292242273774,12.198543,0.6720308,3.6127017,0.6255094,6.9952707,-5.415317,1.4018269,-0.2913751,0.10876164,0.10657014,-0.9444131,-5.9484067,5.860333,-0.86592144,0.1818897,2.2764091,0.48317954,0
1.2400000000000009,13.027504279609543,0.3778601711244166,2.5405955455337224,0.45442292242273774,12.976952,0.33739147,3.2056215,0.4301437,6.93561,-5.356802,1.393298,-0.2904086,0.11957237,0.10202039,-0.94390625,-5.984111,5.8430834,-0.8399307,0.21244042,2.3176181,0.48176843,1
1.2500000000000009,13.027504279609543,0.3778601711244166,2.5405955455337224,0.45442292242273774,12.976952,0.33739147,3.2056215,0.4301437,6.8755813,-5.298449,1.3850245,-0.2894707,0.13075893,0.097207665,-0.94321865,-6.021958,5.8278465,-0.8148447,0.23188703,2.4561076,0.4792352,1
1.260000000000001,13.027504279609543,0.3778601711244166,2.5405955455337224,0.45442292242273774,12.976952,0.33739147,3.2056215,0.4301437,6.8151627,-5.2402377,1.3769994,-0.28857246,0.14249857,0.09211244,-0.9423043,-6.062177,5.81466,-0.79027516,0.24830805,2.5729988,0.47682625,1
1.270000000000001,13.027504279609543,0.3778601711244166,2.5405955455337224,0.45442292242273774,12.976952,0.33739147,3.2056215,0.4301437,6.754329,-5.182148,1.3692169,-0.28769583,0.15469736,0.086776644,-0.9411545,-6.1048646,5.803627,-0.766329,0.26217392,2.6716595,0.47453555,1
1.280000000000001,14.25317838927658,0.5575828663635426,2.293800665203953,0.2871078286548727,14.019014,0.36428437,3.3137972,0.38768327,6.693056,-5.1241574,1.3616704,-0.2868256,0.16727519,0.08123587,-0.9397622,-6.1500945,5.7948327,-0.74311924,0.27388218,2.7549336,0.47235724,0
1.290000000000001,14.25317838927658,0.5575828663635426,2.293800665203953,0.2871078286548727,14.019014,0.36428437,3.3137972,0.38768327,6.6312947,-5.066247,1.3544109,-0.28595272,0.17979488,0.075545326,-0.9381897,-6.2026052,5.7876997,-0.70890945,0.3181633,2.683032,0.463267,0
1.300000000000001,14.25317838927658,0.5575828663635426,2.293800665203953,0.2871078286548727,14.019014,0.36428437,3.3137972,0.38768327,6.5689945,-5.0083947,1.3474886,-0.28507915,0.19190888,0.06975203,-0.9365028,-6.2578545,5.7830987,-0.6757064,0.35553378,2.622341,0.4546228,0
1.310000000000001,14.25317838927658,0.5575828663635426,2.293800665203953,0.2871078286548727,14.019014,0.36428437,3.3137972,0.38768327,6.5061293,-4.950576,1.3408931,-0.28420705,0.20367488,0.06387285,-0.93470055,-6.315717,5.781015,-0.64356905,0.38707215,2.5711126,0.4464028,0
1.320000000000001,15.405820113166287,0.7227716997174777,1.5294562489739105,0.12608258937525224,14.710542,0.48049256,2.587316,0.28074938,6.442672,-4.8927655,1.3346136,-0.28333732,0.21514137,0.057922088,-0.93278134,-6.376084,5.7814336,-0.6125569,0.4136887,2.5278718,0.43858615,0
1.330000000000001,15.405820113166287,0.7227716997174777,1.5294562489739105,0.12608258937525224,14.710542,0.48049256,2.587316,0.28074938,6.3785734,-4.8349376,1.3286898,-0.28248668,0.22604467,0.05194124,-0.930811,-6.4439154,5.7845664,-0.5723751,0.46195835,2.3721788,0.42325148,0
1.340000000000001,15.405820113166287,0.7227716997174777,1.5294562489739105,0.12608258937525224,14.710542,0.48049256,2.587316,0.28074938,6.3137856,-4.777065,1.3231616,-0.2816758,0.23618066,0.0459651,-0.9288523,-6.514119,5.790312,-0.53346664,0.50268954,2.2407632,0.4086693,0
1.350000000000001,15.405820113166287,0.7227716997174777,1.5294562489739105,0.12608258937525224,14.710542,0.48049256,2.587316,0.28074938,6.248284,-4.719122,1.3180162,-0.2809089,0.24566694,0.03999574,-0.9268982,-6.5864806,5.7985964,-0.4958163,0.53705984,2.12984,0.39480266,0
1.360000000000001,15.72278823363518,0.8765692252531112,0.5874162104982059,0.0010017209382124845,15.315386,0.62125367,1.8529567,0.33081985,6.182049,-4.661084,1.313241,-0.2801879,0.25460252,0.034034792,-0.924941,-6.660818,5.8093557,-0.45941257,0.56606317,2.036213,0.38161653,0
1.370000000000001,15.72278823363518,0.8765692252531112,0.5874162104982059,0.0010017209382124845,15.315386,0.62125367,1.8529567,0.33081985,6.115053,-4.6029253,1.3088373,-0.27953196,0.26270518,0.028136168,-0.92306995,-6.738522,5.8227963,-0.42149323,0.6145647,1.8102787,0.3629397,0
1.380000000000001,15.72278823363518,0.8765692252531112,0.5874162104982059,0.0010017209382124845,15.315386,0.62125367,1.8529567,0.33081985,6.0472727,-4.54462,1.304807,-0.27896258,0.26975858,0.022343377,-0.92136467,-6.817791,5.8385797,-0.3847329,0.65548795,1.619576,0.34517926,0
1.390000000000001,15.72278823363518,0.8765692252531112,0.5874162104982059,0.0010017209382124845,15.315386,0.62125367,1.8529567,0.33081985,5.978693,-4.486146,1.301139,-0.2784818,0.2759278,0.016643452,-0.9198024,-6.898356,5.856587,-0.34902298,0.69001764,1.4586115,0.32829034,0
1.400000000000001,15.71354156988346,0.9896981228194138,-0.5583950816584708,-0.12530932730264072,15.834958,0.7990766,1.0444065,0.22440241,5.9093018,-4.427481,1.2978232,-0.27808914,0.2813516,0.011025224,-0.91836154,-6.9799914,5.8767195,-0.3142681,0.7191532,1.3227478,0.3122302,0
1.410000000000001,15.71354156988346,0.9896981228194138,-0.5583950816584708,-0.12530932730264072,15.834958,0.7990766,1.0444065,0.22440241,5.8390903,-4.368605,1.2948502,-0.277806,0.28571343,0.0055693504,-0.91714907,-7.062437,5.898865,-0.2804463,0.76141894,1.0293825,0.29076004,0
1.420000000000001,15.71354156988346,0.9896981228194138,-0.5583950816584708,-0.12530932730264072,15.834958,0.7990766,1.0444065,0.22440241,5.7680516,-4.309498,1.292212,-0.27765456,0.28877056,0.0003397424,-0.9162539,-7.1454277,5.922877,-0.24729359,0.79707634,0.78176564,0.2703434,0
1.430000000000001,15.71354156988346,0.9896981228194138,-0.5583950816584708,-0.12530932730264072,15.834958,0.7990766,1.0444065,0.22440241,5.696182,-4.2501416,1.2899028,-0.27763182,0.29072884,-0.0046951426,-0.9156293,-7.2286544,5.9485936,-0.21461402,0.8271597,0.5727632,0.2509286,0
1.440000000000001,15.71354156988346,0.9896981228194138,-0.5583950816584708,-0.12530932730264072,16.071806,1.0303024,-0.045859892,-0.06959714,5.6234784,-4.1905203,1.2879187,-0.27773285,0.29176095,-0.009562157,-0.9152325,-7.3118587,5.975882,-0.18223874,0.85254127,0.39635348,0.2324665,1
1.450000000000001,15.71354156988346,0.9896981228194138,-0.5583950816584708,-0.12530932730264072,16.071806,1.0303024,-0.045859892,-0.06959714,5.5499353,-4.1306157,1.2862724,-0.2779475,0.292195,-0.014357985,-0.91496617,-7.3967237,6.005294,-0.14706068,0.88027674,0.3273864,0.21764416,1
1.460000000000001,15.71354156988346,0.9896981228194138,-0.5583950816584708,-0.12530932730264072,16.071806,1.0303024,-0.045859892,-0.06959714,5.475545,-4.07041,1.2849773,-0.27826357,0.29229754,-0.019160911,-0.91474926,-7.4812255,6.0361676,-0.111982405,0.90368396,0.26917374,0.20354915,1
1.470000000000001,15.71354156988346,0.9896981228194138,-0.5583950816584708,-0.12530932730264072,16.071806,1.0303024,-0.045859892,-0.06959714,5.400312,-4.009887,1.2840326,-0.27867258,0.2921197,-0.02396728,-0.9145683,-7.5652747,6.0684853,-0.076960266,0.9234385,0.22003888,0.19014579,1
1.480000000000001,15.982074776055079,1.0184467987322148,-1.1641720872515955,-0.22518114530200858,16.227781,0.9110454,-0.46100911,-0.07930164,5.324241,-3.9490347,1.283438,-0.27916676,0.2917046,-0.02877411,-0.9144115,-7.6487937,6.1022315,-0.041959662,0.9401106,0.17856632,0.17740014,1
1.490000000000001,15.982074776055079,1.0184467987322148,-1.1641720872515955,-0.22518114530200858,16.227781,0.9110454,-0.46100911,-0.07930164,5.247334,-3.8878357,1.2831998,-0.27973127,0.29095,-0.033488624,-0.91431886,-7.732517,6.1377263,-0.0056555895,0.93559,0.07881659,0.16480371,1
1.500000000000001,15.982074776055079,1.0184467987322148,-1.1641720872515955,-0.22518114530200858,16.227781,0.9110454,-0.46100911,-0.07930164,5.1695933,-3.8262753,1.2833251,-0.28035486,0.28977716,-0.038037144,-0.91432244,-7.815534,6.174573,0.03072245,0.9317714,-0.005376447,0.1528254,1
1.5100000000000011,15.982074776055079,1.0184467987322148,-1.1641720872515955,-0.22518114530200858,16.227781,0.9110454,-0.46100911,-0.07930164,5.0910263,-3.76434,1.2838148,-0.28103518,0.28825083,-0.042443253,-0.9144021,-7.897749,6.212695,0.06723776,0.92854583,-0.07643929,0.14143486,1
1.5200000000000011,15.92831577525595,1.016120958106468,-1.7828832355077842,-0.2951728500407666,16.08313,0.8750039,-1.2938796,-0.30778053,5.011642,-3.7020173,1.2846705,-0.2817696,0.28642577,-0.046726983,-0.9145407,-7.9790792,6.2520275,0.103942014,0.9258214,-0.13641952,0.13060324,1
1.5300000000000011,15.92831577525595,1.016120958106468,-1.7828832355077842,-0.2951728500407666,16.08313,0.8750039,-1.2938796,-0.30778053,4.931452,-3.6392972,1.2858883,-0.28259298,0.2840485,-0.050790083,-0.9148115,-8.0587225,6.2921424,0.13968626,0.91790754,-0.31693828,0.109091625,1
1.5400000000000011,15.92831577525595,1.016120958106468,-1.7828832355077842,-0.2951728500407666,16.08313,0.8750039,-1.2938796,-0.30778053,4.850471,-3.576171,1.2874655,-0.2835373,0.28092042,-0.05455422,-0.91526836,-8.137239,6.3332624,0.1757909,0.9112215,-0.46930438,0.08863558,1
1.5500000000000012,15.92831577525595,1.016120958106468,-1.7828832355077842,-0.2951728500407666,16.08313,0.8750039,-1.2938796,-0.30778053,4.7687116,-3.512629,1.2894058,-0.2845949,0.2771576,-0.05806203,-0.9158712,-8.2144575,6.375251,0.21237858,0.90557325,-0.5979084,0.06918333,1
1.5600000000000012,16.127593991950263,0.9868859305904839,-2.3026010951094302,-0.3657028990977271,16.37675,0.5360201,-2.5913906,-0.17564277,4.6861873,-3.4486632,1.291715,-0.28575802,0.27285767,-0.061349686,-0.91658556,-8.290231,6.417995,0.24954848,0.9008024,-0.7064558,0.050685596,1
1.5700000000000012,16.127593991950263,0.9868859305904839,-2.3026010951094302,-0.3657028990977271,16.37675,0.5360201,-2.5913906,-0.17564277,4.6029058,-3.3842628,1.2944115,-0.28699932,0.26766443,-0.06417935,-0.91753477,-8.365764,6.462161,0.28988087,0.84391725,-1.0004185,0.039579596,1
1.5800000000000012,16.127593991950263,0.9868859305904839,-2.3026010951094302,-0.3657028990977271,16.37675,0.5360201,-2.5913906,-0.17564277,4.5188785,-3.3194187,1.2975156,-0.28829452,0.2612976,-0.06636365,-0.9188077,-8.439425,6.5067043,0.3310976,0.79589885,-1.2485365,0.029018577,1
1.5900000000000012,16.127593991950263,0.9868859305904839,-2.3026010951094302,-0.3657028990977271,16.37675,0.5360201,-2.5913906,-0.17564277,4.4341245,-3.2541287,1.3010372,-0.28963912,0.25393495,-0.0679989,-0.9203283,-8.510959,6.5513463,0.37338766,0.7553653,-1.4579594,0.01897579,1
1.6000000000000012,15.509596603559668,0.9129770709102307,-2.8871870747441575,-0.4218560278655021,17.186451,0.18313345,-4.2544065,0.4819128,4.348667,-3.1883926,1.3049877,-0.2910273,0.24572599,-0.06916657,-0.9220302,-8.580138,6.5958467,0.4168964,0.7211508,-1.6347224,0.009425789,0
1.6100000000000012,15.509596603559668,0.9129770709102307,-2.8871870747441575,-0.4218560278655021,17.186451,0.18313345,-4.2544065,0.4819128,4.262548,-3.122225,1.3093419,-0.29252535,0.23664549,-0.07003275,-0.92386425,-8.643229,6.6376634,0.4541663,0.7510422,-1.8300537,-0.011737334,0
1.6200000000000012,15.509596603559668,0.9129770709102307,-2.8871870747441575,-0.4218560278655021,17.186451,0.18313345,-4.2544065,0.4819128,4.1758113,-3.0556412,1.3140756,-0.2941856,0.22667886,-0.07073188,-0.925781,-8.703651,6.679011,0.4927906,0.77626854,-1.9949234,-0.031861972,0
1.6300000000000012,15.509596603559668,0.9129770709102307,-2.8871870747441575,-0.4218560278655021,17.186451,0.18313345,-4.2544065,0.4819128,4.088485,-2.9886467,1.3192025,-0.29598302,0.2159571,-0.071285,-0.92772686,-8.7611685,6.7197704,0.53283656,0.7975586,-2.1340818,-0.05099909,0
1.6400000000000012,15.509596603559668,0.9129770709102307,-2.8871870747441575,-0.4218560278655021,17.376635,-0.12955084,-4.9013286,1.1966628,4.0005984,-2.9212482,1.3247373,-0.29789534,0.20459126,-0.07171014,-0.92965615,-8.815573,6.7598352,0.5743384,0.81552756,-2.2515385,-0.06919713,0
1.6500000000000012,15.509596603559668,0.9129770709102307,-2.8871870747441575,-0.4218560278655021,17.376635,-0.12955084,-4.9013286,1.1966628,3.9121842,-2.853453,1.3306944,-0.29990315,0.1926756,-0.07202275,-0.93153054,-8.866683,6.7991085,0.6173024,0.83069384,-2.3506777,-0.08650218,0
1.6600000000000013,15.509596603559668,0.9129770709102307,-2.8871870747441575,-0.4218560278655021,17.376635,-0.12955084,-4.9013286,1.1966628,3.8232765,-2.785269,1.3370885,-0.30198926,0.18029043,-0.07223615,-0.9333177,-8.914338,6.8374996,0.66171074,0.8434952,-2.434356,-0.10295809,0
1.6700000000000013,15.509596603559668,0.9129770709102307,-2.8871870747441575,-0.4218560278655021,17.376635,-0.12955084,-4.9013286,1.1966628,3.7339098,-2.716706,1.3439335,-0.30413854,0.16750413,-0.07236181,-0.93499094,-8.958398,6.874928,0.7075251,0.8543006,-2.5049844,-0.1186065,0
1.6800000000000013,15.655925815536206,0.8432784455967257,-2.3326361243891904,-0.4472092325231731,18.396608,-0.7927944,-4.9176483,1.9120152,3.6441212,-2.647774,1.3512435,-0.30633765,0.15437515,-0.072409675,-0.9365279,-8.99874,6.911316,0.75468993,0.8634216,-2.5645978,-0.13348705,0
1.6900000000000013,15.655925815536206,0.8432784455967257,-2.3326361243891904,-0.4472092325231731,18.396608,-0.7927944,-4.9176483,1.9120152,3.5539463,-2.5784817,1.3590385,-0.30855817,0.14117052,-0.07243006,-0.9378799,-9.035613,6.9469333,0.80451286,0.860258,-2.528432,-0.14888151,0
1.7000000000000013,15.655925815536206,0.8432784455967257,-2.3326361243891904,-0.4472092325231731,18.396608,-0.7927944,-4.9176483,1.9120152,3.463422,-2.508839,1.3673377,-0.31077975,0.12810656,-0.072464556,-0.9390184,-9.068629,6.981417,0.855511,0.85758907,-2.4979055,-0.16352054,0
1.7100000000000013,15.655925815536206,0.8432784455967257,-2.3326361243891904,-0.4472092325231731,18.396608,-0.7927944,-4.9176483,1.9120152,3.3725867,-2.438857,1.3761523,-0.3130022,0.115160994,-0.07250931,-0.9399532,-9.097807,7.0147614,0.90756524,0.8553376,-2.4721394,-0.17744124,0
1.7200000000000013,15.687877433333746,0.7054173838271207,-1.635855438607001,-0.4645001561883877,18.69503,-1.3202363,-4.8434715,2.2800632,3.2814786,-2.3685477,1.3854923,-0.3152249,0.10231519,-0.07256113,-0.94069225,-9.123163,7.046956,0.9605614,0.8534383,-2.4503908,-0.19067883,0
1.7300000000000013,15.687877433333746,0.7054173838271207,-1.635855438607001,-0.4645001561883877,18.69503,-1.3202363,-4.8434715,2.2800632,3.1901362,-2.2979217,1.395368,-0.31742388,0.089833766,-0.072653554,-0.9412202,-9.144774,7.078062,1.014695,0.83035,-2.3233688,-0.20411533,0
1.7400000000000013,15.687877433333746,0.7054173838271207,-1.635855438607001,-0.4645001561883877,18.69503,-1.3202363,-4.8434715,2.2800632,3.0985959,-2.22699,1.4057885,-0.31958377,0.0779269,-0.072814405,-0.941538,-9.162718,7.1080565,1.0695271,0.8108628,-2.2161555,-0.21689247,0
1.7500000000000013,15.687877433333746,0.7054173838271207,-1.635855438607001,-0.4645001561883877,18.69503,-1.3202363,-4.8434715,2.2800632,3.0068936,-2.155764,1.4167604,-0.3217145,0.066506535,-0.073033325,-0.9416713,-9.177137,7.13699,1.1249355,0.7944147,-2.125662,-0.22904263,0
1.7600000000000013,15.242841809772019,0.4639666839487868,-0.7455188512969563,-0.43860101887867486,20.167955,-2.2120664,-5.2592382,3.1395369,2.9150648,-2.0842538,1.4282889,-0.32382366,0.055498127,-0.07330144,-0.9416407,-9.18816,7.164906,1.1808136,0.7805315,-2.049281,-0.2405966,0
1.7700000000000014,15.242841809772019,0.4639666839487868,-0.7455188512969563,-0.43860101887867486,20.167955,-2.2120664,-5.2592382,3.1395369,2.8231432,-2.0124733,1.4403563,-0.32588378,0.045205317,-0.07363617,-0.94145423,-9.195693,7.191083,1.2326857,0.73118347,-1.8459568,-0.25031275,0
1.7800000000000014,15.242841809772019,0.4639666839487868,-0.7455188512969563,-0.43860101887867486,20.167955,-2.2120664,-5.2592382,3.1395369,2.7311614,-1.9404353,1.4529437,-0.32787654,0.035865866,-0.074052356,-0.9411318,-9.200294,7.216403,1.2848238,0.68952894,-1.6743416,-0.25955212,0
1.7900000000000014,15.242841809772019,0.4639666839487868,-0.7455188512969563,-0.43860101887867486,20.167955,-2.2120664,-5.2592382,3.1395369,2.6391466,-1.868148,1.4660535,-0.32981876,0.02733245,-0.07453915,-0.9407011,-9.202211,7.240963,1.3371465,0.65436816,-1.52949,-0.2683381,0
1.8000000000000014,14.115106437373601,0.14676023037191344,-0.0456548473005203,-0.37015510187651,19.778122,-2.4885995,-5.1446366,3.5146174,2.5471253,-1.7956185,1.479687,-0.3317237,0.019480376,-0.075087026,-0.940183,-9.201658,7.264845,1.3895899,0.6246889,-1.4072285,-0.276693,0
1.8100000000000014,14.115106437373601,0.14676023037191344,-0.0456548473005203,-0.37015510187651,19.778122,-2.4885995,-5.1446366,3.5146174,2.4551203,-1.7228618,1.4937897,-0.33357093,0.012509032,-0.075661734,-0.9396017,-9.199043,7.286401,1.4309596,0.550191,-1.19488,-0.2812792,0
1.8200000000000014,14.115106437373601,0.14676023037191344,-0.0456548473005203,-0.37015510187651,19.778122,-2.4885995,-5.1446366,3.5146174,2.3631508,-1.649892,1.5083063,-0.3353457,0.0065708575,-0.07623647,-0.9389836,-9.194591,7.3074856,1.4723551,0.4873062,-1.0156491,-0.28564036,0
1.8300000000000014,14.115106437373601,0.14676023037191344,-0.0456548473005203,-0.37015510187651,19.778122,-2.4885995,-5.1446366,3.5146174,2.271234,-1.5767133,1.5232368,-0.3370642,0.0015051927,-0.07681327,-0.9383428,-9.1885605,7.3281827,1.5137494,0.43422404,-0.8643704,-0.2897875,0
1.8400000000000014,14.115106437373601,0.14676023037191344,-0.0456548473005203,-0.37015510187651,18.669983,-2.4221766,-4.780394,3.3729415,2.1793845,-1.5033294,1.5385811,-0.3387392,-0.0028237165,-0.07739346,-0.93768877,-9.181171,7.3485656,1.5551249,0.38941625,-0.7366847,-0.29373115,0
1.8500000000000014,14.115106437373601,0.14676023037191344,-0.0456548473005203,-0.37015510187651,18.669983,-2.4221766,-4.780394,3.3729415,2.0876145,-1.4297429,1.5543392,-0.34038067,-0.0065305377,-0.077977814,-0.9370272,-9.172609,7.368696,1.59647,0.35159323,-0.6289126,-0.29748127,0
1.8600000000000014,14.115106437373601,0.14676023037191344,-0.0456548473005203,-0.37015510187651,18.669983,-2.4221766,-4.780394,3.3729415,1.9959356,-1.3559562,1.5705104,-0.34199652,-0.009712104,-0.078566775,-0.93636185,-9.163031,7.388629,1.6377774,0.31966615,-0.5379484,-0.3010474,0
1.8700000000000014,14.115106437373601,0.14676023037191344,-0.0456548473005203,-0.37015510187651,18.669983,-2.4221766,-4.780394,3.3729415,1.9043571,-1.2819709,1.5870945,-0.34359306,-0.012450171,-0.07916052,-0.9356947,-9.152564,7.4084086,1.679043,0.2927156,-0.46117082,-0.30443853,0
1.8800000000000014,14.400203322973093,0.019863462044659785,0.5336191651456769,-0.3196012938265664,20.445606,-3.3123057,-5.4594173,3.84961,1.8128872,-1.2077883,1.604091,-0.34517527,-0.01481376,-0.07975901,-0.9350269,-9.141321,7.428074,1.7202644,0.26996607,-0.39636737,-0.3076633,0
1.8900000000000015,14.400203322973093,0.019863462044659785,0.5336191651456769,-0.3196012938265664,20.445606,-3.3123057,-5.4594173,3.84961,1.7215343,-1.1334077,1.6215137,-0.34672365,-0.016627382,-0.08039475,-0.93436885,-9.129169,7.4480605,1.7642537,0.23099157,-0.25132868,-0.30824912,0
1.9000000000000015,14.400203322973093,0.019863462044659785,0.5336191651456769,-0.3196012938265664,20.445606,-3.3123057,-5.4594173,3.84961,1.6303054,-1.0588272,1.639376,-0.3482222,-0.017755158,-0.08109387,-0.93373024,-9.116503,7.468048,1.808198,0.19809088,-0.12891,-0.30880615,0
1.9100000000000015,14.400203322973093,0.019863462044659785,0.5336191651456769,-0.3196012938265664,20.445606,-3.3123057,-5.4594173,3.84961,1.5392053,-0.9840464,1.6576775,-0.3496789,-0.018304158,-0.08184746,-0.9331092,-9.103489,7.4881167,1.8520995,0.17031708,-0.025583513,-0.30933586,0
1.9200000000000015,13.562291974244246,-0.09794822098291352,0.22638313197410798,-0.23761730712644705,20.588848,-3.4536233,-5.3098483,4.1658096,1.4482363,-0.90906423,1.6764177,-0.35110041,-0.018364722,-0.082647786,-0.9325035,-9.09027,7.5083346,1.895961,0.14687145,0.061628573,-0.3098396,0
1.9300000000000015,13.562291974244246,-0.09794822098291352,0.22638313197410798,-0.23761730712644705,20.588848,-3.4536233,-5.3098483,4.1658096,1.3573962,-0.83388484,1.6955551,-0.35249355,-0.018111955,-0.083400786,-0.93191564,-9.077735,7.527564,1.9315274,0.10869701,0.08733007,-0.30629563,0
1.9400000000000015,13.562291974244246,-0.09794822098291352,0.22638313197410798,-0.23761730712644705,20.588848,-3.4536233,-5.3098483,4.1658096,1.2666817,-0.75851226,1.7150481,-0.35386297,-0.017688518,-0.084031254,-0.93134797,-9.065185,7.546983,1.967065,0.076474905,0.10902193,-0.30292556,0
1.9500000000000015,13.562291974244246,-0.09794822098291352,0.22638313197410798,-0.23761730712644705,20.588848,-3.4536233,-5.3098483,4.1658096,1.1760924,-0.6829446,1.7348963,-0.3552103,-0.017121045,-0.08455846,-0.9307978,-9.0526705,7.5665774,2.0025804,0.04927706,0.1273298,-0.29972085,0
1.9600000000000015,12.302590753130639,-0.1665692927948944,-0.13860673044088034,-0.13917507504613924,20.11001,-3.0908306,-5.1911798,3.8970327,1.0856279,-0.6071801,1.7550995,-0.35653716,-0.016432026,-0.08499863,-0.9302627,-9.040236,7.5863366,2.0380788,0.026319936,0.14278162,-0.29667342,0
1.9700000000000015,12.302590753130639,-0.1665692927948944,-0.13860673044088034,-0.13917507504613924,20.11001,-3.0908306,-5.1911798,3.8970327,0.9952815,-0.5312265,1.7755957,-0.3578465,-0.015767539,-0.085287526,-0.9297448,-9.0290575,7.6043963,2.0611572,-0.0037701083,0.09890499,-0.28894493,0
1.9800000000000015,12.302590753130639,-0.1665692927948944,-0.13860673044088034,-0.13917507504613924,20.11001,-3.0908306,-5.1911798,3.8970327,0.90504646,-0.4550919,1.7963226,-0.35913938,-0.015244357,-0.08537472,-0.92924684,-9.017975,7.622542,2.0842316,-0.029165762,0.061869778,-0.28159568,0
1.9900000000000015,12.302590753130639,-0.1665692927948944,-0.13860673044088034,-0.13917507504613924,20.11001,-3.0908306,-5.1911798,3.8970327,0.8149218,-0.3787756,1.8172803,-0.36041453,-0.014840561,-0.085291475,-0.92876726,-9.006975,7.640719,2.1073089,-0.0505996,0.030609291,-0.27460706,0
2.0000000000000013,,,,,19.908848,-2.5025806,-4.83298,3.0324545,0.7249067,-0.30227754,1.8384688,-0.361671,-0.014537664,-0.085064165,-0.9283043,-8.996045,7.658882,2.1303947,-0.06868971,0.004223118,-0.26796138,0
2.010000000000001,,,,,19.908848,-2.5025806,-4.83298,3.0324545,0.6349938,-0.22560939,1.859813,-0.36291724,-0.01455909,-0.08462563,-0.9278576,-8.986519,7.674732,2.1384187,-0.08267301,-0.117410764,-0.25624976,0
2.020000000000001,,,,,19.908848,-2.5025806,-4.83298,3.0324545,0.54517627,-0.14878339,1.8812373,-0.36415797,-0.015081117,-0.08392337,-0.92742676,-8.976971,7.690445,2.1464612,-0.0944707,-0.22007626,-0.24511287,0
2.0300000000000007,,,,,19.908848,-2.5025806,-4.83298,3.0324545,0.4554547,-0.07180128,1.9027423,-0.3653877,-0.016025875,-0.08299777,-0.9270104,-8.967327,7.705934,2.154528,-0.10442478,-0.30673155,-0.23452246,0
2.0400000000000005,,,,,19.908848,-2.5025806,-4.83298,3.0324545,0.3658303,0.0053342823,1.924328,-0.36660194,-0.01732764,-0.08188293,-0.92660666,-8.957525,7.721127,2.1626227,-0.11282334,-0.37987337,-0.2244517,0
2.0500000000000003,,,,,20.941017,-3.2439468,-5.655096,3.8903098,0.2763049,0.08262003,1.9459949,-0.367797,-0.018930927,-0.0806077,-0.9262134,-8.947513,7.735962,2.1707485,-0.11990975,-0.44160914,-0.21487513,1
2.06,,,,,20.941017,-3.2439468,-5.655096,3.8903098,0.1869444,0.1601417,1.9684018,-0.36868525,-0.021700295,-0.078427926,-0.92598665,-8.924532,7.768062,2.3099253,-0.2833475,-0.9309362,-0.04240983,1
2.07,,,,,20.941017,-3.2439468,-5.655096,3.8903098,0.09781639,0.23797277,1.992178,-0.36898077,-0.02641302,-0.07453958,-0.9260677,-8.90093,7.7976885,2.4446247,-0.46991923,-1.3927166,0.12594873,1
2.0799999999999996,,,,,20.941017,-3.2439468,-5.655096,3.8903098,0.008929487,0.31608364,2.0172794,-0.36867896,-0.03290543,-0.06888729,-0.92641765,-8.87625,7.823878,2.574973,-0.6751652,-1.8303877,0.29032487,1
2.0899999999999994,,,,,19.920864,-3.6140747,-6.1328764,4.3992033,-0.07970366,0.3944354,2.0436628,-0.3677706,-0.041035127,-0.061428163,-0.9269787,-8.85013,7.8457317,2.7010522,-0.89533055,-2.2468598,0.4508378,1
2.099999999999999,,,,,19.920864,-3.6140747,-6.1328764,4.3992033,-0.16806607,0.47298127,2.0712948,-0.36619276,-0.05057307,-0.05235642,-0.92768854,-8.822054,7.86258,2.8247256,-1.0592532,-2.5726407,0.62133783,1
2.109999999999999,,,,,19.920864,-3.6140747,-6.1328764,4.3992033,-0.25613788,0.55166715,2.100144,-0.363888,-0.061319318,-0.041844092,-0.92848074,-8.791975,7.873648,2.944433,-1.2394686,-2.8895729,0.7872184,1
2.1199999999999988,,,,,19.920864,-3.6140747,-6.1328764,4.3992033,-0.34389812,0.6304326,2.1301694,-0.36085066,-0.073195845,-0.029832756,-0.92926913,-8.759724,7.878397,3.0600266,-1.4330463,-3.1986446,0.9486709,1
2.1299999999999986,,,,,18.306614,-2.7242258,-5.610075,1.9354993,-0.43132445,0.70921177,2.1613295,-0.35707256,-0.0861318,-0.016276838,-0.92995566,-8.725169,7.8763247,3.1713042,-1.6374782,-3.500654,1.1058747,1
2.1399999999999983,,,,,18.306614,-2.7242258,-5.610075,1.9354993,-0.51841587,0.7879391,2.1934524,-0.35279775,-0.10018836,-0.0012208258,-0.9303206,-8.692673,7.868099,3.2531638,-1.8066179,-3.8297865,1.1465845,1
2.149999999999998,,,,,18.306614,-2.7242258,-5.610075,1.9354993,-0.60516787,0.86654955,2.226389,-0.34824884,-0.11533056,0.015113492,-0.9301586,-8.657256,7.852862,3.3340101,-1.9494076,-4.1075773,1.1852969,1
2.159999999999998,,,,,18.306614,-2.7242258,-5.610075,1.9354993,-0.6915502,0.9449706,2.2601275,-0.34338912,-0.13136576,0.032517076,-0.929393,-8.618697,7.830138,3.4134047,-2.0699553,-4.342034,1.2221094,1
