time-since-start [s],throttle_mpc,roll_mpc,pitch_mpc,yaw_mpc,throttle_nw,roll_nw,pitch_nw,yaw_nw,position_x [m],position_y [m],position_z [m],rotation_w [quaternion],rotation_x [quaternion],rotation_y [quaternion],rotation_z [quaternion],velocity_x [m/s],velocity_y [m/s],velocity_z [m/s],omega_x [rad/s],omega_y [rad/s],omega_z [rad/s],network_used
0.0,8.019556818739495,5.999972530446997,-5.999999978121251,-5.999999515297406,16.393993,-0.61594486,-5.9985766,-0.70527875,20.112762,-8.386233,1.9987928,-0.22254972,-0.46882477,0.36461872,0.7731288,-9.608006,-6.707891,-0.7064802,1.569262,-0.22384872,-0.037498042,0
0.01,8.019556818739495,5.999972530446997,-5.999999978121251,-5.999999515297406,17.583084,-0.78874713,-10.450089,-1.5035937,20.01633,-8.453163,1.9913546,-0.17407392,-0.46261567,0.37992498,0.78188366,-9.678258,-6.677051,-0.78131634,5.9999723,-6.0,-5.9999995,0
0.02,8.019556818739495,5.999972530446997,-5.999999978121251,-5.999999515297406,17.583084,-0.78874713,-10.450089,-1.5035937,19.919209,-8.519753,1.9831637,-0.12512824,-0.4551578,0.39420572,0.78852785,-9.745748,-6.640052,-0.85696906,5.9999723,-6.0,-5.9999995,0
0.03,8.019556818739495,5.999972530446997,-5.999999978121251,-5.999999515297406,17.583084,-0.78874713,-10.450089,-1.5035937,19.821426,-8.585944,1.9742132,-0.07584479,-0.44647124,0.4074223,0.79304355,-9.80987,-6.5971766,-0.9332105,5.9999723,-6.0,-5.9999995,0
0.04,8.019556818739495,5.999972530446997,-5.999999978121251,-5.999999515297406,17.081942,-3.7074282,-5.6341743,-0.027006766,19.723024,-8.651678,1.9644984,-0.026356606,-0.43657953,0.41953912,0.7954185,-9.870053,-6.5487695,-1.0098064,5.9999723,-6.0,-5.9999995,0
0.05,8.019556818739495,5.999972530446997,-5.999999978121251,-5.999999515297406,17.081942,-3.7074282,-5.6341743,-0.027006766,19.624043,-8.716902,1.9540168,0.023202725,-0.4255093,0.43052343,0.7956463,-9.925773,-6.495238,-1.086519,5.9999723,-6.0,-5.9999995,0
0.060000000000000005,8.019556818739495,5.999972530446997,-5.999999978121251,-5.999999515297406,17.081942,-3.7074282,-5.6341743,-0.027006766,19.524527,-8.781567,1.9427685,0.07269943,-0.4132905,0.4403456,0.7937264,-9.976547,-6.4370403,-1.1631086,5.9999723,-6.0,-5.9999995,0
0.07,8.019556818739495,5.999972530446997,-5.999999978121251,-5.999999515297406,17.081942,-3.7074282,-5.6341743,-0.027006766,19.42453,-8.845628,1.930756,0.12199988,-0.39995602,0.44897908,0.78966385,-10.021953,-6.374688,-1.2393377,5.9999723,-6.0,-5.9999995,0
0.08,17.2288773202959,5.999997407831231,-5.999999944488942,-3.802722533445426,17.292595,-5.733454,0.6863397,0.72416914,19.324108,-8.909048,1.9179839,0.170971,-0.38554192,0.45640063,0.78346974,-10.06162,-6.3087373,-1.3149719,5.9999723,-6.0,-5.9999995,0
0.09,17.2288773202959,5.999997407831231,-5.999999944488942,-3.802722533445426,17.292595,-5.733454,0.6863397,0.72416914,19.22312,-8.971399,1.904592,0.21092667,-0.3651771,0.46694788,0.77724856,-10.133856,-6.160586,-1.3630738,5.9999976,-6.0,-3.8027225,0
0.09999999999999999,17.2288773202959,5.999997407831231,-5.999999944488942,-3.802722533445426,17.292595,-5.733454,0.6863397,0.72416914,19.121477,-9.032242,1.8907291,0.2504265,-0.34402308,0.476486,0.7693476,-10.192583,-6.0072336,-1.4092035,5.9999976,-6.0,-3.8027225,0
0.10999999999999999,17.2288773202959,5.999997407831231,-5.999999944488942,-3.802722533445426,17.292595,-5.733454,0.6863397,0.72416914,19.019316,-9.09153,1.8764153,0.2893851,-0.32212558,0.48499435,0.759784,-10.237395,-5.849968,-1.453211,5.9999976,-6.0,-3.8027225,0
0.11999999999999998,17.2288773202959,5.999997407831231,-5.999999944488942,-3.802722533445426,17.292595,-5.733454,0.6863397,0.72416914,18.91678,-9.149232,1.8616724,0.32771832,-0.29953197,0.4924546,0.74857837,-10.268009,-5.6901097,-1.4949646,5.9999976,-6.0,-3.8027225,0
0.12999999999999998,20.999999425404745,2.886699447229666,-5.999999786533113,0.9405478524202566,21.348738,-6.483649,3.2683725,1.7389039,18.814007,-9.205328,1.846524,0.36534327,-0.276291,0.49885058,0.735755,-10.284262,-5.5290027,-1.5343521,5.9999976,-6.0,-3.8027225,0
0.13999999999999999,20.999999425404745,2.886699447229666,-5.999999786533113,0.9405478524202566,21.348738,-6.483649,3.2683725,1.7389039,18.711134,-9.259639,1.8310641,0.3806272,-0.24644868,0.499527,0.73814535,-10.288493,-5.333247,-1.5566458,2.8866994,-6.0,0.9405478,0
0.15,20.999999425404745,2.886699447229666,-5.999999786533113,0.9405478524202566,21.348738,-6.483649,3.2683725,1.7389039,18.60828,-9.312002,1.8154122,0.39548084,-0.21632776,0.49963883,0.7397013,-10.280418,-5.140086,-1.5728419,2.8866994,-6.0,0.9405478,0
0.16,20.999999592634968,0.4709827829658695,-5.931803636919205,2.3690115467798645,20.96306,-7.092075,0.7477496,1.4877645,18.50557,-9.362452,1.7996267,0.4098875,-0.1859623,0.49918586,0.7404211,-10.260011,-4.950332,-1.583411,2.8866994,-6.0,0.9405478,0
0.17,20.999999592634968,0.4709827829658695,-5.931803636919205,2.3690115467798645,20.96306,-7.092075,0.7477496,1.4877645,18.403118,-9.411024,1.7837647,0.4161492,-0.15703359,0.49072084,0.749235,-10.228819,-4.765055,-1.5877701,0.4709828,-5.9318037,2.3690116,0
0.18000000000000002,20.999999592634968,0.4709827829658695,-5.931803636919205,2.3690115467798645,20.96306,-7.092075,0.7477496,1.4877645,18.301022,-9.457771,1.767897,0.4219842,-0.12794384,0.48175263,0.7572806,-10.189344,-4.585381,-1.5846434,0.4709828,-5.9318037,2.3690116,0
0.19000000000000003,20.999999592634968,0.4709827829658695,-5.931803636919205,2.3690115467798645,20.96306,-7.092075,0.7477496,1.4877645,18.199362,-9.502753,1.7520956,0.42738646,-0.098722905,0.47229046,0.7645496,-10.141513,-4.411883,-1.5745839,0.4709828,-5.9318037,2.3690116,0
0.20000000000000004,20.999999294952662,-0.12963041660515137,-2.6356977624300226,2.0301649004915956,23.601772,-5.440216,1.1705973,1.0248829,18.09822,-9.546033,1.7364272,0.4323505,-0.069400735,0.4623439,0.77103466,-10.085285,-4.245109,-1.5581733,0.4709828,-5.9318037,2.3690116,0
0.21000000000000005,20.999999294952662,-0.12963041660515137,-2.6356977624300226,2.0301649004915956,23.601772,-5.440216,1.1705973,1.0248829,17.997679,-9.587675,1.7209492,0.430512,-0.054817777,0.45678708,0.77653056,-10.0225935,-4.084065,-1.5369743,-0.12963042,-2.6356978,2.030165,0
0.22000000000000006,20.999999294952662,-0.12963041660515137,-2.6356977624300226,2.0301649004915956,23.601772,-5.440216,1.1705973,1.0248829,17.897781,-9.627725,1.7056975,0.42855427,-0.04021963,0.4511037,0.78181124,-9.956654,-3.9264905,-1.5129277,-0.12963042,-2.6356978,2.030165,0
0.23000000000000007,20.999999294952662,-0.12963041660515137,-2.6356977624300226,2.0301649004915956,23.601772,-5.440216,1.1705973,1.0248829,17.79856,-9.666217,1.6906999,0.42647773,-0.025610337,0.44529527,0.78687525,-9.887426,-3.7724745,-1.4861907,-0.12963042,-2.6356978,2.030165,0
0.24000000000000007,20.999999294952662,-0.12963041660515137,-2.6356977624300226,2.0301649004915956,21.59655,-4.9785347,3.4156382,1.0906072,17.700045,-9.703187,1.6759825,0.42428303,-0.0109939445,0.43936342,0.79172117,-9.814879,-3.6221018,-1.4569236,-0.12963042,-2.6356978,2.030165,0
0.25000000000000006,20.999999294952662,-0.12963041660515137,-2.6356977624300226,2.0301649004915956,21.59655,-4.9785347,3.4156382,1.0906072,17.602272,-9.738672,1.6615697,0.42197073,0.003625494,0.43330985,0.79634774,-9.738979,-3.475453,-1.4252893,-0.12963042,-2.6356978,2.030165,0
0.26000000000000006,20.999999294952662,-0.12963041660515137,-2.6356977624300226,2.0301649004915956,21.59655,-4.9785347,3.4156382,1.0906072,17.505276,-9.77271,1.6474843,0.4195415,0.018243928,0.42713618,0.8007536,-9.659701,-3.332605,-1.3914535,-0.12963042,-2.6356978,2.030165,0
0.2700000000000001,20.999999294952662,-0.12963041660515137,-2.6356977624300226,2.0301649004915956,21.59655,-4.9785347,3.4156382,1.0906072,17.409088,-9.805337,1.6337476,0.416996,0.032857306,0.42084417,0.8049376,-9.577023,-3.19363,-1.3555841,-0.12963042,-2.6356978,2.030165,0
0.2800000000000001,20.99999725429263,-1.1289726773754083,0.9466476645732005,1.56604853566513,20.86393,-4.9439397,4.7115083,0.61319476,17.313745,-9.836596,1.620379,0.41433492,0.04746158,0.41443554,0.8088985,-9.490922,-3.0585966,-1.3178518,-0.12963042,-2.6356978,2.030165,0
0.2900000000000001,20.99999725429263,-1.1289726773754083,0.9466476645732005,1.56604853566513,20.86393,-4.9439397,4.7115083,0.61319476,17.219275,-9.866518,1.6073958,0.40628356,0.044536453,0.41143504,0.8146601,-9.403726,-2.9258132,-1.2786033,-1.1289726,0.94664764,1.5660485,0
0.3000000000000001,20.99999725429263,-1.1289726773754083,0.9466476645732005,1.56604853566513,20.86393,-4.9439397,4.7115083,0.61319476,17.12566,-9.895109,1.594811,0.39818522,0.041606177,0.40838698,0.8203274,-9.319334,-2.7924182,-1.2382003,-1.1289726,0.94664764,1.5660485,0
0.3100000000000001,20.99999725429263,-1.1289726773754083,0.9466476645732005,1.56604853566513,20.86393,-4.9439397,4.7115083,0.61319476,17.032877,-9.922364,1.5826359,0.39004087,0.03867109,0.4052917,0.82589996,-9.237759,-2.6584773,-1.1966413,-1.1289726,0.94664764,1.5660485,0
0.3200000000000001,20.834142503879562,-1.2291440421271773,3.287765447649568,1.28660527707578,20.442442,-4.338114,4.8287926,-0.11342943,16.940895,-9.948277,1.5708821,0.38185146,0.035731535,0.4021496,0.8313771,-9.159013,-2.5240557,-1.1539252,-1.1289726,0.94664764,1.5660485,0
0.3300000000000001,20.834142503879562,-1.2291440421271773,3.287765447649568,1.28660527707578,20.442442,-4.338114,4.8287926,-0.11342943,16.84968,-9.972847,1.5595543,0.3700459,0.022299498,0.4030172,0.83674693,-9.085056,-2.3891172,-1.1115828,-1.2291441,3.2877655,1.2866052,0
0.34000000000000014,20.834142503879562,-1.2291440421271773,3.287765447649568,1.28660527707578,20.442442,-4.338114,4.8287926,-0.11342943,16.75917,-9.996049,1.54865,0.35811105,0.008859668,0.40374398,0.84182435,-9.017591,-2.2508137,-1.0692455,-1.2291441,3.2877655,1.2866052,0
0.35000000000000014,20.834142503879562,-1.2291440421271773,3.287765447649568,1.28660527707578,20.442442,-4.338114,4.8287926,-0.11342943,16.669304,-10.017851,1.5381688,0.34605113,-0.0045832573,0.40432975,0.8466077,-8.956731,-2.109372,-1.0270168,-1.2291441,3.2877655,1.2866052,0
0.36000000000000015,19.581022982742162,-1.42953490238174,4.6718584405351535,0.8834592277937887,21.581644,-2.7817721,4.0071383,-0.20691867,16.580015,-10.038225,1.5281088,0.33387026,-0.018024582,0.40477422,0.8510952,-8.9025755,-1.9650233,-0.9850001,-1.2291441,3.2877655,1.2866052,0
0.37000000000000016,19.581022982742162,-1.42953490238174,4.6718584405351535,0.8834592277937887,21.581644,-2.7817721,4.0071383,-0.20691867,16.491215,-10.057185,1.518425,0.32042515,-0.038496297,0.40644455,0.85477954,-8.858949,-1.8263664,-0.95193034,-1.4295349,4.6718583,0.8834592,0
0.38000000000000017,19.581022982742162,-1.42953490238174,4.6718584405351535,0.8834592277937887,21.581644,-2.7817721,4.0071383,-0.20691867,16.402807,-10.074741,1.5090667,0.30678257,-0.05894429,0.40786442,0.8579371,-8.824169,-1.6842368,-0.91993815,-1.4295349,4.6718583,0.8834592,0
0.3900000000000002,19.581022982742162,-1.42953490238174,4.6718584405351535,0.8834592277937887,21.581644,-2.7817721,4.0071383,-0.20691867,16.314701,-10.090859,1.5000218,0.292951,-0.079355955,0.40903297,0.86056596,-8.798346,-1.5390239,-0.8892717,-1.4295349,4.6718583,0.8834592,0
0.4000000000000002,18.717753332885437,-1.0969267583707378,2.352583619531905,0.5908444385389285,18.12981,-2.2587466,2.5525107,0.24796507,16.226809,-10.105513,1.4912759,0.27893886,-0.09971872,0.40994948,0.8626646,-8.781567,-1.3911247,-0.8601758,-1.4295349,4.6718583,0.8834592,0
0.4100000000000002,18.717753332885437,-1.0969267583707378,2.352583619531905,0.5908444385389285,18.12981,-2.2587466,2.5525107,0.24796507,16.139042,-10.11871,1.4827859,0.27099675,-0.11017582,0.4087575,0.86448765,-8.7727585,-1.2480657,-0.8379009,-1.0969268,2.3525836,0.59084445,0
0.4200000000000002,18.717753332885437,-1.0969267583707378,2.352583619531905,0.5908444385389285,18.12981,-2.2587466,2.5525107,0.24796507,16.051336,-10.130472,1.4745164,0.26300663,-0.12061341,0.4074931,0.86615753,-8.768745,-1.1043913,-0.8161045,-1.0969268,2.3525836,0.59084445,0
0.4300000000000002,18.717753332885437,-1.0969267583707378,2.352583619531905,0.5908444385389285,18.12981,-2.2587466,2.5525107,0.24796507,15.963649,-10.140795,1.4664621,0.25496992,-0.13102962,0.40615654,0.867674,-8.769535,-0.9602164,-0.7948456,-1.0969268,2.3525836,0.59084445,0
0.4400000000000002,18.717753332885437,-1.0969267583707378,2.352583619531905,0.5908444385389285,17.752275,-1.7437627,2.0485168,0.09952696,15.875929,-10.149674,1.4586176,0.246888,-0.14142263,0.404748,0.8690366,-8.77513,-0.81565624,-0.7741827,-1.0969268,2.3525836,0.59084445,1
0.45000000000000023,18.717753332885437,-1.0969267583707378,2.352583619531905,0.5908444385389285,17.752275,-1.7437627,2.0485168,0.09952696,15.788132,-10.157145,1.4509469,0.24105464,-0.15226182,0.39973366,0.8711611,-8.78506,-0.67859674,-0.7599056,-1.7437627,2.0485168,0.09952696,1
0.46000000000000024,18.717753332885437,-1.0969267583707378,2.352583619531905,0.5908444385389285,17.752275,-1.7437627,2.0485168,0.09952696,15.700211,-10.163248,1.4434205,0.23517762,-0.16307344,0.39464688,0.87312776,-8.799713,-0.5421864,-0.74535555,-1.7437627,2.0485168,0.09952696,1
0.47000000000000025,18.717753332885437,-1.0969267583707378,2.352583619531905,0.5908444385389285,17.752275,-1.7437627,2.0485168,0.09952696,15.61212,-10.167992,1.4360405,0.22925799,-0.1738555,0.38948864,0.87493616,-8.819078,-0.40652674,-0.73061055,-1.7437627,2.0485168,0.09952696,1
0.48000000000000026,18.549594087841758,-0.8853211362500573,2.6086502716007933,0.35276755766797085,17.990578,-1.843321,1.8050729,0.20541042,15.523812,-10.171382,1.4288088,0.22329684,-0.18460608,0.38425982,0.87658614,-8.843142,-0.27171907,-0.71574855,-1.7437627,2.0485168,0.09952696,1
0.49000000000000027,18.549594087841758,-0.8853211362500573,2.6086502716007933,0.35276755766797085,17.990578,-1.843321,1.8050729,0.20541042,15.435239,-10.173421,1.4217339,0.21720849,-0.19416526,0.3783536,0.87861747,-8.872169,-0.136148,-0.69920856,-1.843321,1.8050729,0.20541042,1
0.5000000000000002,18.549594087841758,-0.8853211362500573,2.6086502716007933,0.35276755766797085,17.990578,-1.843321,1.8050729,0.20541042,15.3463545,-10.17411,1.4148257,0.21108375,-0.20369191,0.372384,0.8805016,-8.905648,-0.0018564649,-0.6823767,-1.843321,1.8050729,0.20541042,1
0.5100000000000002,18.549594087841758,-0.8853211362500573,2.6086502716007933,0.35276755766797085,17.990578,-1.843321,1.8050729,0.20541042,15.2571125,-10.173464,1.408087,0.2049237,-0.21318446,0.36635205,0.8822384,-8.943555,0.13106047,-0.6653219,-1.843321,1.8050729,0.20541042,1
0.5200000000000002,17.897135562849325,-0.10865549217777433,1.3752798825787589,0.24958157485098287,17.700777,-1.8283296,1.9727838,0.14919391,15.16747,-10.171495,1.4015197,0.19872932,-0.2226413,0.36025876,0.8838273,-8.985861,0.2625086,-0.64811367,-1.843321,1.8050729,0.20541042,0
0.5300000000000002,17.897135562849325,-0.10865549217777433,1.3752798825787589,0.24958157485098287,17.700777,-1.8283296,1.9727838,0.14919391,15.077385,-10.1682205,1.3951205,0.19502328,-0.22837174,0.3614141,0.8827183,-9.031464,0.39244196,-0.63189876,-0.10865549,1.3752799,0.24958158,0
0.5400000000000003,17.897135562849325,-0.10865549217777433,1.3752798825787589,0.24958157485098287,17.700777,-1.8283296,1.9727838,0.14919391,14.986833,-10.163646,1.3888774,0.19130766,-0.23409095,0.36255172,0.881566,-9.079184,0.5226912,-0.61691415,-0.10865549,1.3752799,0.24958158,0
0.5500000000000003,17.897135562849325,-0.10865549217777433,1.3752798825787589,0.24958157485098287,17.700777,-1.8283296,1.9727838,0.14919391,14.895792,-10.157766,1.3827779,0.18758264,-0.23979865,0.3636715,0.8803703,-9.129015,0.6532273,-0.6031777,-0.10865549,1.3752799,0.24958158,0
0.5600000000000003,18.103607165933358,0.411388121969356,0.4941053010358809,0.10689775017946106,17.638573,-1.0919145,1.4174032,0.0027888883,14.804243,-10.15058,1.3768095,0.18384843,-0.24549459,0.36477342,0.87913144,-9.18095,0.7840215,-0.5907072,-0.10865549,1.3752799,0.24958158,0
0.5700000000000003,18.103607165933358,0.411388121969356,0.4941053010358809,0.10689775017946106,17.638573,-1.0919145,1.4174032,0.0027888883,14.712164,-10.1420765,1.3709661,0.18298136,-0.24709208,0.36716524,0.87786824,-9.234944,0.9167076,-0.57811373,0.41138813,0.4941053,0.10689775,0
0.5800000000000003,18.103607165933358,0.411388121969356,0.4941053010358809,0.10689775017946106,17.638573,-1.0919145,1.4174032,0.0027888883,14.619543,-10.132243,1.365244,0.18211232,-0.24868695,0.36955312,0.8765957,-9.28929,1.0500137,-0.5664407,0.41138813,0.4941053,0.10689775,0
0.5900000000000003,18.103607165933358,0.411388121969356,0.4941053010358809,0.10689775017946106,17.638573,-1.0919145,1.4174032,0.0027888883,14.526377,-10.121074,1.3596342,0.18124138,-0.25027916,0.3719371,0.8753138,-9.343984,1.1839336,-0.5556927,0.41138813,0.4941053,0.10689775,0
0.6000000000000003,17.676358492921985,0.2958112579595094,-0.6003142331112974,0.017872827318311555,16.734398,-1.119894,0.9738711,-0.09450258,14.432661,-10.1085615,1.354127,0.18036851,-0.25186872,0.37431714,0.87402266,-9.399028,1.3184613,-0.54587394,0.41138813,0.4941053,0.10689775,0
0.6100000000000003,17.676358492921985,0.2958112579595094,-0.6003142331112974,0.017872827318311555,16.734398,-1.119894,0.9738711,-0.09450258,14.338402,-10.094718,1.3487022,0.18178546,-0.24894369,0.3750889,0.8742362,-9.452563,1.4502596,-0.5390533,0.29581127,-0.60031426,0.017872827,0
0.6200000000000003,17.676358492921985,0.2958112579595094,-0.6003142331112974,0.017872827318311555,16.734398,-1.119894,0.9738711,-0.09450258,14.243612,-10.0795555,1.3433472,0.18320037,-0.24601582,0.37585643,0.87444,-9.504976,1.5822606,-0.53192115,0.29581127,-0.60031426,0.017872827,0
0.6300000000000003,17.676358492921985,0.2958112579595094,-0.6003142331112974,0.017872827318311555,16.734398,-1.119894,0.9738711,-0.09450258,14.148305,-10.063072,1.338065,0.18461324,-0.2430852,0.3766198,0.874634,-9.556264,1.7144588,-0.52448225,0.29581127,-0.60031426,0.017872827,0
0.6400000000000003,17.676358492921985,0.2958112579595094,-0.6003142331112974,0.017872827318311555,16.22736,-1.4835758,0.8872564,-0.12408948,14.05249,-10.045266,1.3328588,0.18602403,-0.24015187,0.37737888,0.8748182,-9.606423,1.8468481,-0.51674145,0.29581127,-0.60031426,0.017872827,0
0.6500000000000004,17.676358492921985,0.2958112579595094,-0.6003142331112974,0.017872827318311555,16.22736,-1.4835758,0.8872564,-0.12408948,13.956181,-10.0261345,1.3277314,0.18743274,-0.23721583,0.37813377,0.8749926,-9.655454,1.979423,-0.5087037,0.29581127,-0.60031426,0.017872827,0
0.6600000000000004,17.676358492921985,0.2958112579595094,-0.6003142331112974,0.017872827318311555,16.22736,-1.4835758,0.8872564,-0.12408948,13.8593855,-10.005678,1.3226857,0.18883935,-0.23427713,0.3788844,0.8751572,-9.703352,2.1121776,-0.500374,0.29581127,-0.60031426,0.017872827,0
0.6700000000000004,17.676358492921985,0.2958112579595094,-0.6003142331112974,0.017872827318311555,16.22736,-1.4835758,0.8872564,-0.12408948,13.762117,-9.9838915,1.317725,0.19024384,-0.2313358,0.37963083,0.875312,-9.750115,2.2451057,-0.49175718,0.29581127,-0.60031426,0.017872827,0
0.6800000000000004,17.420840832363016,0.14412832507317355,-0.8486684981426011,-0.06444879015866081,16.162956,-1.4525142,0.76901704,-0.12901859,13.664388,-9.960775,1.3128515,0.19164619,-0.2283919,0.38037297,0.8754569,-9.795743,2.378202,-0.48285818,0.29581127,-0.60031426,0.017872827,0
0.6900000000000004,17.420840832363016,0.14412832507317355,-0.8486684981426011,-0.06444879015866081,16.162956,-1.4525142,0.76901704,-0.12901859,13.566212,-9.936338,1.3080612,0.19370514,-0.22465938,0.3801135,0.876082,-9.839505,2.5094445,-0.4750871,0.14412832,-0.8486685,-0.06444879,0
0.7000000000000004,17.420840832363016,0.14412832507317355,-0.8486684981426011,-0.06444879015866081,16.162956,-1.4525142,0.76901704,-0.12901859,13.467603,-9.910589,1.303352,0.19576049,-0.2209227,0.37984696,0.8766908,-9.881922,2.6405985,-0.4666608,0.14412832,-0.8486685,-0.06444879,0
0.7100000000000004,17.420840832363016,0.14412832507317355,-0.8486684981426011,-0.06444879015866081,16.162956,-1.4525142,0.76901704,-0.12901859,13.368577,-9.883528,1.2987303,0.1978122,-0.21718188,0.37957332,0.8772833,-9.922989,2.7716537,-0.45758653,0.14412832,-0.8486685,-0.06444879,0
0.7200000000000004,16.97135241355233,-0.03683497530879665,-1.2864592993192971,-0.1315544963292143,16.068628,-1.7082037,0.67751235,-0.13767624,13.269147,-9.855157,1.2942026,0.19986022,-0.213437,0.37929264,0.8778594,-9.962705,2.9026003,-0.44787157,0.14412832,-0.8486685,-0.06444879,0
0.7300000000000004,16.97135241355233,-0.03683497530879665,-1.2864592993192971,-0.1315544963292143,16.068628,-1.7082037,0.67751235,-0.13767624,13.1693325,-9.825494,1.2897618,0.20283385,-0.20807222,0.37769708,0.87915236,-9.999905,3.029925,-0.44010893,-0.036834974,-1.2864593,-0.1315545,0
0.7400000000000004,16.97135241355233,-0.03683497530879665,-1.2864592993192971,-0.1315544963292143,16.068628,-1.7082037,0.67751235,-0.13767624,13.069155,-9.7945595,1.2854046,0.205799,-0.20269874,0.3760857,0.88040847,-10.035322,3.1567779,-0.43117478,-0.036834974,-1.2864593,-0.1315545,0
0.7500000000000004,16.97135241355233,-0.03683497530879665,-1.2864592993192971,-0.1315544963292143,16.068628,-1.7082037,0.67751235,-0.13767624,12.968632,-9.76236,1.2811424,0.20875554,-0.19731677,0.37445858,0.88162774,-10.068954,3.2831354,-0.4210852,-0.036834974,-1.2864593,-0.1315545,0
0.7600000000000005,16.638952226211586,-0.16536501503147485,-1.3718218306191903,-0.17954671247912965,16.073095,-1.7928793,0.1316869,-0.30563208,12.867782,-9.728899,1.2769868,0.21170336,-0.19192654,0.37281582,0.8828101,-10.100796,3.4089754,-0.40985653,-0.036834974,-1.2864593,-0.1315545,0
0.7700000000000005,16.638952226211586,-0.16536501503147485,-1.3718218306191903,-0.17954671247912965,16.073095,-1.7928793,0.1316869,-0.30563208,12.766625,-9.694195,1.2729385,0.21488923,-0.18637636,0.3704525,0.88422334,-10.130253,3.5317574,-0.39959604,-0.16536501,-1.3718219,-0.17954671,0
0.7800000000000005,16.638952226211586,-0.16536501503147485,-1.3718218306191903,-0.17954671247912965,16.073095,-1.7928793,0.1316869,-0.30563208,12.665182,-9.658268,1.2689992,0.21806467,-0.18081714,0.36807117,0.88559365,-10.157939,3.6538157,-0.38805926,-0.16536501,-1.3718219,-0.17954671,0
0.7900000000000005,16.638952226211586,-0.16536501503147485,-1.3718218306191903,-0.17954671247912965,16.073095,-1.7928793,0.1316869,-0.30563208,12.563473,-9.621122,1.2651817,0.22122951,-0.17524914,0.36567196,0.886921,-10.183851,3.7751253,-0.37526503,-0.16536501,-1.3718219,-0.17954671,0
0.8000000000000005,16.28646612722242,-0.23370896135826097,-1.3080888216827649,-0.20842205997535046,15.475746,-1.4630891,0.2664835,-0.3145099,12.461513,-9.5827675,1.2614982,0.22438362,-0.16967264,0.36325505,0.88820523,-10.207989,3.8956604,-0.36123237,-0.16536501,-1.3718219,-0.17954671,0
0.8100000000000005,16.28646612722242,-0.23370896135826097,-1.3080888216827649,-0.20842205997535046,15.475746,-1.4630891,0.2664835,-0.3145099,12.359322,-9.543224,1.2579492,0.22748172,-0.16450034,0.36056456,0.88948554,-10.229929,4.0128436,-0.34837607,-0.23370896,-1.3080888,-0.20842206,0
0.8200000000000005,16.28646612722242,-0.23370896135826097,-1.3080888216827649,-0.20842205997535046,15.475746,-1.4630891,0.2664835,-0.3145099,12.256919,-9.502514,1.2545348,0.23056951,-0.15932061,0.3578578,0.89072555,-10.250275,4.1291776,-0.33432898,-0.23370896,-1.3080888,-0.20842206,0
0.8300000000000005,16.28646612722242,-0.23370896135826097,-1.3080888216827649,-0.20842205997535046,15.475746,-1.4630891,0.2664835,-0.3145099,12.154321,-9.460645,1.2512667,0.2336469,-0.15413365,0.35513481,0.89192533,-10.269024,4.24464,-0.31910878,-0.23370896,-1.3080888,-0.20842206,0
0.8400000000000005,16.28646612722242,-0.23370896135826097,-1.3080888216827649,-0.20842205997535046,14.91763,-1.2260077,-0.11226241,-0.3121966,12.051544,-9.417624,1.2481567,0.23671369,-0.14893974,0.35239577,0.8930847,-10.286178,4.359207,-0.30273333,-0.23370896,-1.3080888,-0.20842206,0
0.8500000000000005,16.28646612722242,-0.23370896135826097,-1.3080888216827649,-0.20842205997535046,14.91763,-1.2260077,-0.11226241,-0.3121966,11.948604,-9.373464,1.2452159,0.2397698,-0.14373907,0.34964082,0.8942037,-10.301735,4.4728565,-0.28522074,-0.23370896,-1.3080888,-0.20842206,0
0.8600000000000005,16.28646612722242,-0.23370896135826097,-1.3080888216827649,-0.20842205997535046,14.91763,-1.2260077,-0.11226241,-0.3121966,11.845514,-9.328172,1.2424558,0.24281505,-0.13853192,0.34686998,0.8952823,-10.315697,4.585566,-0.2665892,-0.23370896,-1.3080888,-0.20842206,0
0.8700000000000006,16.28646612722242,-0.23370896135826097,-1.3080888216827649,-0.20842205997535046,14.91763,-1.2260077,-0.11226241,-0.3121966,11.742293,-9.281756,1.2398877,0.24584933,-0.1333185,0.3440835,0.8963204,-10.328062,4.697312,-0.24685726,-0.23370896,-1.3080888,-0.20842206,0
0.8800000000000006,15.97660868686888,-0.289469180507452,-1.0574431483102926,-0.2262722927012134,13.951535,-1.1857163,-0.2099701,-0.34129813,11.638959,-9.234229,1.2375224,0.24887249,-0.12809904,0.34128144,0.89731795,-10.338833,4.808073,-0.22604354,-0.23370896,-1.3080888,-0.20842206,0
0.8900000000000006,15.97660868686888,-0.289469180507452,-1.0574431483102926,-0.2262722927012134,13.951535,-1.1857163,-0.2099701,-0.34129813,11.535523,-9.18561,1.235359,0.25150278,-0.12409905,0.3385166,0.89819354,-10.3479805,4.915772,-0.20649059,-0.28946918,-1.0574431,-0.2262723,0
0.9000000000000006,15.97660868686888,-0.289469180507452,-1.0574431483102926,-0.2262722927012134,13.951535,-1.1857163,-0.2099701,-0.34129813,11.432003,-9.135917,1.2333956,0.2541252,-0.12009518,0.33574116,0.899041,-10.355951,5.0225534,-0.18601944,-0.28946918,-1.0574431,-0.2262723,0
0.9100000000000006,15.97660868686888,-0.289469180507452,-1.0574431483102926,-0.2262722927012134,13.951535,-1.1857163,-0.2099701,-0.34129813,11.328408,-9.085161,1.2316415,0.25673968,-0.116087556,0.33295524,0.8998603,-10.362748,5.128402,-0.16464262,-0.28946918,-1.0574431,-0.2262723,0
0.9200000000000006,15.60535674276661,-0.37686901669695466,-0.9071130314688828,-0.24279705507784874,13.559765,-1.075573,-0.52039915,-0.34116971,11.224752,-9.033352,1.2301058,0.25934613,-0.11207628,0.33015886,0.90065145,-10.368374,5.2333045,-0.14237288,-0.28946918,-1.0574431,-0.2262723,0
0.9300000000000006,15.60535674276661,-0.37686901669695466,-0.9071130314688828,-0.24279705507784874,13.559765,-1.075573,-0.52039915,-0.34116971,11.121045,-8.980511,1.228783,0.26172245,-0.1088794,0.32714516,0.9014556,-10.372828,5.334831,-0.1220456,-0.37686902,-0.907113,-0.24279706,0
0.9400000000000006,15.60535674276661,-0.37686901669695466,-0.9071130314688828,-0.24279705507784874,13.559765,-1.075573,-0.52039915,-0.34116971,11.017298,-8.926659,1.2276677,0.2640921,-0.105679736,0.32412308,0.90223664,-10.376411,5.4354105,-0.10088342,-0.37686902,-0.907113,-0.24279706,0
0.9500000000000006,15.60535674276661,-0.37686901669695466,-0.9071130314688828,-0.24279705507784874,13.559765,-1.075573,-0.52039915,-0.34116971,10.91352,-8.871806,1.2267681,0.26645494,-0.102477364,0.32109272,0.9029946,-10.37913,5.535031,-0.078896515,-0.37686902,-0.907113,-0.24279706,0
0.9600000000000006,15.236531467457873,-0.43050635817542016,-0.7346571530301502,-0.2541640901148718,12.874237,-0.8753375,-0.8348013,-0.29075614,10.809718,-8.815962,1.2260925,0.26881096,-0.09927237,0.31805414,0.9037294,-10.380986,5.6336813,-0.05609519,-0.37686902,-0.907113,-0.24279706,0
0.9700000000000006,15.236531467457873,-0.43050635817542016,-0.7346571530301502,-0.2541640901148718,12.874237,-0.8753375,-0.8348013,-0.29075614,10.705902,-8.759148,1.2256345,0.27091137,-0.09693456,0.31499213,0.9044281,-10.382056,5.7290645,-0.03538455,-0.43050635,-0.73465717,-0.2541641,0
0.9800000000000006,15.236531467457873,-0.43050635817542016,-0.7346571530301502,-0.2541640901148718,12.874237,-0.8753375,-0.8348013,-0.29075614,10.602078,-8.701385,1.2253872,0.27300644,-0.094594836,0.31192386,0.905109,-10.382554,5.823539,-0.013946342,-0.43050635,-0.73465717,-0.2541641,0
0.9900000000000007,15.236531467457873,-0.43050635817542016,-0.7346571530301502,-0.2541640901148718,12.874237,-0.8753375,-0.8348013,-0.29075614,10.498254,-8.64268,1.2253579,0.27509615,-0.09225324,0.30884948,0.90577203,-10.382482,5.9170966,0.008211661,-0.43050635,-0.73465717,-0.2541641,0
1.0000000000000007,14.878338056933178,-0.48527950958356836,-0.6336804804064314,-0.2626171709337988,12.0195465,-0.8259727,-1.6238147,-0.23986937,10.394431,-8.583045,1.2255536,0.2771804,-0.089909814,0.305769,0.9064172,-10.381843,6.00973,0.031081622,-0.43050635,-0.73465717,-0.2541641,0
1.0100000000000007,14.878338056933178,-0.48527950958356836,-0.6336804804064314,-0.2626171709337988,12.0195465,-0.8259727,-1.6238147,-0.23986937,10.290618,-8.522499,1.2259674,0.2791188,-0.08811118,0.3025707,0.907072,-10.380731,6.09928,0.05179201,-0.4852795,-0.63368046,-0.26261717,0
1.0200000000000007,14.878338056933178,-0.48527950958356836,-0.6336804804064314,-0.2626171709337988,12.0195465,-0.8259727,-1.6238147,-0.23986937,10.186818,-8.461063,1.2265918,0.2810523,-0.08631098,0.29936707,0.90771085,-10.379242,6.187927,0.07317402,-0.4852795,-0.63368046,-0.26261717,0
1.0300000000000007,14.878338056933178,-0.48527950958356836,-0.6336804804064314,-0.2626171709337988,12.0195465,-0.8259727,-1.6238147,-0.23986937,10.0830345,-8.398745,1.2274332,0.2829808,-0.084509276,0.29615813,0.90833366,-10.377378,6.2756634,0.09522066,-0.4852795,-0.63368046,-0.26261717,0
1.0400000000000007,14.878338056933178,-0.48527950958356836,-0.6336804804064314,-0.2626171709337988,12.5543585,-0.8408117,-1.5519052,-0.1510622,9.979271,-8.335552,1.2284985,0.2849043,-0.08270607,0.29294395,0.90894043,-10.375143,6.3624835,0.117924884,-0.4852795,-0.63368046,-0.26261717,0
1.0500000000000007,14.878338056933178,-0.48527950958356836,-0.6336804804064314,-0.2626171709337988,12.5543585,-0.8408117,-1.5519052,-0.1510622,9.875532,-8.271497,1.229794,0.2868228,-0.080901414,0.28972465,0.9095311,-10.372541,6.448381,0.1412796,-0.4852795,-0.63368046,-0.26261717,0
1.0600000000000007,14.878338056933178,-0.48527950958356836,-0.6336804804064314,-0.2626171709337988,12.5543585,-0.8408117,-1.5519052,-0.1510622,9.771822,-8.206587,1.2313263,0.28873622,-0.07909533,0.28650025,0.9101058,-10.369574,6.5333495,0.16527766,-0.4852795,-0.63368046,-0.26261717,0
1.0700000000000007,14.878338056933178,-0.48527950958356836,-0.6336804804064314,-0.2626171709337988,12.5543585,-0.8408117,-1.5519052,-0.1510622,9.668142,-8.140832,1.2331018,0.29064456,-0.077287845,0.28327075,0.91066444,-10.366243,6.6173825,0.18991189,-0.4852795,-0.63368046,-0.26261717,0
1.0800000000000007,14.525542742572744,-0.4861672461217941,-0.8027048660807178,-0.26511321518157566,13.126706,-0.62568825,-0.93846905,-0.17834024,9.564498,-8.074243,1.2351267,0.29254776,-0.07547899,0.28003627,0.91120696,-10.362555,6.7004743,0.21517505,-0.4852795,-0.63368046,-0.26261717,0
1.0900000000000007,14.525542742572744,-0.4861672461217941,-0.8027048660807178,-0.26511321518157566,13.126706,-0.62568825,-0.93846905,-0.17834024,9.460892,-8.006836,1.2373928,0.2946926,-0.0729033,0.2765438,0.911792,-10.358531,6.780626,0.23814763,-0.48616725,-0.8027049,-0.2651132,0
1.1000000000000008,14.525542742572744,-0.4861672461217941,-0.8027048660807178,-0.26511321518157566,13.126706,-0.62568825,-0.93846905,-0.17834024,9.357328,-7.9386334,1.2398921,0.29683045,-0.07032587,0.2730447,0.91235536,-10.353963,6.8597236,0.26179227,-0.48616725,-0.8027049,-0.2651132,0
1.1100000000000008,14.525542742572744,-0.4861672461217941,-0.8027048660807178,-0.26511321518157566,13.126706,-0.62568825,-0.93846905,-0.17834024,9.253814,-7.869645,1.2426311,0.29896122,-0.067746766,0.26953912,0.91289705,-10.348855,6.9377584,0.2860991,-0.48616725,-0.8027049,-0.2651132,0
1.1200000000000008,14.14116417103261,-0.48371366701986296,-0.5845370184702997,-0.2782542277171146,13.192566,-0.3460797,-0.88588816,-0.106851295,9.1503525,-7.7998815,1.2456164,0.30108488,-0.065166056,0.26602712,0.913417,-10.343211,7.014723,0.31105825,-0.48616725,-0.8027049,-0.2651132,1
1.1300000000000008,14.14116417103261,-0.48371366701986296,-0.5845370184702997,-0.2782542277171146,13.192566,-0.3460797,-0.88588816,-0.106851295,9.046948,-7.7293887,1.2487978,0.302635,-0.061782517,0.26307505,0.91399467,-10.337527,7.083671,0.3252884,-0.3460797,-0.88588816,-0.106851295,1
1.1400000000000008,14.14116417103261,-0.48371366701986296,-0.5845370184702997,-0.2782542277171146,13.192566,-0.3460797,-0.88588816,-0.106851295,8.943604,-7.658211,1.2521241,0.3041782,-0.058397565,0.26011696,0.9145514,-10.331166,7.1517024,0.3400403,-0.3460797,-0.88588816,-0.106851295,1
1.1500000000000008,14.14116417103261,-0.48371366701986296,-0.5845370184702997,-0.2782542277171146,13.192566,-0.3460797,-0.88588816,-0.106851295,8.840328,-7.5863576,1.2556005,0.30571446,-0.05501128,0.25715292,0.9150871,-10.324128,7.2188096,0.3553042,-0.3460797,-0.88588816,-0.106851295,1
1.1600000000000008,13.84911706067781,-0.5140331167136536,-0.6044657546786596,-0.2851170925348591,13.028234,-0.31708905,-0.6914688,0.028387595,8.737124,-7.513838,1.2592319,0.3072437,-0.05162373,0.254183,0.91560185,-10.316415,7.284986,0.37107033,-0.3460797,-0.88588816,-0.106851295,1
1.1700000000000008,13.84911706067781,-0.5140331167136536,-0.6044657546786596,-0.2851170925348591,13.028234,-0.31708905,-0.6914688,0.028387595,8.634001,-7.440665,1.2630162,0.30790845,-0.048908852,0.25167462,0.9162203,-10.308201,7.349473,0.3858746,-0.31708905,-0.6914688,0.028387595,1
1.1800000000000008,13.84911706067781,-0.5140331167136536,-0.6044657546786596,-0.2851170925348591,13.028234,-0.31708905,-0.6914688,0.028387595,8.530962,-7.366851,1.2669507,0.30856875,-0.046193264,0.24916257,0.9168254,-10.299504,7.4131923,0.4010781,-0.31708905,-0.6914688,0.028387595,1
1.1900000000000008,13.84911706067781,-0.5140331167136536,-0.6044657546786596,-0.2851170925348591,13.028234,-0.31708905,-0.6914688,0.028387595,8.428011,-7.2924037,1.2710392,0.30922458,-0.043477014,0.24664693,0.91741735,-10.290325,7.476139,0.4166743,-0.31708905,-0.6914688,0.028387595,1
1.2000000000000008,13.733882008697647,-0.5572135779851272,-0.17437581011715608,-0.3361543720858714,13.654799,-0.49944437,-0.35368565,-0.041459613,8.325156,-7.217331,1.2752856,0.30987594,-0.04076013,0.2441277,0.917996,-10.280664,7.538311,0.4326564,-0.31708905,-0.6914688,0.028387595,1
1.2100000000000009,13.733882008697647,-0.5572135779851272,-0.17437581011715608,-0.3361543720858714,13.654799,-0.49944437,-0.35368565,-0.041459613,8.222402,-7.1416254,1.2797211,0.31039473,-0.039960966,0.24127768,0.9186091,-10.270229,7.6026874,0.45452327,-0.49944437,-0.35368565,-0.041459613,1
1.2200000000000009,13.733882008697647,-0.5572135779851272,-0.17437581011715608,-0.3361543720858714,13.654799,-0.49944437,-0.35368565,-0.041459613,8.119751,-7.0652795,1.2843773,0.31091058,-0.039161425,0.23842539,0.9192136,-10.259806,7.666327,0.47678387,-0.49944437,-0.35368565,-0.041459613,1
1.2300000000000009,13.733882008697647,-0.5572135779851272,-0.17437581011715608,-0.3361543720858714,13.654799,-0.49944437,-0.35368565,-0.041459613,8.017205,-6.9883013,1.2892581,0.31142354,-0.038361516,0.23557085,0.9198095,-10.249397,7.7292266,0.49943373,-0.49944437,-0.35368565,-0.041459613,1
1.2400000000000009,13.733882008697647,-0.5572135779851272,-0.17437581011715608,-0.3361543720858714,13.670823,-0.5021712,-0.3714332,-0.07244383,7.914763,-6.9106975,1.2943673,0.31193352,-0.03756125,0.23271409,0.92039675,-10.239004,7.791385,0.52246827,-0.49944437,-0.35368565,-0.041459613,1
1.2500000000000009,13.733882008697647,-0.5572135779851272,-0.17437581011715608,-0.3361543720858714,13.670823,-0.5021712,-0.3714332,-0.07244383,7.812425,-6.832475,1.2997094,0.31260324,-0.036719248,0.22980905,0.9209333,-10.228609,7.852866,0.5460282,-0.5021712,-0.3714332,-0.07244383,1
1.260000000000001,13.733882008697647,-0.5572135779851272,-0.17437581011715608,-0.3361543720858714,13.670823,-0.5021712,-0.3714332,-0.07244383,7.710191,-6.7536426,1.305289,0.31326985,-0.035876885,0.22690174,0.92146075,-10.218214,7.9135838,0.56997085,-0.5021712,-0.3714332,-0.07244383,1
1.270000000000001,13.733882008697647,-0.5572135779851272,-0.17437581011715608,-0.3361543720858714,13.670823,-0.5021712,-0.3714332,-0.07244383,7.608061,-6.6742067,1.3111101,0.31393337,-0.035034165,0.22399218,0.92197907,-10.207819,7.9735355,0.5942915,-0.5021712,-0.3714332,-0.07244383,1
1.280000000000001,13.26250895372183,-0.48552923315419294,-0.2109652629865789,-0.36309573925127414,13.699555,-0.5232177,-0.5101353,-0.19478966,7.5060344,-6.594175,1.3171763,0.3145938,-0.0341911,0.22108041,0.9224883,-10.197425,8.032719,0.6189854,-0.5021712,-0.3714332,-0.07244383,1
1.290000000000001,13.26250895372183,-0.48552923315419294,-0.2109652629865789,-0.36309573925127414,13.699555,-0.5232177,-0.5101353,-0.19478966,7.4041123,-6.5135546,1.3234925,0.31596446,-0.032876223,0.2178298,0.9228409,-10.186961,8.0912075,0.644325,-0.5232177,-0.5101353,-0.19478966,1
1.300000000000001,13.26250895372183,-0.48552923315419294,-0.2109652629865789,-0.36309573925127414,13.699555,-0.5232177,-0.5101353,-0.19478966,7.302296,-6.432354,1.3300643,0.3173306,-0.031560868,0.21457607,0.9231803,-10.176368,8.148793,0.6700773,-0.5232177,-0.5101353,-0.19478966,1
1.310000000000001,13.26250895372183,-0.48552923315419294,-0.2109652629865789,-0.36309573925127414,13.699555,-0.5232177,-0.5101353,-0.19478966,7.200587,-6.350582,1.3368955,0.3186922,-0.030245062,0.21131927,0.92350644,-10.165647,8.205472,0.696236,-0.5232177,-0.5101353,-0.19478966,1
1.320000000000001,12.687349014918148,-0.32742670059494805,0.03909127634372198,-0.39640590927421554,13.629731,-0.49818203,-0.35134935,-0.28591603,7.0989842,-6.268248,1.3439902,0.32004926,-0.028928824,0.20805946,0.9238195,-10.154801,8.261242,0.72279465,-0.5232177,-0.5101353,-0.19478966,1
1.330000000000001,12.687349014918148,-0.32742670059494805,0.03909127634372198,-0.39640590927421554,13.629731,-0.49818203,-0.35134935,-0.28591603,6.9974904,-6.1853614,1.3513494,0.32166156,-0.028400395,0.20515354,0.9239257,-10.143945,8.315876,0.7490897,-0.49818203,-0.35134935,-0.28591603,1
1.340000000000001,12.687349014918148,-0.32742670059494805,0.03909127634372198,-0.39640590927421554,13.629731,-0.49818203,-0.35134935,-0.28591603,6.8961053,-6.1019325,1.3589731,0.32327023,-0.027871644,0.20224528,0.9240214,-10.1331215,8.369751,0.77571875,-0.49818203,-0.35134935,-0.28591603,1
1.350000000000001,12.687349014918148,-0.32742670059494805,0.03909127634372198,-0.39640590927421554,13.629731,-0.49818203,-0.35134935,-0.28591603,6.794828,-6.017969,1.3668648,0.32487524,-0.027342578,0.19933474,0.9241069,-10.122334,8.422863,0.8026772,-0.49818203,-0.35134935,-0.28591603,1
1.360000000000001,11.9573871851945,-0.10561508426177664,0.4970645013145174,-0.39285429520935916,13.732665,-0.5498065,-0.40164676,-0.3415171,6.6936584,-5.9334784,1.3750278,0.32647654,-0.026813202,0.19642194,0.9241819,-10.111583,8.475212,0.82996047,-0.49818203,-0.35134935,-0.28591603,0
1.370000000000001,11.9573871851945,-0.10561508426177664,0.4970645013145174,-0.39285429520935916,13.732665,-0.5498065,-0.40164676,-0.3415171,6.5925894,-5.8484983,1.3833877,0.3277879,-0.02966818,0.19669162,0.92357296,-10.102377,8.520817,0.84201205,-0.10561509,0.4970645,-0.3928543,0
1.380000000000001,11.9573871851945,-0.10561508426177664,0.4970645013145174,-0.39285429520935916,13.732665,-0.5498065,-0.40164676,-0.3415171,6.491609,-5.7630606,1.3918679,0.32909584,-0.032522853,0.19695927,0.9229545,-10.093716,8.566685,0.8539983,-0.10561509,0.4970645,-0.3928543,0
1.390000000000001,11.9573871851945,-0.10561508426177664,0.4970645013145174,-0.39285429520935916,13.732665,-0.5498065,-0.40164676,-0.3415171,6.3907127,-5.677163,1.4004675,0.3304004,-0.035377186,0.1972249,0.9223265,-10.085596,8.612817,0.8659155,-0.10561509,0.4970645,-0.3928543,0
1.400000000000001,11.46156846634551,0.03497148570533242,0.28464884811041574,-0.38683516416262664,13.464816,-0.67219234,-0.25385046,-0.5787878,6.2898955,-5.590803,1.409186,0.33170155,-0.038231157,0.19748849,0.921689,-10.078018,8.659214,0.8777599,-0.10561509,0.4970645,-0.3928543,0
1.410000000000001,11.46156846634551,0.03497148570533242,0.28464884811041574,-0.38683516416262664,13.464816,-0.67219234,-0.25385046,-0.5787878,6.1891503,-5.503988,1.4179997,0.33320895,-0.03986681,0.19804722,0.9209558,-10.071165,8.70393,0.88497025,0.034971487,0.28464884,-0.38683516,0
1.420000000000001,11.46156846634551,0.03497148570533242,0.28464884811041574,-0.38683516416262664,13.464816,-0.67219234,-0.25385046,-0.5787878,6.088472,-5.4167237,1.4268851,0.33471435,-0.041502226,0.1986048,0.9202173,-10.06454,8.748869,0.89210016,0.034971487,0.28464884,-0.38683516,0
1.430000000000001,11.46156846634551,0.03497148570533242,0.28464884811041574,-0.38683516416262664,13.464816,-0.67219234,-0.25385046,-0.5787878,5.987859,-5.3290095,1.4358413,0.33621782,-0.043137405,0.19916125,0.9194734,-10.058141,8.794031,0.89914846,0.034971487,0.28464884,-0.38683516,0
1.440000000000001,11.46156846634551,0.03497148570533242,0.28464884811041574,-0.38683516416262664,13.256668,-0.65815717,-0.20731594,-0.64254344,5.8873086,-5.2408423,1.4448676,0.33771938,-0.044772338,0.19971654,0.9187242,-10.051968,8.839417,0.9061138,0.034971487,0.28464884,-0.38683516,0
1.450000000000001,11.46156846634551,0.03497148570533242,0.28464884811041574,-0.38683516416262664,13.256668,-0.65815717,-0.20731594,-0.64254344,5.786819,-5.1522202,1.4539633,0.33921894,-0.04640701,0.20027065,0.9179697,-10.04602,8.885028,0.9129949,0.034971487,0.28464884,-0.38683516,0
1.460000000000001,11.46156846634551,0.03497148570533242,0.28464884811041574,-0.38683516416262664,13.256668,-0.65815717,-0.20731594,-0.64254344,5.6863875,-5.0631413,1.4631274,0.34071657,-0.048041414,0.20082363,0.91720986,-10.040297,8.930863,0.91979057,0.034971487,0.28464884,-0.38683516,0
1.470000000000001,11.46156846634551,0.03497148570533242,0.28464884811041574,-0.38683516416262664,13.256668,-0.65815717,-0.20731594,-0.64254344,5.5860124,-4.9736023,1.472359,0.3422122,-0.04967554,0.20137542,0.91644466,-10.034796,8.976924,0.92649955,0.034971487,0.28464884,-0.38683516,0
1.480000000000001,11.161711292462146,0.09422178437159852,0.2022924363024823,-0.35629320732639164,13.167307,-0.7984257,-0.27988777,-0.73516256,5.4856906,-4.883602,1.4816571,0.34370586,-0.05130937,0.20192607,0.9156742,-10.029518,9.02321,0.93312055,0.034971487,0.28464884,-0.38683516,0
1.490000000000001,11.161711292462146,0.09422178437159852,0.2022924363024823,-0.35629320732639164,13.167307,-0.7984257,-0.27988777,-0.73516256,5.3854203,-4.7931437,1.4910074,0.34515628,-0.05243323,0.20261325,0.9149129,-10.024551,9.0685005,0.9369148,0.094221786,0.20229244,-0.3562932,0
1.500000000000001,11.161711292462146,0.09422178437159852,0.2022924363024823,-0.35629320732639164,13.167307,-0.7984257,-0.27988777,-0.73516256,5.285199,-4.7022314,1.5003952,0.34660518,-0.053556852,0.20329954,0.9141475,-10.019688,9.114,0.94062066,0.094221786,0.20229244,-0.3562932,0
1.5100000000000011,11.161711292462146,0.09422178437159852,0.2022924363024823,-0.35629320732639164,13.167307,-0.7984257,-0.27988777,-0.73516256,5.185026,-4.610863,1.5098196,0.34805253,-0.054680236,0.20398492,0.91337806,-10.014924,9.15971,0.9442376,0.094221786,0.20229244,-0.3562932,0
1.5200000000000011,10.777360763538525,0.17683894228400263,-0.11018678210067469,-0.333508452542952,13.1431465,-1.0126606,-0.60047144,-0.75343585,5.0849,-4.519037,1.5192797,0.34949836,-0.05580338,0.2046694,0.9126046,-10.0102625,9.205629,0.94776475,0.094221786,0.20229244,-0.3562932,0
1.5300000000000011,10.777360763538525,0.17683894228400263,-0.11018678210067469,-0.333508452542952,13.1431465,-1.0126606,-0.60047144,-0.75343585,4.9848194,-4.4267583,1.5287572,0.3511816,-0.055332758,0.20519033,0.9118698,-10.005741,9.250114,0.94772494,0.17683895,-0.110186785,-0.33350846,0
1.5400000000000011,10.777360763538525,0.17683894228400263,-0.11018678210067469,-0.333508452542952,13.1431465,-1.0126606,-0.60047144,-0.75343585,4.884785,-4.3340344,1.5382341,0.35286346,-0.05486192,0.20571046,0.9111315,-10.001003,9.294653,0.9476503,0.17683895,-0.110186785,-0.33350846,0
1.5500000000000012,10.777360763538525,0.17683894228400263,-0.11018678210067469,-0.333508452542952,13.1431465,-1.0126606,-0.60047144,-0.75343585,4.7848,-4.240865,1.5477101,0.35454398,-0.054390874,0.20622979,0.91038966,-9.996052,9.339245,0.94754076,0.17683895,-0.110186785,-0.33350846,0
1.5600000000000012,10.469356514352729,0.19769471192885202,-0.07705678756222216,-0.2802135681139616,13.106584,-1.130055,-1.139251,-0.7997643,4.6848655,-4.1472497,1.5571848,0.3562231,-0.053919617,0.20674834,0.9096443,-9.990883,9.38389,0.94739616,0.17683895,-0.110186785,-0.33350846,0
1.5700000000000012,10.469356514352729,0.19769471192885202,-0.07705678756222216,-0.2802135681139616,13.106584,-1.130055,-1.139251,-0.7997643,4.5849824,-4.0531936,1.566644,0.35762998,-0.053506613,0.20743439,0.90896016,-9.985659,9.427323,0.94441193,0.19769472,-0.07705679,-0.28021356,0
1.5800000000000012,10.469356514352729,0.19769471192885202,-0.07705678756222216,-0.2802135681139616,13.106584,-1.130055,-1.139251,-0.7997643,4.4851527,-3.9587026,1.5760729,0.35903576,-0.053093445,0.2081198,0.9082732,-9.980236,9.470842,0.94137746,0.19769472,-0.07705679,-0.28021356,0
1.5900000000000012,10.469356514352729,0.19769471192885202,-0.07705678756222216,-0.2802135681139616,13.106584,-1.130055,-1.139251,-0.7997643,4.3853784,-3.8637762,1.5854714,0.36044043,-0.052680112,0.20880455,0.9075836,-9.974611,9.514446,0.93829244,0.19769472,-0.07705679,-0.28021356,0
1.6000000000000012,10.196119818633916,0.17125100294613008,-0.287527981366401,-0.23849159946353116,13.496689,-1.4189211,-2.2313514,-0.39821947,4.285661,-3.7684135,1.5948386,0.36184397,-0.052266616,0.20948867,0.9068911,-9.968788,9.558134,0.93515676,0.19769472,-0.07705679,-0.28021356,0
1.6100000000000012,10.196119818633916,0.17125100294613008,-0.287527981366401,-0.23849159946353116,13.496689,-1.4189211,-2.2313514,-0.39821947,4.1860027,-3.6726193,1.604162,0.36327055,-0.050902702,0.20968224,0.9063535,-9.962872,9.600705,0.9295163,0.171251,-0.28752798,-0.2384916,0
1.6200000000000012,10.196119818633916,0.17125100294613008,-0.287527981366401,-0.23849159946353116,13.496689,-1.4189211,-2.2313514,-0.39821947,4.086405,-3.5763998,1.6134291,0.3646956,-0.049538568,0.20987491,0.905812,-9.956622,9.643203,0.9238877,0.171251,-0.28752798,-0.2384916,0
1.6300000000000012,10.196119818633916,0.17125100294613008,-0.287527981366401,-0.23849159946353116,13.496689,-1.4189211,-2.2313514,-0.39821947,3.986871,-3.4797556,1.6226399,0.36611912,-0.048174225,0.2100667,0.90526676,-9.95004,9.685626,0.91827035,0.171251,-0.28752798,-0.2384916,0
1.6400000000000012,10.196119818633916,0.17125100294613008,-0.287527981366401,-0.23849159946353116,13.4318495,-1.6301645,-2.1312635,-0.26892096,3.887405,-3.3826873,1.6317946,0.36754107,-0.04680968,0.2102576,0.9047177,-9.943125,9.727975,0.91266346,0.171251,-0.28752798,-0.2384916,0
1.6500000000000012,10.196119818633916,0.17125100294613008,-0.287527981366401,-0.23849159946353116,13.4318495,-1.6301645,-2.1312635,-0.26892096,3.7880096,-3.285196,1.6408932,0.36896148,-0.04544494,0.21044762,0.9041648,-9.935878,9.770245,0.90706635,0.171251,-0.28752798,-0.2384916,0
1.6600000000000013,10.196119818633916,0.17125100294613008,-0.287527981366401,-0.23849159946353116,13.4318495,-1.6301645,-2.1312635,-0.26892096,3.6886885,-3.1872826,1.649936,0.37038034,-0.044080004,0.21063675,0.9036081,-9.928299,9.812437,0.90147835,0.171251,-0.28752798,-0.2384916,0
1.6700000000000013,10.196119818633916,0.17125100294613008,-0.287527981366401,-0.23849159946353116,13.4318495,-1.6301645,-2.1312635,-0.26892096,3.5894449,-3.0889475,1.6589228,0.37179762,-0.042714886,0.21082498,0.90304756,-9.920388,9.854549,0.89589876,0.171251,-0.28752798,-0.2384916,0
1.6800000000000013,9.974979702747936,0.07662354309401524,0.16519843690400057,-0.15769577008363422,13.219691,-1.750059,-1.2647152,-0.1339974,3.490282,-2.9901917,1.667854,0.37321335,-0.04134959,0.21101233,0.9024832,-9.912146,9.896581,0.89032686,0.171251,-0.28752798,-0.2384916,0
1.6900000000000013,9.974979702747936,0.07662354309401524,0.16519843690400057,-0.15769577008363422,13.219691,-1.750059,-1.2647152,-0.1339974,3.3912017,-2.8910203,1.6767193,0.37376618,-0.042118393,0.21163361,0.9020733,-9.903904,9.93771,0.88272816,0.076623544,0.16519843,-0.15769577,0
1.7000000000000013,9.974979702747936,0.07662354309401524,0.16519843690400057,-0.15769577008363422,13.219691,-1.750059,-1.2647152,-0.1339974,3.2922037,-2.791437,1.6855084,0.37431854,-0.042887136,0.21225457,0.90166205,-9.895727,9.978995,0.8750642,0.076623544,0.16519843,-0.15769577,0
1.7100000000000013,9.974979702747936,0.07662354309401524,0.16519843690400057,-0.15769577008363422,13.219691,-1.750059,-1.2647152,-0.1339974,3.193287,-2.6914396,1.6942204,0.3748703,-0.04365582,0.21287523,0.9012495,-9.887616,10.020437,0.86733454,0.076623544,0.16519843,-0.15769577,0
1.7200000000000013,9.733376270308142,-0.09224549278664813,-0.09131570103939372,-0.08538730514284926,13.096611,-1.9672881,-1.616834,0.061627094,3.0944512,-2.5910277,1.7028548,0.37542155,-0.044424444,0.21349558,0.9008357,-9.87957,10.062036,0.8595388,0.076623544,0.16519843,-0.15769577,0
1.7300000000000013,9.733376270308142,-0.09224549278664813,-0.09131570103939372,-0.08538730514284926,13.096611,-1.9672881,-1.616834,0.061627094,2.9956944,-2.490204,1.7114002,0.375883,-0.044277433,0.21288964,0.9007939,-9.8717575,10.102679,0.8495352,-0.09224549,-0.0913157,-0.085387304,0
1.7400000000000013,9.733376270308142,-0.09224549278664813,-0.09131570103939372,-0.08538730514284926,13.096611,-1.9672881,-1.616834,0.061627094,2.8970158,-2.3889747,1.7198457,0.37634426,-0.044130396,0.21228358,0.9007516,-9.863945,10.143207,0.8395844,-0.09224549,-0.0913157,-0.085387304,0
1.7500000000000013,9.733376270308142,-0.09224549278664813,-0.09131570103939372,-0.08538730514284926,13.096611,-1.9672881,-1.616834,0.061627094,2.7984154,-2.2873406,1.728192,0.3768053,-0.04398333,0.2116774,0.9007087,-9.856131,10.1836195,0.8296862,-0.09224549,-0.0913157,-0.085387304,0
1.7600000000000013,9.52435581535025,-0.29847648260860676,-0.18004771838627553,0.02331825594526406,14.293344,-2.0015216,-3.4730124,0.27768227,2.6998932,-2.1853027,1.7364396,0.3772661,-0.04383624,0.21107109,0.9006653,-9.848314,10.223918,0.8198406,-0.09224549,-0.0913157,-0.085387304,0
1.7700000000000014,9.52435581535025,-0.29847648260860676,-0.18004771838627553,0.02331825594526406,14.293344,-2.0015216,-3.4730124,0.27768227,2.6014483,-2.0828671,1.7445796,0.37728512,-0.043563776,0.2093921,0.90106237,-9.840694,10.263171,0.8081839,-0.2984765,-0.18004772,0.023318255,0
1.7800000000000014,9.52435581535025,-0.29847648260860676,-0.18004771838627553,0.02331825594526406,14.293344,-2.0015216,-3.4730124,0.27768227,2.5030792,-1.9800403,1.7526038,0.37730297,-0.043291178,0.20771249,0.90145665,-9.833151,10.302133,0.79666585,-0.2984765,-0.18004772,0.023318255,0
1.7900000000000014,9.52435581535025,-0.29847648260860676,-0.18004771838627553,0.02331825594526406,14.293344,-2.0015216,-3.4730124,0.27768227,2.404785,-1.8768255,1.7605133,0.3773197,-0.04301845,0.20603223,0.90184826,-9.825684,10.340801,0.78528535,-0.2984765,-0.18004772,0.023318255,0
1.8000000000000014,9.382783858404126,-0.5482175852621051,-0.17906830226190412,0.12056774983226073,12.065546,-1.8727458,-2.2909505,-0.13593842,2.306565,-1.7732253,1.7683098,0.37733525,-0.04274559,0.20435135,0.90223706,-9.818293,10.379178,0.77404135,-0.2984765,-0.18004772,0.023318255,0
1.8100000000000014,9.382783858404126,-0.5482175852621051,-0.17906830226190412,0.12056774983226073,12.065546,-1.8727458,-2.2909505,-0.13593842,2.208418,-1.6692458,1.7759882,0.3768555,-0.042848714,0.20156528,0.903059,-9.81115,10.416639,0.7616691,-0.5482176,-0.1790683,0.12056775,0
1.8200000000000014,9.382783858404126,-0.5482175852621051,-0.17906830226190412,0.12056774983226073,12.065546,-1.8727458,-2.2909505,-0.13593842,2.110341,-1.564894,1.7835438,0.3763725,-0.042951465,0.19877747,0.90387315,-9.804246,10.453663,0.74950635,-0.5482176,-0.1790683,0.12056775,0
1.8300000000000014,9.382783858404126,-0.5482175852621051,-0.17906830226190412,0.12056774983226073,12.065546,-1.8727458,-2.2909505,-0.13593842,2.0123322,-1.460174,1.790979,0.3758862,-0.043053843,0.19598792,0.9046794,-9.797581,10.490248,0.7375504,-0.5482176,-0.1790683,0.12056775,0
1.8400000000000014,9.382783858404126,-0.5482175852621051,-0.17906830226190412,0.12056774983226073,12.053201,-1.8801132,-2.8570228,0.14165188,1.9143888,-1.3550904,1.7982957,0.37539667,-0.04315585,0.19319667,0.9054779,-9.791155,10.52639,0.7257983,-0.5482176,-0.1790683,0.12056775,0
1.8500000000000014,9.382783858404126,-0.5482175852621051,-0.17906830226190412,0.12056774983226073,12.053201,-1.8801132,-2.8570228,0.14165188,1.8165083,-1.2496477,1.8054959,0.37490386,-0.04325748,0.19040374,0.9062685,-9.784967,10.562092,0.7142474,-0.5482176,-0.1790683,0.12056775,0
1.8600000000000014,9.382783858404126,-0.5482175852621051,-0.17906830226190412,0.12056774983226073,12.053201,-1.8801132,-2.8570228,0.14165188,1.7186886,-1.1438502,1.8125814,0.3744078,-0.043358736,0.18760917,0.9070512,-9.779018,10.597349,0.70289487,-0.5482176,-0.1790683,0.12056775,0
1.8700000000000014,9.382783858404126,-0.5482175852621051,-0.17906830226190412,0.12056774983226073,12.053201,-1.8801132,-2.8570228,0.14165188,1.6209272,-1.0377023,1.8195544,0.3739085,-0.043459613,0.18481296,0.90782607,-9.773306,10.632162,0.69173783,-0.5482176,-0.1790683,0.12056775,0
1.8800000000000014,9.25822007585556,-0.7555973598481193,-1.026612317644743,0.2798524880841026,13.379844,-1.9285597,-2.9868078,0.781127,1.5232217,-0.93120855,1.8264169,0.37340596,-0.043560114,0.18201517,0.908593,-9.767831,10.666529,0.6807735,-0.5482176,-0.1790683,0.12056775,0
1.8900000000000015,9.25822007585556,-0.7555973598481193,-1.026612317644743,0.2798524880841026,13.379844,-1.9285597,-2.9868078,0.781127,1.4255699,-0.8243763,1.833165,0.37289637,-0.040051386,0.17672293,0.91000736,-9.7625,10.699755,0.66892326,-0.75559735,-1.0266123,0.27985248,0
1.9000000000000015,9.25822007585556,-0.7555973598481193,-1.026612317644743,0.2798524880841026,13.379844,-1.9285597,-2.9868078,0.781127,1.3279725,-0.71721715,1.8397967,0.3723709,-0.03654095,0.17142315,0.91138303,-9.75697,10.731888,0.6574735,-0.75559735,-1.0266123,0.27985248,0
1.9100000000000015,9.25822007585556,-0.7555973598481193,-1.026612317644743,0.2798524880841026,13.379844,-1.9285597,-2.9868078,0.781127,1.2304312,-0.6097422,1.8463157,0.3718296,-0.033028957,0.16611607,0.91271985,-9.751242,10.762924,0.64640975,-0.75559735,-1.0266123,0.27985248,0
1.9200000000000015,9.168658633858854,-1.107752937031037,-0.5656185076496953,0.39883548276280584,13.224593,-2.3847382,-3.3378727,0.8063891,1.1329483,-0.50196236,1.8527261,0.37127247,-0.02951556,0.16080193,0.9140178,-9.74531,10.792859,0.6357174,-0.75559735,-1.0266123,0.27985248,0
1.9300000000000015,9.168658633858854,-1.107752937031037,-0.5656185076496953,0.39883548276280584,13.224593,-2.3847382,-3.3378727,0.8063891,1.0355248,-0.3938901,1.859027,0.36973315,-0.028665734,0.15474488,0.91571283,-9.739429,10.821433,0.6245386,-1.1077529,-0.5656185,0.39883548,0
1.9400000000000015,9.168658633858854,-1.107752937031037,-0.5656185076496953,0.39883548276280584,13.224593,-2.3847382,-3.3378727,0.8063891,0.9381586,-0.2855373,1.8652182,0.368178,-0.027814686,0.14868122,0.91736877,-9.733871,10.848971,0.61371434,-1.1077529,-0.5656185,0.39883548,0
1.9500000000000015,9.168658633858854,-1.107752937031037,-0.5656185076496953,0.39883548276280584,13.224593,-2.3847382,-3.3378727,0.8063891,0.84084636,-0.17691426,1.8713026,0.3666072,-0.02696245,0.14261122,0.9189856,-9.728631,10.87547,0.60323125,-1.1077529,-0.5656185,0.39883548,0
1.9600000000000015,9.144559169133892,-1.372997610971037,-0.9969155493254989,0.5924865780008339,12.715294,-2.3718913,-4.6505795,0.8841008,0.74358493,-0.06803148,1.8772839,0.36502075,-0.026109064,0.13653515,0.9205632,-9.723704,10.900922,0.5930759,-1.1077529,-0.5656185,0.39883548,0
1.9700000000000015,9.144559169133892,-1.372997610971037,-0.9969155493254989,0.5924865780008339,12.715294,-2.3718913,-4.6505795,0.8841008,0.64637125,0.04109977,1.8831642,0.36278027,-0.02362081,0.12846796,0.9226749,-9.719054,10.9250965,0.5830444,-1.3729976,-0.9969156,0.59248656,0
1.9800000000000015,9.144559169133892,-1.372997610971037,-0.9969155493254989,0.5924865780008339,12.715294,-2.3718913,-4.6505795,0.8841008,0.5492032,0.15046532,1.8889462,0.3605105,-0.02113065,0.1203904,0.924712,-9.7145815,10.947783,0.573417,-1.3729976,-0.9969156,0.59248656,0
1.9900000000000015,9.144559169133892,-1.372997610971037,-0.9969155493254989,0.5924865780008339,12.715294,-2.3718913,-4.6505795,0.8841008,0.45207903,0.2600503,1.8946338,0.3582116,-0.01863878,0.11230312,0.9266744,-9.71028,10.968976,0.56416804,-1.3729976,-0.9969156,0.59248656,0
2.0000000000000013,,,,,11.491444,-2.1086369,-2.3499963,0.43997598,0.35499704,0.36983973,1.9002308,0.3558838,-0.016145408,0.10420676,0.928562,-9.706141,10.988667,0.5552716,-1.3729976,-0.9969156,0.59248656,0
2.010000000000001,,,,,11.491444,-2.1086369,-2.3499963,0.43997598,0.2579551,0.47981876,1.9057409,0.35258368,-0.016594619,0.095897466,0.93070585,-9.702352,11.006931,0.54681414,-1.6304733,-0.4461552,0.72928417,0
2.020000000000001,,,,,11.491444,-2.1086369,-2.3499963,0.43997598,0.16094767,0.5899736,1.911168,0.3492537,-0.01704242,0.08758003,0.93277085,-9.699242,11.023836,0.5386491,-1.6304733,-0.4461552,0.72928417,0
2.0300000000000007,,,,,11.491444,-2.1086369,-2.3499963,0.43997598,0.06396797,0.70029074,1.9165148,0.34589413,-0.017488781,0.07925518,0.93475676,-9.6968,11.039371,0.5307512,-1.6304733,-0.4461552,0.72928417,0
2.0400000000000005,,,,,11.491444,-2.1086369,-2.3499963,0.43997598,-0.032990616,0.8107563,1.9217838,0.34250522,-0.01793366,0.07092362,0.9366635,-9.695021,11.053527,0.5230954,-1.6304733,-0.4461552,0.72928417,0
2.0500000000000003,,,,,11.063472,-1.8548745,-2.090076,0.37797478,-0.12993467,0.92135656,1.9269773,0.3390873,-0.018377017,0.06258605,0.9384909,-9.693891,11.066296,0.5156564,-1.6304733,-0.4461552,0.72928417,1
2.06,,,,,11.063472,-1.8548745,-2.090076,0.37797478,-0.22686866,1.032088,1.9321922,0.33776367,-0.011594371,0.050367456,0.93981093,-9.692835,11.079534,0.52738786,-1.8548745,-2.090076,0.37797478,1
2.07,,,,,11.063472,-1.8548745,-2.090076,0.37797478,-0.32378972,1.1429367,1.937526,0.33637285,-0.00480942,0.03813885,0.94094414,-9.6913,11.089734,0.53943723,-1.8548745,-2.090076,0.37797478,1
2.0799999999999996,,,,,11.063472,-1.8548745,-2.090076,0.37797478,-0.420693,1.2538722,1.9429816,0.33491516,0.0019764872,0.025902668,0.94189024,-9.689278,11.09689,0.55171835,-1.8548745,-2.090076,0.37797478,1
2.0899999999999994,,,,,10.881012,-2.356358,-1.4780611,0.09851065,-0.5175736,1.364864,1.9485608,0.33339092,0.008762002,0.013661332,0.9426491,-9.686758,11.100999,0.5641447,-1.8548745,-2.090076,0.37797478,1
2.099999999999999,,,,,10.881012,-2.356358,-1.4780611,0.09851065,-0.6144276,1.4758816,1.9542557,0.33309853,0.011806307,8.6176675e-05,0.9428183,-9.684105,11.102038,0.57481414,-2.356358,-1.4780611,0.09851065,1
2.109999999999999,,,,,10.881012,-2.356358,-1.4780611,0.09851065,-0.7112569,1.5868945,1.9600573,0.33274165,0.014848326,-0.013488996,0.9428048,-9.68181,11.100073,0.58547896,-2.356358,-1.4780611,0.09851065,1
2.1199999999999988,,,,,10.881012,-2.356358,-1.4780611,0.09851065,-0.80806506,1.6978726,1.965965,0.3323203,0.01788747,-0.027061556,0.9426088,-9.679874,11.095104,0.59605503,-2.356358,-1.4780611,0.09851065,1
2.1299999999999986,,,,,9.176345,-2.2068648,-0.577198,0.49042785,-0.9048556,1.8087862,1.9719777,0.33183458,0.020923147,-0.040628877,0.94223017,-9.678296,11.087135,0.6064582,-2.356358,-1.4780611,0.09851065,1
2.1399999999999983,,,,,9.176345,-2.2068648,-0.577198,0.49042785,-1.0016338,1.919614,1.9780085,0.3296152,0.019879814,-0.052031703,0.9424711,-9.677472,11.078122,0.5996723,-2.2068648,-0.577198,0.49042785,1
2.149999999999998,,,,,9.176345,-2.2068648,-0.577198,0.49042785,-1.0984081,2.030342,1.9839705,0.32735097,0.018833777,-0.06342745,0.94258374,-9.677499,11.067206,0.59268236,-2.2068648,-0.577198,0.49042785,1
2.159999999999998,,,,,9.176345,-2.2068648,-0.577198,0.49042785,-1.1951867,2.1409514,1.9898614,0.3250422,0.017785175,-0.07481456,0.9425681,-9.678365,11.054391,0.58544046,-2.2068648,-0.577198,0.49042785,1
