time-since-start [s],throttle_mpc,roll_mpc,pitch_mpc,yaw_mpc,throttle_nw,roll_nw,pitch_nw,yaw_nw,position_x [m],position_y [m],position_z [m],rotation_w [quaternion],rotation_x [quaternion],rotation_y [quaternion],rotation_z [quaternion],velocity_x [m/s],velocity_y [m/s],velocity_z [m/s],omega_x [rad/s],omega_y [rad/s],omega_z [rad/s],network_used
0.0,8.019556818739465,5.999972530446995,-5.999999978121251,-5.999999515297406,16.403522,-0.61589164,-6.009291,-0.7035961,20.112762,-8.386233,1.9987928,-0.22254972,-0.46882477,0.36461872,0.7731288,-9.608006,-6.707891,-0.7064802,1.569262,-0.22384872,-0.037498042,0
0.01,8.019556818739465,5.999972530446995,-5.999999978121251,-5.999999515297406,17.594229,-0.7844488,-10.460534,-1.4995158,20.01633,-8.453163,1.9913546,-0.17407392,-0.46261567,0.37992498,0.78188366,-9.678258,-6.677051,-0.78131634,5.9999723,-6.0,-5.9999995,0
0.02,8.019556818739465,5.999972530446995,-5.999999978121251,-5.999999515297406,17.594229,-0.7844488,-10.460534,-1.4995158,19.919209,-8.519753,1.9831637,-0.12512824,-0.4551578,0.39420572,0.78852785,-9.745748,-6.640052,-0.85696906,5.9999723,-6.0,-5.9999995,0
0.03,8.019556818739465,5.999972530446995,-5.999999978121251,-5.999999515297406,17.594229,-0.7844488,-10.460534,-1.4995158,19.821426,-8.585944,1.9742132,-0.07584479,-0.44647124,0.4074223,0.79304355,-9.80987,-6.5971766,-0.9332105,5.9999723,-6.0,-5.9999995,0
0.04,8.019556818739465,5.999972530446995,-5.999999978121251,-5.999999515297406,17.087276,-3.706846,-5.640685,-0.024068296,19.723024,-8.651678,1.9644984,-0.026356606,-0.43657953,0.41953912,0.7954185,-9.870053,-6.5487695,-1.0098064,5.9999723,-6.0,-5.9999995,0
0.05,8.019556818739465,5.999972530446995,-5.999999978121251,-5.999999515297406,17.087276,-3.706846,-5.640685,-0.024068296,19.624043,-8.716902,1.9540168,0.023202725,-0.4255093,0.43052343,0.7956463,-9.925773,-6.495238,-1.086519,5.9999723,-6.0,-5.9999995,0
0.060000000000000005,8.019556818739465,5.999972530446995,-5.999999978121251,-5.999999515297406,17.087276,-3.706846,-5.640685,-0.024068296,19.524527,-8.781567,1.9427685,0.07269943,-0.4132905,0.4403456,0.7937264,-9.976547,-6.4370403,-1.1631086,5.9999723,-6.0,-5.9999995,0
0.07,8.019556818739465,5.999972530446995,-5.999999978121251,-5.999999515297406,17.087276,-3.706846,-5.640685,-0.024068296,19.42453,-8.845628,1.930756,0.12199988,-0.39995602,0.44897908,0.78966385,-10.021953,-6.374688,-1.2393377,5.9999723,-6.0,-5.9999995,0
0.08,17.2288773202959,5.999997407831231,-5.999999944488942,-3.802722533445427,17.2902,-5.734213,0.681533,0.7208398,19.324108,-8.909048,1.9179839,0.170971,-0.38554192,0.45640063,0.78346974,-10.06162,-6.3087373,-1.3149719,5.9999723,-6.0,-5.9999995,0
0.09,17.2288773202959,5.999997407831231,-5.999999944488942,-3.802722533445427,17.2902,-5.734213,0.681533,0.7208398,19.22312,-8.971399,1.904592,0.21092667,-0.3651771,0.46694788,0.77724856,-10.133856,-6.160586,-1.3630738,5.9999976,-6.0,-3.8027225,0
0.09999999999999999,17.2288773202959,5.999997407831231,-5.999999944488942,-3.802722533445427,17.2902,-5.734213,0.681533,0.7208398,19.121477,-9.032242,1.8907291,0.2504265,-0.34402308,0.476486,0.7693476,-10.192583,-6.0072336,-1.4092035,5.9999976,-6.0,-3.8027225,0
0.10999999999999999,17.2288773202959,5.999997407831231,-5.999999944488942,-3.802722533445427,17.2902,-5.734213,0.681533,0.7208398,19.019316,-9.09153,1.8764153,0.2893851,-0.32212558,0.48499435,0.759784,-10.237395,-5.849968,-1.453211,5.9999976,-6.0,-3.8027225,0
0.11999999999999998,17.2288773202959,5.999997407831231,-5.999999944488942,-3.802722533445427,17.2902,-5.734213,0.681533,0.7208398,18.91678,-9.149232,1.8616724,0.32771832,-0.29953197,0.4924546,0.74857837,-10.268009,-5.6901097,-1.4949646,5.9999976,-6.0,-3.8027225,0
0.12999999999999998,20.999999425404745,2.886699447229665,-5.999999786533113,0.940547852420255,21.353117,-6.4863977,3.2667198,1.7430853,18.814007,-9.205328,1.846524,0.36534327,-0.276291,0.49885058,0.735755,-10.284262,-5.5290027,-1.5343521,5.9999976,-6.0,-3.8027225,0
0.13999999999999999,20.999999425404745,2.886699447229665,-5.999999786533113,0.940547852420255,21.353117,-6.4863977,3.2667198,1.7430853,18.711134,-9.259639,1.8310641,0.3806272,-0.24644868,0.499527,0.73814535,-10.288493,-5.333247,-1.5566458,2.8866994,-6.0,0.9405478,0
0.15,20.999999425404745,2.886699447229665,-5.999999786533113,0.940547852420255,21.353117,-6.4863977,3.2667198,1.7430853,18.60828,-9.312002,1.8154122,0.39548084,-0.21632776,0.49963883,0.7397013,-10.280418,-5.140086,-1.5728419,2.8866994,-6.0,0.9405478,0
0.16,20.999999592634968,0.4709827829658727,-5.9318036369191995,2.369011546779854,20.965364,-7.09547,0.75642633,1.490924,18.50557,-9.362452,1.7996267,0.4098875,-0.1859623,0.49918586,0.7404211,-10.260011,-4.950332,-1.583411,2.8866994,-6.0,0.9405478,0
0.17,20.999999592634968,0.4709827829658727,-5.9318036369191995,2.369011546779854,20.965364,-7.09547,0.75642633,1.490924,18.403118,-9.411024,1.7837647,0.4161492,-0.15703359,0.49072084,0.749235,-10.228819,-4.765055,-1.5877701,0.4709828,-5.9318037,2.3690116,0
0.18000000000000002,20.999999592634968,0.4709827829658727,-5.9318036369191995,2.369011546779854,20.965364,-7.09547,0.75642633,1.490924,18.301022,-9.457771,1.767897,0.4219842,-0.12794384,0.48175263,0.7572806,-10.189344,-4.585381,-1.5846434,0.4709828,-5.9318037,2.3690116,0
0.19000000000000003,20.999999592634968,0.4709827829658727,-5.9318036369191995,2.369011546779854,20.965364,-7.09547,0.75642633,1.490924,18.199362,-9.502753,1.7520956,0.42738646,-0.098722905,0.47229046,0.7645496,-10.141513,-4.411883,-1.5745839,0.4709828,-5.9318037,2.3690116,0
0.20000000000000004,20.999999294952662,-0.1296304166051544,-2.635697762430021,2.030164900491602,23.630854,-5.4452043,1.1515858,1.028246,18.09822,-9.546033,1.7364272,0.4323505,-0.069400735,0.4623439,0.77103466,-10.085285,-4.245109,-1.5581733,0.4709828,-5.9318037,2.3690116,0
0.21000000000000005,20.999999294952662,-0.1296304166051544,-2.635697762430021,2.030164900491602,23.630854,-5.4452043,1.1515858,1.028246,17.997679,-9.587675,1.7209492,0.430512,-0.054817777,0.45678708,0.77653056,-10.0225935,-4.084065,-1.5369743,-0.12963042,-2.6356978,2.030165,0
0.22000000000000006,20.999999294952662,-0.1296304166051544,-2.635697762430021,2.030164900491602,23.630854,-5.4452043,1.1515858,1.028246,17.897781,-9.627725,1.7056975,0.42855427,-0.04021963,0.4511037,0.78181124,-9.956654,-3.9264905,-1.5129277,-0.12963042,-2.6356978,2.030165,0
0.23000000000000007,20.999999294952662,-0.1296304166051544,-2.635697762430021,2.030164900491602,23.630854,-5.4452043,1.1515858,1.028246,17.79856,-9.666217,1.6906999,0.42647773,-0.025610337,0.44529527,0.78687525,-9.887426,-3.7724745,-1.4861907,-0.12963042,-2.6356978,2.030165,0
0.24000000000000007,20.999999294952662,-0.1296304166051544,-2.635697762430021,2.030164900491602,21.590473,-4.979704,3.4038422,1.0882736,17.700045,-9.703187,1.6759825,0.42428303,-0.0109939445,0.43936342,0.79172117,-9.814879,-3.6221018,-1.4569236,-0.12963042,-2.6356978,2.030165,0
0.25000000000000006,20.999999294952662,-0.1296304166051544,-2.635697762430021,2.030164900491602,21.590473,-4.979704,3.4038422,1.0882736,17.602272,-9.738672,1.6615697,0.42197073,0.003625494,0.43330985,0.79634774,-9.738979,-3.475453,-1.4252893,-0.12963042,-2.6356978,2.030165,0
0.26000000000000006,20.999999294952662,-0.1296304166051544,-2.635697762430021,2.030164900491602,21.590473,-4.979704,3.4038422,1.0882736,17.505276,-9.77271,1.6474843,0.4195415,0.018243928,0.42713618,0.8007536,-9.659701,-3.332605,-1.3914535,-0.12963042,-2.6356978,2.030165,0
0.2700000000000001,20.999999294952662,-0.1296304166051544,-2.635697762430021,2.030164900491602,21.590473,-4.979704,3.4038422,1.0882736,17.409088,-9.805337,1.6337476,0.416996,0.032857306,0.42084417,0.8049376,-9.577023,-3.19363,-1.3555841,-0.12963042,-2.6356978,2.030165,0
0.2800000000000001,20.99999725429263,-1.1289726773754103,0.9466476645731896,1.566048535665132,20.853487,-4.947654,4.7202096,0.61248815,17.313745,-9.836596,1.620379,0.41433492,0.04746158,0.41443554,0.8088985,-9.490922,-3.0585966,-1.3178518,-0.12963042,-2.6356978,2.030165,0
0.2900000000000001,20.99999725429263,-1.1289726773754103,0.9466476645731896,1.566048535665132,20.853487,-4.947654,4.7202096,0.61248815,17.219275,-9.866518,1.6073958,0.40628356,0.044536453,0.41143504,0.8146601,-9.403726,-2.9258132,-1.2786033,-1.1289726,0.94664764,1.5660485,0
0.3000000000000001,20.99999725429263,-1.1289726773754103,0.9466476645731896,1.566048535665132,20.853487,-4.947654,4.7202096,0.61248815,17.12566,-9.895109,1.594811,0.39818522,0.041606177,0.40838698,0.8203274,-9.319334,-2.7924182,-1.2382003,-1.1289726,0.94664764,1.5660485,0
0.3100000000000001,20.99999725429263,-1.1289726773754103,0.9466476645731896,1.566048535665132,20.853487,-4.947654,4.7202096,0.61248815,17.032877,-9.922364,1.5826359,0.39004087,0.03867109,0.4052917,0.82589996,-9.237759,-2.6584773,-1.1966413,-1.1289726,0.94664764,1.5660485,0
0.3200000000000001,20.834142503879562,-1.2291440421271744,3.2877654476495612,1.286605277075789,20.427626,-4.3441987,4.8435707,-0.108108416,16.940895,-9.948277,1.5708821,0.38185146,0.035731535,0.4021496,0.8313771,-9.159013,-2.5240557,-1.1539252,-1.1289726,0.94664764,1.5660485,0
0.3300000000000001,20.834142503879562,-1.2291440421271744,3.2877654476495612,1.286605277075789,20.427626,-4.3441987,4.8435707,-0.108108416,16.84968,-9.972847,1.5595543,0.3700459,0.022299498,0.4030172,0.83674693,-9.085056,-2.3891172,-1.1115828,-1.2291441,3.2877655,1.2866052,0
0.34000000000000014,20.834142503879562,-1.2291440421271744,3.2877654476495612,1.286605277075789,20.427626,-4.3441987,4.8435707,-0.108108416,16.75917,-9.996049,1.54865,0.35811105,0.008859668,0.40374398,0.84182435,-9.017591,-2.2508137,-1.0692455,-1.2291441,3.2877655,1.2866052,0
0.35000000000000014,20.834142503879562,-1.2291440421271744,3.2877654476495612,1.286605277075789,20.427626,-4.3441987,4.8435707,-0.108108416,16.669304,-10.017851,1.5381688,0.34605113,-0.0045832573,0.40432975,0.8466077,-8.956731,-2.109372,-1.0270168,-1.2291441,3.2877655,1.2866052,0
0.36000000000000015,19.58102298274217,-1.429534902381738,4.671858440535154,0.883459227793794,21.571333,-2.775075,4.0042315,-0.20701297,16.580015,-10.038225,1.5281088,0.33387026,-0.018024582,0.40477422,0.8510952,-8.9025755,-1.9650233,-0.9850001,-1.2291441,3.2877655,1.2866052,0
0.37000000000000016,19.58102298274217,-1.429534902381738,4.671858440535154,0.883459227793794,21.571333,-2.775075,4.0042315,-0.20701297,16.491215,-10.057185,1.518425,0.32042515,-0.038496297,0.40644455,0.85477954,-8.858949,-1.8263664,-0.95193034,-1.4295349,4.6718583,0.8834592,0
0.38000000000000017,19.58102298274217,-1.429534902381738,4.671858440535154,0.883459227793794,21.571333,-2.775075,4.0042315,-0.20701297,16.402807,-10.074741,1.5090667,0.30678257,-0.05894429,0.40786442,0.8579371,-8.824169,-1.6842368,-0.91993815,-1.4295349,4.6718583,0.8834592,0
0.3900000000000002,19.58102298274217,-1.429534902381738,4.671858440535154,0.883459227793794,21.571333,-2.775075,4.0042315,-0.20701297,16.314701,-10.090859,1.5000218,0.292951,-0.079355955,0.40903297,0.86056596,-8.798346,-1.5390239,-0.8892717,-1.4295349,4.6718583,0.8834592,0
0.4000000000000002,18.71775333288544,-1.0969267583707434,2.3525836195319187,0.5908444385389292,18.15634,-2.259321,2.5617924,0.23796469,16.226809,-10.105513,1.4912759,0.27893886,-0.09971872,0.40994948,0.8626646,-8.781567,-1.3911247,-0.8601758,-1.4295349,4.6718583,0.8834592,0
0.4100000000000002,18.71775333288544,-1.0969267583707434,2.3525836195319187,0.5908444385389292,18.15634,-2.259321,2.5617924,0.23796469,16.139042,-10.11871,1.4827859,0.27099675,-0.11017582,0.4087575,0.86448765,-8.7727585,-1.2480657,-0.8379009,-1.0969268,2.3525836,0.59084445,0
0.4200000000000002,18.71775333288544,-1.0969267583707434,2.3525836195319187,0.5908444385389292,18.15634,-2.259321,2.5617924,0.23796469,16.051336,-10.130472,1.4745164,0.26300663,-0.12061341,0.4074931,0.86615753,-8.768745,-1.1043913,-0.8161045,-1.0969268,2.3525836,0.59084445,0
0.4300000000000002,18.71775333288544,-1.0969267583707434,2.3525836195319187,0.5908444385389292,18.15634,-2.259321,2.5617924,0.23796469,15.963649,-10.140795,1.4664621,0.25496992,-0.13102962,0.40615654,0.867674,-8.769535,-0.9602164,-0.7948456,-1.0969268,2.3525836,0.59084445,0
0.4400000000000002,18.71775333288544,-1.0969267583707434,2.3525836195319187,0.5908444385389292,17.815922,-1.7440867,2.0557466,0.083455086,15.875929,-10.149674,1.4586176,0.246888,-0.14142263,0.404748,0.8690366,-8.77513,-0.81565624,-0.7741827,-1.0969268,2.3525836,0.59084445,1
0.45000000000000023,18.71775333288544,-1.0969267583707434,2.3525836195319187,0.5908444385389292,17.815922,-1.7440867,2.0557466,0.083455086,15.788132,-10.157144,1.4509488,0.24110954,-0.1523261,0.39972967,0.8711365,-8.7851,-0.6781039,-0.7595048,-1.7440867,2.0557466,0.083455086,1
0.46000000000000024,18.71775333288544,-1.0969267583707434,2.3525836195319187,0.5908444385389292,17.815922,-1.7440867,2.0557466,0.083455086,15.700211,-10.1632395,1.4434283,0.23528722,-0.1632019,0.39463863,0.87307787,-8.799822,-0.5411993,-0.7445592,-1.7440867,2.0557466,0.083455086,1
0.47000000000000025,18.71775333288544,-1.0969267583707434,2.3525836195319187,0.5908444385389292,17.815922,-1.7440867,2.0557466,0.083455086,15.612119,-10.16797,1.4360582,0.2294221,-0.17404799,0.38947582,0.8748605,-8.8192835,-0.40504435,-0.729425,-1.7440867,2.0557466,0.083455086,1
0.48000000000000026,18.54617236515678,-0.8855971755448867,2.608088020232991,0.3532209205872036,17.975733,-1.8411689,1.8066539,0.20617864,15.5238085,-10.171343,1.4288402,0.22351527,-0.18486245,0.3842422,0.87648404,-8.843471,-0.26974046,-0.7141815,-1.7440867,2.0557466,0.083455086,1
0.49000000000000027,18.54617236515678,-0.8855971755448867,2.608088020232991,0.3532209205872036,17.975733,-1.8411689,1.8066539,0.20617864,15.435231,-10.173363,1.4217801,0.2174204,-0.19442576,0.37835106,0.87850845,-8.872519,-0.13426432,-0.69776773,-1.8411689,1.8066539,0.20617864,1
0.5000000000000002,18.54617236515678,-0.8855971755448867,2.608088020232991,0.3532209205872036,17.975733,-1.8411689,1.8066539,0.20617864,15.346343,-10.174034,1.4148856,0.21128912,-0.20395653,0.3723966,0.8803857,-8.906016,-6.253272e-05,-0.6810688,-1.8411689,1.8066539,0.20617864,1
0.5100000000000002,18.54617236515678,-0.8855971755448867,2.608088020232991,0.3532209205872036,17.975733,-1.8411689,1.8066539,0.20617864,15.257097,-10.173368,1.4081594,0.20512247,-0.21345314,0.36637977,0.8821156,-8.943938,0.13276984,-0.6641536,-1.8411689,1.8066539,0.20617864,1
0.5200000000000002,17.883916071799476,-0.11037914972246107,1.371592353843432,0.25138883321946576,17.685932,-1.8286136,1.976287,0.15230778,15.16745,-10.171382,1.4016031,0.19892147,-0.22291404,0.3603016,0.88369787,-8.986258,0.2641387,-0.6470914,-1.8411689,1.8066539,0.20617864,0
0.5300000000000002,17.883916071799476,-0.11037914972246107,1.371592353843432,0.25138883321946576,17.685932,-1.8286136,1.976287,0.15230778,15.077361,-10.168092,1.3952136,0.19521192,-0.22862582,0.36144942,0.8825964,-9.031874,0.39400655,-0.63101393,-0.11037915,1.3715924,0.25138885,0
0.5400000000000003,17.883916071799476,-0.11037914972246107,1.371592353843432,0.25138883321946576,17.685932,-1.8286136,1.976287,0.15230778,14.986805,-10.163502,1.3889786,0.19149281,-0.2343264,0.36257958,0.8814517,-9.0796,0.524187,-0.61616194,-0.11037915,1.3715924,0.25138885,0
0.5500000000000003,17.883916071799476,-0.11037914972246107,1.371592353843432,0.25138883321946576,17.685932,-1.8286136,1.976287,0.15230778,14.895761,-10.157608,1.3828859,0.18776433,-0.24001555,0.36369202,0.880264,-9.129432,0.65465134,-0.60255325,-0.11037915,1.3715924,0.25138885,0
0.5600000000000003,18.09317571434495,0.4090087081090258,0.48986240282617277,0.10851519428556483,17.682508,-1.0700275,1.4024496,-0.0020799618,14.804208,-10.150408,1.3769231,0.18402667,-0.24569294,0.36478668,0.87903315,-9.181361,0.7853706,-0.5902053,-0.11037915,1.3715924,0.25138885,0
0.5700000000000003,18.09317571434495,0.4090087081090258,0.48986240282617277,0.10851519428556483,17.682508,-1.0700275,1.4024496,-0.0020799618,14.712125,-10.1418915,1.3710842,0.18315776,-0.2472704,0.36716646,0.8777806,-9.235352,0.917999,-0.57771194,0.4090087,0.4898624,0.108515196,0
0.5800000000000003,18.09317571434495,0.4090087081090258,0.48986240282617277,0.10851519428556483,17.682508,-1.0700275,1.4024496,-0.0020799618,14.619499,-10.132046,1.3653657,0.18228693,-0.2488453,0.36954242,0.87651885,-9.289688,1.0512432,-0.5661319,0.4090087,0.4898624,0.108515196,0
0.5900000000000003,18.09317571434495,0.4090087081090258,0.48986240282617277,0.10851519428556483,17.682508,-1.0700275,1.4024496,-0.0020799618,14.526329,-10.120864,1.3597584,0.1814142,-0.25041756,0.37191448,0.87524796,-9.34437,1.185097,-0.5554697,0.4090087,0.4898624,0.108515196,0
0.6000000000000003,17.66821487285599,0.29442820465112335,-0.602923921985322,0.0191831050655873,16.731863,-1.1176791,0.96125627,-0.09148255,14.43261,-10.10834,1.3542532,0.18053956,-0.2519872,0.37428266,0.8739679,-9.399397,1.3195546,-0.5457296,0.4090087,0.4898624,0.108515196,0
0.6100000000000003,17.66821487285599,0.29442820465112335,-0.602923921985322,0.0191831050655873,16.731863,-1.1176791,0.96125627,-0.09148255,14.3383465,-10.094486,1.3488295,0.181954,-0.24904941,0.3750471,0.87418896,-9.452919,1.4512961,-0.5389676,0.2944282,-0.6029239,0.019183105,0
0.6200000000000003,17.66821487285599,0.29442820465112335,-0.602923921985322,0.0191831050655873,16.731863,-1.1176791,0.96125627,-0.09148255,14.243554,-10.079313,1.343475,0.18336639,-0.24610883,0.37580726,0.87440014,-9.505316,1.5832379,-0.53188974,0.2944282,-0.6029239,0.019183105,0
0.6300000000000003,17.66821487285599,0.29442820465112335,-0.602923921985322,0.0191831050655873,16.731863,-1.1176791,0.96125627,-0.09148255,14.148244,-10.06282,1.3381929,0.18477671,-0.24316548,0.37656322,0.8746015,-9.556585,1.7153741,-0.5245009,0.2944282,-0.6029239,0.019183105,0
0.6400000000000003,17.66821487285599,0.29442820465112335,-0.602923921985322,0.0191831050655873,16.224493,-1.4831592,0.8688961,-0.12124185,14.052426,-10.045006,1.3329861,0.18618494,-0.24021938,0.3773149,0.874793,-9.606726,1.847699,-0.51680595,0.2944282,-0.6029239,0.019183105,0
0.6500000000000004,17.66821487285599,0.29442820465112335,-0.602923921985322,0.0191831050655873,16.224493,-1.4831592,0.8688961,-0.12124185,13.956113,-10.025866,1.3278577,0.18759109,-0.2372706,0.37806237,0.8749746,-9.655734,1.9802067,-0.5088099,0.2944282,-0.6029239,0.019183105,0
0.6600000000000004,17.66821487285599,0.29442820465112335,-0.602923921985322,0.0191831050655873,16.224493,-1.4831592,0.8688961,-0.12124185,13.859315,-10.005402,1.3228108,0.18899511,-0.23431912,0.37880558,0.8751464,-9.703608,2.1128912,-0.5005177,0.2944282,-0.6029239,0.019183105,0
0.6700000000000004,17.66821487285599,0.29442820465112335,-0.602923921985322,0.0191831050655873,16.224493,-1.4831592,0.8688961,-0.12124185,13.762044,-9.983609,1.3178483,0.19039698,-0.23136503,0.3795445,0.87530833,-9.750345,2.2457473,-0.49193433,0.2944282,-0.6029239,0.019183105,0
0.6800000000000004,17.41450439129075,0.1435229697070355,-0.8500518868312313,-0.06333492976342563,16.181177,-1.447437,0.76083195,-0.12565887,13.664311,-9.960486,1.312973,0.19179672,-0.2284083,0.38027912,0.8754604,-9.795944,2.3787687,-0.48306468,0.2944282,-0.6029239,0.019183105,0
0.6900000000000004,17.41450439129075,0.1435229697070355,-0.8500518868312313,-0.06333492976342563,16.181177,-1.447437,0.76083195,-0.12565887,13.566132,-9.936042,1.3081807,0.19385234,-0.22466804,0.38001633,0.8760894,-9.839682,2.5099478,-0.47530907,0.14352296,-0.8500519,-0.06333493,0
0.7000000000000004,17.41450439129075,0.1435229697070355,-0.8500518868312313,-0.06333492976342563,16.181177,-1.447437,0.76083195,-0.12565887,13.467522,-9.910287,1.3034692,0.19590434,-0.22092359,0.37974638,0.876702,-9.882072,2.641037,-0.46689636,0.14352296,-0.8500519,-0.06333493,0
0.7100000000000004,17.41450439129075,0.1435229697070355,-0.8500518868312313,-0.06333492976342563,16.181177,-1.447437,0.76083195,-0.12565887,13.368494,-9.883222,1.298845,0.19795269,-0.21717499,0.3794694,0.87729824,-9.923113,2.772026,-0.45783386,0.14352296,-0.8500519,-0.06333493,0
0.7200000000000004,16.966826725910984,-0.03663994246148586,-1.2864341249470534,-0.1306305889604389,16.082937,-1.7078639,0.67131203,-0.132099,13.269064,-9.854847,1.2943146,0.19999734,-0.21342234,0.37918526,0.87787807,-9.962802,2.9029045,-0.44812888,0.14352296,-0.8500519,-0.06333493,0
0.7300000000000004,16.966826725910984,-0.03663994246148586,-1.2864341249470534,-0.1306305889604389,16.082937,-1.7078639,0.67131203,-0.132099,13.16925,-9.825181,1.2898711,0.2029664,-0.20805557,0.3775907,0.87917125,-9.999979,3.0301743,-0.44036475,-0.036639944,-1.2864342,-0.13063058,0
0.7400000000000004,16.966826725910984,-0.03663994246148586,-1.2864341249470534,-0.1306305889604389,16.082937,-1.7078639,0.67131203,-0.132099,13.069071,-9.794246,1.2855111,0.20592697,-0.20268007,0.37598035,0.8804277,-10.035374,3.1569717,-0.43142956,-0.036639944,-1.2864342,-0.13063058,0
0.7500000000000004,16.966826725910984,-0.03663994246148586,-1.2864341249470534,-0.1306305889604389,16.082937,-1.7078639,0.67131203,-0.132099,12.968548,-9.762044,1.2812464,0.20887893,-0.1972961,0.37435427,0.88164735,-10.068983,3.2832737,-0.42133945,-0.036639944,-1.2864342,-0.13063058,0
0.7600000000000005,16.63584285248551,-0.1647880203134925,-1.371045560319633,-0.1787840954394544,16.071218,-1.8037255,0.111125655,-0.30068657,12.867698,-9.728582,1.2770883,0.21182217,-0.19190387,0.37271252,0.8828301,-10.100803,3.4090579,-0.4101107,-0.036639944,-1.2864342,-0.13063058,0
0.7700000000000005,16.63584285248551,-0.1647880203134925,-1.371045560319633,-0.1787840954394544,16.071218,-1.8037255,0.111125655,-0.30068657,12.7665415,-9.693878,1.2730376,0.2150031,-0.18635496,0.37035248,0.8842419,-10.130241,3.531795,-0.39984238,-0.16478802,-1.3710456,-0.1787841,0
0.7800000000000005,16.63584285248551,-0.1647880203134925,-1.371045560319633,-0.1787840954394544,16.071218,-1.8037255,0.111125655,-0.30068657,12.665098,-9.657949,1.2690959,0.2181736,-0.18079703,0.3679745,0.885611,-10.157909,3.6538095,-0.38829923,-0.16478802,-1.3710456,-0.1787841,0
0.7900000000000005,16.63584285248551,-0.1647880203134925,-1.371045560319633,-0.1787840954394544,16.071218,-1.8037255,0.111125655,-0.30068657,12.563389,-9.620805,1.265276,0.22133353,-0.17523032,0.36557865,0.88693714,-10.183806,3.7750754,-0.37550008,-0.16478802,-1.3710456,-0.1787841,0
0.8000000000000005,16.284376276891557,-0.2330609991433602,-1.3073294993148508,-0.2078066383305947,15.502175,-1.4747347,0.29135785,-0.3162673,12.46143,-9.58245,1.2615902,0.22448274,-0.16965511,0.36316508,0.8882202,-10.20793,3.8955674,-0.3614639,-0.16478802,-1.3710456,-0.1787841,0
0.8100000000000005,16.284376276891557,-0.2330609991433602,-1.3073294993148508,-0.2078066383305947,15.502175,-1.4747347,0.29135785,-0.3162673,12.35924,-9.542909,1.2580389,0.22757673,-0.16448426,0.36047822,0.88949907,-10.229858,4.0127153,-0.3485991,-0.233061,-1.3073295,-0.20780663,0
0.8200000000000005,16.284376276891557,-0.2330609991433602,-1.3073294993148508,-0.2078066383305947,15.502175,-1.4747347,0.29135785,-0.3162673,12.256838,-9.502199,1.2546222,0.23066044,-0.15930599,0.35777503,0.8907378,-10.250193,4.129015,-0.33454487,-0.233061,-1.3073295,-0.20780663,0
0.8300000000000005,16.284376276891557,-0.2330609991433602,-1.3073294993148508,-0.2078066383305947,15.502175,-1.4747347,0.29135785,-0.3162673,12.154242,-9.460331,1.251352,0.23373371,-0.15412052,0.35505572,0.89193624,-10.268932,4.2444434,-0.3193189,-0.233061,-1.3073295,-0.20780663,0
0.8400000000000005,16.284376276891557,-0.2330609991433602,-1.3073294993148508,-0.2078066383305947,14.94666,-1.2376511,-0.08629273,-0.3140994,12.051465,-9.417315,1.2482398,0.23679644,-0.1489281,0.35232037,0.8930944,-10.286077,4.3589783,-0.30293897,-0.233061,-1.3073295,-0.20780663,0
0.8500000000000005,16.284376276891557,-0.2330609991433602,-1.3073294993148508,-0.2078066383305947,14.94666,-1.2376511,-0.08629273,-0.3140994,11.948525,-9.373156,1.2452971,0.23984846,-0.14372894,0.3495691,0.89421225,-10.301625,4.4725957,-0.2854232,-0.233061,-1.3073295,-0.20780663,0
0.8600000000000005,16.284376276891557,-0.2330609991433602,-1.3073294993148508,-0.2078066383305947,14.94666,-1.2376511,-0.08629273,-0.3140994,11.845439,-9.327865,1.2425351,0.24288966,-0.1385233,0.3468021,0.8952897,-10.315579,4.5852733,-0.2667898,-0.233061,-1.3073295,-0.20780663,0
0.8700000000000006,16.284376276891557,-0.2330609991433602,-1.3073294993148508,-0.2078066383305947,14.94666,-1.2376511,-0.08629273,-0.3140994,11.742221,-9.281453,1.2399651,0.24591988,-0.1333114,0.34401938,0.8963267,-10.327939,4.696989,-0.24705729,-0.233061,-1.3073295,-0.20780663,0
0.8800000000000006,15.975257757081831,-0.2888580889435274,-1.056817032784452,-0.22577589215423927,13.922732,-1.1813835,-0.23074444,-0.33998314,11.638886,-9.233929,1.2375977,0.24893901,-0.12809348,0.34122112,0.89732325,-10.338705,4.8077207,-0.22624429,-0.233061,-1.3073295,-0.20780663,0
0.8900000000000006,15.975257757081831,-0.2888580889435274,-1.056817032784452,-0.22577589215423927,13.922732,-1.1813835,-0.23074444,-0.33998314,11.535453,-9.185312,1.2354324,0.2515661,-0.12409471,0.3384598,0.8981979,-10.347848,4.9153967,-0.20668805,-0.2888581,-1.056817,-0.2257759,0
0.9000000000000006,15.975257757081831,-0.2888580889435274,-1.056817032784452,-0.22577589215423927,13.922732,-1.1813835,-0.23074444,-0.33998314,11.431933,-9.135623,1.2334671,0.25418535,-0.12009205,0.33568785,0.8990444,-10.355815,5.022156,-0.18621464,-0.2888581,-1.056817,-0.2257759,0
0.9100000000000006,15.975257757081831,-0.2888580889435274,-1.056817032784452,-0.22577589215423927,13.922732,-1.1813835,-0.23074444,-0.33998314,11.32834,-9.084871,1.2317111,0.25679663,-0.11608563,0.33290538,0.89986277,-10.362609,5.127983,-0.1648366,-0.2888581,-1.056817,-0.2257759,0
0.9200000000000006,15.604695929373598,-0.3763416470007706,-0.9066312123105761,-0.2424140820126203,13.530194,-1.0613439,-0.5419155,-0.34209803,11.224684,-9.033067,1.2301735,0.25939986,-0.11207558,0.33011255,0.900653,-10.368232,5.2328644,-0.14256662,-0.2888581,-1.056817,-0.2257759,0
0.9300000000000006,15.604695929373598,-0.3763416470007706,-0.9066312123105761,-0.2424140820126203,13.530194,-1.0613439,-0.5419155,-0.34209803,11.120979,-8.980229,1.2288488,0.2617738,-0.108879596,0.32710183,0.9014563,-10.3726845,5.334376,-0.12223507,-0.37634164,-0.90663123,-0.24241409,0
0.9400000000000006,15.604695929373598,-0.3763416470007706,-0.9066312123105761,-0.2424140820126203,13.530194,-1.0613439,-0.5419155,-0.34209803,11.017234,-8.926381,1.2277316,0.264141,-0.10568084,0.32408273,0.9022366,-10.376268,5.4349413,-0.101069376,-0.37634164,-0.90663123,-0.24241409,0
0.9500000000000006,15.604695929373598,-0.3763416470007706,-0.9066312123105761,-0.2424140820126203,13.530194,-1.0613439,-0.5419155,-0.34209803,10.913457,-8.871532,1.2268301,0.26650146,-0.10247937,0.32105538,0.9029938,-10.378985,5.5345483,-0.07907975,-0.37634164,-0.90663123,-0.24241409,0
0.9600000000000006,15.236360764528273,-0.43005484999021615,-0.7342842139730986,-0.2538650948589023,12.877888,-0.86392796,-0.83519334,-0.28829962,10.809657,-8.815693,1.2261528,0.2688551,-0.099275276,0.3180198,0.9037279,-10.380839,5.6331863,-0.056276467,-0.37634164,-0.90663123,-0.24241409,0
0.9700000000000006,15.236360764528273,-0.43005484999021615,-0.7342842139730986,-0.2538650948589023,12.877888,-0.86392796,-0.83519334,-0.28829962,10.705843,-8.758883,1.225693,0.27095369,-0.096938126,0.31496036,0.90442604,-10.381909,5.7285604,-0.0355609,-0.43005484,-0.7342842,-0.2538651,0
0.9800000000000006,15.236360764528273,-0.43005484999021615,-0.7342842139730986,-0.2538650948589023,12.877888,-0.86392796,-0.83519334,-0.28829962,10.60202,-8.701125,1.2254441,0.27304694,-0.09459906,0.3118947,0.9051063,-10.382405,5.8230267,-0.014118364,-0.43005484,-0.7342842,-0.2538651,0
0.9900000000000007,15.236360764528273,-0.43005484999021615,-0.7342842139730986,-0.2538650948589023,12.877888,-0.86392796,-0.83519334,-0.28829962,10.498196,-8.642427,1.2254132,0.2751348,-0.09225813,0.30882287,0.90576875,-10.382332,5.916577,0.008043375,-0.43005484,-0.7342842,-0.2538651,0
1.0000000000000007,14.878488977297126,-0.48488424356023824,-0.6333051161131926,-0.26238357355504327,12.173466,-0.8477033,-1.5637878,-0.2352188,10.394375,-8.582798,1.2256075,0.27721724,-0.08991539,0.30574495,0.9064134,-10.381693,6.009203,0.0309165,-0.43005484,-0.7342842,-0.2538651,0
1.0100000000000007,14.878488977297126,-0.48488424356023824,-0.6333051161131926,-0.26238357355504327,12.173466,-0.8477033,-1.5637878,-0.2352188,10.290564,-8.522258,1.2260197,0.2791541,-0.08811762,0.30254894,0.90706766,-10.380581,6.098749,0.051631983,-0.48488423,-0.63330513,-0.26238358,0
1.0200000000000007,14.878488977297126,-0.48488424356023824,-0.6333051161131926,-0.26238357355504327,12.173466,-0.8477033,-1.5637878,-0.2352188,10.186764,-8.460826,1.2266425,0.28108603,-0.0863183,0.29934764,0.90770596,-10.379092,6.1873918,0.073018596,-0.48488423,-0.63330513,-0.26238358,0
1.0300000000000007,14.878488977297126,-0.48488424356023824,-0.6333051161131926,-0.26238357355504327,12.173466,-0.8477033,-1.5637878,-0.2352188,10.082982,-8.398513,1.2274823,0.283013,-0.084517464,0.2961411,0.9083283,-10.377229,6.275125,0.09506935,-0.48488423,-0.63330513,-0.26238358,0
1.0400000000000007,14.878488977297126,-0.48488424356023824,-0.6333051161131926,-0.26238357355504327,12.6307745,-0.8518024,-1.5137365,-0.15200521,9.97922,-8.335328,1.2285461,0.284935,-0.08271513,0.2929293,0.9089346,-10.374994,6.361943,0.117777206,-0.48488423,-0.63330513,-0.26238358,0
1.0500000000000007,14.878488977297126,-0.48488424356023824,-0.6333051161131926,-0.26238357355504327,12.6307745,-0.8518024,-1.5137365,-0.15200521,9.875483,-8.271278,1.2298403,0.28685194,-0.080911346,0.2897123,0.90952486,-10.372393,6.4478383,0.1411351,-0.48488423,-0.63330513,-0.26238358,0
1.0600000000000007,14.878488977297126,-0.48488424356023824,-0.6333051161131926,-0.26238357355504327,12.6307745,-0.8518024,-1.5137365,-0.15200521,9.771772,-8.206374,1.2313712,0.28876385,-0.07910613,0.2864902,0.9100991,-10.369425,6.532805,0.16513588,-0.48488423,-0.63330513,-0.26238358,0
1.0700000000000007,14.878488977297126,-0.48488424356023824,-0.6333051161131926,-0.26238357355504327,12.6307745,-0.8518024,-1.5137365,-0.15200521,9.668095,-8.140626,1.2331452,0.29067066,-0.07729953,0.2832631,0.91065735,-10.366096,6.616838,0.18977237,-0.48488423,-0.63330513,-0.26238358,0
1.0800000000000007,14.525893694273122,-0.4858103944336498,-0.8023343851951092,-0.26493301251204865,13.114377,-0.63166326,-0.9556926,-0.17663391,9.564451,-8.074041,1.2351688,0.29257235,-0.07549156,0.28003097,0.9111995,-10.362408,6.69993,0.21503738,-0.48488423,-0.63330513,-0.26238358,0
1.0900000000000007,14.525893694273122,-0.4858103944336498,-0.8023343851951092,-0.26493301251204865,13.114377,-0.63166326,-0.9556926,-0.17663391,9.460847,-8.00664,1.2374336,0.2947159,-0.072916865,0.2765406,0.9117842,-10.358385,6.780083,0.23801306,-0.4858104,-0.80233437,-0.26493302,0
1.1000000000000008,14.525893694273122,-0.4858103944336498,-0.8023343851951092,-0.26493301251204865,13.114377,-0.63166326,-0.9556926,-0.17663391,9.3572855,-7.9384437,1.2399315,0.2968525,-0.07034043,0.27304366,0.9123472,-10.353819,6.859183,0.26166046,-0.4858104,-0.80233437,-0.26493302,0
1.1100000000000008,14.525893694273122,-0.4858103944336498,-0.8023343851951092,-0.26493301251204865,13.114377,-0.63166326,-0.9556926,-0.17663391,9.253773,-7.869461,1.2426691,0.298982,-0.06776233,0.26954022,0.9128886,-10.348714,6.937221,0.2859697,-0.4858104,-0.80233437,-0.26493302,0
1.1200000000000008,14.141683464634179,-0.48343343614199263,-0.5842357278654736,-0.27811834840944927,13.178907,-0.35458073,-0.9037778,-0.10660894,9.150313,-7.799703,1.2456532,0.30110446,-0.06518262,0.26603043,0.9134083,-10.343074,7.0141892,0.3109309,-0.4858104,-0.80233437,-0.26493302,1
1.1300000000000008,14.141683464634179,-0.48343343614199263,-0.5842357278654736,-0.27811834840944927,13.178907,-0.35458073,-0.9037778,-0.10660894,9.04691,-7.729216,1.2488325,0.30267438,-0.0617299,0.26301247,0.9140031,-10.337394,7.083061,0.325048,-0.35458073,-0.9037778,-0.10660894,1
1.1400000000000008,14.141683464634179,-0.48343343614199263,-0.5842357278654736,-0.27811834840944927,13.178907,-0.35458073,-0.9037778,-0.10660894,8.943567,-7.658045,1.2521559,0.30423704,-0.058275707,0.25998825,0.9145761,-10.331024,7.150996,0.33969763,-0.35458073,-0.9037778,-0.10660894,1
1.1500000000000008,14.141683464634179,-0.48343343614199263,-0.5842357278654736,-0.27811834840944927,13.178907,-0.35458073,-0.9037778,-0.10660894,8.840292,-7.5861993,1.2556283,0.30579245,-0.054820124,0.25695783,0.9151273,-10.323965,7.217988,0.3548696,-0.35458073,-0.9037778,-0.10660894,1
1.1600000000000008,13.8520721105981,-0.5110277304499572,-0.595477844178919,-0.28492252186813716,13.031816,-0.32299396,-0.69155777,0.0229395,8.737091,-7.5136886,1.259255,0.3073406,-0.051363233,0.25392127,0.9156567,-10.316219,7.284029,0.3705536,-0.35458073,-0.9037778,-0.10660894,1
1.1700000000000008,13.8520721105981,-0.5110277304499572,-0.595477844178919,-0.28492252186813716,13.031816,-0.32299396,-0.69155777,0.0229395,8.63397,-7.4405255,1.2630347,0.30802837,-0.048663937,0.25138384,0.916273,-10.307958,7.348453,0.3854316,-0.32299396,-0.69155777,0.0229395,1
1.1800000000000008,13.8520721105981,-0.5110277304499572,-0.595477844178919,-0.28492252186813716,13.031816,-0.32299396,-0.69155777,0.0229395,8.530933,-7.366722,1.266965,0.30871168,-0.045963936,0.24884276,0.91687596,-10.299218,7.4121027,0.40071163,-0.32299396,-0.69155777,0.0229395,1
1.1900000000000008,13.8520721105981,-0.5110277304499572,-0.595477844178919,-0.28492252186813716,13.031816,-0.32299396,-0.69155777,0.0229395,8.427986,-7.2922864,1.2710502,0.30939046,-0.04326326,0.24629803,0.91746557,-10.290001,7.4749746,0.41638705,-0.32299396,-0.69155777,0.0229395,1
1.2000000000000008,13.73690252922608,-0.5497132704126833,-0.1593839619849655,-0.3353487300393582,13.65213,-0.50329244,-0.35612074,-0.03995307,8.325134,-7.217226,1.2752942,0.31006476,-0.040561955,0.24374972,0.9180418,-10.280307,7.537066,0.43245116,-0.32299396,-0.69155777,0.0229395,1
1.2100000000000009,13.73690252922608,-0.5497132704126833,-0.1593839619849655,-0.3353487300393582,13.65213,-0.50329244,-0.35612074,-0.03995307,8.2223835,-7.1415334,1.2797278,0.3105786,-0.039756056,0.24087813,0.9186611,-10.269844,7.6013217,0.45435017,-0.50329244,-0.35612074,-0.03995307,1
1.2200000000000009,13.73690252922608,-0.5497132704126833,-0.1593839619849655,-0.3353487300393582,13.65213,-0.50329244,-0.35612074,-0.03995307,8.119737,-7.065202,1.2843825,0.31108952,-0.038949776,0.23800425,0.91927165,-10.259394,7.6648345,0.47664514,-0.50329244,-0.35612074,-0.03995307,1
1.2300000000000009,13.73690252922608,-0.5497132704126833,-0.1593839619849655,-0.3353487300393582,13.65213,-0.50329244,-0.35612074,-0.03995307,8.017196,-6.9882393,1.2892619,0.31159744,-0.03814312,0.23512809,0.9198734,-10.248959,7.7276025,0.4993315,-0.50329244,-0.35612074,-0.03995307,1
1.2400000000000009,13.73690252922608,-0.5497132704126833,-0.1593839619849655,-0.3353487300393582,13.6602,-0.4939804,-0.36734712,-0.06283717,7.914758,-6.910652,1.2943703,0.3121024,-0.037336104,0.2322497,0.9204664,-10.238539,7.7896233,0.5224047,-0.50329244,-0.35612074,-0.03995307,1
1.2500000000000009,13.73690252922608,-0.5497132704126833,-0.1593839619849655,-0.3353487300393582,13.6602,-0.4939804,-0.36734712,-0.06283717,7.8124247,-6.8324494,1.2997117,0.31272447,-0.036489107,0.22939016,0.92100614,-10.228124,7.85093,0.5459312,-0.4939804,-0.36734712,-0.06283717,1
1.260000000000001,13.73690252922608,-0.5497132704126833,-0.1593839619849655,-0.3353487300393582,13.6602,-0.4939804,-0.36734712,-0.06283717,7.7101955,-6.7536373,1.3052901,0.31334355,-0.03564176,0.2265284,0.9215371,-10.217706,7.911485,0.56983376,-0.4939804,-0.36734712,-0.06283717,1
1.270000000000001,13.73690252922608,-0.5497132704126833,-0.1593839619849655,-0.3353487300393582,13.6602,-0.4939804,-0.36734712,-0.06283717,7.608071,-6.6742234,1.3111095,0.31395963,-0.03479407,0.22366449,0.92205924,-10.207288,7.9712853,0.5941078,-0.4939804,-0.36734712,-0.06283717,1
1.280000000000001,13.266716248882677,-0.47539364846365034,-0.1905329625541881,-0.3628443121676594,13.725464,-0.5137994,-0.51422554,-0.2003629,7.50605,-6.594215,1.3171735,0.3145727,-0.033946045,0.22079843,0.9225725,-10.196867,8.030329,0.61874866,-0.4939804,-0.36734712,-0.06283717,1
1.290000000000001,13.266716248882677,-0.47539364846365034,-0.1905329625541881,-0.3628443121676594,13.725464,-0.5137994,-0.51422554,-0.2003629,7.404134,-6.513618,1.3234888,0.3159752,-0.032603092,0.21758398,0.9229053,-10.186343,8.088842,0.6443589,-0.5137994,-0.51422554,-0.2003629,1
1.300000000000001,13.266716248882677,-0.47539364846365034,-0.1905329625541881,-0.3628443121676594,13.725464,-0.5137994,-0.51422554,-0.2003629,7.3023233,-6.4324408,1.3300622,0.31737322,-0.031259675,0.21436644,0.92322505,-10.175677,8.146458,0.670378,-0.5137994,-0.51422554,-0.2003629,1
1.310000000000001,13.266716248882677,-0.47539364846365034,-0.1905329625541881,-0.3628443121676594,13.725464,-0.5137994,-0.51422554,-0.2003629,7.20062,-6.3506923,1.3368977,0.3187667,-0.029915813,0.21114583,0.9235316,-10.164872,8.20317,0.69679993,-0.5137994,-0.51422554,-0.2003629,1
1.320000000000001,12.690732447604745,-0.32003899222925347,0.06425677608633204,-0.3967219424196287,13.675314,-0.48612943,-0.37609205,-0.2970377,7.099026,-6.268381,1.3439996,0.32015568,-0.028571527,0.20792224,0.923825,-10.15393,8.258977,0.72361827,-0.5137994,-0.51422554,-0.2003629,1
1.330000000000001,12.690732447604745,-0.32003899222925347,0.06425677608633204,-0.3967219424196287,13.675314,-0.48612943,-0.37609205,-0.2970377,6.997542,-6.185517,1.3513693,0.32184738,-0.027921133,0.20503105,0.9239033,-10.1429405,8.313726,0.7503506,-0.48612943,-0.37609205,-0.2970377,1
1.340000000000001,12.690732447604745,-0.32003899222925347,0.06425677608633204,-0.3967219424196287,13.675314,-0.48612943,-0.37609205,-0.2970377,6.8961673,-6.1021094,1.3590078,0.32353538,-0.027270416,0.20213749,0.92397076,-10.131947,8.367704,0.7774178,-0.48612943,-0.37609205,-0.2970377,1
1.350000000000001,12.690732447604745,-0.32003899222925347,0.06425677608633204,-0.3967219424196287,13.675314,-0.48612943,-0.37609205,-0.2970377,6.794903,-6.0181656,1.3669187,0.32521957,-0.02661938,0.19924156,0.9240275,-10.120953,8.42091,0.8048153,-0.48612943,-0.37609205,-0.2970377,1
1.360000000000001,11.949888681374983,-0.10315885037611386,0.5431598903506044,-0.3917324108156803,13.758595,-0.5514942,-0.39110538,-0.35265887,6.693748,-5.933694,1.3751053,0.32689995,-0.025968034,0.19634332,0.92407346,-10.109959,8.473341,0.8325386,-0.48612943,-0.37609205,-0.2970377,0
1.370000000000001,11.949888681374983,-0.10315885037611386,0.5431598903506044,-0.3917324108156803,13.758595,-0.5514942,-0.39110538,-0.35265887,6.5926957,-5.8487334,1.3834907,0.32816142,-0.029030662,0.1967025,0.92345864,-10.100573,8.518845,0.84453535,-0.103158854,0.5431599,-0.39173242,0
1.380000000000001,11.949888681374983,-0.10315885037611386,0.5431598903506044,-0.3917324108156803,13.758595,-0.5514942,-0.39110538,-0.35265887,6.4917345,-5.7633166,1.3919958,0.32941908,-0.032092955,0.19705941,0.92283314,-10.091771,8.564647,0.8564565,-0.103158854,0.5431599,-0.39173242,0
1.390000000000001,11.949888681374983,-0.10315885037611386,0.5431598903506044,-0.3917324108156803,13.758595,-0.5514942,-0.39110538,-0.35265887,6.3908587,-5.6774397,1.4006197,0.33067295,-0.035154883,0.19741406,0.92219716,-10.083553,8.610748,0.8682977,-0.103158854,0.5431599,-0.39173242,0
1.400000000000001,11.45183611793525,0.034665048209191446,0.3172671436692846,-0.3853954291561115,13.4312935,-0.678828,-0.23068064,-0.5834391,6.290061,-5.5911007,1.4093615,0.3319231,-0.03821641,0.19776644,0.9215505,-10.075918,8.657149,0.88005465,-0.103158854,0.5431599,-0.39173242,0
1.410000000000001,11.45183611793525,0.034665048209191446,0.3172671436692846,-0.3853954291561115,13.4312935,-0.678828,-0.23068064,-0.5834391,6.189337,-5.5043054,1.4181975,0.33339074,-0.04000173,0.19837844,0.9208131,-10.069046,8.701888,0.8871478,0.034665048,0.31726715,-0.38539544,0
1.420000000000001,11.45183611793525,0.034665048209191446,0.3172671436692846,-0.3853954291561115,13.4312935,-0.678828,-0.23068064,-0.5834391,6.08868,-5.4170623,1.427104,0.33485633,-0.04178681,0.19898921,0.92006993,-10.06243,8.746872,0.8941529,0.034665048,0.31726715,-0.38539544,0
1.430000000000001,11.45183611793525,0.034665048209191446,0.3172671436692846,-0.3853954291561115,13.4312935,-0.678828,-0.23068064,-0.5834391,5.9880877,-5.3293676,1.4360802,0.3363198,-0.043571625,0.19959873,0.91932106,-10.05607,8.792103,0.9010684,0.034665048,0.31726715,-0.38539544,0
1.440000000000001,11.45183611793525,0.034665048209191446,0.3172671436692846,-0.3853954291561115,13.220265,-0.65362495,-0.19570157,-0.63914543,5.887557,-5.2412195,1.4451251,0.3377812,-0.04535617,0.200207,0.91856647,-10.049966,8.837578,0.9078928,0.034665048,0.31726715,-0.38539544,0
1.450000000000001,11.45183611793525,0.034665048209191446,0.3172671436692846,-0.3853954291561115,13.220265,-0.65362495,-0.19570157,-0.63914543,5.787087,-5.1526155,1.4542378,0.33924046,-0.047140427,0.20081401,0.91780615,-10.044114,8.883301,0.9146246,0.034665048,0.31726715,-0.38539544,0
1.460000000000001,11.45183611793525,0.034665048209191446,0.3172671436692846,-0.3853954291561115,13.220265,-0.65362495,-0.19570157,-0.63914543,5.686674,-5.063553,1.4634173,0.34069762,-0.048924387,0.20141977,0.9170399,-10.038515,8.92927,0.9212622,0.034665048,0.31726715,-0.38539544,0
1.470000000000001,11.45183611793525,0.034665048209191446,0.3172671436692846,-0.3853954291561115,13.220265,-0.65362495,-0.19570157,-0.63914543,5.586316,-4.9740295,1.4726627,0.34215263,-0.050708044,0.20202427,0.9162679,-10.033169,8.975485,0.9278043,0.034665048,0.31726715,-0.38539544,0
1.480000000000001,11.153846913902196,0.09319852441001297,0.21179386487320623,-0.35498094481771064,13.189887,-0.79372644,-0.2697304,-0.7356327,5.48601,-4.8840427,1.4819729,0.3436055,-0.052491385,0.20262751,0.91549015,-10.028072,9.021948,0.9342492,0.034665048,0.31726715,-0.38539544,0
1.490000000000001,11.153846913902196,0.09319852441001297,0.21179386487320623,-0.35498094481771064,13.189887,-0.79372644,-0.2697304,-0.7356327,5.385753,-4.793596,1.4913335,0.34503952,-0.05366027,0.20332436,0.9147282,-10.023303,9.067434,0.93788,0.09319852,0.21179387,-0.35498095,0
1.500000000000001,11.153846913902196,0.09319852441001297,0.21179386487320623,-0.35498094481771064,13.189887,-0.79372644,-0.2697304,-0.7356327,5.285543,-4.7026935,1.50073,0.346472,-0.05482891,0.2040203,0.9139622,-10.018644,9.113134,0.9414197,0.09319852,0.21179387,-0.35498095,0
1.5100000000000011,11.153846913902196,0.09319852441001297,0.21179386487320623,-0.35498094481771064,13.189887,-0.79372644,-0.2697304,-0.7356327,5.1853786,-4.611333,1.5101614,0.3479029,-0.05599731,0.20471534,0.91319203,-10.014095,9.159048,0.94486755,0.09319852,0.21179387,-0.35498095,0
1.5200000000000011,10.771370984074869,0.1753768120941994,-0.12503080964752544,-0.33220308295927387,13.184932,-1.0120083,-0.6041002,-0.7502611,5.08526,-4.519512,1.519627,0.34933224,-0.057165455,0.20540944,0.91241777,-10.009656,9.205178,0.9482229,0.09319852,0.21179387,-0.35498095,0
1.5300000000000011,10.771370984074869,0.1753768120941994,-0.12503080964752544,-0.33220308295927387,13.184932,-1.0120083,-0.6041002,-0.7502611,4.9851847,-4.427237,1.5291082,0.35102567,-0.056629807,0.20589578,0.91169137,-10.005349,9.249872,0.94803184,0.17537682,-0.12503082,-0.3322031,0
1.5400000000000011,10.771370984074869,0.1753768120941994,-0.12503080964752544,-0.33220308295927387,13.184932,-1.0120083,-0.6041002,-0.7502611,4.885154,-4.3345146,1.5385875,0.35271767,-0.056093935,0.20638132,0.9109614,-10.000816,9.294609,0.94781077,0.17537682,-0.12503082,-0.3322031,0
1.5500000000000012,10.771370984074869,0.1753768120941994,-0.12503080964752544,-0.33220308295927387,13.184932,-1.0120083,-0.6041002,-0.7502611,4.785169,-4.2413445,1.5480642,0.35440832,-0.055557843,0.20686604,0.91022784,-9.9960575,9.339389,0.94755954,0.17537682,-0.12503082,-0.3322031,0
1.5600000000000012,10.465511281611404,0.1959943820043813,-0.10029673563320936,-0.2789626452830855,13.152507,-1.1237444,-1.290291,-0.7986491,4.6852336,-4.1477265,1.5575385,0.35609758,-0.055021532,0.20734996,0.9094907,-9.991074,9.384211,0.94727796,0.17537682,-0.12503082,-0.3322031,0
1.5700000000000012,10.465511281611404,0.1959943820043813,-0.10029673563320936,-0.2789626452830855,13.152507,-1.1237444,-1.290291,-0.7986491,4.5853477,-4.0536666,1.5669959,0.3575235,-0.0545056,0.20798558,0.90881705,-9.9860115,9.42781,0.94418406,0.19599438,-0.100296736,-0.27896264,0
1.5800000000000012,10.465511281611404,0.1959943820043813,-0.10029673563320936,-0.2789626452830855,13.152507,-1.1237444,-1.290291,-0.7986491,4.485514,-3.9591703,1.576422,0.35894826,-0.053989492,0.20862055,0.90814054,-9.980736,9.471478,0.94104666,0.19599438,-0.100296736,-0.27896264,0
1.5900000000000012,10.465511281611404,0.1959943820043813,-0.10029673563320936,-0.2789626452830855,13.152507,-1.1237444,-1.290291,-0.7986491,4.385734,-3.8642368,1.5858166,0.36037192,-0.05347322,0.20925486,0.90746117,-9.975243,9.515216,0.93786544,0.19599438,-0.100296736,-0.27896264,0
1.6000000000000012,10.19391519515874,0.16957656325779769,-0.3060483160872473,-0.23731248541653852,13.382481,-1.3990834,-2.141576,-0.41186848,4.2860103,-3.7688658,1.5951791,0.3617944,-0.052956775,0.2098885,0.90677893,-9.969535,9.559021,0.93464035,0.19599438,-0.100296736,-0.27896264,0
1.6100000000000012,10.19391519515874,0.16957656325779769,-0.3060483160872473,-0.23731248541653852,13.382481,-1.3990834,-2.141576,-0.41186848,4.186344,-3.673062,1.604497,0.36323565,-0.05151135,0.2100404,0.9062507,-9.963714,9.601698,0.92893296,0.16957657,-0.3060483,-0.23731248,0
1.6200000000000012,10.19391519515874,0.16957656325779769,-0.3060483160872473,-0.23731248541653852,13.382481,-1.3990834,-2.141576,-0.41186848,4.086737,-3.576832,1.6137578,0.36467525,-0.0500657,0.21019138,0.90571845,-9.957546,9.644288,0.9232431,0.16957657,-0.3060483,-0.23731248,0
1.6300000000000012,10.19391519515874,0.16957656325779769,-0.3060483160872473,-0.23731248541653852,13.382481,-1.3990834,-2.141576,-0.41186848,3.9871938,-3.4801767,1.6229619,0.36611322,-0.048619825,0.21034141,0.9051821,-9.951035,9.68679,0.91757,0.16957657,-0.3060483,-0.23731248,0
1.6400000000000012,10.19391519515874,0.16957656325779769,-0.3060483160872473,-0.23731248541653852,13.350383,-1.6261753,-2.0422592,-0.28242484,3.8877175,-3.3830967,1.6321093,0.36754957,-0.047173735,0.21049048,0.90464175,-9.944178,9.729203,0.91191274,0.16957657,-0.3060483,-0.23731248,0
1.6500000000000012,10.19391519515874,0.16957656325779769,-0.3060483160872473,-0.23731248541653852,13.350383,-1.6261753,-2.0422592,-0.28242484,3.7883117,-3.2855928,1.6412002,0.36898425,-0.045727428,0.21063861,0.9040973,-9.9369755,9.771527,0.9062707,0.16957657,-0.3060483,-0.23731248,0
1.6600000000000013,10.19391519515874,0.16957656325779769,-0.3060483160872473,-0.23731248541653852,13.350383,-1.6261753,-2.0422592,-0.28242484,3.6889794,-3.1876664,1.6502348,0.37041727,-0.04428092,0.21078584,0.90354884,-9.92943,9.81376,0.90064305,0.16957657,-0.3060483,-0.23731248,0
1.6700000000000013,10.19391519515874,0.16957656325779769,-0.3060483160872473,-0.23731248541653852,13.350383,-1.6261753,-2.0422592,-0.28242484,3.5897245,-3.089318,1.6592132,0.37184867,-0.042834215,0.2109321,0.90299636,-9.921539,9.855899,0.895029,0.16957657,-0.3060483,-0.23731248,0
1.6800000000000013,9.974019022263152,0.0750269465837883,0.15257736025786908,-0.15664008669404578,13.2279,-1.7419919,-1.2423035,-0.110433176,3.49055,-2.9905488,1.6681354,0.3732784,-0.04138732,0.21107742,0.90243983,-9.913305,9.8979435,0.8894277,0.16957657,-0.3060483,-0.23731248,0
1.6900000000000013,9.974019022263152,0.0750269465837883,0.15257736025786908,-0.15664008669404578,13.2279,-1.7419919,-1.2423035,-0.110433176,3.3914583,-2.8913639,1.6769917,0.37383947,-0.042101033,0.21166818,0.90203613,-9.90506,9.939078,0.8818155,0.075026944,0.15257736,-0.15664008,0
1.7000000000000013,9.974019022263152,0.0750269465837883,0.15257736025786908,-0.15664008669404578,13.2279,-1.7419919,-1.2423035,-0.110433176,3.2924488,-2.791767,1.6857716,0.37440005,-0.042814694,0.21225865,0.90163124,-9.896872,9.98036,0.8741414,0.075026944,0.15257736,-0.15664008,0
1.7100000000000013,9.974019022263152,0.0750269465837883,0.15257736025786908,-0.15664008669404578,13.2279,-1.7419919,-1.2423035,-0.110433176,3.1935205,-2.6917562,1.6944743,0.37496006,-0.043528304,0.21284883,0.9012251,-9.888741,10.02179,0.86640525,0.075026944,0.15257736,-0.15664008,0
1.7200000000000013,9.733501096628329,-0.0935393330552683,-0.09634085473798379,-0.08438900461672022,13.1318,-1.9579096,-1.6055495,0.08129789,3.0946736,-2.591331,1.7030995,0.37551957,-0.044241853,0.21343872,0.90081775,-9.880667,10.063365,0.85860664,0.075026944,0.15257736,-0.15664008,0
1.7300000000000013,9.733501096628329,-0.0935393330552683,-0.09634085473798379,-0.08438900461672022,13.1318,-1.9579096,-1.6055495,0.08129789,2.9959064,-2.4904943,1.7116356,0.3759817,-0.044073597,0.21281779,0.90078014,-9.872821,10.103984,0.84861267,-0.093539335,-0.09634086,-0.084389,0
1.7400000000000013,9.733501096628329,-0.0935393330552683,-0.09634085473798379,-0.08438900461672022,13.1318,-1.9579096,-1.6055495,0.08129789,2.8972173,-2.3892517,1.7200719,0.37644356,-0.043905318,0.21219672,0.900742,-9.864971,10.144484,0.83867306,-0.093539335,-0.09634086,-0.084389,0
1.7500000000000013,9.733501096628329,-0.0935393330552683,-0.09634085473798379,-0.08438900461672022,13.1318,-1.9579096,-1.6055495,0.08129789,2.7986069,-2.2876048,1.7284092,0.3769052,-0.04373701,0.21157552,0.90070325,-9.857119,10.184865,0.8287876,-0.093539335,-0.09634086,-0.084389,0
1.7600000000000013,9.525142891590365,-0.2994271012414123,-0.18032425348550263,0.024211435666397104,14.330591,-2.0130367,-3.542815,0.276501,2.7000751,-2.1855545,1.7366477,0.3773666,-0.04356867,0.21095419,0.9006639,-9.849262,10.225127,0.81895626,-0.093539335,-0.09634086,-0.084389,0
1.7700000000000014,9.525142891590365,-0.2994271012414123,-0.18032425348550263,0.024211435666397104,14.330591,-2.0130367,-3.542815,0.276501,2.6016207,-2.0831068,1.744779,0.37738198,-0.04329598,0.20927048,0.9010634,-9.8416,10.264344,0.80732065,-0.2994271,-0.18032426,0.024211437,0
1.7800000000000014,9.525142891590365,-0.2994271012414123,-0.18032425348550263,0.024211435666397104,14.330591,-2.0130367,-3.542815,0.276501,2.5032425,-1.9802684,1.7527946,0.3773962,-0.043023154,0.20758612,0.90146,-9.834015,10.303269,0.795824,-0.2994271,-0.18032426,0.024211437,0
1.7900000000000014,9.525142891590365,-0.2994271012414123,-0.18032425348550263,0.024211435666397104,14.330591,-2.0130367,-3.542815,0.276501,2.40494,-1.8770423,1.7606959,0.37740925,-0.042750195,0.20590115,0.90185386,-9.8265085,10.341902,0.78446525,-0.2994271,-0.18032426,0.024211437,0
1.8000000000000014,9.383805985559103,-0.5488036708352323,-0.17800201240829136,0.1214176800465062,12.0402355,-1.876422,-2.2749066,-0.12890394,2.306712,-1.7734313,1.7684844,0.37742114,-0.042477105,0.20421553,0.902245,-9.819079,10.38024,0.77324325,-0.2994271,-0.18032426,0.024211437,0
1.8100000000000014,9.383805985559103,-0.5488036708352323,-0.17800201240829136,0.1214176800465062,12.0402355,-1.876422,-2.2749066,-0.12890394,2.2085574,-1.6694413,1.7761549,0.37693697,-0.042585585,0.20142874,0.90306836,-9.811897,10.4176655,0.76089495,-0.5488037,-0.17800201,0.12141768,0
1.8200000000000014,9.383805985559103,-0.5488036708352323,-0.17800201240829136,0.1214176800465062,12.0402355,-1.876422,-2.2749066,-0.12890394,2.1104734,-1.5650795,1.783703,0.3764495,-0.042693697,0.19864021,0.9038839,-9.8049555,10.454653,0.74875605,-0.5488037,-0.17800201,0.12141768,0
1.8300000000000014,9.383805985559103,-0.5488036708352323,-0.17800201240829136,0.1214176800465062,12.0402355,-1.876422,-2.2749066,-0.12890394,2.0124574,-1.4603499,1.7911307,0.37595877,-0.042801436,0.19584996,0.9046916,-9.798254,10.491201,0.73682374,-0.5488037,-0.17800201,0.12141768,0
1.8400000000000014,9.383805985559103,-0.5488036708352323,-0.17800201240829136,0.1214176800465062,12.03278,-1.8788892,-2.8452013,0.14744005,1.9145074,-1.355257,1.7984401,0.37546477,-0.042908806,0.19305798,0.9054914,-9.791793,10.527309,0.7250952,-0.5488037,-0.17800201,0.12141768,0
1.8500000000000014,9.383805985559103,-0.5488036708352323,-0.17800201240829136,0.1214176800465062,12.03278,-1.8788892,-2.8452013,0.14744005,1.8166208,-1.2498052,1.8056333,0.3749675,-0.043015804,0.19026434,0.9062834,-9.78557,10.562975,0.71356773,-0.5488037,-0.17800201,0.12141768,0
1.8600000000000014,9.383805985559103,-0.5488036708352323,-0.17800201240829136,0.1214176800465062,12.03278,-1.8788892,-2.8452013,0.14744005,1.7187953,-1.1439991,1.8127123,0.374467,-0.043122426,0.18746904,0.9070675,-9.779587,10.598198,0.7022385,-0.5488037,-0.17800201,0.12141768,0
1.8700000000000014,9.383805985559103,-0.5488036708352323,-0.17800201240829136,0.1214176800465062,12.03278,-1.8788892,-2.8452013,0.14744005,1.6210283,-1.0378429,1.819679,0.3739632,-0.043228675,0.18467212,0.90784365,-9.773843,10.632975,0.69110465,-0.5488037,-0.17800201,0.12141768,0
1.8800000000000014,9.259454257758224,-0.7558815904931608,-1.0252313709334406,0.2806005490660781,13.343206,-1.9267777,-2.9623466,0.77714044,1.5233176,-0.9313412,1.8265353,0.37345618,-0.043334544,0.1818736,0.90861195,-9.768336,10.667306,0.6801633,-0.5488037,-0.17800201,0.12141768,0
1.8900000000000015,9.259454257758224,-0.7558815904931608,-1.0252313709334406,0.2806005490660781,13.343206,-1.9267777,-2.9623466,0.77714044,1.4256608,-0.82450134,1.8332776,0.372942,-0.039832234,0.17658216,0.91002613,-9.762976,10.700498,0.66833746,-0.7558816,-1.0252314,0.28060055,0
1.9000000000000015,9.259454257758224,-0.7558815904931608,-1.0252313709334406,0.2806005490660781,13.343206,-1.9267777,-2.9623466,0.77714044,1.3280587,-0.717335,1.8399035,0.37241194,-0.03632823,0.17128322,0.91140157,-9.75742,10.732597,0.6569114,-0.7558816,-1.0252314,0.28060055,0
1.9100000000000015,9.259454257758224,-0.7558815904931608,-1.0252313709334406,0.2806005490660781,13.343206,-1.9267777,-2.9623466,0.77714044,1.2305131,-0.60985315,1.8464171,0.37186605,-0.032822683,0.16597697,0.9127382,-9.751663,10.763599,0.6458707,-0.7558816,-1.0252314,0.28060055,0
1.9200000000000015,9.169851599136976,-1.1077163088013056,-0.564019941470317,0.39950512765090596,13.202088,-2.3787882,-3.3221643,0.8041381,1.133026,-0.5020668,1.8528222,0.37130436,-0.029315736,0.16066368,0.9140361,-9.745705,10.793501,0.63520086,-0.7558816,-1.0252314,0.28060055,0
1.9300000000000015,9.169851599136976,-1.1077163088013056,-0.564019941470317,0.39950512765090596,13.202088,-2.3787882,-3.3221643,0.8041381,1.0355988,-0.39398825,1.8591182,0.36976138,-0.028473014,0.15460928,0.91573083,-9.7398,10.822042,0.6240434,-1.1077163,-0.5640199,0.39950514,0
1.9400000000000015,9.169851599136976,-1.1077163088013056,-0.564019941470317,0.39950512765090596,13.202088,-2.3787882,-3.3221643,0.8041381,0.93822896,-0.28562948,1.8653044,0.36820266,-0.02762908,0.14854829,0.91738653,-9.734218,10.84955,0.61324,-1.1077163,-0.5640199,0.39950514,0
1.9500000000000015,9.169851599136976,-1.1077163088013056,-0.564019941470317,0.39950512765090596,13.202088,-2.3787882,-3.3221643,0.8041381,0.8409134,-0.17700082,1.8713843,0.3666282,-0.026783966,0.14248095,0.9190031,-9.728954,10.876019,0.60277724,-1.1077163,-0.5640199,0.39950514,0
1.9600000000000015,9.145793612790586,-1.3727031347902072,-0.9949228531420342,0.5929971110780239,12.79393,-2.3787796,-4.7151127,0.9130694,0.7436488,-0.0681127,1.8773612,0.36503816,-0.02593771,0.13640757,0.9205806,-9.724007,10.901441,0.5926417,-1.1077163,-0.5640199,0.39950514,0
1.9700000000000015,9.145793612790586,-1.3727031347902072,-0.9949228531420342,0.5929971110780239,12.79393,-2.3787796,-4.7151127,0.9130694,0.6464322,0.04102359,1.8832371,0.36279452,-0.02345816,0.12834473,0.9226911,-9.719334,10.925586,0.5826299,-1.3727031,-0.9949229,0.59299713,0
1.9800000000000015,9.145793612790586,-1.3727031347902072,-0.9949228531420342,0.5929971110780239,12.79393,-2.3787796,-4.7151127,0.9130694,0.54926145,0.1503939,1.8890151,0.3605216,-0.02097672,0.12027155,0.9247272,-9.714842,10.948244,0.57302135,-1.3727031,-0.9949229,0.59299713,0
1.9900000000000015,9.145793612790586,-1.3727031347902072,-0.9949228531420342,0.5929971110780239,12.79393,-2.3787796,-4.7151127,0.9130694,0.4521348,0.25998336,1.8946989,0.35821962,-0.018493589,0.11218867,0.9266887,-9.710522,10.96941,0.5637905,-1.3727031,-0.9949229,0.59299713,0
2.0000000000000013,,,,,11.48946,-2.0990233,-2.3345754,0.43826428,0.3550505,0.36977696,1.900292,0.35588875,-0.016008964,0.10409674,0.9285754,-9.706366,10.989075,0.55491155,-1.3727031,-0.9949229,0.59299713,0
2.010000000000001,,,,,11.48946,-2.0990233,-2.3345754,0.43826428,0.25800642,0.47975996,1.9057987,0.35258684,-0.016466212,0.095792115,0.9307184,-9.70256,11.007314,0.5464699,-1.6300498,-0.44430986,0.7296562,0
2.020000000000001,,,,,11.48946,-2.0990233,-2.3345754,0.43826428,0.16099694,0.58991855,1.9112225,0.34925503,-0.016922066,0.087479375,0.93278265,-9.699435,11.024195,0.5383202,-1.6300498,-0.44430986,0.7296562,0
2.0300000000000007,,,,,11.48946,-2.0990233,-2.3345754,0.43826428,0.06401539,0.7002391,1.9165659,0.34589365,-0.017376486,0.07915923,0.93476784,-9.69698,11.039708,0.53043723,-1.6300498,-0.44430986,0.7296562,0
2.0400000000000005,,,,,11.48946,-2.0990233,-2.3345754,0.43826428,-0.032944925,0.810708,1.9218318,0.34250298,-0.017829437,0.07083238,0.9366739,-9.695186,11.053843,0.52279586,-1.6300498,-0.44430986,0.7296562,0
2.0500000000000003,,,,,11.066047,-1.8530254,-2.0664058,0.38142753,-0.12989058,0.9213112,1.9270225,0.3390833,-0.018280877,0.062499538,0.93850064,-9.694044,11.066591,0.51537085,-1.6300498,-0.44430986,0.7296562,1
2.06,,,,,11.066047,-1.8530254,-2.0664058,0.38142753,-0.22682604,1.0320456,1.9322348,0.3377366,-0.01160514,0.05032992,0.93982315,-9.692982,11.079814,0.52712995,-1.8530254,-2.0664058,0.38142753,1
2.07,,,,,11.066047,-1.8530254,-2.0664058,0.38142753,-0.32374862,1.1428971,1.9375662,0.33632362,-0.0049271258,0.03815043,0.94096124,-9.69146,11.090016,0.53920525,-1.8530254,-2.0664058,0.38142753,1
2.0799999999999996,,,,,11.066047,-1.8530254,-2.0664058,0.38142753,-0.42065364,1.2538356,1.9430196,0.33484462,0.0017518555,0.02596345,0.9419147,-9.689469,11.097192,0.5515115,-1.8530254,-2.0664058,0.38142753,1
2.0899999999999994,,,,,10.865883,-2.3834846,-1.4286381,0.120047376,-0.51753634,1.3648306,1.948597,0.33329993,0.008430493,0.013771377,0.94268334,-9.686999,11.101338,0.56396335,-1.8530254,-2.0664058,0.38142753,1
2.099999999999999,,,,,10.865883,-2.3834846,-1.4286381,0.120047376,-0.6143932,1.4758518,1.9542892,0.33290076,0.011199544,0.00015024259,0.9428961,-9.684432,11.102428,0.5744831,-2.3834846,-1.4286381,0.120047376,1
2.109999999999999,,,,,10.865883,-2.3834846,-1.4286381,0.120047376,-0.7112264,1.586869,1.9600867,0.3324372,0.01396643,-0.013470921,0.9429265,-9.682283,11.100529,0.58500075,-2.3834846,-1.4286381,0.120047376,1
2.1199999999999988,,,,,10.865883,-2.3834846,-1.4286381,0.120047376,-0.80804026,1.6978521,1.965989,0.3319093,0.016730614,-0.02708948,0.9427746,-9.680551,11.095638,0.59543234,-2.3834846,-1.4286381,0.120047376,1
2.1299999999999986,,,,,9.194584,-2.1694987,-0.5220039,0.5014869,-0.90483886,1.8087715,1.9719948,0.3313172,0.019491563,-0.0407028,0.9424403,-9.679233,11.087763,0.6056941,-2.3834846,-1.4286381,0.120047376,1
2.1399999999999983,,,,,9.194584,-2.1694987,-0.5220039,0.5014869,-1.0016277,1.9196059,1.9780189,0.32903767,0.018254083,-0.05183663,0.942717,-9.678662,11.078828,0.59910125,-2.1694987,-0.5220039,0.5014869,1
2.149999999999998,,,,,9.194584,-2.1694987,-0.5220039,0.5014869,-1.0984151,2.0303416,1.9839761,0.3267151,0.017014215,-0.06296368,0.9428705,-9.678958,11.068044,0.59231013,-2.1694987,-0.5220039,0.5014869,1
2.159999999999998,,,,,9.194584,-2.1694987,-0.5220039,0.5014869,-1.19521,2.1409602,1.9898642,0.32434985,0.015772123,-0.0740825,0.94290066,-9.68011,11.055411,0.5852751,-2.1694987,-0.5220039,0.5014869,1
2.1699999999999977,,,,,12.393643,-0.8305917,-3.0486166,1.3684844,-1.2920203,2.2514434,1.9956806,0.32194215,0.014527968,-0.08519163,0.9428075,-9.68211,11.040933,0.5779502,-2.1694987,-0.5220039,0.5014869,1
