time-since-start [s],throttle_mpc,roll_mpc,pitch_mpc,yaw_mpc,throttle_nw,roll_nw,pitch_nw,yaw_nw,position_x [m],position_y [m],position_z [m],rotation_w [quaternion],rotation_x [quaternion],rotation_y [quaternion],rotation_z [quaternion],velocity_x [m/s],velocity_y [m/s],velocity_z [m/s],omega_x [rad/s],omega_y [rad/s],omega_z [rad/s],network_used
0.0,8.019556818738668,5.999972530444,-5.999999978121251,-5.999999515297408,16.423521,-0.5891114,-6.01143,-0.6799149,20.112762,-8.386233,1.9987928,-0.22254972,-0.46882477,0.36461872,0.7731288,-9.608006,-6.707891,-0.7064802,1.569262,-0.22384872,-0.037498042,0
0.01,8.019556818738668,5.999972530444,-5.999999978121251,-5.999999515297408,17.627783,-0.7581039,-10.500067,-1.4792504,20.01633,-8.453163,1.9913546,-0.17407392,-0.46261567,0.37992498,0.78188366,-9.678258,-6.677051,-0.78131634,5.9999723,-6.0,-5.9999995,0
0.02,8.019556818738668,5.999972530444,-5.999999978121251,-5.999999515297408,17.627783,-0.7581039,-10.500067,-1.4792504,19.919209,-8.519753,1.9831637,-0.12512824,-0.4551578,0.39420572,0.78852785,-9.745748,-6.640052,-0.85696906,5.9999723,-6.0,-5.9999995,0
0.03,8.019556818738668,5.999972530444,-5.999999978121251,-5.999999515297408,17.627783,-0.7581039,-10.500067,-1.4792504,19.821426,-8.585944,1.9742132,-0.07584479,-0.44647124,0.4074223,0.79304355,-9.80987,-6.5971766,-0.9332105,5.9999723,-6.0,-5.9999995,0
0.04,8.019556818738668,5.999972530444,-5.999999978121251,-5.999999515297408,17.109106,-3.6850064,-5.70112,-0.009004064,19.723024,-8.651678,1.9644984,-0.026356606,-0.43657953,0.41953912,0.7954185,-9.870053,-6.5487695,-1.0098064,5.9999723,-6.0,-5.9999995,0
0.05,8.019556818738668,5.999972530444,-5.999999978121251,-5.999999515297408,17.109106,-3.6850064,-5.70112,-0.009004064,19.624043,-8.716902,1.9540168,0.023202725,-0.4255093,0.43052343,0.7956463,-9.925773,-6.495238,-1.086519,5.9999723,-6.0,-5.9999995,0
0.060000000000000005,8.019556818738668,5.999972530444,-5.999999978121251,-5.999999515297408,17.109106,-3.6850064,-5.70112,-0.009004064,19.524527,-8.781567,1.9427685,0.07269943,-0.4132905,0.4403456,0.7937264,-9.976547,-6.4370403,-1.1631086,5.9999723,-6.0,-5.9999995,0
0.07,8.019556818738668,5.999972530444,-5.999999978121251,-5.999999515297408,17.109106,-3.6850064,-5.70112,-0.009004064,19.42453,-8.845628,1.930756,0.12199988,-0.39995602,0.44897908,0.78966385,-10.021953,-6.374688,-1.2393377,5.9999723,-6.0,-5.9999995,0
0.08,17.228877320295897,5.999997407831231,-5.999999944488942,-3.802722533445424,17.330883,-5.745104,0.7021174,0.74076545,19.324108,-8.909048,1.9179839,0.170971,-0.38554192,0.45640063,0.78346974,-10.06162,-6.3087373,-1.3149719,5.9999723,-6.0,-5.9999995,0
0.09,17.228877320295897,5.999997407831231,-5.999999944488942,-3.802722533445424,17.330883,-5.745104,0.7021174,0.74076545,19.22312,-8.971399,1.904592,0.21092667,-0.3651771,0.46694788,0.77724856,-10.133856,-6.160586,-1.3630738,5.9999976,-6.0,-3.8027225,0
0.09999999999999999,17.228877320295897,5.999997407831231,-5.999999944488942,-3.802722533445424,17.330883,-5.745104,0.7021174,0.74076545,19.121477,-9.032242,1.8907291,0.2504265,-0.34402308,0.476486,0.7693476,-10.192583,-6.0072336,-1.4092035,5.9999976,-6.0,-3.8027225,0
0.10999999999999999,17.228877320295897,5.999997407831231,-5.999999944488942,-3.802722533445424,17.330883,-5.745104,0.7021174,0.74076545,19.019316,-9.09153,1.8764153,0.2893851,-0.32212558,0.48499435,0.759784,-10.237395,-5.849968,-1.453211,5.9999976,-6.0,-3.8027225,0
0.11999999999999998,17.228877320295897,5.999997407831231,-5.999999944488942,-3.802722533445424,17.330883,-5.745104,0.7021174,0.74076545,18.91678,-9.149232,1.8616724,0.32771832,-0.29953197,0.4924546,0.74857837,-10.268009,-5.6901097,-1.4949646,5.9999976,-6.0,-3.8027225,0
0.12999999999999998,20.999999425404745,2.8866994472296654,-5.999999786533113,0.9405478524202504,21.402145,-6.5042157,3.2662516,1.760908,18.814007,-9.205328,1.846524,0.36534327,-0.276291,0.49885058,0.735755,-10.284262,-5.5290027,-1.5343521,5.9999976,-6.0,-3.8027225,0
0.13999999999999999,20.999999425404745,2.8866994472296654,-5.999999786533113,0.9405478524202504,21.402145,-6.5042157,3.2662516,1.760908,18.711134,-9.259639,1.8310641,0.3806272,-0.24644868,0.499527,0.73814535,-10.288493,-5.333247,-1.5566458,2.8866994,-6.0,0.9405478,0
0.15,20.999999425404745,2.8866994472296654,-5.999999786533113,0.9405478524202504,21.402145,-6.5042157,3.2662516,1.760908,18.60828,-9.312002,1.8154122,0.39548084,-0.21632776,0.49963883,0.7397013,-10.280418,-5.140086,-1.5728419,2.8866994,-6.0,0.9405478,0
0.16,20.999999592634968,0.4709827829658693,-5.931803636919195,2.3690115467798667,20.97427,-7.1024227,0.7693557,1.5004017,18.50557,-9.362452,1.7996267,0.4098875,-0.1859623,0.49918586,0.7404211,-10.260011,-4.950332,-1.583411,2.8866994,-6.0,0.9405478,0
0.17,20.999999592634968,0.4709827829658693,-5.931803636919195,2.3690115467798667,20.97427,-7.1024227,0.7693557,1.5004017,18.403118,-9.411024,1.7837647,0.4161492,-0.15703359,0.49072084,0.749235,-10.228819,-4.765055,-1.5877701,0.4709828,-5.9318037,2.3690116,0
0.18000000000000002,20.999999592634968,0.4709827829658693,-5.931803636919195,2.3690115467798667,20.97427,-7.1024227,0.7693557,1.5004017,18.301022,-9.457771,1.767897,0.4219842,-0.12794384,0.48175263,0.7572806,-10.189344,-4.585381,-1.5846434,0.4709828,-5.9318037,2.3690116,0
0.19000000000000003,20.999999592634968,0.4709827829658693,-5.931803636919195,2.3690115467798667,20.97427,-7.1024227,0.7693557,1.5004017,18.199362,-9.502753,1.7520956,0.42738646,-0.098722905,0.47229046,0.7645496,-10.141513,-4.411883,-1.5745839,0.4709828,-5.9318037,2.3690116,0
0.20000000000000004,20.999999294952662,-0.12963041660515587,-2.635697762430019,2.030164900491595,23.696716,-5.487538,0.9595918,1.030152,18.09822,-9.546033,1.7364272,0.4323505,-0.069400735,0.4623439,0.77103466,-10.085285,-4.245109,-1.5581733,0.4709828,-5.9318037,2.3690116,0
0.21000000000000005,20.999999294952662,-0.12963041660515587,-2.635697762430019,2.030164900491595,23.696716,-5.487538,0.9595918,1.030152,17.997679,-9.587675,1.7209492,0.430512,-0.054817777,0.45678708,0.77653056,-10.0225935,-4.084065,-1.5369743,-0.12963042,-2.6356978,2.030165,0
0.22000000000000006,20.999999294952662,-0.12963041660515587,-2.635697762430019,2.030164900491595,23.696716,-5.487538,0.9595918,1.030152,17.897781,-9.627725,1.7056975,0.42855427,-0.04021963,0.4511037,0.78181124,-9.956654,-3.9264905,-1.5129277,-0.12963042,-2.6356978,2.030165,0
0.23000000000000007,20.999999294952662,-0.12963041660515587,-2.635697762430019,2.030164900491595,23.696716,-5.487538,0.9595918,1.030152,17.79856,-9.666217,1.6906999,0.42647773,-0.025610337,0.44529527,0.78687525,-9.887426,-3.7724745,-1.4861907,-0.12963042,-2.6356978,2.030165,0
0.24000000000000007,20.999999294952662,-0.12963041660515587,-2.635697762430019,2.030164900491595,21.481472,-5.0124087,3.4220529,1.0755992,17.700045,-9.703187,1.6759825,0.42428303,-0.0109939445,0.43936342,0.79172117,-9.814879,-3.6221018,-1.4569236,-0.12963042,-2.6356978,2.030165,0
0.25000000000000006,20.999999294952662,-0.12963041660515587,-2.635697762430019,2.030164900491595,21.481472,-5.0124087,3.4220529,1.0755992,17.602272,-9.738672,1.6615697,0.42197073,0.003625494,0.43330985,0.79634774,-9.738979,-3.475453,-1.4252893,-0.12963042,-2.6356978,2.030165,0
0.26000000000000006,20.999999294952662,-0.12963041660515587,-2.635697762430019,2.030164900491595,21.481472,-5.0124087,3.4220529,1.0755992,17.505276,-9.77271,1.6474843,0.4195415,0.018243928,0.42713618,0.8007536,-9.659701,-3.332605,-1.3914535,-0.12963042,-2.6356978,2.030165,0
0.2700000000000001,20.999999294952662,-0.12963041660515587,-2.635697762430019,2.030164900491595,21.481472,-5.0124087,3.4220529,1.0755992,17.409088,-9.805337,1.6337476,0.416996,0.032857306,0.42084417,0.8049376,-9.577023,-3.19363,-1.3555841,-0.12963042,-2.6356978,2.030165,0
0.2800000000000001,20.99999725429263,-1.1289726773754132,0.9466476645731926,1.5660485356651304,20.841864,-4.9831276,4.6788535,0.6143462,17.313745,-9.836596,1.620379,0.41433492,0.04746158,0.41443554,0.8088985,-9.490922,-3.0585966,-1.3178518,-0.12963042,-2.6356978,2.030165,0
0.2900000000000001,20.99999725429263,-1.1289726773754132,0.9466476645731926,1.5660485356651304,20.841864,-4.9831276,4.6788535,0.6143462,17.219275,-9.866518,1.6073958,0.40628356,0.044536453,0.41143504,0.8146601,-9.403726,-2.9258132,-1.2786033,-1.1289726,0.94664764,1.5660485,0
0.3000000000000001,20.99999725429263,-1.1289726773754132,0.9466476645731926,1.5660485356651304,20.841864,-4.9831276,4.6788535,0.6143462,17.12566,-9.895109,1.594811,0.39818522,0.041606177,0.40838698,0.8203274,-9.319334,-2.7924182,-1.2382003,-1.1289726,0.94664764,1.5660485,0
0.3100000000000001,20.99999725429263,-1.1289726773754132,0.9466476645731926,1.5660485356651304,20.841864,-4.9831276,4.6788535,0.6143462,17.032877,-9.922364,1.5826359,0.39004087,0.03867109,0.4052917,0.82589996,-9.237759,-2.6584773,-1.1966413,-1.1289726,0.94664764,1.5660485,0
0.3200000000000001,20.834142503879573,-1.2291440421271758,3.287765447649574,1.2866052770757794,20.361113,-4.3598638,4.7941194,-0.06552358,16.940895,-9.948277,1.5708821,0.38185146,0.035731535,0.4021496,0.8313771,-9.159013,-2.5240557,-1.1539252,-1.1289726,0.94664764,1.5660485,0
0.3300000000000001,20.834142503879573,-1.2291440421271758,3.287765447649574,1.2866052770757794,20.361113,-4.3598638,4.7941194,-0.06552358,16.84968,-9.972847,1.5595543,0.3700459,0.022299498,0.4030172,0.83674693,-9.085056,-2.3891172,-1.1115828,-1.2291441,3.2877655,1.2866052,0
0.34000000000000014,20.834142503879573,-1.2291440421271758,3.287765447649574,1.2866052770757794,20.361113,-4.3598638,4.7941194,-0.06552358,16.75917,-9.996049,1.54865,0.35811105,0.008859668,0.40374398,0.84182435,-9.017591,-2.2508137,-1.0692455,-1.2291441,3.2877655,1.2866052,0
0.35000000000000014,20.834142503879573,-1.2291440421271758,3.287765447649574,1.2866052770757794,20.361113,-4.3598638,4.7941194,-0.06552358,16.669304,-10.017851,1.5381688,0.34605113,-0.0045832573,0.40432975,0.8466077,-8.956731,-2.109372,-1.0270168,-1.2291441,3.2877655,1.2866052,0
0.36000000000000015,19.581022982742166,-1.429534902381737,4.6718584405351535,0.883459227793792,21.497116,-2.8201215,3.8499236,-0.1235064,16.580015,-10.038225,1.5281088,0.33387026,-0.018024582,0.40477422,0.8510952,-8.9025755,-1.9650233,-0.9850001,-1.2291441,3.2877655,1.2866052,0
0.37000000000000016,19.581022982742166,-1.429534902381737,4.6718584405351535,0.883459227793792,21.497116,-2.8201215,3.8499236,-0.1235064,16.491215,-10.057185,1.518425,0.32042515,-0.038496297,0.40644455,0.85477954,-8.858949,-1.8263664,-0.95193034,-1.4295349,4.6718583,0.8834592,0
0.38000000000000017,19.581022982742166,-1.429534902381737,4.6718584405351535,0.883459227793792,21.497116,-2.8201215,3.8499236,-0.1235064,16.402807,-10.074741,1.5090667,0.30678257,-0.05894429,0.40786442,0.8579371,-8.824169,-1.6842368,-0.91993815,-1.4295349,4.6718583,0.8834592,0
0.3900000000000002,19.581022982742166,-1.429534902381737,4.6718584405351535,0.883459227793792,21.497116,-2.8201215,3.8499236,-0.1235064,16.314701,-10.090859,1.5000218,0.292951,-0.079355955,0.40903297,0.86056596,-8.798346,-1.5390239,-0.8892717,-1.4295349,4.6718583,0.8834592,0
0.4000000000000002,18.71775333288544,-1.0969267583707405,2.352583619531908,0.5908444385389298,18.115358,-2.3770163,2.550159,0.24412426,16.226809,-10.105513,1.4912759,0.27893886,-0.09971872,0.40994948,0.8626646,-8.781567,-1.3911247,-0.8601758,-1.4295349,4.6718583,0.8834592,0
0.4100000000000002,18.71775333288544,-1.0969267583707405,2.352583619531908,0.5908444385389298,18.115358,-2.3770163,2.550159,0.24412426,16.139042,-10.11871,1.4827859,0.27099675,-0.11017582,0.4087575,0.86448765,-8.7727585,-1.2480657,-0.8379009,-1.0969268,2.3525836,0.59084445,0
0.4200000000000002,18.71775333288544,-1.0969267583707405,2.352583619531908,0.5908444385389298,18.115358,-2.3770163,2.550159,0.24412426,16.051336,-10.130472,1.4745164,0.26300663,-0.12061341,0.4074931,0.86615753,-8.768745,-1.1043913,-0.8161045,-1.0969268,2.3525836,0.59084445,0
0.4300000000000002,18.71775333288544,-1.0969267583707405,2.352583619531908,0.5908444385389298,18.115358,-2.3770163,2.550159,0.24412426,15.963649,-10.140795,1.4664621,0.25496992,-0.13102962,0.40615654,0.867674,-8.769535,-0.9602164,-0.7948456,-1.0969268,2.3525836,0.59084445,0
0.4400000000000002,18.71775333288544,-1.0969267583707405,2.352583619531908,0.5908444385389298,17.6256,-1.8181334,2.0689855,0.095270514,15.875929,-10.149674,1.4586176,0.246888,-0.14142263,0.404748,0.8690366,-8.77513,-0.81565624,-0.7741827,-1.0969268,2.3525836,0.59084445,0
0.45000000000000023,18.71775333288544,-1.0969267583707405,2.352583619531908,0.5908444385389298,17.6256,-1.8181334,2.0689855,0.095270514,15.78813,-10.157107,1.4509763,0.23876238,-0.15179059,0.40326777,0.8702453,-8.785533,-0.67082644,-0.75417393,-1.0969268,2.3525836,0.59084445,0
0.46000000000000024,18.71775333288544,-1.0969267583707405,2.352583619531908,0.5908444385389298,17.6256,-1.8181334,2.0689855,0.095270514,15.700203,-10.163091,1.4435315,0.23059444,-0.16213164,0.40171608,0.8712998,-8.800739,-0.5258426,-0.73487705,-1.0969268,2.3525836,0.59084445,0
0.47000000000000025,18.71775333288544,-1.0969267583707405,2.352583619531908,0.5908444385389298,17.6256,-1.8181334,2.0689855,0.095270514,15.612099,-10.167624,1.436276,0.22238567,-0.17244397,0.40009323,0.87219983,-8.820743,-0.38082057,-0.7163492,-1.0969268,2.3525836,0.59084445,0
0.48000000000000026,18.500093014781914,-0.9524274412229227,2.578310349053485,0.3389704788258749,18.27543,-1.9360893,2.0181038,0.14433278,15.523771,-10.170709,1.4292016,0.2141375,-0.18272576,0.39839947,0.87294537,-8.845531,-0.23587626,-0.698647,-1.0969268,2.3525836,0.59084445,1
0.49000000000000027,18.500093014781914,-0.9524274412229227,2.578310349053485,0.3389704788258749,18.27543,-1.9360893,2.0181038,0.14433278,15.435175,-10.172361,1.4222876,0.20769782,-0.19330141,0.39220276,0.8750272,-8.874501,-0.09493835,-0.684078,-1.9360893,2.0181038,0.14433278,1
0.5000000000000002,18.500093014781914,-0.9524274412229227,2.578310349053485,0.3389704788258749,18.27543,-1.9360893,2.0181038,0.14433278,15.346265,-10.172612,1.415521,0.20121741,-0.20383917,0.38592914,0.8769374,-8.908392,0.044650793,-0.66920274,-1.9360893,2.0181038,0.14433278,1
0.5100000000000002,18.500093014781914,-0.9524274412229227,2.578310349053485,0.3389704788258749,18.27543,-1.9360893,2.0181038,0.14433278,15.25699,-10.171474,1.4089043,0.19469757,-0.21433698,0.37957987,0.8786757,-8.947175,0.18277767,-0.6541038,-1.9360893,2.0181038,0.14433278,1
0.5200000000000002,17.659565737889576,-0.41137065386177635,1.1633361334729915,0.19041853117390695,18.275991,-1.8701823,1.8220886,0.06257482,15.167304,-10.1689625,1.4024394,0.18813956,-0.22479276,0.37315616,0.88024175,-8.990817,0.31932995,-0.63886404,-1.9360893,2.0181038,0.14433278,0
0.5300000000000002,17.659565737889576,-0.41137065386177635,1.1633361334729915,0.19041853117390695,18.275991,-1.8701823,1.8220886,0.06257482,15.077168,-10.165114,1.3961073,0.18466493,-0.22994013,0.37264672,0.8798636,-9.036681,0.45022535,-0.62765473,-0.41137066,1.1633362,0.19041853,0
0.5400000000000003,17.659565737889576,-0.41137065386177635,1.1633361334729915,0.19041853117390695,18.275991,-1.8701823,1.8220886,0.06257482,14.986563,-10.159959,1.3898839,0.18118313,-0.23507853,0.37212276,0.87945133,-9.084603,0.58096397,-0.61714303,-0.41137066,1.1633362,0.19041853,0
0.5500000000000003,17.659565737889576,-0.41137065386177635,1.1633361334729915,0.19041853117390695,18.275991,-1.8701823,1.8220886,0.06257482,14.895469,-10.153497,1.383762,0.17769428,-0.24020778,0.37158433,0.8790048,-9.134578,0.7115232,-0.6073425,-0.41137066,1.1633362,0.19041853,0
0.5600000000000003,17.853465577779808,0.16967822463366497,0.24844056220009114,0.0508211878532548,17.319647,-1.274081,1.4624026,0.017637528,14.8038645,-10.14573,1.3777345,0.1741985,-0.24532767,0.3710314,0.8785239,-9.186598,0.8418802,-0.5982666,-0.41137066,1.1633362,0.19041853,0
0.5700000000000003,17.853465577779808,0.16967822463366497,0.24844056220009114,0.0508211878532548,17.319647,-1.274081,1.4624026,0.017637528,14.711729,-10.136653,1.3718004,0.17372228,-0.24617662,0.37205505,0.8779476,-9.240557,0.973626,-0.5886358,0.16967823,0.24844056,0.05082119,0
0.5800000000000003,17.853465577779808,0.16967822463366497,0.24844056220009114,0.0508211878532548,17.319647,-1.274081,1.4624026,0.017637528,14.619053,-10.126257,1.3659605,0.17324567,-0.247025,0.3730778,0.8773693,-9.294733,1.105627,-0.57942593,0.16967823,0.24844056,0.05082119,0
0.5900000000000003,17.853465577779808,0.16967822463366497,0.24844056220009114,0.0508211878532548,17.319647,-1.274081,1.4624026,0.017637528,14.525834,-10.114539,1.3602105,0.17276867,-0.2478728,0.3740997,0.876789,-9.349123,1.2378815,-0.57063794,0.16967823,0.24844056,0.05082119,0
0.6000000000000003,17.47462037047416,0.16574417270343397,-0.7148805554958482,-0.0344537976226026,16.9759,-1.1335121,1.0351517,-0.13207825,14.43207,-10.101499,1.3545463,0.17229125,-0.24872002,0.37512073,0.8762065,-9.403727,1.3703884,-0.5622727,0.16967823,0.24844056,0.05082119,0
0.6100000000000003,17.47462037047416,0.16574417270343397,-0.7148805554958482,-0.0344537976226026,16.9759,-1.1335121,1.0351517,-0.13207825,14.337766,-10.087146,1.3489535,0.17398798,-0.24550828,0.37518564,0.87674904,-9.456868,1.500254,-0.55622363,0.16574417,-0.7148805,-0.034453798,0
0.6200000000000003,17.47462037047416,0.16574417270343397,-0.7148805554958482,-0.0344537976226026,16.9759,-1.1335121,1.0351517,-0.13207825,14.242936,-10.071493,1.3434237,0.17568237,-0.24229322,0.37524548,0.87727976,-9.508845,1.6301601,-0.54963875,0.16574417,-0.7148805,-0.034453798,0
0.6300000000000003,17.47462037047416,0.16574417270343397,-0.7148805554958482,-0.0344537976226026,16.9759,-1.1335121,1.0351517,-0.13207825,14.147593,-10.054543,1.3379624,0.17737436,-0.2390749,0.3753003,0.8777987,-9.559655,1.7600994,-0.5425235,0.16574417,-0.7148805,-0.034453798,0
0.6400000000000003,17.47462037047416,0.16574417270343397,-0.7148805554958482,-0.0344537976226026,16.483198,-1.455342,1.0042697,-0.1506128,14.051747,-10.036291,1.3325748,0.17906398,-0.23585334,0.37535,0.87830573,-9.609296,1.8900646,-0.53488326,0.16574417,-0.7148805,-0.034453798,0
0.6500000000000004,17.47462037047416,0.16574417270343397,-0.7148805554958482,-0.0344537976226026,16.483198,-1.455342,1.0042697,-0.1506128,13.955411,-10.016741,1.3272665,0.18075117,-0.23262861,0.37539467,0.8788009,-9.6577635,2.0200481,-0.5267233,0.16574417,-0.7148805,-0.034453798,0
0.6600000000000004,17.47462037047416,0.16574417270343397,-0.7148805554958482,-0.0344537976226026,16.483198,-1.455342,1.0042697,-0.1506128,13.858596,-9.995891,1.3220421,0.18243594,-0.22940075,0.37543425,0.8792843,-9.705056,2.150043,-0.5180491,0.16574417,-0.7148805,-0.034453798,0
0.6700000000000004,17.47462037047416,0.16574417270343397,-0.7148805554958482,-0.0344537976226026,16.483198,-1.455342,1.0042697,-0.1506128,13.761314,-9.973741,1.3169072,0.18411826,-0.2261698,0.3754688,0.8797558,-9.751172,2.2800422,-0.50886625,0.16574417,-0.7148805,-0.034453798,0
0.6800000000000004,17.261785188155635,0.08188786762889383,-0.8863018760660889,-0.1089683045666037,16.336468,-1.4235979,0.83425415,-0.16580638,13.663577,-9.95029,1.3118665,0.18579806,-0.22293577,0.37549824,0.8802154,-9.796109,2.4100382,-0.49918005,0.16574417,-0.7148805,-0.034453798,0
0.6900000000000004,17.261785188155635,0.08188786762889383,-0.8863018760660889,-0.1089683045666037,16.336468,-1.4235979,0.83425415,-0.16580638,13.565399,-9.925548,1.3069189,0.18803108,-0.21916136,0.37491003,0.8809395,-9.839265,2.5383868,-0.49022463,0.08188787,-0.8863019,-0.1089683,0
0.7000000000000004,17.261785188155635,0.08188786762889383,-0.8863018760660889,-0.1089683045666037,16.336468,-1.4235979,0.83425415,-0.16580638,13.466796,-9.899524,1.3020644,0.19026029,-0.21538256,0.37431428,0.8816459,-9.881077,2.666573,-0.48054352,0.08188787,-0.8863019,-0.1089683,0
0.7100000000000004,17.261785188155635,0.08188786762889383,-0.8863018760660889,-0.1089683045666037,16.336468,-1.4235979,0.83425415,-0.16580638,13.367782,-9.872218,1.2973104,0.19248569,-0.21159945,0.37371102,0.8823346,-9.921541,2.7945857,-0.4701443,0.08188787,-0.8863019,-0.1089683,0
0.7200000000000004,16.853542171208097,-0.0298311934905605,-1.2426466787012769,-0.1693297719558083,16.164913,-1.5843561,0.7493871,-0.15483636,13.268369,-9.843633,1.2926639,0.19470723,-0.20781207,0.37310025,0.8830055,-9.960657,2.9224133,-0.45903444,0.08188787,-0.8863019,-0.1089683,0
0.7300000000000004,16.853542171208097,-0.0298311934905605,-1.2426466787012769,-0.1693297719558083,16.164913,-1.5843561,0.7493871,-0.15483636,13.168576,-9.813786,1.2881197,0.19773814,-0.20266664,0.3715755,0.8841701,-9.997374,3.0469372,-0.44966564,-0.029831193,-1.2426467,-0.16932978,0
0.7400000000000004,16.853542171208097,-0.0298311934905605,-1.2426466787012769,-0.1693297719558083,16.164913,-1.5843561,0.7493871,-0.15483636,13.068427,-9.782696,1.2836745,0.20076126,-0.19751322,0.37003615,0.8853,-10.032357,3.1710143,-0.43920767,-0.029831193,-1.2426467,-0.16932978,0
0.7500000000000004,16.853542171208097,-0.0298311934905605,-1.2426466787012769,-0.1693297719558083,16.164913,-1.5843561,0.7493871,-0.15483636,12.9679365,-9.750368,1.2793392,0.2037765,-0.19235203,0.36848226,0.886395,-10.065605,3.2946234,-0.42767534,-0.029831193,-1.2426467,-0.16932978,0
0.7600000000000005,16.550280619363523,-0.12279948972305497,-1.3001122757849106,-0.21253693648285985,15.910913,-1.6655395,0.29548052,-0.277294,12.867121,-9.716805,1.2751247,0.20678371,-0.18718328,0.36691386,0.8874551,-10.097114,3.4177427,-0.41508362,-0.029831193,-1.2426467,-0.16932978,0
0.7700000000000005,16.550280619363523,-0.12279948972305497,-1.3001122757849106,-0.21253693648285985,15.910913,-1.6655395,0.29548052,-0.277294,12.766003,-9.682025,1.2710313,0.20999245,-0.18192714,0.36481783,0.888658,-10.126342,3.5380995,-0.40340784,-0.12279949,-1.3001122,-0.21253693,0
0.7800000000000005,16.550280619363523,-0.12279948972305497,-1.3001122757849106,-0.21253693648285985,15.910913,-1.6655395,0.29548052,-0.277294,12.6646,-9.646045,1.2670603,0.213192,-0.17666306,0.36270583,0.889822,-10.153853,3.6578107,-0.3905884,-0.12279949,-1.3001122,-0.21253693,0
0.7900000000000005,16.550280619363523,-0.12279948972305497,-1.3001122757849106,-0.21253693648285985,15.910913,-1.6655395,0.29548052,-0.277294,12.562932,-9.6088705,1.2632233,0.21638224,-0.17139122,0.36057794,0.89094704,-10.179647,3.7768528,-0.37664175,-0.12279949,-1.3001122,-0.21253693,0
0.8000000000000005,16.220044174434864,-0.18649819223553585,-1.2532214005214561,-0.23883613505671483,15.148487,-1.4290018,0.45640185,-0.36353615,12.461015,-9.57051,1.2595313,0.21956298,-0.16611189,0.35843426,0.89203316,-10.203721,3.895203,-0.36158457,-0.12279949,-1.3001122,-0.21253693,0
0.8100000000000005,16.220044174434864,-0.18649819223553585,-1.2532214005214561,-0.23883613505671483,15.148487,-1.4290018,0.45640185,-0.36353615,12.358867,-9.53098,1.255984,0.22271472,-0.16115168,0.35602084,0.89312756,-10.225672,4.0104737,-0.34770438,-0.1864982,-1.2532214,-0.23883614,0
0.8200000000000005,16.220044174434864,-0.18649819223553585,-1.2532214005214561,-0.23883613505671483,15.148487,-1.4290018,0.45640185,-0.36353615,12.256507,-9.490302,1.2525809,0.22585723,-0.15618478,0.3535926,0.8941848,-10.246052,4.124975,-0.33274406,-0.1864982,-1.2532214,-0.23883614,0
0.8300000000000005,16.220044174434864,-0.18649819223553585,-1.2532214005214561,-0.23883613505671483,15.148487,-1.4290018,0.45640185,-0.36353615,12.153951,-9.448483,1.2493327,0.22899033,-0.15121137,0.35114968,0.8952049,-10.26486,4.2386875,-0.31671938,-0.1864982,-1.2532214,-0.23883614,0
0.8400000000000005,16.220044174434864,-0.18649819223553585,-1.2532214005214561,-0.23883613505671483,14.5596075,-1.2049739,0.0013061184,-0.37058097,12.051215,-9.40553,1.24625,0.23211391,-0.1462317,0.34869218,0.8961878,-10.282099,4.3515887,-0.29964626,-0.1864982,-1.2532214,-0.23883614,0
0.8500000000000005,16.220044174434864,-0.18649819223553585,-1.2532214005214561,-0.23883613505671483,14.5596075,-1.2049739,0.0013061184,-0.37058097,11.948315,-9.361453,1.2433432,0.23522785,-0.14124592,0.3462202,0.89713347,-10.297768,4.4636574,-0.28154078,-0.1864982,-1.2532214,-0.23883614,0
0.8600000000000005,16.220044174434864,-0.18649819223553585,-1.2532214005214561,-0.23883613505671483,14.5596075,-1.2049739,0.0013061184,-0.37058097,11.845264,-9.316259,1.2406228,0.23833202,-0.13625428,0.34373385,0.8980418,-10.311867,4.5748734,-0.2624192,-0.1864982,-1.2532214,-0.23883614,0
0.8700000000000006,16.220044174434864,-0.18649819223553585,-1.2532214005214561,-0.23883613505671483,14.5596075,-1.2049739,0.0013061184,-0.37058097,11.742082,-9.2699585,1.2380984,0.24142627,-0.13125697,0.3412332,0.89891285,-10.324397,4.6852155,-0.24229796,-0.1864982,-1.2532214,-0.23883614,0
0.8800000000000006,15.926613000662439,-0.2467885214759572,-1.017945101163715,-0.25432532384850154,13.981967,-1.177108,-0.08960456,-0.34064582,11.638782,-9.222558,1.2357801,0.2445105,-0.1262542,0.33871832,0.8997465,-10.335361,4.7946634,-0.22119366,-0.1864982,-1.2532214,-0.23883614,0
0.8900000000000006,15.926613000662439,-0.2467885214759572,-1.017945101163715,-0.25432532384850154,13.981967,-1.177108,-0.08960456,-0.34064582,11.53538,-9.174077,1.2336668,0.2472193,-0.12240536,0.33619812,0.900483,-10.344726,4.90126,-0.20133185,-0.24678852,-1.017945,-0.25432533,0
0.9000000000000006,15.926613000662439,-0.2467885214759572,-1.017945101163715,-0.25432532384850154,13.981967,-1.177108,-0.08960456,-0.34064582,11.431891,-9.124535,1.2317563,0.24992089,-0.11855296,0.33366817,0.90119344,-10.352923,5.0070133,-0.18062757,-0.24678852,-1.017945,-0.25432533,0
0.9100000000000006,15.926613000662439,-0.2467885214759572,-1.017945101163715,-0.25432532384850154,13.981967,-1.177108,-0.08960456,-0.34064582,11.328326,-9.073939,1.230057,0.2526152,-0.11469712,0.33112854,0.9018777,-10.359956,5.1119103,-0.15909196,-0.24678852,-1.017945,-0.25432533,0
0.9200000000000006,15.572036480476514,-0.3423282187274046,-0.8863587974557614,-0.26852451532523,13.609898,-1.1314355,-0.3815416,-0.3302231,11.224696,-9.0223,1.2285773,0.2553022,-0.11083795,0.32857925,0.90253574,-10.365826,5.215936,-0.13673635,-0.24678852,-1.017945,-0.25432533,0
0.9300000000000006,15.572036480476514,-0.3423282187274046,-0.8863587974557614,-0.26852451532523,13.609898,-1.1314355,-0.3815416,-0.3302231,11.121015,-8.969635,1.2273116,0.25777727,-0.10771491,0.32575017,0.9032356,-10.370524,5.3167753,-0.1162699,-0.34232822,-0.8863588,-0.26852453,0
0.9400000000000006,15.572036480476514,-0.3423282187274046,-0.8863587974557614,-0.26852451532523,13.609898,-1.1314355,-0.3815416,-0.3302231,11.017289,-8.915967,1.2262546,0.26024613,-0.10458923,0.32291317,0.90391344,-10.374344,5.416721,-0.09501784,-0.34232822,-0.8863588,-0.26852453,0
0.9500000000000006,15.572036480476514,-0.3423282187274046,-0.8863587974557614,-0.26852451532523,13.609898,-1.1314355,-0.3815416,-0.3302231,10.913529,-8.861304,1.2254139,0.26270863,-0.101461016,0.3200683,0.9045692,-10.377286,5.5157623,-0.072989486,-0.34232822,-0.8863588,-0.26852453,0
0.9600000000000006,15.215594588003837,-0.40373993089251825,-0.722883939790519,-0.27725993611424504,12.696357,-0.8968949,-0.99002004,-0.32141784,10.809746,-8.8056555,1.2247974,0.2651647,-0.09833032,0.31721562,0.905203,-10.379355,5.6138883,-0.050194226,-0.34232822,-0.8863588,-0.26852453,0
0.9700000000000006,15.215594588003837,-0.40373993089251825,-0.722883939790519,-0.27725993611424504,12.696357,-0.8968949,-0.99002004,-0.32141784,10.705946,-8.749042,1.2243987,0.2673651,-0.09603265,0.31429055,0.9058226,-10.380624,5.7088795,-0.02943993,-0.40373993,-0.72288394,-0.27725995,0
0.9800000000000006,15.215594588003837,-0.40373993089251825,-0.722883939790519,-0.27725993611424504,12.696357,-0.8968949,-0.99002004,-0.32141784,10.602137,-8.691483,1.2242111,0.2695604,-0.09373315,0.3113595,0.9064248,-10.381304,5.803,-0.007990295,-0.40373993,-0.72288394,-0.27725995,0
0.9900000000000007,15.215594588003837,-0.40373993089251825,-0.722883939790519,-0.27725993611424504,12.696357,-0.8968949,-0.99002004,-0.32141784,10.498323,-8.632986,1.2242414,0.27175057,-0.091431856,0.30842248,0.90700984,-10.381399,5.896242,0.014147473,-0.40373993,-0.72288394,-0.27725995,0
1.0000000000000007,14.865764630290991,-0.4642152067814498,-0.6218896361050846,-0.28319610875048884,11.798719,-0.7695548,-1.5795506,-0.3051543,10.394511,-8.573561,1.2244965,0.27393556,-0.08912883,0.3054796,0.9075775,-10.380911,5.9885983,0.03696613,-0.40373993,-0.72288394,-0.27725995,0
1.0100000000000007,14.865764630290991,-0.4642152067814498,-0.6218896361050846,-0.28319610875048884,11.798719,-0.7695548,-1.5795506,-0.3051543,10.290707,-8.513227,1.224969,0.2759613,-0.08737439,0.30239245,0.9081681,-10.379935,6.0779614,0.057661373,-0.46421522,-0.62188965,-0.28319612,0
1.0200000000000007,14.865764630290991,-0.4642152067814498,-0.6218896361050846,-0.28319610875048884,11.798719,-0.7695548,-1.5795506,-0.3051543,10.186914,-8.452005,1.225652,0.27798238,-0.08561845,0.29930013,0.90874314,-10.378572,6.1664515,0.07900418,-0.46421522,-0.62188965,-0.28319612,0
1.0300000000000007,14.865764630290991,-0.4642152067814498,-0.6218896361050846,-0.28319610875048884,11.798719,-0.7695548,-1.5795506,-0.3051543,10.0831375,-8.389902,1.2265515,0.2799987,-0.08386106,0.29620272,0.9093027,-10.376824,6.254063,0.100988045,-0.46421522,-0.62188965,-0.28319612,0
1.0400000000000007,14.865764630290991,-0.4642152067814498,-0.6218896361050846,-0.28319610875048884,12.3035755,-0.79303896,-1.4990488,-0.21442017,9.97938,-8.326927,1.227674,0.28201023,-0.08210224,0.29310024,0.9098467,-10.374695,6.34079,0.123606406,-0.46421522,-0.62188965,-0.28319612,0
1.0500000000000007,14.865764630290991,-0.4642152067814498,-0.6218896361050846,-0.28319610875048884,12.3035755,-0.79303896,-1.4990488,-0.21442017,9.875645,-8.263089,1.2290258,0.28401697,-0.08034201,0.28999275,0.91037524,-10.372188,6.4266253,0.14685266,-0.46421522,-0.62188965,-0.28319612,0
1.0600000000000007,14.865764630290991,-0.4642152067814498,-0.6218896361050846,-0.28319610875048884,12.3035755,-0.79303896,-1.4990488,-0.21442017,9.771937,-8.198398,1.2306132,0.28601885,-0.07858042,0.28688034,0.9108882,-10.369306,6.5115643,0.17072013,-0.46421522,-0.62188965,-0.28319612,0
1.0700000000000007,14.865764630290991,-0.4642152067814498,-0.6218896361050846,-0.28319610875048884,12.3035755,-0.79303896,-1.4990488,-0.21442017,9.668262,-8.13286,1.2324424,0.28801584,-0.076817475,0.28376302,0.91138566,-10.366053,6.5956006,0.19520214,-0.46421522,-0.62188965,-0.28319612,0
1.0800000000000007,14.518317471090786,-0.47013870245836625,-0.7911936646889849,-0.28340199834949925,13.224727,-0.54134285,-0.8554668,-0.17362212,9.564618,-8.066488,1.2345194,0.29000792,-0.07505322,0.28064087,0.91186756,-10.3624325,6.6787276,0.22029194,-0.46421522,-0.62188965,-0.28319612,0
1.0900000000000007,14.518317471090786,-0.47013870245836625,-0.7911936646889849,-0.28340199834949925,13.224727,-0.54134285,-0.8554668,-0.17362212,9.461014,-7.999299,1.236836,0.29223046,-0.072524436,0.27724048,0.91240263,-10.358465,6.7589717,0.24311835,-0.4701387,-0.79119366,-0.283402,0
1.1000000000000008,14.518317471090786,-0.47013870245836625,-0.7911936646889849,-0.28340199834949925,13.224727,-0.54134285,-0.8554668,-0.17362212,9.3574505,-7.931312,1.239384,0.29444623,-0.069993965,0.2738337,0.9129166,-10.353949,6.8381886,0.26660046,-0.4701387,-0.79119366,-0.283402,0
1.1100000000000008,14.518317471090786,-0.47013870245836625,-0.7911936646889849,-0.28340199834949925,13.224727,-0.54134285,-0.8554668,-0.17362212,9.253936,-7.8625383,1.2421702,0.29665515,-0.06746187,0.27042055,0.9134094,-10.348887,6.916372,0.2907289,-0.4701387,-0.79119366,-0.283402,0
1.1200000000000008,14.139148343676245,-0.4730519936640738,-0.5749369922238315,-0.2941400848258315,13.283362,-0.24334934,-0.81409967,-0.109953314,9.150475,-7.792988,1.2452008,0.29885718,-0.06492821,0.2670011,0.913881,-10.343284,6.993513,0.31549424,-0.4701387,-0.79119366,-0.283402,1
1.1300000000000008,14.139148343676245,-0.4730519936640738,-0.5749369922238315,-0.2941400848258315,13.283362,-0.24334934,-0.81409967,-0.109953314,9.04707,-7.7227035,1.2484295,0.3003647,-0.06171809,0.2646345,0.91429746,-10.337589,7.063203,0.33033502,-0.24334934,-0.81409967,-0.109953314,1
1.1400000000000008,14.139148343676245,-0.4730519936640738,-0.5749369922238315,-0.2941400848258315,13.283362,-0.24334934,-0.81409967,-0.109953314,8.943726,-7.6517262,1.251809,0.30186668,-0.058506843,0.26226306,0.9146972,-10.331205,7.132115,0.34561518,-0.24334934,-0.81409967,-0.109953314,1
1.1500000000000008,14.139148343676245,-0.4730519936640738,-0.5749369922238315,-0.2941400848258315,13.283362,-0.24334934,-0.81409967,-0.109953314,8.840449,-7.5800633,1.2553434,0.30336314,-0.05529452,0.25988677,0.9150801,-10.324131,7.2002435,0.3613269,-0.24334934,-0.81409967,-0.109953314,1
1.1600000000000008,13.835288063552744,-0.5384574430663026,-0.6280039448090228,-0.30036175473758836,13.102687,-0.25570747,-0.6795632,0.025200143,8.737246,-7.507724,1.259037,0.30485404,-0.052081186,0.25750569,0.91544616,-10.31637,7.267584,0.3774625,-0.24334934,-0.81409967,-0.109953314,1
1.1700000000000008,13.835288063552744,-0.5384574430663026,-0.6280039448090228,-0.30036175473758836,13.102687,-0.25570747,-0.6795632,0.025200143,8.634123,-7.4347186,1.2628862,0.30554503,-0.049327653,0.2553043,0.91598475,-10.308096,7.333256,0.39244086,-0.25570747,-0.6795632,0.025200143,1
1.1800000000000008,13.835288063552744,-0.5384574430663026,-0.6280039448090228,-0.30036175473758836,13.102687,-0.25570747,-0.6795632,0.025200143,8.531085,-7.36106,1.266887,0.306232,-0.046573468,0.25309956,0.91651124,-10.299298,7.398223,0.40778592,-0.25570747,-0.6795632,0.025200143,1
1.1900000000000008,13.835288063552744,-0.5384574430663026,-0.6280039448090228,-0.30036175473758836,13.102687,-0.25570747,-0.6795632,0.025200143,8.428138,-7.286756,1.2710432,0.30691496,-0.043818668,0.25089148,0.9170256,-10.289977,7.4624825,0.4234917,-0.25570747,-0.6795632,0.025200143,1
1.2000000000000008,13.700274974125037,-0.6278930738048307,-0.22534561809720396,-0.35041912977218526,13.64482,-0.5329845,-0.38727582,-0.0447764,8.325287,-7.2118125,1.2753582,0.30759385,-0.04106329,0.24868007,0.9175279,-10.280132,7.5260315,0.439552,-0.25570747,-0.6795632,0.025200143,1
1.2100000000000009,13.700274974125037,-0.6278930738048307,-0.22534561809720396,-0.35041912977218526,13.64482,-0.5329845,-0.38727582,-0.0447764,8.22254,-7.1362247,1.2798593,0.3081697,-0.040161774,0.24562877,0.9181963,-10.269539,7.5914497,0.4607259,-0.5329845,-0.38727582,-0.0447764,1
1.2200000000000009,13.700274974125037,-0.6278930738048307,-0.22534561809720396,-0.35041912977218526,13.64482,-0.5329845,-0.38727582,-0.0447764,8.119896,-7.059986,1.2845742,0.3087422,-0.03925982,0.24257478,0.9188547,-10.258945,7.656079,0.48232946,-0.5329845,-0.38727582,-0.0447764,1
1.2300000000000009,13.700274974125037,-0.6278930738048307,-0.22534561809720396,-0.35041912977218526,13.64482,-0.5329845,-0.38727582,-0.0447764,8.017359,-6.983105,1.2895073,0.30931136,-0.038357444,0.23951817,0.9195031,-10.248352,7.719916,0.5043575,-0.5329845,-0.38727582,-0.0447764,1
1.2400000000000009,13.700274974125037,-0.6278930738048307,-0.22534561809720396,-0.35041912977218526,13.675282,-0.5665098,-0.42474818,-0.08845526,7.9149284,-6.90559,1.2946628,0.30987707,-0.03745465,0.23645893,0.9201414,-10.237759,7.782957,0.52680486,-0.5329845,-0.38727582,-0.0447764,1
1.2500000000000009,13.700274974125037,-0.6278930738048307,-0.22534561809720396,-0.35041912977218526,13.675282,-0.5665098,-0.42474818,-0.08845526,7.812604,-6.8274484,1.3000462,0.31067812,-0.03648259,0.23317641,0.9207478,-10.227139,7.845317,0.5499475,-0.5665098,-0.42474818,-0.08845526,1
1.260000000000001,13.700274974125037,-0.6278930738048307,-0.22534561809720396,-0.35041912977218526,13.675282,-0.5665098,-0.42474818,-0.08845526,7.7103853,-6.7486873,1.3056633,0.31147525,-0.03551007,0.22989093,0.9213425,-10.216509,7.9068136,0.5735292,-0.5665098,-0.42474818,-0.08845526,1
1.270000000000001,13.700274974125037,-0.6278930738048307,-0.22534561809720396,-0.35041912977218526,13.675282,-0.5665098,-0.42474818,-0.08845526,7.6082735,-6.6693153,1.3115184,0.3122684,-0.0345371,0.22660254,0.9219255,-10.20587,7.967444,0.59754384,-0.5665098,-0.42474818,-0.08845526,1
1.280000000000001,13.231985490223584,-0.5516814265367125,-0.24457556544820677,-0.37472662593447764,13.686181,-0.59219795,-0.5424159,-0.21376209,7.5062685,-6.589341,1.3176157,0.3130576,-0.03356369,0.22331123,0.9224967,-10.195223,8.027205,0.6219854,-0.5665098,-0.42474818,-0.08845526,1
1.290000000000001,13.231985490223584,-0.5516814265367125,-0.24457556544820677,-0.37472662593447764,13.686181,-0.59219795,-0.5424159,-0.21376209,7.4043703,-6.508774,1.3239601,0.31454712,-0.03222716,0.21969289,0.92290634,-10.184519,8.086099,0.64696294,-0.59219795,-0.5424159,-0.21376209,1
1.300000000000001,13.231985490223584,-0.5516814265367125,-0.24457556544820677,-0.37472662593447764,13.686181,-0.59219795,-0.5424159,-0.21376209,7.302579,-6.4276223,1.3305565,0.31603122,-0.03089007,0.21607077,0.9233001,-10.173703,8.144,0.6724005,-0.59219795,-0.5424159,-0.21376209,1
1.310000000000001,13.231985490223584,-0.5516814265367125,-0.24457556544820677,-0.37472662593447764,13.686181,-0.59219795,-0.5424159,-0.21376209,7.2008967,-6.345897,1.3374097,0.31750983,-0.029552449,0.21244492,0.9236779,-10.16278,8.200905,0.6982903,-0.59219795,-0.5424159,-0.21376209,1
1.320000000000001,12.658122308968784,-0.3714593343909117,0.03655403800207007,-0.4042261954099567,13.660417,-0.5313106,-0.45668823,-0.3183163,7.0993237,-6.263608,1.3445239,0.31898296,-0.028214315,0.2088154,0.9240398,-10.15175,8.256811,0.7246246,-0.59219795,-0.5424159,-0.21376209,0
1.330000000000001,12.658122308968784,-0.3714593343909117,0.03655403800207007,-0.4042261954099567,13.660417,-0.5313106,-0.45668823,-0.3183163,6.997857,-6.180784,1.3518566,0.32075876,-0.029397583,0.20709968,0.92377424,-10.141608,8.307823,0.7419268,-0.37145934,0.03655404,-0.40422618,0
1.340000000000001,12.658122308968784,-0.3714593343909117,0.03655403800207007,-0.4042261954099567,13.660417,-0.5313106,-0.45668823,-0.3183163,6.89649,-6.097452,1.3593631,0.32253218,-0.030580629,0.20538238,0.92350173,-10.131787,8.358528,0.7593917,-0.37145934,0.03655404,-0.40422618,0
1.350000000000001,12.658122308968784,-0.3714593343909117,0.03655403800207007,-0.4042261954099567,13.660417,-0.5313106,-0.45668823,-0.3183163,6.7952204,-6.0136147,1.367045,0.32430312,-0.03176344,0.20366353,0.92322224,-10.122288,8.408928,0.7770172,-0.37145934,0.03655404,-0.40422618,0
1.360000000000001,12.105372192571528,-0.18332149647809945,0.3006746677715172,-0.38987949120610554,13.75685,-0.56231976,-0.418219,-0.45631832,6.694043,-5.9292746,1.374904,0.32607165,-0.032946013,0.20194313,0.9229357,-10.113112,8.4590225,0.79480124,-0.37145934,0.03655404,-0.40422618,0
1.370000000000001,12.105372192571528,-0.18332149647809945,0.3006746677715172,-0.38987949120610554,13.75685,-0.56231976,-0.418219,-0.45631832,6.5929546,-5.8444457,1.3829161,0.3275359,-0.03502596,0.20152244,0.9224325,-10.104691,8.506769,0.80762154,-0.18332149,0.30067468,-0.3898795,0
1.380000000000001,12.105372192571528,-0.18332149647809945,0.3006746677715172,-0.38987949120610554,13.75685,-0.56231976,-0.418219,-0.45631832,6.491948,-5.759139,1.3910564,0.32899788,-0.03710567,0.20110038,0.92192286,-10.09669,8.554575,0.82044786,-0.18332149,0.30067468,-0.3898795,0
1.390000000000001,12.105372192571528,-0.18332149647809945,0.3006746677715172,-0.38987949120610554,13.75685,-0.56231976,-0.418219,-0.45631832,6.391019,-5.673354,1.399325,0.3304576,-0.039185118,0.20067692,0.92140687,-10.089112,8.602439,0.8332783,-0.18332149,0.30067468,-0.3898795,0
1.400000000000001,11.659084477655975,-0.038529207049556716,0.07360067755347867,-0.381060970482166,13.523635,-0.6766825,-0.30514488,-0.54262984,6.290164,-5.58709,1.407722,0.33191502,-0.041264296,0.20025207,0.9208845,-10.081957,8.650363,0.8461107,-0.18332149,0.30067468,-0.3898795,0
1.410000000000001,11.659084477655975,-0.038529207049556716,0.07360067755347867,-0.381060970482166,13.523635,-0.6766825,-0.30514488,-0.54262984,6.189378,-5.5003552,1.4162269,0.33358732,-0.04204859,0.20011781,0.9202737,-10.075355,8.696565,0.8548527,-0.038529206,0.07360068,-0.38106096,0
1.420000000000001,11.659084477655975,-0.038529207049556716,0.07360067755347867,-0.381060970482166,13.523635,-0.6766825,-0.30514488,-0.54262984,6.0886564,-5.413159,1.424819,0.33525836,-0.04283272,0.19998278,0.91965944,-10.068847,8.742786,0.8635918,-0.038529206,0.07360068,-0.38106096,0
1.430000000000001,11.659084477655975,-0.038529207049556716,0.07360067755347867,-0.381060970482166,13.523635,-0.6766825,-0.30514488,-0.54262984,5.988,-5.3254995,1.4334986,0.33692813,-0.04361669,0.199847,0.91904163,-10.062434,8.789028,0.872328,-0.038529206,0.07360068,-0.38106096,0
1.440000000000001,11.659084477655975,-0.038529207049556716,0.07360067755347867,-0.381060970482166,13.197099,-0.7162694,-0.07481965,-0.637999,5.8874073,-5.237378,1.4422656,0.33859658,-0.044400495,0.19971046,0.9184204,-10.056116,8.83529,0.881061,-0.038529206,0.07360068,-0.38106096,0
1.450000000000001,11.659084477655975,-0.038529207049556716,0.07360067755347867,-0.381060970482166,13.197099,-0.7162694,-0.07481965,-0.637999,5.786877,-5.1487937,1.4511199,0.34026375,-0.045184128,0.19957316,0.9177956,-10.049892,8.881574,0.88979053,-0.038529206,0.07360068,-0.38106096,0
1.460000000000001,11.659084477655975,-0.038529207049556716,0.07360067755347867,-0.381060970482166,13.197099,-0.7162694,-0.07481965,-0.637999,5.6864095,-5.0597467,1.4600614,0.34192964,-0.045967594,0.1994351,0.91716737,-10.043763,8.927877,0.8985164,-0.038529206,0.07360068,-0.38106096,0
1.470000000000001,11.659084477655975,-0.038529207049556716,0.07360067755347867,-0.381060970482166,13.197099,-0.7162694,-0.07481965,-0.637999,5.5860023,-4.9702363,1.4690902,0.34359422,-0.04675088,0.19929628,0.9165357,-10.037728,8.974203,0.9072384,-0.038529206,0.07360068,-0.38106096,0
1.480000000000001,11.322988101566928,0.05031175451341881,0.11978365158642834,-0.3511966211198607,13.363837,-0.91856337,-0.3218529,-0.7088357,5.485655,-4.8802624,1.4782062,0.3452575,-0.04753399,0.19915672,0.91590047,-10.031788,9.020551,0.9159563,-0.038529206,0.07360068,-0.38106096,0
1.490000000000001,11.322988101566928,0.05031175451341881,0.11978365158642834,-0.3511966211198607,13.363837,-0.91856337,-0.3218529,-0.7088357,5.3853655,-4.789832,1.4873939,0.34675786,-0.04834532,0.19951008,0.91521406,-10.0261,9.065621,0.9215738,0.050311755,0.119783655,-0.35119662,0
1.500000000000001,11.322988101566928,0.05031175451341881,0.11978365158642834,-0.3511966211198607,13.363837,-0.91856337,-0.3218529,-0.7088357,5.2851324,-4.69895,1.4966375,0.34825704,-0.04915648,0.19986273,0.9145244,-10.020477,9.110814,0.92714167,0.050311755,0.119783655,-0.35119662,0
1.5100000000000011,11.322988101566928,0.05031175451341881,0.11978365158642834,-0.3511966211198607,13.363837,-0.91856337,-0.3218529,-0.7088357,5.184955,-4.607615,1.5059365,0.34975496,-0.049967468,0.2002147,0.91383153,-10.014919,9.156129,0.9326596,0.050311755,0.119783655,-0.35119662,0
1.5200000000000011,10.8991295237837,0.16389037932064127,-0.050379124241621644,-0.3306387701613494,13.189428,-1.0809958,-0.23507784,-0.7116056,5.0848336,-4.5158267,1.5152905,0.35125166,-0.050778277,0.20056598,0.91313547,-10.009426,9.201566,0.9381274,0.050311755,0.119783655,-0.35119662,0
1.5300000000000011,10.8991295237837,0.16389037932064127,-0.050379124241621644,-0.3306387701613494,13.189428,-1.0809958,-0.23507784,-0.7116056,4.9847655,-4.423592,1.5246794,0.35285276,-0.050591916,0.20114149,0.9124016,-10.004117,9.245408,0.93967056,0.16389038,-0.050379124,-0.33063877,0
1.5400000000000011,10.8991295237837,0.16389037932064127,-0.050379124241621644,-0.3306387701613494,13.189428,-1.0809958,-0.23507784,-0.7116056,4.8847513,-4.330919,1.5340836,0.35445267,-0.050405376,0.20171629,0.9116646,-9.998649,9.289336,0.9411674,0.16389038,-0.050379124,-0.33063877,0
1.5500000000000012,10.8991295237837,0.16389037932064127,-0.050379124241621644,-0.3306387701613494,13.189428,-1.0809958,-0.23507784,-0.7116056,4.784793,-4.2378054,1.5435026,0.35605133,-0.05021866,0.20229037,0.9109245,-9.99302,9.333348,0.9426179,0.16389038,-0.050379124,-0.33063877,0
1.5600000000000012,10.555751405864106,0.20443016776983997,0.035880807411437725,-0.2787009046922719,13.431531,-1.1831295,-1.3429085,-0.74368024,4.6848917,-4.1442513,1.5529358,0.35764873,-0.050031777,0.20286378,0.91018116,-9.987231,9.377446,0.9440218,0.16389038,-0.050379124,-0.33063877,0
1.5700000000000012,10.555751405864106,0.20443016776983997,0.035880807411437725,-0.2787009046922719,13.431531,-1.1831295,-1.3429085,-0.74368024,4.5850477,-4.050263,1.5623672,0.35893127,-0.05011211,0.20378825,0.9094651,-9.981484,9.420268,0.9422324,0.20443016,0.035880808,-0.27870092,0
1.5800000000000012,10.555751405864106,0.20443016776983997,0.035880807411437725,-0.2787009046922719,13.431531,-1.1831295,-1.3429085,-0.74368024,4.485262,-3.9558456,1.5717803,0.36021274,-0.050192293,0.20471212,0.90874624,-9.975619,9.463255,0.94036174,0.20443016,0.035880808,-0.27870092,0
1.5900000000000012,10.555751405864106,0.20443016776983997,0.035880807411437725,-0.2787009046922719,13.431531,-1.1831295,-1.3429085,-0.74368024,4.3855357,-3.8609974,1.5811743,0.3614931,-0.050272327,0.20563537,0.90802467,-9.969637,9.506409,0.93840957,0.20443016,0.035880808,-0.27870092,0
1.6000000000000012,10.255358479745578,0.18685195504898308,-0.19453647927704745,-0.23861868412886733,13.485407,-1.4447689,-2.0623236,-0.44306102,4.285869,-3.7657168,1.5905483,0.3627724,-0.05035221,0.20655799,0.90730035,-9.963536,9.5497265,0.9363756,0.20443016,0.035880808,-0.27870092,0
1.6100000000000012,10.255358479745578,0.18685195504898308,-0.19453647927704745,-0.23861868412886733,13.485407,-1.4447689,-2.0623236,-0.44306102,4.1862636,-3.6700087,1.599888,0.36410224,-0.049377132,0.20699236,0.90672207,-9.957433,9.591911,0.93155175,0.18685195,-0.19453648,-0.23861869,0
1.6200000000000012,10.255358479745578,0.18685195504898308,-0.19453647927704745,-0.23861868412886733,13.485407,-1.4447689,-2.0623236,-0.44306102,4.086721,-3.5738785,1.6091793,0.36543095,-0.048401896,0.20742607,0.9061409,-9.951055,9.634093,0.92671084,0.18685195,-0.19453648,-0.23861869,0
1.6300000000000012,10.255358479745578,0.18685195504898308,-0.19453647927704745,-0.23861868412886733,13.485407,-1.4447689,-2.0623236,-0.44306102,3.9872434,-3.4773266,1.618422,0.36675847,-0.047426503,0.20785911,0.9055567,-9.9444,9.6762705,0.92185247,0.18685195,-0.19453648,-0.23861869,0
1.6400000000000012,10.255358479745578,0.18685195504898308,-0.19453647927704745,-0.23861868412886733,13.378522,-1.6171616,-2.013478,-0.30868238,3.8878338,-3.3803532,1.6276162,0.3680848,-0.046450954,0.20829147,0.9049696,-9.937469,9.718443,0.9169762,0.18685195,-0.19453648,-0.23861869,0
1.6500000000000012,10.255358479745578,0.18685195504898308,-0.19453647927704745,-0.23861868412886733,13.378522,-1.6171616,-2.013478,-0.30868238,3.7884948,-3.2829578,1.6367615,0.36940992,-0.045475256,0.20872316,0.9043796,-9.930263,9.76061,0.9120817,0.18685195,-0.19453648,-0.23861869,0
1.6600000000000013,10.255358479745578,0.18685195504898308,-0.19453647927704745,-0.23861868412886733,13.378522,-1.6171616,-2.013478,-0.30868238,3.6892292,-3.1851408,1.6458578,0.37073386,-0.04449941,0.20915417,0.90378654,-9.922779,9.80277,0.9071685,0.18685195,-0.19453648,-0.23861869,0
1.6700000000000013,10.255358479745578,0.18685195504898308,-0.19453647927704745,-0.23861868412886733,13.378522,-1.6171616,-2.013478,-0.30868238,3.59004,-3.0869024,1.6549048,0.37205657,-0.04352342,0.2095845,0.9031906,-9.91502,9.844922,0.9022362,0.18685195,-0.19453648,-0.23861869,0
1.6800000000000013,10.014378051163733,0.09513174023553586,0.2259324711448342,-0.1580336686030349,13.224328,-1.6952003,-1.3791735,-0.21804817,3.4909298,-2.9882424,1.6639023,0.37337807,-0.042547286,0.21001416,0.9025918,-9.906986,9.887066,0.89728445,0.18685195,-0.19453648,-0.23861869,0
1.6900000000000013,10.014378051163733,0.09513174023553586,0.2259324711448342,-0.1580336686030349,13.224328,-1.6952003,-1.3791735,-0.21804817,3.3918998,-2.8891659,1.6728393,0.3738739,-0.043555208,0.21083145,0.9021479,-9.899009,9.928292,0.89009947,0.09513174,0.22593246,-0.15803367,0
1.7000000000000013,10.014378051163733,0.09513174023553586,0.2259324711448342,-0.1580336686030349,13.224328,-1.6952003,-1.3791735,-0.21804817,3.2929492,-2.789676,1.681704,0.3743689,-0.04456304,0.21164827,0.90170205,-9.891127,9.969727,0.88282806,0.09513174,0.22593246,-0.15803367,0
1.7100000000000013,10.014378051163733,0.09513174023553586,0.2259324711448342,-0.1580336686030349,13.224328,-1.6952003,-1.3791735,-0.21804817,3.194077,-2.6897705,1.6904956,0.37486312,-0.045570776,0.21246465,0.9012543,-9.883341,10.01137,0.87546945,0.09513174,0.22593246,-0.15803367,0
1.7200000000000013,9.753334278597084,-0.07270531602286887,-0.06861897280161805,-0.08702714717551223,13.109026,-1.8779792,-1.7334391,-5.5722892e-05,3.095282,-2.5894475,1.6992131,0.37535653,-0.046578415,0.21328057,0.90080464,-9.87565,10.053222,0.86802304,0.09513174,0.22593246,-0.15803367,0
1.7300000000000013,9.753334278597084,-0.07270531602286887,-0.06861897280161805,-0.08702714717551223,13.109026,-1.8779792,-1.7334391,-5.5722892e-05,2.9965627,-2.4887109,1.7078441,0.37580466,-0.0464986,0.212804,0.90073466,-9.868219,10.094076,0.8581753,-0.07270531,-0.068618976,-0.08702715,0
1.7400000000000013,9.753334278597084,-0.07270531602286887,-0.06861897280161805,-0.08702714717551223,13.109026,-1.8779792,-1.7334391,-5.5722892e-05,2.8979175,-2.3875663,1.7163768,0.37625262,-0.046418767,0.21232735,0.9006642,-9.860789,10.134842,0.8483685,-0.07270531,-0.068618976,-0.08702715,0
1.7500000000000013,9.753334278597084,-0.07270531602286887,-0.06861897280161805,-0.08702714717551223,13.109026,-1.8779792,-1.7334391,-5.5722892e-05,2.7993467,-2.2860143,1.7248116,0.37670043,-0.046338916,0.2118506,0.9005934,-9.853362,10.175519,0.8386028,-0.07270531,-0.068618976,-0.08702715,0
1.7600000000000013,9.530757244974552,-0.2805911459137363,-0.18099978036643355,0.021483441654956335,14.14406,-1.9491425,-3.413385,0.2526822,2.7008502,-2.1840563,1.7331488,0.3771481,-0.046259042,0.21137375,0.90052223,-9.845936,10.216107,0.8288778,-0.07270531,-0.068618976,-0.08702715,0
1.7700000000000014,9.530757244974552,-0.2805911459137363,-0.18099978036643355,0.021483441654956335,14.14406,-1.9491425,-3.413385,0.2526822,2.6024268,-2.0816975,1.7413793,0.37717724,-0.045950424,0.20977372,0.9008999,-9.838705,10.25561,0.8172113,-0.28059116,-0.18099979,0.021483442,0
1.7800000000000014,9.530757244974552,-0.2805911459137363,-0.18099978036643355,0.021483441654956335,14.14406,-1.9491425,-3.413385,0.2526822,2.5040755,-1.9789453,1.7494936,0.3772053,-0.045641676,0.2081731,0.901275,-9.831538,10.294831,0.80567825,-0.28059116,-0.18099979,0.021483442,0
1.7900000000000014,9.530757244974552,-0.2805911459137363,-0.18099978036643355,0.021483441654956335,14.14406,-1.9491425,-3.413385,0.2526822,2.4057956,-1.875802,1.7574933,0.37723234,-0.045332804,0.20657189,0.9016476,-9.824435,10.33377,0.7942778,-0.28059116,-0.18099979,0.021483442,0
1.8000000000000014,9.381371772092006,-0.533978424639654,-0.189139912923108,0.11817719297823705,12.501428,-1.8749359,-2.5598822,-0.014668525,2.3075867,-1.7722709,1.7653795,0.37725833,-0.0450238,0.2049701,0.9020177,-9.817397,10.372426,0.78300893,-0.28059116,-0.18099979,0.021483442,0
1.8100000000000014,9.381371772092006,-0.533978424639654,-0.189139912923108,0.11817719297823705,12.501428,-1.8749359,-2.5598822,-0.014668525,2.209447,-1.6683577,1.7731471,0.37679738,-0.045056697,0.2022308,0.90282667,-9.810593,10.41014,0.77053803,-0.5339784,-0.18913992,0.11817719,0
1.8200000000000014,9.381371772092006,-0.533978424639654,-0.189139912923108,0.11817719297823705,12.501428,-1.8749359,-2.5598822,-0.014668525,2.1113741,-1.5640695,1.7807909,0.3763333,-0.04508922,0.19948979,0.903628,-9.804012,10.447419,0.7582749,-0.5339784,-0.18913992,0.11817719,0
1.8300000000000014,9.381371772092006,-0.533978424639654,-0.189139912923108,0.11817719297823705,12.501428,-1.8749359,-2.5598822,-0.014668525,2.013366,-1.4594108,1.7883133,0.37586606,-0.045121364,0.19674711,0.9044219,-9.797654,10.4842615,0.74621683,-0.5339784,-0.18913992,0.11817719,0
1.8400000000000014,9.381371772092006,-0.533978424639654,-0.189139912923108,0.11817719297823705,12.487796,-1.8897674,-3.0864758,0.24175486,1.9154203,-1.3543859,1.795716,0.37539566,-0.04515313,0.19400278,0.90520823,-9.79152,10.520666,0.73436105,-0.5339784,-0.18913992,0.11817719,0
1.8500000000000014,9.381371772092006,-0.533978424639654,-0.189139912923108,0.11817719297823705,12.487796,-1.8897674,-3.0864758,0.24175486,1.8175349,-1.248999,1.8030013,0.37492213,-0.04518452,0.19125684,0.9059869,-9.785607,10.556631,0.7227049,-0.5339784,-0.18913992,0.11817719,0
1.8600000000000014,9.381371772092006,-0.533978424639654,-0.189139912923108,0.11817719297823705,12.487796,-1.8897674,-3.0864758,0.24175486,1.7197075,-1.1432548,1.810171,0.37444547,-0.045215532,0.18850929,0.90675795,-9.779918,10.592155,0.7112458,-0.5339784,-0.18913992,0.11817719,0
1.8700000000000014,9.381371772092006,-0.533978424639654,-0.189139912923108,0.11817719297823705,12.487796,-1.8897674,-3.0864758,0.24175486,1.6219358,-1.0371574,1.817227,0.37396565,-0.04524616,0.18576016,0.90752137,-9.774449,10.627237,0.69998085,-0.5339784,-0.18913992,0.11817719,0
1.8800000000000014,9.250984393045362,-0.7449237994386241,-1.042167835277421,0.2776253394473283,12.995725,-1.9295207,-2.7632418,0.6927581,1.5242177,-0.93071145,1.8241712,0.37348273,-0.045276415,0.18300948,0.9082774,-9.769202,10.661877,0.6889074,-0.5339784,-0.18913992,0.11817719,0
1.8900000000000015,9.250984393045362,-0.7449237994386241,-1.042167835277421,0.2776253394473283,12.995725,-1.9295207,-2.7632418,0.6927581,1.4265512,-0.8239245,1.831,0.37299892,-0.041679624,0.17773929,0.90969396,-9.764085,10.695351,0.6768959,-0.7449238,-1.0421678,0.27762535,0
1.9000000000000015,9.250984393045362,-0.7449237994386241,-1.042167835277421,0.2776253394473283,12.995725,-1.9295207,-2.7632418,0.6927581,1.3289369,-0.71680826,1.8377105,0.37249908,-0.03808104,0.17246147,0.9110714,-9.758752,10.727732,0.6652886,-0.7449238,-1.0421678,0.27762535,0
1.9100000000000015,9.250984393045362,-0.7449237994386241,-1.042167835277421,0.2776253394473283,12.995725,-1.9295207,-2.7632418,0.6927581,1.2313769,-0.6093736,1.844307,0.37198323,-0.034480818,0.16717625,0.9124098,-9.753203,10.759015,0.6540709,-0.7449238,-1.0421678,0.27762535,0
1.9200000000000015,9.157700597125235,-1.1022140207818436,-0.5836399318635592,0.39691963279870945,12.873266,-2.3521156,-3.1375449,0.74113894,1.1338735,-0.5016317,1.8507932,0.3714514,-0.030879118,0.16188385,0.9137088,-9.747436,10.789195,0.6432282,-0.7449238,-1.0421678,0.27762535,0
1.9300000000000015,9.157700597125235,-1.1022140207818436,-0.5836399318635592,0.39691963279870945,12.873266,-2.3521156,-3.1375449,0.74113894,1.036428,-0.39359492,1.8571684,0.36993235,-0.029937897,0.15582222,0.9154086,-9.741706,10.817999,0.63186795,-1.102214,-0.5836399,0.39691964,0
1.9400000000000015,9.157700597125235,-1.1022140207818436,-0.5836399318635592,0.39691963279870945,12.873266,-2.3521156,-3.1375449,0.74113894,0.9390383,-0.28527528,1.8634318,0.36839747,-0.028995395,0.14975391,0.9170693,-9.736281,10.845761,0.62086594,-1.102214,-0.5836399,0.39691964,0
1.9500000000000015,9.157700597125235,-1.1022140207818436,-0.5836399318635592,0.39691963279870945,12.873266,-2.3521156,-3.1375449,0.74113894,0.84170127,-0.17668326,1.869587,0.36684677,-0.028051652,0.1436792,0.9186907,-9.73116,10.8724785,0.6102087,-1.102214,-0.5836399,0.39691964,0
1.9600000000000015,9.130832088265223,-1.3715244134811042,-1.0198830037274043,0.5917912930788015,12.581385,-2.3406205,-4.657258,0.8327311,0.744414,-0.06782931,1.8756372,0.36528042,-0.027106706,0.13759834,0.92027277,-9.726338,10.898145,0.59988266,-1.102214,-0.5836399,0.39691964,0
1.9700000000000015,9.130832088265223,-1.3715244134811042,-1.0198830037274043,0.5917912930788015,12.581385,-2.3406205,-4.657258,0.8327311,0.6471735,0.041275166,1.8815844,0.36305824,-0.024510588,0.12949944,0.9223977,-9.721778,10.922517,0.5896586,-1.3715245,-1.019883,0.5917913,0
1.9800000000000015,9.130832088265223,-1.3715244134811042,-1.0198830037274043,0.5917912930788015,12.581385,-2.3406205,-4.657258,0.8327311,0.54997784,0.15061589,1.8874316,0.36080638,-0.021912465,0.12138993,0.92444724,-9.7173815,10.945393,0.5798443,-1.3715245,-1.019883,0.5917913,0
1.9900000000000015,9.130832088265223,-1.3715244134811042,-1.0198830037274043,0.5917912930788015,12.581385,-2.3406205,-4.657258,0.8327311,0.45282537,0.26017785,1.8931826,0.358525,-0.01931255,0.113270506,0.92642117,-9.71314,10.966764,0.5704139,-1.3715245,-1.019883,0.5917913,0
2.0000000000000013,9.141760882143679,-1.6319165095063837,-0.4647871844958554,0.7297106413756179,11.537926,-2.1175313,-2.5957289,0.42863703,0.35571456,0.36994597,1.8988411,0.3562143,-0.016711054,0.10514182,0.92831933,-9.709044,10.986624,0.56134117,-1.3715245,-1.019883,0.5917913,0
2.010000000000001,9.141760882143679,-1.6319165095063837,-0.4647871844958554,0.7297106413756179,11.537926,-2.1175313,-2.5957289,0.42863703,0.25864345,0.47990537,1.9044111,0.35292014,-0.017075928,0.09679591,0.9304762,-9.705285,11.005046,0.55270314,-1.6319165,-0.4647872,0.72971064,0
2.020000000000001,9.141760882143679,-1.6319165095063837,-0.4647871844958554,0.7297106413756179,11.537926,-2.1175313,-2.5957289,0.42863703,0.16160658,0.5900422,1.9098963,0.34959584,-0.017439345,0.088441744,0.9325536,-9.702192,11.022101,0.54436153,-1.6319165,-0.4647872,0.72971064,0
2.0300000000000007,9.141760882143679,-1.6319165095063837,-0.4647871844958554,0.7297106413756179,11.537926,-2.1175313,-2.5957289,0.42863703,0.06459733,0.7003426,1.9152994,0.34624177,-0.017801274,0.08008004,0.93455154,-9.699759,11.037777,0.53629106,-1.6319165,-0.4647872,0.72971064,0
2.0400000000000005,9.141760882143679,-1.6319165095063837,-0.4647871844958554,0.7297106413756179,11.537926,-2.1175313,-2.5957289,0.42863703,-0.032390818,0.8107929,1.9206231,0.34285817,-0.018161682,0.0717115,0.93646973,-9.697972,11.052065,0.5284664,-1.6319165,-0.4647872,0.72971064,0
2.0500000000000003,9.141760882143679,-1.6319165095063837,-0.4647871844958554,0.7297106413756179,11.090189,-1.8691195,-2.3342319,0.40155065,-0.1293643,0.92137915,1.9258696,0.33944526,-0.018520543,0.06333684,0.93830806,-9.696824,11.064958,0.52086204,-1.6319165,-0.4647872,0.72971064,0
2.06,9.141760882143679,-1.6319165095063837,-0.4647871844958554,0.7297106413756179,11.090189,-1.8691195,-2.3342319,0.40155065,-0.22632945,1.0320872,1.9310411,0.33600345,-0.018877825,0.05495678,0.9400664,-9.696303,11.076446,0.51345253,-1.6319165,-0.4647872,0.72971064,0
2.07,9.141760882143679,-1.6319165095063837,-0.4647871844958554,0.7297106413756179,11.090189,-1.8691195,-2.3342319,0.40155065,-0.3232925,1.1429031,1.9361395,0.33253297,-0.019233495,0.046572033,0.9417445,-9.696403,11.08652,0.50621223,-1.6319165,-0.4647872,0.72971064,0
2.0799999999999996,9.141760882143679,-1.6319165095063837,-0.4647871844958554,0.7297106413756179,11.090189,-1.8691195,-2.3342319,0.40155065,-0.4202596,1.2538127,1.941166,0.32903412,-0.019587524,0.038183313,0.94334227,-9.697109,11.095175,0.49911547,-1.6319165,-0.4647872,0.72971064,0
2.0899999999999994,9.262362159441722,-1.7969877688508247,-0.3148883348029683,0.8587818994463383,10.285848,-2.256562,-0.77402675,0.50135505,-0.5172367,1.3648018,1.9461222,0.3255072,-0.019939885,0.029791335,0.94485956,-9.698412,11.102403,0.4921365,-1.6319165,-0.4647872,0.72971064,0
2.099999999999999,9.262362159441722,-1.7969877688508247,-0.3148883348029683,0.8587818994463383,10.285848,-2.256562,-0.77402675,0.50135505,-0.61423016,1.4758562,1.951015,0.3213013,-0.021247962,0.020873593,0.9465083,-9.700403,11.108261,0.48645204,-1.7969878,-0.31488833,0.8587819,0
2.109999999999999,9.262362159441722,-1.7969877688508247,-0.3148883348029683,0.8587818994463383,10.285848,-2.256562,-0.77402675,0.50135505,-0.71124744,1.5869619,1.9558513,0.31706282,-0.022553882,0.011953732,0.94806075,-9.703178,11.112624,0.48083,-1.7969878,-0.31488833,0.8587819,0
2.1199999999999988,9.262362159441722,-1.7969877688508247,-0.3148883348029683,0.8587818994463383,10.285848,-2.256562,-0.77402675,0.50135505,-0.8082963,1.6981038,1.9606316,0.3127921,-0.02385751,0.0030326555,0.9495169,-9.706724,11.115483,0.47524035,-1.7969878,-0.31488833,0.8587819,0
