time-since-start [s],throttle_mpc,roll_mpc,pitch_mpc,yaw_mpc,throttle_nw,roll_nw,pitch_nw,yaw_nw,position_x [m],position_y [m],position_z [m],rotation_w [quaternion],rotation_x [quaternion],rotation_y [quaternion],rotation_z [quaternion],velocity_x [m/s],velocity_y [m/s],velocity_z [m/s],omega_x [rad/s],omega_y [rad/s],omega_z [rad/s],network_used
0.0,8.03169519784468,5.999999618414904,-5.999999781380194,-1.2314922830750221,11.802464,1.3482839,1.6242449,-0.72390056,15.061026,-11.515349,2.323622,0.34007287,-0.36832443,0.23899421,0.83160645,-8.401307,-0.090339005,0.97981524,0.4522813,-0.34927583,0.2031154,0
0.01,8.03169519784468,5.999999618414904,-5.999999781380194,-1.2314922830750221,11.203087,2.227952,0.4353531,0.23542708,14.976743,-11.515863,2.3332992,0.34125644,-0.3644891,0.24117589,0.8321814,-8.454804,-0.012787335,0.9552971,0.90928274,-0.82225484,0.1692414,0
0.02,8.03169519784468,5.999999618414904,-5.999999781380194,-1.2314922830750221,11.203087,2.227952,0.4353531,0.23542708,14.891939,-11.515613,2.3427215,0.34392488,-0.35803166,0.24434201,0.83296216,-8.505409,0.06256581,0.92894244,1.3350061,-1.2615145,0.13345073,0
0.03,8.03169519784468,5.999999618414904,-5.999999781380194,-1.2314922830750221,11.203087,2.227952,0.4353531,0.23542708,14.806646,-11.514618,2.351873,0.3479699,-0.34911633,0.24840549,0.8338641,-8.552669,0.13594103,0.9011384,1.732131,-1.6701124,0.09603423,0
0.04,8.03169519784468,5.999999618414904,-5.999999781380194,-1.2314922830750221,13.602211,3.2924142,0.044387534,-0.029618435,14.720899,-11.512899,2.3607404,0.35328287,-0.33788508,0.25328028,0.83478963,-8.596201,0.2075117,0.8721948,2.103096,-2.050806,0.05725261,0
0.05,8.03169519784468,5.999999618414904,-5.999999781380194,-1.2314922830750221,13.602211,3.2924142,0.044387534,-0.029618435,14.634737,-11.510474,2.3693137,0.35975555,-0.32446173,0.2588817,0.83563185,-8.635681,0.27740422,0.84235007,2.4501207,-2.4060845,0.017339367,0
0.060000000000000005,8.03169519784468,5.999999618414904,-5.999999781380194,-1.2314922830750221,13.602211,3.2924142,0.044387534,-0.029618435,14.548201,-11.507357,2.3775847,0.3672802,-0.3089556,0.2651266,0.83627707,-8.670834,0.34569937,0.81177706,2.7752247,-2.7381945,-0.023496497,0
0.07,8.03169519784468,5.999999618414904,-5.999999781380194,-1.2314922830750221,13.602211,3.2924142,0.044387534,-0.029618435,14.461335,-11.503566,2.385547,0.3757498,-0.29146478,0.2719335,0.8366076,-8.701422,0.41243467,0.78058857,3.080246,-3.0491652,-0.06506817,0
0.08,9.639932385437747,5.999999700056752,-5.999999824805155,-1.5073599089714738,12.6836605,2.963224,0.103554204,-0.08014237,14.374188,-11.499114,2.3931947,0.38505822,-0.27207896,0.27922255,0.83650327,-8.727252,0.47760704,0.7488429,3.3668556,-3.34083,-0.10720879,0
0.09,9.639932385437747,5.999999700056752,-5.999999824805155,-1.5073599089714738,12.6836605,2.963224,0.103554204,-0.08014237,14.286788,-11.493966,2.4005768,0.3951355,-0.25087738,0.28691104,0.835829,-8.751639,0.5517498,0.7274949,3.641466,-3.6198044,-0.16374466,0
0.09999999999999999,9.639932385437747,5.999999700056752,-5.999999824805155,-1.5073599089714738,12.6836605,2.963224,0.103554204,-0.08014237,14.199174,-11.488086,2.407743,0.40591297,-0.22792824,0.29492086,0.83444875,-8.770172,0.624072,0.7056108,3.902127,-3.8841846,-0.22009002,0
0.10999999999999999,9.639932385437747,5.999999700056752,-5.999999824805155,-1.5073599089714738,12.6836605,2.963224,0.103554204,-0.08014237,14.111404,-11.481491,2.4146872,0.417286,-0.20329909,0.30318016,0.83224,-8.78271,0.6944337,0.68309146,4.1499066,-4.1351357,-0.27615497,0
0.11999999999999998,9.639932385437747,5.999999700056752,-5.999999824805155,-1.5073599089714738,12.6836605,2.963224,0.103554204,-0.08014237,14.0235405,-11.474204,2.4214022,0.4291492,-0.17705794,0.31161723,0.82908136,-8.789157,0.7626628,0.65979594,4.385777,-4.3737125,-0.3318604,0
0.12999999999999998,12.526328199984409,5.232075908754897,-5.999999614609642,-2.0225692214027218,12.655796,1.8034089,1.0318272,-0.2973701,13.935642,-11.466246,2.4278796,0.44139603,-0.14927448,0.32016045,0.8248538,-8.789458,0.8285594,0.6355456,4.6106253,-4.600871,-0.38713706,0
0.13999999999999999,12.526328199984409,5.232075908754897,-5.999999614609642,-2.0225692214027218,12.655796,1.8034089,1.0318272,-0.2973701,13.847778,-11.457548,2.4342153,0.45393828,-0.12016072,0.32848302,0.8195122,-8.78187,0.9106815,0.63170004,4.7072334,-4.8193345,-0.46738818,0
0.15,12.526328199984409,5.232075908754897,-5.999999614609642,-2.0225692214027218,12.655796,1.8034089,1.0318272,-0.2973701,13.760032,-11.448037,2.4405153,0.4666674,-0.09001388,0.33629262,0.81303513,-8.766082,0.991047,0.62834877,4.7887774,-5.003721,-0.54370135,0
0.16,12.80611360433534,3.091805050352724,-5.110403050558308,-0.8441995604702303,12.719517,0.22327577,1.835419,-0.42638317,13.672485,-11.437735,2.4467828,0.47945526,-0.059019443,0.34357268,0.8053552,-8.7419615,1.0691308,0.6251487,4.857611,-5.159344,-0.6162698,0
0.17,12.80611360433534,3.091805050352724,-5.110403050558308,-0.8441995604702303,12.719517,0.22327577,1.835419,-0.42638317,13.585225,-11.426656,2.453028,0.4919144,-0.027994672,0.34980926,0.7967872,-8.708779,1.1460859,0.6238486,4.5822,-5.1516347,-0.6274544,0
0.18000000000000002,12.80611360433534,3.091805050352724,-5.110403050558308,-0.8441995604702303,12.719517,0.22327577,1.835419,-0.42638317,13.498338,-11.414824,2.4592576,0.50377816,0.0023940578,0.3546327,0.7876785,-8.667429,1.2196556,0.6220362,4.349741,-5.14514,-0.6380901,0
0.19000000000000003,12.80611360433534,3.091805050352724,-5.110403050558308,-0.8441995604702303,12.719517,0.22327577,1.835419,-0.42638317,13.411902,-11.402274,2.4654658,0.5150966,0.032200165,0.3582226,0.77801996,-8.618365,1.289384,0.6194593,4.1535354,-5.139669,-0.6482039,0
0.20000000000000004,12.116410413308838,1.6629429964942117,-3.6697679850948504,-0.7808822334255547,13.026909,-0.8385168,3.052165,-0.22031236,13.325995,-11.389049,2.4716432,0.5259047,0.06146921,0.36072963,0.7678019,-8.56203,1.3548673,0.61587083,3.987929,-5.1350603,-0.6578214,0
0.21000000000000005,12.116410413308838,1.6629429964942117,-3.6697679850948504,-0.7808822334255547,13.026909,-0.8385168,3.052165,-0.22031236,13.240668,-11.375209,2.4777539,0.5360609,0.08950007,0.36215448,0.7572796,-8.502294,1.4124895,0.6060168,3.625427,-4.9064074,-0.6638601,0
0.22000000000000006,12.116410413308838,1.6629429964942117,-3.6697679850948504,-0.7808822334255547,13.026909,-0.8385168,3.052165,-0.22031236,13.15597,-11.360815,2.4837594,0.5455008,0.115746394,0.36254042,0.7467235,-8.436751,1.4656284,0.59484875,3.3194444,-4.713434,-0.6696024,0
0.23000000000000007,12.116410413308838,1.6629429964942117,-3.6697679850948504,-0.7808822334255547,13.026909,-0.8385168,3.052165,-0.22031236,13.071952,-11.345912,2.4896464,0.5543414,0.14045498,0.36205623,0.73613393,-8.366032,1.5142146,0.5822777,3.0611687,-4.5505733,-0.6750629,0
0.24000000000000007,12.116410413308838,1.6629429964942117,-3.6697679850948504,-0.7808822334255547,13.402672,-1.7226176,4.2181263,0.2247181,12.988665,-11.330546,2.4954002,0.56267244,0.16383699,0.36083907,0.7255013,-8.290686,1.558203,0.5682336,2.8431613,-4.413126,-0.6802555,0
0.25000000000000006,12.116410413308838,1.6629429964942117,-3.6697679850948504,-0.7808822334255547,13.402672,-1.7226176,4.2181263,0.2247181,12.906152,-11.314763,2.501006,0.5705626,0.18607235,0.3590006,0.7148103,-8.211199,1.5975635,0.5526579,2.6591444,-4.297127,-0.6851933,0
0.26000000000000006,12.116410413308838,1.6629429964942117,-3.6697679850948504,-0.7808822334255547,13.402672,-1.7226176,4.2181263,0.2247181,12.824453,-11.298611,2.5064476,0.5780641,0.20731387,0.3566319,0.704043,-8.128004,1.6322774,0.5354987,2.5038185,-4.199229,-0.6898888,0
0.2700000000000001,12.116410413308838,1.6629429964942117,-3.6697679850948504,-0.7808822334255547,13.402672,-1.7226176,4.2181263,0.2247181,12.743604,-11.282135,2.51171,0.58521605,0.22769089,0.3538073,0.6931806,-8.04149,1.6623335,0.5167074,2.3727098,-4.116607,-0.6943539,0
0.2800000000000001,11.362374045142314,-0.4770733108520971,-1.6928875523142544,0.12217206000098492,15.021702,-1.9051731,5.2069016,0.31203067,12.663635,-11.26538,2.516776,0.592048,0.24731264,0.35058758,0.6822052,-7.952008,1.6877258,0.49623674,2.2620423,-4.0468793,-0.6985998,0
0.2900000000000001,11.362374045142314,-0.4770733108520971,-1.6928875523142544,0.12217206000098492,15.021702,-1.9051731,5.2069016,0.31203067,12.584545,-11.248403,2.521605,0.5984561,0.26526862,0.34688967,0.67167723,-7.865647,1.7072003,0.46934676,1.835143,-3.6795328,-0.6583243,0
0.3000000000000001,11.362374045142314,-0.4770733108520971,-1.6928875523142544,0.12217206000098492,15.021702,-1.9051731,5.2069016,0.31203067,12.506329,-11.23125,2.5261579,0.60440475,0.28086713,0.34267944,0.66210216,-7.7773232,1.7225908,0.4410386,1.4747717,-3.3695247,-0.62002516,0
0.3100000000000001,11.362374045142314,-0.4770733108520971,-1.6928875523142544,0.12217206000098492,15.021702,-1.9051731,5.2069016,0.31203067,12.429003,-11.213963,2.5304215,0.6099943,0.29448548,0.33806032,0.6533761,-7.6874957,1.7341995,0.4115348,1.1705623,-3.107903,-0.58360535,0
0.3200000000000001,11.061046069818257,-2.8306230955461267,1.0741014820982902,0.8473077675833369,16.4335,-3.4521384,5.788345,0.796584,12.352581,-11.196578,2.534385,0.6152981,0.30643997,0.3331114,0.64539856,-7.5965357,1.7422928,0.38103732,0.9137638,-2.8871136,-0.54897267,0
0.3300000000000001,11.061046069818257,-2.8306230955461267,1.0741014820982902,0.8473077675833369,16.4335,-3.4521384,5.788345,0.796584,12.277061,-11.179129,2.5380306,0.6202441,0.3157361,0.32794777,0.6387941,-7.5072083,1.7470293,0.34799218,0.33015245,-2.2691395,-0.4804568,0
0.34000000000000014,11.061046069818257,-2.8306230955461267,1.0741014820982902,0.8473077675833369,16.4335,-3.4521384,5.788345,0.796584,12.202437,-11.161645,2.5413437,0.624803,0.3216161,0.32267913,0.63408375,-7.4175262,1.7491767,0.31459737,-0.1625301,-1.7476146,-0.415303,0
0.35000000000000014,11.061046069818257,-2.8306230955461267,1.0741014820982902,0.8473077675833369,16.4335,-3.4521384,5.788345,0.796584,12.128711,-11.144151,2.5443227,0.6290619,0.32463446,0.3173421,0.6310209,-7.327877,1.7493159,0.28128445,-0.578445,-1.3074795,-0.35334632,0
0.36000000000000015,11.658790129823538,-4.581243314513886,3.5827951953231825,0.9627930250211818,16.225391,-4.7181606,5.995838,0.900056,12.055879,-11.126663,2.5469708,0.63307285,0.32524946,0.31195495,0.629377,-7.2385683,1.7479415,0.24842656,-0.9295489,-0.93602765,-0.29442987,0
0.37000000000000016,11.658790129823538,-4.581243314513886,3.5827951953231825,0.9627930250211818,16.225391,-4.7181606,5.995838,0.900056,11.983961,-11.109197,2.5493119,0.6367719,0.32276928,0.30671585,0.6294972,-7.145078,1.7453936,0.21993804,-1.4988827,-0.23126952,-0.23273756,0
0.38000000000000017,11.658790129823538,-4.581243314513886,3.5827951953231825,0.9627930250211818,16.225391,-4.7181606,5.995838,0.900056,11.912973,-11.091757,2.5513742,0.6400925,0.3166533,0.3017757,0.63161975,-7.0525975,1.7424679,0.19276878,-1.9794976,0.36352992,-0.17407252,0
0.3900000000000002,11.658790129823538,-4.581243314513886,3.5827951953231825,0.9627930250211818,16.225391,-4.7181606,5.995838,0.900056,11.842904,-11.074346,2.5531733,0.6430402,0.307448,0.2970682,0.6353939,-6.9614882,1.739879,0.16736385,-2.3852117,0.86553264,-0.11828619,0
0.4000000000000002,12.436397619759829,-5.295979548759286,5.019008064735634,1.039255765685229,17.931942,-5.382762,6.6194167,0.9262175,11.773737,-11.056956,2.5547287,0.6455986,0.29560688,0.29252785,0.64050484,-6.872085,1.738232,0.14407235,-2.7276928,1.2892209,-0.06523731,0
0.4100000000000002,12.436397619759829,-5.295979548759286,5.019008064735634,1.039255765685229,17.931942,-5.382762,6.6194167,0.9262175,11.705484,-11.039577,2.5560887,0.6476459,0.28095624,0.28827676,0.64692724,-6.778892,1.7380575,0.12831391,-3.128256,1.8707864,-0.01103951,0
0.4200000000000002,12.436397619759829,-5.295979548759286,5.019008064735634,1.039255765685229,17.931942,-5.382762,6.6194167,0.9262175,11.638151,-11.022186,2.5573046,0.6490536,0.26336536,0.28439602,0.65458924,-6.6882825,1.740135,0.11536165,-3.466386,2.3616364,0.04049878,0
0.4300000000000002,12.436397619759829,-5.295979548759286,5.019008064735634,1.039255765685229,17.931942,-5.382762,6.6194167,0.9262175,11.571709,-11.004762,2.558406,0.6497792,0.24324366,0.2807715,0.6631643,-6.6006904,1.7450874,0.10539338,-3.7518091,2.7759252,0.08950808,0
0.4400000000000002,12.436397619759829,-5.295979548759286,5.019008064735634,1.039255765685229,18.04173,-5.7972608,6.4171944,1.1465696,11.506125,-10.987272,2.559423,0.6497774,0.2209408,0.27730379,0.67236674,-6.516556,1.7534308,0.09848174,-3.9927363,3.1255977,0.13611247,0
0.45000000000000023,12.436397619759829,-5.295979548759286,5.019008064735634,1.039255765685229,18.04173,-5.7972608,6.4171944,1.1465696,11.441364,-10.969681,2.5603862,0.6490047,0.19675834,0.2739079,0.6819483,-6.436321,1.7655847,0.09460368,-4.1961007,3.4207351,0.18042998,0
0.46000000000000024,12.436397619759829,-5.295979548759286,5.019008064735634,1.039255765685229,18.04173,-5.7972608,6.4171944,1.1465696,11.377383,-10.951947,2.561325,0.6474218,0.17095886,0.2705122,0.69169456,-6.360428,1.7818811,0.09365006,-4.367756,3.6698449,0.2225728,0
0.47000000000000025,12.436397619759829,-5.295979548759286,5.019008064735634,1.039255765685229,18.04173,-5.7972608,6.4171944,1.1465696,11.314137,-10.934029,2.5622685,0.64499515,0.1437728,0.26705706,0.70142084,-6.289314,1.8025718,0.0954351,-4.5126433,3.8801076,0.26264766,0
0.48000000000000026,12.513373383992597,-4.970597920928066,5.102209224999807,0.9691895499990882,16.298117,-5.123324,6.4482517,0.94614804,11.251577,-10.91588,2.5632424,0.64169776,0.11540392,0.26349363,0.7109691,-6.223404,1.8278339,0.09970563,-4.6349354,4.057583,0.300756,0
0.49000000000000027,12.513373383992597,-4.970597920928066,5.102209224999807,0.9691895499990882,16.298117,-5.123324,6.4482517,0.94614804,11.1896515,-10.897454,2.5642736,0.63749343,0.08609104,0.25989825,0.720169,-6.1627283,1.8579639,0.10679296,-4.687403,4.2203813,0.33355623,0
0.5000000000000002,12.513373383992597,-4.970597920928066,5.102209224999807,0.9691895499990882,16.298117,-5.123324,6.4482517,0.94614804,11.128302,-10.878705,2.5653849,0.6323648,0.056041256,0.25633368,0.72888076,-6.108044,1.8928651,0.11567442,-4.731685,4.3577957,0.36474696,0
0.5100000000000002,12.513373383992597,-4.970597920928066,5.102209224999807,0.9691895499990882,16.298117,-5.123324,6.4482517,0.94614804,11.067469,-10.859582,2.566592,0.626319,0.02538322,0.25274605,0.7370208,-6.0596657,1.9325413,0.12591943,-4.7690573,4.4737854,0.39440715,0
0.5200000000000002,12.303222207608467,-3.7205069478902835,4.572488882306421,0.8667447057754885,16.453695,-4.6838436,6.3947577,1.4164454,11.007086,-10.840039,2.5679064,0.6193646,-0.005766032,0.24909128,0.7445185,-6.017882,1.9769403,0.1370716,-4.800596,4.571691,0.4226119,0
0.5300000000000002,12.303222207608467,-3.7205069478902835,4.572488882306421,0.8667447057754885,16.453695,-4.6838436,6.3947577,1.4164454,10.947084,-10.820032,2.5693257,0.61158895,-0.036836088,0.24557921,0.7511944,-5.9835124,2.0251281,0.14680696,-4.632222,4.5717955,0.44440562,0
0.5400000000000003,12.303222207608467,-3.7205069478902835,4.572488882306421,0.8667447057754885,16.453695,-4.6838436,6.3947577,1.4164454,10.887393,-10.799521,2.5708423,0.60311013,-0.067367606,0.24239142,0.7569453,-5.9558887,2.0776603,0.15645319,-4.4901023,4.5718837,0.46512994,0
0.5500000000000003,12.303222207608467,-3.7205069478902835,4.572488882306421,0.8667447057754885,16.453695,-4.6838436,6.3947577,1.4164454,10.827944,-10.778464,2.5724528,0.59397554,-0.09741117,0.23945506,0.7618172,-5.9349747,2.134316,0.16552082,-4.3701434,4.571958,0.48483732,0
0.5600000000000003,11.688059334201624,-2.0841326457513096,3.3962318897832224,0.7739734672537046,18.527689,-4.1373887,5.8007255,2.4988074,10.76867,-10.756823,2.5741494,0.58422315,-0.12700623,0.23670751,0.76584744,-5.920732,2.1948624,0.17355055,-4.268889,4.5720205,0.50357765,0
0.5700000000000003,11.688059334201624,-2.0841326457513096,3.3962318897832224,0.7739734672537046,18.527689,-4.1373887,5.8007255,2.4988074,10.709504,-10.734571,2.5758927,0.57410276,-0.1554464,0.2343265,0.76898223,-5.9134555,2.255834,0.17488195,-3.9281554,4.3887343,0.516846,0
0.5800000000000003,11.688059334201624,-2.0841326457513096,3.3962318897832224,0.7739734672537046,18.527689,-4.1373887,5.8007255,2.4988074,10.65038,-10.711695,2.5776408,0.56386936,-0.18218738,0.23247091,0.7712435,-5.912119,2.3199444,0.17448363,-3.6405637,4.2340207,0.52946335,0
0.5900000000000003,11.688059334201624,-2.0841326457513096,3.3962318897832224,0.7739734672537046,18.527689,-4.1373887,5.8007255,2.4988074,10.591242,-10.688162,2.5793753,0.55354935,-0.20747583,0.23106186,0.7727532,-5.916363,2.3868885,0.17208284,-3.3978264,4.103425,0.5414616,0
0.6000000000000003,10.881250387334264,-0.38822070769953543,1.905607054275932,0.6695417709756707,19.463398,-4.027507,5.0821004,2.8961842,10.532034,-10.663947,2.5810747,0.5431562,-0.23151955,0.23002896,0.7736064,-5.9258695,2.4563963,0.16745178,-3.1929476,3.993187,0.55287105,0
0.6100000000000003,10.881250387334264,-0.38822070769953543,1.905607054275932,0.6695417709756707,19.463398,-4.027507,5.0821004,2.8961842,10.472712,-10.639051,2.5826845,0.53301156,-0.25367177,0.22951372,0.77386886,-5.9393187,2.5232563,0.15412694,-2.7554488,3.6677773,0.55859613,0
0.6200000000000003,10.881250387334264,-0.38822070769953543,1.905607054275932,0.6695417709756707,19.463398,-4.027507,5.0821004,2.8961842,10.413234,-10.613476,2.5841494,0.5234116,-0.27345031,0.22964126,0.7736474,-5.9568734,2.592002,0.13851455,-2.3861933,3.3930933,0.56404024,0
0.6300000000000003,10.881250387334264,-0.38822070769953543,1.905607054275932,0.6695417709756707,19.463398,-4.027507,5.0821004,2.8961842,10.353562,-10.587204,2.5854468,0.5143141,-0.29123577,0.2303272,0.7730539,-5.978038,2.662403,0.12062957,-2.0745363,3.161228,0.56921726,0
0.6400000000000003,10.881250387334264,-0.38822070769953543,1.905607054275932,0.6695417709756707,18.158941,-3.1717134,4.074097,2.5187635,10.293662,-10.560221,2.5865543,0.5056705,-0.3073465,0.2314953,0.7721695,-6.00239,2.734277,0.10050407,-1.8114933,2.9655063,0.57414025,0
0.6500000000000004,10.881250387334264,-0.38822070769953543,1.905607054275932,0.6695417709756707,18.158941,-3.1717134,4.074097,2.5187635,10.233504,-10.532514,2.5874496,0.4974305,-0.32204884,0.23307748,0.7710529,-6.029574,2.807478,0.078178234,-1.5894817,2.8002937,0.5788216,0
0.6600000000000004,10.881250387334264,-0.38822070769953543,1.905607054275932,0.6695417709756707,18.158941,-3.1717134,4.074097,2.5187635,10.173061,-10.504068,2.5881107,0.48954478,-0.3355653,0.23501365,0.76974714,-6.059289,2.8818884,0.05369456,-1.4021009,2.6608343,0.5832733,0
0.6700000000000004,10.881250387334264,-0.38822070769953543,1.905607054275932,0.6695417709756707,18.158941,-3.1717134,4.074097,2.5187635,10.11231,-10.474873,2.5885162,0.4819667,-0.34808183,0.23725106,0.76828337,-6.0912824,2.9574103,0.02709435,-1.2439493,2.543114,0.58750653,0
0.6800000000000004,10.902589324555603,0.9662584231459507,0.5459251405071434,0.5595598442417273,17.813017,-2.8456368,3.2382562,2.813768,10.051229,-10.444916,2.5886457,0.47465315,-0.35975376,0.23974374,0.7666843,-6.12534,3.0339625,-0.0015843725,-1.1104673,2.4437432,0.59153205,0
0.6900000000000004,10.902589324555603,0.9662584231459507,0.5459251405071434,0.5595598442417273,17.813017,-2.8456368,3.2382562,2.813768,9.989796,-10.414189,2.5884783,0.46790606,-0.37004352,0.24260685,0.76503193,-6.16132,3.1116242,-0.03215559,-0.786487,2.1479053,0.58996314,0
0.7000000000000004,10.902589324555603,0.9662584231459507,0.5459251405071434,0.5595598442417273,17.813017,-2.8456368,3.2382562,2.813768,9.927996,-10.382681,2.5879958,0.4619798,-0.37854436,0.24593604,0.76340985,-6.198797,3.1901712,-0.06458986,-0.5130494,1.8981829,0.58847123,0
0.7100000000000004,10.902589324555603,0.9662584231459507,0.5459251405071434,0.5595598442417273,17.813017,-2.8456368,3.2382562,2.813768,9.865816,-10.350382,2.5871806,0.4567681,-0.3855485,0.24966563,0.76182854,-6.237412,3.2695467,-0.098699935,-0.28227,1.6873877,0.5870526,0
0.7200000000000004,11.084808110181182,2.044293735113169,-0.8174437635280141,0.4356133811147235,17.709976,-2.2500017,1.9539013,2.11618,9.803246,-10.317286,2.5860167,0.45217496,-0.39129877,0.2537377,0.7602899,-6.2768636,3.3497124,-0.13432239,-0.08749336,1.5094517,0.58570343,0
0.7300000000000004,11.084808110181182,2.044293735113169,-0.8174437635280141,0.4356133811147235,17.709976,-2.2500017,1.9539013,2.11618,9.740273,-10.283377,2.5844946,0.44843632,-0.39539307,0.25817794,0.75888985,-6.317542,3.4319913,-0.1702736,0.24510151,1.1466997,0.57833844,0
0.7400000000000004,11.084808110181182,2.044293735113169,-0.8174437635280141,0.4356133811147235,17.709976,-2.2500017,1.9539013,2.11618,9.676894,-10.248642,2.5826073,0.4457404,-0.39752665,0.26300517,0.757705,-6.3584003,3.5150077,-0.20733216,0.5258037,0.840496,0.5713349,0
0.7500000000000004,11.084808110181182,2.044293735113169,-0.8174437635280141,0.4356133811147235,17.709976,-2.2500017,1.9539013,2.11618,9.613107,-10.213075,2.5803452,0.44393876,-0.39801294,0.26816037,0.7566998,-6.399058,3.5987327,-0.24523018,0.7627101,0.582026,0.564675,0
0.7600000000000005,11.672641554678542,2.6393662919001635,-1.8753491888330327,0.3447470690150767,16.828074,-1.367739,0.55160624,1.2970096,9.548915,-10.176666,2.5777006,0.44290006,-0.39711186,0.2735909,0.7558374,-6.439194,3.6831465,-0.2837433,0.962654,0.36384895,0.55834186,0
0.7700000000000005,11.672641554678542,2.6393662919001635,-1.8753491888330327,0.3447470690150767,16.828074,-1.367739,0.55160624,1.2970096,9.484315,-10.139387,2.5746846,0.44272828,-0.39461705,0.27923828,0.75517905,-6.480605,3.7727413,-0.31953087,1.2242634,0.0147341415,0.54786074,0
0.7800000000000005,11.672641554678542,2.6393662919001635,-1.8753491888330327,0.3447470690150767,16.828074,-1.367739,0.55160624,1.2970096,9.419307,-10.101208,2.5713096,0.44349793,-0.390373,0.28505048,0.75476164,-6.5208015,3.8629963,-0.35547674,1.4450513,-0.27995393,0.53789383,0
0.7900000000000005,11.672641554678542,2.6393662919001635,-1.8753491888330327,0.3447470690150767,16.828074,-1.367739,0.55160624,1.2970096,9.353904,-10.062124,2.5675752,0.4450596,-0.3846452,0.29099143,0.754516,-6.559438,3.9538605,-0.39132202,1.6313881,-0.52869964,0.5284161,0
0.8000000000000005,12.45150603656957,2.7380660568798785,-2.488980215332856,0.22811793467752606,16.176147,-3.0226974,0.61994857,1.4691781,9.288124,-10.022129,2.563484,0.44728276,-0.37765512,0.2970286,0.7543799,-6.5962176,4.0452824,-0.42685977,1.7886497,-0.73866534,0.5194034,0
0.8100000000000005,12.45150603656957,2.7380660568798785,-2.488980215332856,0.22811793467752606,16.176147,-3.0226974,0.61994857,1.4691781,9.221974,-9.981186,2.5590606,0.45015293,-0.36938906,0.30304715,0.7543718,-6.6331873,4.1433353,-0.45771113,1.9367937,-1.0115937,0.50510997,0
0.8200000000000005,12.45150603656957,2.7380660568798785,-2.488980215332856,0.22811793467752606,16.176147,-3.0226974,0.61994857,1.4691781,9.155468,-9.9392605,2.5543323,0.45365107,-0.35984397,0.30895075,0.754495,-6.6676116,4.2418194,-0.48784676,2.0618167,-1.2419684,0.4915179,0
0.8300000000000005,12.45150603656957,2.7380660568798785,-2.488980215332856,0.22811793467752606,16.176147,-3.0226974,0.61994857,1.4691781,9.088632,-9.896349,2.5493069,0.45766506,-0.34920475,0.31473714,0.7546784,-6.699231,4.3406234,-0.5170903,2.1673276,-1.4364238,0.47859278,0
0.8400000000000005,12.45150603656957,2.7380660568798785,-2.488980215332856,0.22811793467752606,15.878565,-3.406861,0.3381515,1.2357708,9.021494,-9.8524475,2.543994,0.46209767,-0.3376274,0.3204035,0.7548612,-6.7278185,4.4396334,-0.5453119,2.2563722,-1.6005596,0.4663019,0
0.8500000000000005,12.45150603656957,2.7380660568798785,-2.488980215332856,0.22811793467752606,15.878565,-3.406861,0.3381515,1.2357708,8.954087,-9.807554,2.5384045,0.46686482,-0.3252438,0.32594693,0.75499177,-6.753176,4.5387316,-0.5724215,2.331521,-1.7391032,0.4546141,0
0.8600000000000005,12.45150603656957,2.7380660568798785,-2.488980215332856,0.22811793467752606,15.878565,-3.406861,0.3381515,1.2357708,8.886442,-9.761673,2.5325494,0.4718941,-0.31216595,0.33136478,0.7550272,-6.77513,4.6377974,-0.598363,2.3949428,-1.8560448,0.4434999,0
0.8700000000000006,12.45150603656957,2.7380660568798785,-2.488980215332856,0.22811793467752606,15.878565,-3.406861,0.3381515,1.2357708,8.818596,-9.7148,2.526441,0.477123,-0.2984892,0.33665457,0.7549316,-6.793529,4.7367096,-0.62310946,2.4484675,-1.9547521,0.432931,0
0.8800000000000006,12.413743914942081,2.4032258963668123,-2.5605190151625106,0.1771186523937401,15.388826,-2.2926333,0.08963795,0.5356628,8.750585,-9.66694,2.5200915,0.48249793,-0.2842951,0.3418141,0.75467575,-6.8082438,4.835343,-0.6466588,2.4936407,-2.0380683,0.42288074,0
0.8900000000000006,12.413743914942081,2.4032258963668123,-2.5605190151625106,0.1771186523937401,15.388826,-2.2926333,0.08963795,0.5356628,8.682446,-9.618096,2.513511,0.48795033,-0.26969907,0.3467251,0.75428706,-6.8191357,4.9332695,-0.66925657,2.479546,-2.1195676,0.4108211,0
0.9000000000000006,12.413743914942081,2.4032258963668123,-2.5605190151625106,0.1771186523937401,15.388826,-2.2926333,0.08963795,0.5356628,8.614215,-9.568276,2.5067105,0.49342766,-0.25479943,0.3512948,0.7537896,-6.8261957,5.030643,-0.6906924,2.467646,-2.1883557,0.39935324,0
0.9100000000000006,12.413743914942081,2.4032258963668123,-2.5605190151625106,0.1771186523937401,15.388826,-2.2926333,0.08963795,0.5356628,8.545934,-9.517487,2.499701,0.49890813,-0.23963767,0.35555598,0.75315654,-6.829392,5.1273155,-0.71099204,2.457599,-2.2464142,0.38844812,0
0.9200000000000006,12.256495422204223,1.6995333398892607,-2.5036117779636826,0.1399081391042275,14.985558,-3.0298219,0.21790464,0.77418387,8.47764,-9.4657345,2.4924943,0.5043724,-0.22424944,0.35953653,0.752366,-6.828698,5.223147,-0.7301953,2.4491162,-2.2954173,0.37807813,0
0.9300000000000006,12.256495422204223,1.6995333398892607,-2.5036117779636826,0.1399081391042275,14.985558,-3.0298219,0.21790464,0.77418387,8.409372,-9.4130335,2.485096,0.5097378,-0.20882735,0.3630598,0.75149614,-6.824169,5.316795,-0.74936265,2.3322096,-2.327932,0.36639106,0
0.9400000000000006,12.256495422204223,1.6995333398892607,-2.5036117779636826,0.1399081391042275,14.985558,-3.0298219,0.21790464,0.77418387,8.341168,-9.359402,2.4775107,0.51494765,-0.19353011,0.36599097,0.750617,-6.81588,5.4093285,-0.7675269,2.2335336,-2.3553689,0.35527745,0
0.9500000000000006,12.256495422204223,1.6995333398892607,-2.5036117779636826,0.1399081391042275,14.985558,-3.0298219,0.21790464,0.77418387,8.2730665,-9.304852,2.4697487,0.52001894,-0.17834002,0.36840838,0.74970037,-6.803934,5.500609,-0.78471893,2.1502457,-2.3785214,0.34470925,0
0.9600000000000006,12.174900460585611,0.6436000816752081,-2.0410841852339483,0.20059570478386735,13.290888,-3.901496,0.15178908,1.3467647,8.205102,-9.249395,2.4618196,0.5249644,-0.16324183,0.37037817,0.748722,-6.7884226,5.59051,-0.80097675,2.079946,-2.398059,0.3346596,0
0.9700000000000006,12.174900460585611,0.6436000816752081,-2.0410841852339483,0.20059570478386735,13.290888,-3.901496,0.15178908,1.3467647,8.137308,-9.193049,2.4537299,0.52965415,-0.14858146,0.37174028,0.7477963,-6.7695775,5.6783304,-0.8168926,1.8559265,-2.3424454,0.32808107,0
0.9800000000000006,12.174900460585611,0.6436000816752081,-2.0410841852339483,0.20059570478386735,13.290888,-3.901496,0.15178908,1.3467647,8.06972,-9.135834,2.445485,0.53399926,-0.13463622,0.3723783,0.747029,-6.7475295,5.7645826,-0.8319496,1.6668456,-2.2954953,0.32182533,0
0.9900000000000007,12.174900460585611,0.6436000816752081,-2.0410841852339483,0.20059570478386735,13.290888,-3.901496,0.15178908,1.3467647,8.002369,-9.077764,2.437094,0.5380603,-0.12130046,0.37240174,0.7463875,-6.722528,5.849203,-0.84616774,1.5072541,-2.2558594,0.31587657,0
1.0000000000000007,11.746469147624904,-0.4648025963830971,-1.3642301567949964,0.2998541236795853,12.982468,-4.716312,0.3576396,1.6621611,7.9352803,-9.018855,2.4285648,0.54188526,-0.10848378,0.37190223,0.7458421,-6.6947846,5.932137,-0.8595662,1.3725528,-2.222398,0.3102197,0
1.0100000000000007,11.746469147624904,-0.4648025963830971,-1.3642301567949964,0.2998541236795853,12.982468,-4.716312,0.3576396,1.6621611,7.868477,-8.95914,2.4198906,0.5453582,-0.09654768,0.37077555,0.74551225,-6.6655726,6.010485,-0.87517077,1.0859905,-2.0886252,0.30971104,0
1.0200000000000007,11.746469147624904,-0.4648025963830971,-1.3642301567949964,0.2998541236795853,12.982468,-4.716312,0.3576396,1.6621611,7.801976,-8.898651,2.4110641,0.54839975,-0.0857762,0.36894888,0.7455045,-6.6342354,6.087177,-0.8900014,0.8441219,-1.9757053,0.30922732,0
1.0300000000000007,11.746469147624904,-0.4648025963830971,-1.3642301567949964,0.2998541236795853,12.982468,-4.716312,0.3576396,1.6621611,7.7357984,-8.837402,2.4020934,0.5510907,-0.075992644,0.3665337,0.74577296,-6.6010933,6.162239,-0.9040496,0.6399761,-1.8803874,0.30876735,0
1.0400000000000007,11.746469147624904,-0.4648025963830971,-1.3642301567949964,0.2998541236795853,13.901161,-5.1276083,0.6231934,1.7645997,7.66996,-8.775411,2.392986,0.553495,-0.06704656,0.36362246,0.7462753,-6.566416,6.2356987,-0.91730446,0.46766976,-1.7999277,0.30832997,0
1.0500000000000007,11.746469147624904,-0.4648025963830971,-1.3642301567949964,0.2998541236795853,13.901161,-5.1276083,0.6231934,1.7645997,7.6044745,-8.712692,2.3837502,0.5556636,-0.05881008,0.36029202,0.7469733,-6.530429,6.3075795,-0.9297555,0.32223728,-1.7320104,0.30791408,0
1.0600000000000007,11.746469147624904,-0.4648025963830971,-1.3642301567949964,0.2998541236795853,13.901161,-5.1276083,0.6231934,1.7645997,7.5393553,-8.649263,2.374394,0.55763704,-0.051174633,0.35660648,0.7478329,-6.493324,6.377901,-0.9413934,0.19948687,-1.6746798,0.30751854,0
1.0700000000000007,11.746469147624904,-0.4648025963830971,-1.3642301567949964,0.2998541236795853,13.901161,-5.1276083,0.6231934,1.7645997,7.4746118,-8.58514,2.3649251,0.55944777,-0.044048123,0.35261938,0.7488242,-6.4552608,6.446681,-0.9522109,0.09588121,-1.626286,0.30714244,0
1.0800000000000007,11.583855739976451,-1.4201385134982627,-0.6786152762204105,0.4574122315765049,14.14213,-5.036538,1.507971,1.8262285,7.410253,-8.520336,2.3553524,0.56112176,-0.0373525,0.34837562,0.74992114,-6.4163756,6.5139313,-0.9622033,0.008434432,-1.585436,0.30678478,0
1.0900000000000007,11.583855739976451,-1.4201385134982627,-0.6786152762204105,0.4574122315765049,14.14213,-5.036538,1.507971,1.8262285,7.346284,-8.454871,2.345678,0.5625573,-0.031435467,0.34378114,0.75123614,-6.3773537,6.5787625,-0.9725963,-0.21437195,-1.4440632,0.3141761,0
1.1000000000000008,11.583855739976451,-1.4201385134982627,-0.6786152762204105,0.4574122315765049,14.14213,-5.036538,1.507971,1.8262285,7.282707,-8.388765,2.335904,0.5636781,-0.026569266,0.3387644,0.75286114,-6.3378987,6.642172,-0.9821476,-0.40242884,-1.3247323,0.32120475,0
1.1100000000000008,11.583855739976451,-1.4201385134982627,-0.6786152762204105,0.4574122315765049,14.14213,-5.036538,1.507971,1.8262285,7.2195263,-8.322032,2.3260384,0.5645354,-0.022590887,0.33338955,0.75474566,-6.298259,6.704234,-0.99083096,-0.56115586,-1.224006,0.3278885,0
1.1200000000000008,11.438094534152851,-2.535887347311007,0.17316684280340616,0.36367502407123015,14.843658,-5.4111514,1.8667696,1.9195412,7.156742,-8.254684,2.3160903,0.56516975,-0.019362371,0.32770994,0.7568452,-6.258644,6.765011,-0.99862456,-0.6951271,-1.1389843,0.33424425,0
1.1300000000000008,11.438094534152851,-2.535887347311007,0.17316684280340616,0.36367502407123015,14.843658,-5.4111514,1.8667696,1.9195412,7.09435,-8.18674,2.3060634,0.565503,-0.017281437,0.32162416,0.75925344,-6.2197523,6.823813,-1.006655,-0.98223627,-0.9344183,0.3356884,0
1.1400000000000008,11.438094534152851,-2.535887347311007,0.17316684280340616,0.36367502407123015,14.843658,-5.4111514,1.8667696,1.9195412,7.032345,-8.118213,2.2959607,0.5654774,-0.016658565,0.31505215,0.7620368,-6.1814055,6.8815193,-1.0137479,-1.2245644,-0.7617451,0.33706173,0
1.1500000000000008,11.438094534152851,-2.535887347311007,0.17316684280340616,0.36367502407123015,14.843658,-5.4111514,1.8667696,1.9195412,6.970719,-8.049112,2.2857919,0.5651465,-0.017268173,0.30806273,0.7651201,-6.1439257,6.9382424,-1.0198668,-1.429096,-0.6159922,0.33836764,0
1.1600000000000008,11.865830104552463,-3.0150840628076723,0.8063199227736859,0.4426658742403807,15.74247,-5.5415926,1.7508233,1.606898,6.909462,-7.9794497,2.2755668,0.5645519,-0.01891932,0.30071303,0.76843673,-6.1075883,6.9940724,-1.0249865,-1.6017263,-0.49296257,0.33960947,0
1.1700000000000008,11.865830104552463,-3.0150840628076723,0.8063199227736859,0.4426658742403807,15.74247,-5.5415926,1.7508233,1.606898,6.8485684,-7.9092226,2.2653131,0.56363875,-0.021750644,0.29304615,0.77198595,-6.071334,7.051144,-1.0255783,-1.8221824,-0.29039487,0.34466648,0
1.1800000000000008,11.865830104552463,-3.0150840628076723,0.8063199227736859,0.4426658742403807,15.74247,-5.5415926,1.7508233,1.606898,6.7880297,-7.8384295,2.255059,0.5623616,-0.025863603,0.2850964,0.7757581,-6.0368214,7.1074862,-1.0251193,-2.0082526,-0.11941075,0.34947535,0
1.1900000000000008,11.865830104552463,-3.0150840628076723,0.8063199227736859,0.4426658742403807,15.74247,-5.5415926,1.7508233,1.606898,6.727825,-7.7670755,2.2448144,0.5607611,-0.031058544,0.27689606,0.77968645,-6.0043354,7.1632047,-1.023623,-2.1653004,0.024914298,0.35404825,0
1.2000000000000008,13.011491794061477,-3.1311213452552713,1.4023654289882903,0.47073620852389003,16.771765,-5.5161376,1.5753353,1.5265847,6.6679344,-7.695167,2.2345898,0.5588694,-0.0371662,0.26847225,0.7837131,-5.97412,7.218379,-1.0211143,-2.2978523,0.14673698,0.35839677,0
1.2100000000000009,13.011491794061477,-3.1311213452552713,1.4023654289882903,0.47073620852389003,16.771765,-5.5161376,1.5753353,1.5265847,6.608348,-7.622683,2.2244444,0.55664396,-0.04425522,0.2599449,0.78779286,-5.9437156,7.278356,-1.0078253,-2.4278474,0.3425126,0.3639093,0
1.2200000000000009,13.011491794061477,-3.1311213452552713,1.4023654289882903,0.47073620852389003,16.771765,-5.5161376,1.5753353,1.5265847,6.5490503,-7.549601,2.2144368,0.55405116,-0.05237261,0.25140917,0.7918825,-5.9162884,7.3379216,-0.99354726,-2.5375633,0.5077614,0.36915135,0
1.2300000000000009,13.011491794061477,-3.1311213452552713,1.4023654289882903,0.47073620852389003,16.771765,-5.5161376,1.5753353,1.5265847,6.490011,-7.475925,2.2045765,0.5511259,-0.06135606,0.2428535,0.7959384,-5.892068,7.3971786,-0.9783736,-2.630164,0.64724374,0.37413615,0
1.2400000000000009,13.011491794061477,-3.1311213452552713,1.4023654289882903,0.47073620852389003,17.16768,-5.1319575,1.508127,1.5490402,6.4311976,-7.401658,2.1948721,0.5478963,-0.071067475,0.23426865,0.7999233,-5.8712506,7.4562,-0.96240366,-2.7083187,0.76497704,0.3788764,0
1.2500000000000009,13.011491794061477,-3.1311213452552713,1.4023654289882903,0.47073620852389003,17.16768,-5.1319575,1.508127,1.5490402,6.3725743,-7.3268013,2.1853309,0.5443855,-0.08138926,0.22564751,0.80380565,-5.854007,7.5150337,-0.94574285,-2.7742817,0.8643532,0.383384,0
1.260000000000001,13.011491794061477,-3.1311213452552713,1.4023654289882903,0.47073620852389003,17.16768,-5.1319575,1.508127,1.5490402,6.314105,-7.251357,2.1759593,0.54061234,-0.092221156,0.2169848,0.8075589,-5.840479,7.5737047,-0.92850214,-2.8299544,0.9482341,0.38767037,0
1.270000000000001,13.011491794061477,-3.1311213452552713,1.4023654289882903,0.47073620852389003,17.16768,-5.1319575,1.508127,1.5490402,6.255751,-7.1753273,2.1667626,0.53659254,-0.10347762,0.20827676,0.81116074,-5.8307896,7.632219,-0.91079694,-2.8769417,1.019036,0.39174643,0
1.280000000000001,13.65832488470812,-2.7732731743321652,1.700612271943485,0.3636705817719923,16.574772,-4.570997,1.4691973,1.3721151,6.197475,-7.098713,2.1577446,0.53233945,-0.11508557,0.19952103,0.81459284,-5.825042,7.690569,-0.8927466,-2.9165986,1.0787987,0.3956225,0
1.290000000000001,13.65832488470812,-2.7732731743321652,1.700612271943485,0.3636705817719923,16.574772,-4.570997,1.4691973,1.3721151,6.1392365,-7.0215015,2.148937,0.52786934,-0.12700659,0.1908951,0.8177912,-5.823229,7.751633,-0.8686931,-2.8942711,1.175779,0.3940546,0
1.300000000000001,13.65832488470812,-2.7732731743321652,1.700612271943485,0.3636705817719923,16.574772,-4.570997,1.4691973,1.3721151,6.080995,-6.9436803,2.1403706,0.5232023,-0.13920811,0.18254037,0.8207068,-5.8256764,7.8125377,-0.8445711,-2.8754213,1.2576339,0.39256367,0
1.310000000000001,13.65832488470812,-2.7732731743321652,1.700612271943485,0.3636705817719923,16.574772,-4.570997,1.4691973,1.3721151,6.022708,-6.865251,2.1320455,0.5183536,-0.15163973,0.1744072,0.8233451,-5.832404,7.8733106,-0.8205445,-2.8595078,1.326723,0.39114586,0
1.320000000000001,13.69290832830571,-1.6212055957936125,0.5957754651311534,-2.680485536586469,16.333702,-3.936401,0.89755875,1.2934914,5.964332,-6.7862144,2.123959,0.5133354,-0.16425796,0.166454,0.82571137,-5.8434253,7.933964,-0.7967706,-2.8460732,1.3850367,0.38979763,0
1.330000000000001,13.69290832830571,-1.6212055957936125,0.5957754651311534,-2.680485536586469,16.333702,-3.936401,0.89755875,1.2934914,5.9058175,-6.7065415,2.1161687,0.5084764,-0.17695476,0.15863226,0.827632,-5.8602233,8.0003805,-0.7615847,-2.7894824,1.3967685,0.25118193,0
1.340000000000001,13.69290832830571,-1.6212055957936125,0.5957754651311534,-2.680485536586469,16.333702,-3.936401,0.89755875,1.2934914,5.847113,-6.62621,2.1087189,0.5041113,-0.18955776,0.15091117,0.82895446,-5.881379,8.065755,-0.72875,-2.7209475,1.3858827,0.11751218,0
1.350000000000001,13.69290832830571,-1.6212055957936125,0.5957754651311534,-2.680485536586469,16.333702,-3.936401,0.89755875,1.2934914,5.788176,-6.5452304,2.1015851,0.50025886,-0.20194228,0.14328434,0.82971686,-5.906646,8.130029,-0.6984276,-2.641683,1.3552507,-0.011512876,0
1.360000000000001,13.470828819122273,-0.9200422053672013,0.013737924244274701,-3.1877698508084373,15.524399,-2.7591474,0.09056933,0.96429276,5.728967,-6.4636135,2.0947413,0.49693552,-0.21399926,0.13574843,0.829959,-5.93575,8.193143,-0.6707437,-2.5528324,1.3074168,-0.13616899,0
1.370000000000001,13.470828819122273,-0.9200422053672013,0.013737924244274701,-3.1877698508084373,15.524399,-2.7591474,0.09056933,0.96429276,5.669438,-6.38135,2.0882034,0.4941631,-0.22573256,0.12830463,0.82969016,-5.9706683,8.259341,-0.63725543,-2.4716039,1.2793918,-0.2703834,0
1.380000000000001,13.470828819122273,-0.9200422053672013,0.013737924244274701,-3.1877698508084373,15.524399,-2.7591474,0.09056933,0.96429276,5.6095414,-6.298431,2.0819862,0.4919627,-0.23713808,0.12095261,0.82892036,-6.0091224,8.324279,-0.6066418,-2.3803735,1.2330302,-0.400039,0
1.390000000000001,13.470828819122273,-0.9200422053672013,0.013737924244274701,-3.1877698508084373,15.524399,-2.7591474,0.09056933,0.96429276,5.549244,-6.2148685,2.0760605,0.4903468,-0.24811578,0.1136901,0.82769156,-6.0508113,8.387926,-0.5789778,-2.2802453,1.1707323,-0.5254006,0
1.400000000000001,13.116595111557178,-0.21589634269302707,-0.8031739878530619,-3.6181618655763015,14.94495,-1.9242532,-0.6890716,0.8294369,5.488515,-6.1306767,2.0703964,0.4893259,-0.2585788,0.106516086,0.8260458,-6.095421,8.450252,-0.5543041,-2.1722512,1.0946243,-0.646711,0
1.410000000000001,13.116595111557178,-0.21589634269302707,-0.8031739878530619,-3.6181618655763015,14.94495,-1.9242532,-0.6890716,0.8294369,5.427312,-6.04585,2.0650005,0.48891664,-0.26847693,0.099386595,0.8240165,-6.1455083,8.514944,-0.52533084,-2.0748973,1.0065804,-0.77392733,0
1.420000000000001,13.116595111557178,-0.21589634269302707,-0.8031739878530619,-3.6181618655763015,14.94495,-1.9242532,-0.6890716,0.8294369,5.365596,-5.960383,2.059879,0.4891344,-0.2777621,0.09226643,0.8216343,-6.198056,8.578208,-0.49945632,-1.9681293,0.9076205,-0.8971015,0
1.430000000000001,13.116595111557178,-0.21589634269302707,-0.8031739878530619,-3.6181618655763015,14.94495,-1.9242532,-0.6890716,0.8294369,5.3033433,-5.874291,2.055001,0.4899849,-0.28636736,0.08516712,0.8189355,-6.2527404,8.640009,-0.4766422,-1.8532025,0.7992327,-1.0164512,0
1.440000000000001,13.116595111557178,-0.21589634269302707,-0.8031739878530619,-3.6181618655763015,14.675758,-1.2128055,-1.5905937,0.6412896,5.240535,-5.787588,2.0503356,0.4914716,-0.294235,0.07809825,0.8159549,-6.3092384,8.700322,-0.4568247,-1.7312503,0.68274814,-1.1321765,0
1.450000000000001,13.116595111557178,-0.21589634269302707,-0.8031739878530619,-3.6181618655763015,14.675758,-1.2128055,-1.5905937,0.6412896,5.1771536,-5.7002897,2.045854,0.4935958,-0.30131528,0.07106755,0.8127251,-6.3672323,8.759126,-0.4399175,-1.603295,0.55935633,-1.2444619,0
1.460000000000001,13.116595111557178,-0.21589634269302707,-0.8031739878530619,-3.6181618655763015,14.675758,-1.2128055,-1.5905937,0.6412896,5.1131864,-5.6124105,2.0415277,0.4963564,-0.30756566,0.06408089,0.80927616,-6.4264135,8.816405,-0.425815,-1.4702582,0.4301207,-1.3534775,0
1.470000000000001,13.116595111557178,-0.21589634269302707,-0.8031739878530619,-3.6181618655763015,14.675758,-1.2128055,-1.5905937,0.6412896,5.0486226,-5.523967,2.0373287,0.49974996,-0.3129496,0.05714246,0.8056351,-6.486484,8.872147,-0.41439527,-1.3329692,0.2959909,-1.4593804,0
1.480000000000001,12.844483748088662,0.30411809105641524,-1.6606011041940794,-4.454540543446809,15.501402,-0.867836,-2.9246535,0.74972296,4.9834547,-5.4349732,2.033231,0.5037706,-0.3174358,0.050254866,0.80182594,-6.547159,8.926338,-0.40552348,-1.192174,0.1578145,-1.562316,0
1.490000000000001,12.844483748088662,0.30411809105641524,-1.6606011041940794,-4.454540543446809,15.501402,-0.867836,-2.9246535,0.74972296,4.9176455,-5.345417,2.0292659,0.5083776,-0.32121044,0.04325892,0.79781294,-6.6147504,8.984629,-0.38780913,-1.143821,0.05917551,-1.687692,0
1.500000000000001,12.844483748088662,0.30411809105641524,-1.6606011041940794,-4.454540543446809,15.501402,-0.867836,-2.9246535,0.74972296,4.851158,-5.2552857,2.0254672,0.5135358,-0.32442704,0.036023982,0.793556,-6.6827483,9.041333,-0.37230662,-1.080242,-0.046901114,-1.8089528,0
1.5100000000000011,12.844483748088662,0.30411809105641524,-1.6606011041940794,-4.454540543446809,15.501402,-0.867836,-2.9246535,0.74972296,4.7839894,-5.1645956,2.0218127,0.519244,-0.32701436,0.028589448,0.7890695,-6.750982,9.096399,-0.35894695,-1.0035172,-0.15954982,-1.9263268,0
1.5200000000000011,13.129620340533124,1.1412975345541743,-3.261416077805788,-5.999999441935469,15.833139,0.074581005,-3.725616,0.56074107,4.7161384,-5.0733633,2.0182815,0.5254978,-0.32890907,0.020988043,0.78436667,-6.8192744,9.149785,-0.34764642,-0.9154811,-0.27796063,-2.0400236,0
1.5300000000000011,13.129620340533124,1.1412975345541743,-3.261416077805788,-5.999999441935469,15.833139,0.074581005,-3.725616,0.56074107,4.6475253,-4.9815464,2.0149772,0.5322397,-0.33038592,0.012934642,0.7793583,-6.9032373,9.213382,-0.31348947,-0.9874016,-0.35049057,-2.19916,0
1.5400000000000011,13.129620340533124,1.1412975345541743,-3.261416077805788,-5.999999441935469,15.833139,0.074581005,-3.725616,0.56074107,4.578072,-4.8891025,2.012005,0.5394244,-0.33167034,0.0041987402,0.7739504,-6.987398,9.275008,-0.28121665,-1.0270095,-0.43287316,-2.3524506,0
1.5500000000000012,13.129620340533124,1.1412975345541743,-3.261416077805788,-5.999999441935469,15.833139,0.074581005,-3.725616,0.56074107,4.5077767,-4.7960534,2.0093462,0.54706043,-0.33263162,-0.0051197363,0.7681508,-7.0717487,9.334557,-0.2508447,-1.0381049,-0.5248163,-2.5002174,0
1.5600000000000012,12.881534218940818,2.1064931679792362,-3.5834457919083813,-5.999999558114226,15.966661,3.521687,-4.365898,-1.658686,4.436637,-4.7024193,2.0069816,0.55515,-0.3331514,-0.014936421,0.76196873,-7.156225,9.391923,-0.22239648,-1.0244353,-0.62552994,-2.6427944,0
1.5700000000000012,12.881534218940818,2.1064931679792362,-3.5834457919083813,-5.999999558114226,15.966661,3.521687,-4.365898,-1.658686,4.3646445,-4.6082177,2.004903,0.56376165,-0.33299884,-0.024983756,0.7554213,-7.2422185,9.447997,-0.19365816,-0.89413464,-0.72923785,-2.7755353,0
1.5800000000000012,12.881534218940818,2.1064931679792362,-3.5834457919083813,-5.999999558114226,15.966661,3.521687,-4.365898,-1.658686,4.291794,-4.513468,2.003101,0.57294834,-0.3319644,-0.035046034,0.7485335,-7.3278904,9.501642,-0.16700085,-0.75697887,-0.8440223,-2.9041946,0
1.5900000000000012,12.881534218940818,2.1064931679792362,-3.5834457919083813,-5.999999558114226,15.966661,3.521687,-4.365898,-1.658686,4.2180886,-4.418194,2.001556,0.5826816,-0.32997778,-0.045128252,0.74132395,-7.4130197,9.552836,-0.14230531,-0.6139238,-0.96826667,-3.0289826,0
1.6000000000000012,12.178000218944083,3.15257694896188,-3.2412617370289385,-5.999999454853411,15.57597,4.7334557,-5.263431,-1.7661818,4.1435356,-4.32242,2.0002487,0.5929287,-0.32697678,-0.055235684,0.7338063,-7.4973965,9.601544,-0.1194425,-0.465844,-1.1005379,-3.150094,0
1.6100000000000012,12.178000218944083,3.15257694896188,-3.2412617370289385,-5.999999454853411,15.57597,4.7334557,-5.263431,-1.7661818,4.068151,-4.226176,1.999151,0.60375994,-0.32291242,-0.06499844,0.72593224,-7.579341,9.646924,-0.10037269,-0.19551295,-1.141131,-3.2636547,0
1.6200000000000012,12.178000218944083,3.15257694896188,-3.2412617370289385,-5.999999454853411,15.57597,4.7334557,-5.263431,-1.7661818,3.991953,-4.1294904,1.9982357,0.6152245,-0.31773183,-0.07412393,0.71767116,-7.659971,9.689851,-0.08293516,0.060995214,-1.2037898,-3.3741808,0
1.6300000000000012,12.178000218944083,3.15257694896188,-3.2412617370289385,-5.999999454853411,15.57597,4.7334557,-5.263431,-1.7661818,3.9149566,-4.0323873,1.9974873,0.6272536,-0.3113798,-0.08272218,0.7090512,-7.739011,9.73039,-0.066962935,0.3056428,-1.2848771,-3.4818032,0
1.6400000000000012,12.178000218944083,3.15257694896188,-3.2412617370289385,-5.999999454853411,15.577213,5.3708286,-5.8797965,-1.1586986,3.8371787,-3.9348907,1.996892,0.6397773,-0.30380973,-0.09088743,0.7000894,-7.8162184,9.768555,-0.05229323,0.5400493,-1.3812842,-3.586644,0
1.6500000000000012,12.178000218944083,3.15257694896188,-3.2412617370289385,-5.999999454853411,15.577213,5.3708286,-5.8797965,-1.1586986,3.7586389,-3.8370245,1.9964374,0.65272427,-0.29498282,-0.09870033,0.6907933,-7.8913836,9.804311,-0.038773995,0.7655491,-1.4903562,-3.688815,0
1.6600000000000013,12.178000218944083,3.15257694896188,-3.2412617370289385,-5.999999454853411,15.577213,5.3708286,-5.8797965,-1.1586986,3.6793582,-3.738813,1.996113,0.66602176,-0.28486705,-0.10622987,0.6811621,-7.9643283,9.837589,-0.026269233,0.9832416,-1.6098243,-3.788422,0
1.6700000000000013,12.178000218944083,3.15257694896188,-3.2412617370289385,-5.999999454853411,15.577213,5.3708286,-5.8797965,-1.1586986,3.5993602,-3.6402814,1.9959089,0.679595,-0.27343667,-0.11353487,0.6711883,-8.034902,9.868288,-0.0146634355,1.1940315,-1.7377509,-3.8855622,0
1.6800000000000013,12.01995108953658,3.7299828578814065,-2.552806686222658,-5.999999465063793,14.400349,5.4059024,-5.664589,-0.47396326,3.5186687,-3.5414562,1.9958168,0.69336706,-0.2606717,-0.1206653,0.66085786,-8.102978,9.896279,-0.0038651605,1.3986629,-1.872481,-3.9803262,0
1.6900000000000013,12.01995108953658,3.7299828578814065,-2.552806686222658,-5.999999465063793,14.400349,5.4059024,-5.664589,-0.47396326,3.4373136,-3.442367,1.9958223,0.70735264,-0.24657567,-0.12731925,0.65011024,-8.167626,9.921114,0.004838288,1.6884539,-1.9058547,-4.0728335,0
1.7000000000000013,12.01995108953658,3.7299828578814065,-2.552806686222658,-5.999999465063793,14.400349,5.4059024,-5.664589,-0.47396326,3.3553257,-3.3430438,1.9959112,0.72154415,-0.23114479,-0.13325846,0.63889676,-8.229503,9.943064,0.012815308,1.9594561,-1.9604679,-4.163167,0
1.7100000000000013,12.01995108953658,3.7299828578814065,-2.552806686222658,-5.999999465063793,14.400349,5.4059024,-5.664589,-0.47396326,3.2727337,-3.243516,1.9960765,0.7358305,-0.21435924,-0.13860801,0.62720984,-8.288459,9.962052,0.02010704,2.214242,-2.0326471,-4.251401,0
1.7200000000000013,12.240810495927091,3.704593689452674,-1.7046537279925849,-5.999999525921415,14.246616,5.7293034,-4.969179,0.09230674,3.1895666,-3.1438131,1.9963124,0.7501008,-0.19621745,-0.14347254,0.61503166,-8.344636,9.978041,0.027198944,2.4490578,-2.1133292,-4.337091,0
1.7300000000000013,12.240810495927091,3.704593689452674,-1.7046537279925849,-5.999999525921415,14.246616,5.7293034,-4.969179,0.09230674,3.1058433,-3.043964,1.9966352,0.7642885,-0.17704129,-0.14767826,0.6022552,-8.399731,9.991324,0.037591178,2.6449275,-2.0502894,-4.41869,0
1.7400000000000013,12.240810495927091,3.704593689452674,-1.7046537279925849,-5.999999525921415,14.246616,5.7293034,-4.969179,0.09230674,3.0215797,-2.9439974,1.9970691,0.77833164,-0.15715727,-0.1510766,0.5887937,-8.452615,10.001492,0.049410537,2.8102345,-1.997005,-4.4962854,0
1.7500000000000013,12.240810495927091,3.704593689452674,-1.7046537279925849,-5.999999525921415,14.246616,5.7293034,-4.969179,0.09230674,2.9367988,-2.8439453,1.997628,0.79212993,-0.13664317,-0.15377453,0.5746415,-8.503164,10.008431,0.06257138,2.9497478,-1.9519628,-4.570073,0
1.7600000000000013,12.64121680414455,2.786661023609409,-0.9455202249044159,-5.999999668764479,13.024828,5.471859,-4.282191,0.3303107,2.8515248,-2.7438405,1.9983248,0.8055936,-0.11557103,-0.15586022,0.559795,-8.551288,10.01202,0.07695919,3.0674915,-1.9138854,-4.6402397,0
1.7700000000000014,12.64121680414455,2.786661023609409,-0.9455202249044159,-5.999999668764479,13.024828,5.471859,-4.282191,0.3303107,2.765774,-2.6437166,1.9991894,0.8186548,-0.09447436,-0.15736356,0.5441657,-8.598433,10.012154,0.096144095,3.0240753,-1.7628696,-4.7069635,0
1.7800000000000014,12.64121680414455,2.786661023609409,-0.9455202249044159,-5.999999668764479,13.024828,5.471859,-4.282191,0.3303107,2.6795647,-2.5436094,2.0002508,0.8312788,-0.07378696,-0.15830281,0.52770424,-8.643074,10.008736,0.11625564,2.9873734,-1.6354152,-4.770413,0
1.7900000000000014,12.64121680414455,2.786661023609409,-0.9455202249044159,-5.999999668764479,13.024828,5.471859,-4.282191,0.3303107,2.5929208,-2.443554,2.001517,0.84343225,-0.053437144,-0.1587311,0.510462,-8.685293,10.001817,0.13710223,2.9563463,-1.5278462,-4.830749,0
1.8000000000000014,12.443232804387854,1.4592693290002894,-0.46720164188244895,-5.999999724495582,12.769117,5.562664,-2.9993353,0.57171345,2.5058668,-2.3435848,2.0029945,0.85508096,-0.03336784,-0.15869446,0.49248314,-8.725175,9.991429,0.1585022,2.9301157,-1.4370598,-4.8881245,0
1.8100000000000014,12.443232804387854,1.4592693290002894,-0.46720164188244895,-5.999999724495582,12.769117,5.562664,-2.9993353,0.57171345,2.4184282,-2.2437358,2.0046787,0.86621267,-0.014084043,-0.1583261,0.47371995,-8.762239,9.977832,0.17840056,2.7011745,-1.2851784,-4.9426847,0
1.8200000000000014,12.443232804387854,1.4592693290002894,-0.46720164188244895,-5.999999724495582,12.769117,5.562664,-2.9993353,0.57171345,2.3306286,-2.1440387,2.0065632,0.876842,0.004010658,-0.15772408,0.45415366,-8.797328,9.961036,0.19849144,2.5078723,-1.1570781,-4.994567,0
1.8300000000000014,12.443232804387854,1.4592693290002894,-0.46720164188244895,-5.999999724495582,12.769117,5.562664,-2.9993353,0.57171345,2.2424874,-2.0445247,2.0086489,0.88696784,0.02109483,-0.15688059,0.43385714,-8.830673,9.9412365,0.21862294,2.3446603,-1.0490371,-5.043904,0
1.8400000000000014,12.443232804387854,1.4592693290002894,-0.46720164188244895,-5.999999724495582,12.292646,5.3587694,-2.5441685,0.54771256,2.1540205,-1.9452233,2.0109353,0.89658064,0.03731838,-0.15579204,0.41289204,-8.862476,9.918603,0.23867077,2.2068532,-0.9579151,-5.0908194,0
1.8500000000000014,12.443232804387854,1.4592693290002894,-0.46720164188244895,-5.999999724495582,12.292646,5.3587694,-2.5441685,0.54771256,2.0652425,-1.846162,2.0134215,0.9056657,0.052806582,-0.15445808,0.3913111,-8.892919,9.893281,0.25853133,2.0904965,-0.88106364,-5.135433,0
1.8600000000000014,12.443232804387854,1.4592693290002894,-0.46720164188244895,-5.999999724495582,12.292646,5.3587694,-2.5441685,0.54771256,1.9761662,-1.7473665,2.0161052,0.91420466,0.06766368,-0.15288076,0.36916056,-8.922163,9.865394,0.2781165,1.9922503,-0.81624883,-5.177858,0
1.8700000000000014,12.443232804387854,1.4592693290002894,-0.46720164188244895,-5.999999724495582,12.292646,5.3587694,-2.5441685,0.54771256,1.8868029,-1.6488625,2.018983,0.92217714,0.08197596,-0.15106401,0.34648156,-8.950356,9.835048,0.29734963,1.9092962,-0.7615857,-5.218201,0
1.8800000000000014,14.650674035052113,-0.21249446894896215,0.32780453619901473,-5.9999997365427085,11.895098,5.1454945,-1.511941,-0.094408624,1.7971623,-1.5506738,2.0220509,0.9295617,0.09581444,-0.14901312,0.32331154,-8.977632,9.802334,0.31616294,1.8392532,-0.71548456,-5.2565637,0
1.8900000000000015,14.650674035052113,-0.21249446894896215,0.32780453619901473,-5.9999997365427085,11.895098,5.1454945,-1.511941,-0.094408624,1.7072294,-1.4528544,2.0254078,0.936455,0.10851411,-0.14664736,0.29961947,-9.008824,9.761169,0.35516158,1.5198299,-0.5517271,-5.2930446,0
1.9000000000000015,14.650674035052113,-0.21249446894896215,0.32780453619901473,-5.9999997365427085,11.895098,5.1454945,-1.511941,-0.094408624,1.6169882,-1.3554581,2.0291522,0.94295305,0.11955499,-0.14388628,0.27539688,-9.039296,9.717741,0.39362338,1.2501397,-0.41366348,-5.327735,0
1.9100000000000015,14.650674035052113,-0.21249446894896215,0.32780453619901473,-5.9999997365427085,11.895098,5.1454945,-1.511941,-0.094408624,1.5264453,-1.2585057,2.0332785,0.9490264,0.12918536,-0.14074071,0.25070432,-9.0692215,9.672462,0.4316056,1.0224389,-0.29726407,-5.360723,0
1.9200000000000015,14.245890037895695,-3.0174577718843363,0.7297074335819648,-5.999999870665944,13.047104,4.5077453,-1.1020968,-0.749678,1.4356053,-1.1620139,2.0377827,0.9546414,0.13761349,-0.13722481,0.22559324,-9.098727,9.6256895,0.46917334,0.830189,-0.19913082,-5.3920927,0
1.9300000000000015,14.245890037895695,-3.0174577718843363,0.7297074335819648,-5.999999870665944,13.047104,4.5077453,-1.1020968,-0.749678,1.3444759,-1.0659893,2.042642,0.9599444,0.14390549,-0.13344194,0.19997945,-9.12712,9.579109,0.5026733,0.2306626,-0.052179333,-5.421923,0
1.9400000000000015,14.245890037895695,-3.0174577718843363,0.7297074335819648,-5.999999870665944,13.047104,4.5077453,-1.1020968,-0.749678,1.2530632,-0.9704332,2.0478358,0.96505433,0.14732844,-0.12944509,0.17380719,-9.155408,9.532109,0.53604686,-0.27544427,0.07154678,-5.4502897,0
1.9500000000000015,14.245890037895695,-3.0174577718843363,0.7297074335819648,-5.999999870665944,13.047104,4.5077453,-1.1020968,-0.749678,1.1613677,-0.8753461,2.0533636,0.969885,0.14831398,-0.12518919,0.14715396,-9.183732,9.4854,0.56951654,-0.702689,0.17571464,-5.477264,0
1.9600000000000015,13.608452107832573,-5.055900523063478,1.4241829433272326,-5.9999999128840775,12.438404,5.2804575,-1.529603,-0.47892797,1.0693884,-0.7807221,2.0592272,0.9743456,0.14722623,-0.12064476,0.1200856,-9.212141,9.43959,0.60328317,-1.0633606,0.26341322,-5.502915,0
1.9700000000000015,13.608452107832573,-5.055900523063478,1.4241829433272326,-5.9999999128840775,12.438404,5.2804575,-1.529603,-0.47892797,0.97713107,-0.6865393,2.0654016,0.9784957,0.14354602,-0.11561123,0.09260356,-9.239329,9.397232,0.6316156,-1.6853342,0.44668967,-5.527307,0
1.9800000000000015,13.608452107832573,-5.055900523063478,1.4241829433272326,-5.9999999128840775,12.438404,5.2804575,-1.529603,-0.47892797,0.88460207,-0.59277004,2.0718622,0.9823423,0.13688128,-0.10990668,0.06471735,-9.266444,9.357014,0.66065985,-2.2104104,0.60105205,-5.550502,0
1.9900000000000015,13.608452107832573,-5.055900523063478,1.4241829433272326,-5.9999999128840775,12.438404,5.2804575,-1.529603,-0.47892797,0.7918032,-0.49938917,2.0786178,0.98571926,0.1276869,-0.103549115,0.036493383,-9.293268,9.3196535,0.6906333,-2.653685,0.73105866,-5.572559,0
2.0000000000000013,,,,,12.846714,5.724085,-3.6711602,-1.9751939,0.6987387,-0.40636507,2.0856786,0.98847103,0.116348654,-0.096565165,0.007993405,-9.319512,9.285747,0.7216818,-3.0279024,0.84055,-5.5935335,0
2.010000000000001,,,,,12.846714,5.724085,-3.6711602,-1.9751939,0.6054254,-0.31364948,2.093008,0.99050045,0.103020705,-0.08869873,-0.020707235,-9.342969,9.2579775,0.7443663,-3.4125082,1.0465274,-5.613479,0
2.020000000000001,,,,,12.846714,5.724085,-3.6711602,-1.9751939,0.5118838,-0.22119151,2.10057,0.99169946,0.087854266,-0.07975133,-0.049540337,-9.365092,9.234284,0.7681639,-3.7372491,1.2201709,-5.632446,0
2.0300000000000007,,,,,12.846714,5.724085,-3.6711602,-1.9751939,0.4181298,-0.12894866,2.1083753,0.99192035,0.07114944,-0.06983759,-0.078455426,-9.38537,9.214994,0.7930525,-4.011443,1.3665543,-5.6504817,0
2.0400000000000005,,,,,12.846714,5.724085,-3.6711602,-1.9751939,0.32418442,-0.036875688,2.1164343,0.9910353,0.053163484,-0.059065323,-0.107399866,-9.403292,9.200336,0.8189413,-4.242959,1.4899558,-5.6676326,0
2.0500000000000003,,,,,13.002615,4.7304535,-3.0033681,-3.8683033,0.23007381,0.05507447,2.1247568,0.9889358,0.03411821,-0.047535826,-0.13631919,-9.418348,9.190447,0.84567904,-4.4384394,1.5939821,-5.683942,1
2.06,,,,,13.002615,4.7304535,-3.0033681,-3.8683033,0.13582481,0.1469476,2.1333885,0.98543024,0.017815363,-0.038087152,-0.16480283,-9.430929,9.18489,0.8803847,-3.047595,0.8355103,-5.5981,1
2.07,,,,,13.002615,4.7304535,-3.0033681,-3.8683033,0.041464403,0.23878503,2.1423593,0.98071104,0.0072706994,-0.033048946,-0.19251369,-9.440834,9.183056,0.91348064,-1.8528577,0.21639517,-5.5146637,1
2.0799999999999996,,,,,13.002615,4.7304535,-3.0033681,-3.8683033,-0.052986942,0.33061662,2.151653,0.9750945,0.0016051936,-0.031794578,-0.21949449,-9.449311,9.183537,0.94521147,-0.8288067,-0.29026288,-5.4339523,1
2.0899999999999994,,,,,14.754261,6.0269585,-4.9344883,-2.7594042,-0.14752096,0.42246008,2.1612637,0.9687365,1.5247275e-05,-0.03381512,-0.24577768,-9.457528,9.185283,0.9768657,0.03668782,-0.71643394,-5.357125,1
2.099999999999999,,,,,14.754261,6.0269585,-4.9344883,-2.7594042,-0.24214742,0.51432586,2.1712983,0.961692,0.0019441077,-0.039638568,-0.2712456,-9.467995,9.187904,1.0298109,0.92399436,-1.4176035,-5.2332706,1
2.109999999999999,,,,,14.754261,6.0269585,-4.9344883,-2.7594042,-0.33688858,0.6062181,2.1818547,0.95394605,0.006946118,-0.0496138,-0.2957663,-9.480696,9.190502,1.0812242,1.6875757,-1.994745,-5.1142325,1
2.1199999999999988,,,,,14.754261,6.0269585,-4.9344883,-2.7594042,-0.43177354,0.6981346,2.1929164,0.94543034,0.014531642,-0.0630947,-0.3193272,-9.49694,9.192724,1.1308002,2.3480303,-2.4659076,-4.999649,1
2.1299999999999986,,,,,16.08699,6.698985,-6.4417048,-1.3381293,-0.5268434,0.79007065,2.204465,0.9360501,0.024293939,-0.07952154,-0.3419018,-9.51788,9.194401,1.1787472,2.91635,-2.8526747,-4.889734,1
2.1399999999999983,,,,,16.08699,6.698985,-6.4417048,-1.3381293,-0.62217325,0.8820217,2.2166135,0.9257026,0.03542563,-0.09894755,-0.36335883,-9.54911,9.19573,1.2501402,3.318285,-3.4219348,-4.7261457,1
2.149999999999998,,,,,16.08699,6.698985,-6.4417048,-1.3381293,-0.71785027,0.9739844,2.2294507,0.91428,0.047150563,-0.12140613,-0.3835752,-9.587524,9.196794,1.316844,3.6484547,-3.9115636,-4.5676885,1
2.159999999999998,,,,,16.08699,6.698985,-6.4417048,-1.3381293,-0.8139523,1.0659587,2.2429383,0.90168375,0.059291515,-0.14637512,-0.40252408,-9.634216,9.198163,1.3801004,3.9402738,-4.311874,-4.4158516,1
2.1699999999999977,,,,,17.46971,8.1841755,-8.80379,-0.07444131,-0.9105646,1.1579505,2.2570379,0.887835,0.07176405,-0.17337349,-0.42016765,-9.6896305,9.200396,1.4390534,4.2016964,-4.634793,-4.2701406,1
2.1799999999999975,,,,,17.46971,8.1841755,-8.80379,-0.07444131,-1.0078355,1.2499746,2.2718475,0.8727014,0.08418493,-0.20209281,-0.43642184,-9.766028,9.204726,1.5213872,4.342679,-4.986647,-4.0841002,1
2.1899999999999973,,,,,17.46971,8.1841755,-8.80379,-0.07444131,-1.105917,1.342053,2.2874324,0.856266,0.096097596,-0.23229784,-0.4512336,-9.851722,9.21141,1.5941236,4.4460716,-5.299287,-3.9027703,1
2.199999999999997,,,,,17.46971,8.1841755,-8.80379,-0.07444131,-1.2049041,1.4342136,2.3037019,0.8385063,0.10742425,-0.26366445,-0.46459502,-9.947261,9.221256,1.6584742,4.542136,-5.554543,-3.7280014,1
2.209999999999997,,,,,20.090052,8.826686,-10.085378,-0.14614618,-1.3048955,1.5264915,2.3205724,0.81942666,0.11823828,-0.29586464,-0.47647035,-10.052497,9.234963,1.7142144,4.642415,-5.750974,-3.560109,1
2.2199999999999966,,,,,20.090052,8.826686,-10.085378,-0.14614618,-1.4060414,1.6189365,2.3380263,0.7990928,0.12888804,-0.32854116,-0.48672315,-10.178114,9.254825,1.774795,4.8289375,-5.8153934,-3.3949032,1
