time-since-start [s],throttle_mpc,roll_mpc,pitch_mpc,yaw_mpc,throttle_nw,roll_nw,pitch_nw,yaw_nw,position_x [m],position_y [m],position_z [m],rotation_w [quaternion],rotation_x [quaternion],rotation_y [quaternion],rotation_z [quaternion],velocity_x [m/s],velocity_y [m/s],velocity_z [m/s],omega_x [rad/s],omega_y [rad/s],omega_z [rad/s],network_used
0.0,10.837217979474389,5.999999608718663,-5.999999848434976,-0.006254992609843849,14.468428,-1.1496059,-3.8878684,-0.7269297,12.973533,-10.6136,1.5866098,0.34068125,-0.48335728,0.3229626,0.7389162,-9.882795,0.23084074,-1.6596903,0.65613496,0.34242573,0.68285346,0
0.01,10.837217979474389,5.999999608718663,-5.999999848434976,-0.006254992609843849,14.076854,-0.5779269,-3.2890139,-0.9754134,12.874444,-10.610852,1.5697037,0.36458012,-0.45055422,0.33460036,0.74305105,-9.933598,0.31908467,-1.7207754,5.9999995,-6.0,-0.0062549924,0
0.02,10.837217979474389,5.999999608718663,-5.999999848434976,-0.006254992609843849,14.076854,-0.5779269,-3.2890139,-0.9754134,12.774887,-10.607211,1.5522113,0.38782287,-0.41694027,0.3456359,0.7458486,-9.97683,0.40916336,-1.7769845,5.9999995,-6.0,-0.0062549924,0
0.03,10.837217979474389,5.999999608718663,-5.999999848434976,-0.006254992609843849,14.076854,-0.5779269,-3.2890139,-0.9754134,12.674935,-10.602664,1.5341798,0.4103676,-0.38257593,0.3560494,0.7473038,-10.012178,0.5004283,-1.8286185,5.9999995,-6.0,-0.0062549924,0
0.04,10.837217979474389,5.999999608718663,-5.999999848434976,-0.006254992609843849,14.396393,-1.5747178,-1.55482,-0.70530564,12.574672,-10.597201,1.5156535,0.43217382,-0.34752306,0.3658221,0.74741405,-10.039392,0.5922225,-1.8760115,5.9999995,-6.0,-0.0062549924,0
0.05,10.837217979474389,5.999999608718663,-5.999999848434976,-0.006254992609843849,14.396393,-1.5747178,-1.55482,-0.70530564,12.474176,-10.590819,1.4966727,0.45320222,-0.31184474,0.3749364,0.7461791,-10.058273,0.6838851,-1.9195278,5.9999995,-6.0,-0.0062549924,0
0.060000000000000005,10.837217979474389,5.999999608718663,-5.999999848434976,-0.006254992609843849,14.396393,-1.5747178,-1.55482,-0.70530564,12.373534,-10.583526,1.4772747,0.473415,-0.27560517,0.38337594,0.74360126,-10.0686865,0.77475625,-1.9595598,5.9999995,-6.0,-0.0062549924,0
0.07,10.837217979474389,5.999999608718663,-5.999999848434976,-0.006254992609843849,14.396393,-1.5747178,-1.55482,-0.70530564,12.272831,-10.575331,1.457492,0.49277574,-0.23886962,0.3911255,0.73968524,-10.070558,0.86418176,-1.9965248,5.9999995,-6.0,-0.0062549924,0
0.08,17.45987389677967,5.999990050900011,-5.999999695081761,-0.15156085308874226,15.3458,-2.8128946,-0.70207816,0.22986668,12.1721525,-10.566251,1.437353,0.5112496,-0.20170416,0.39817113,0.7344379,-10.063875,0.95151794,-2.0308623,5.9999995,-6.0,-0.0062549924,0
0.09,17.45987389677967,5.999990050900011,-5.999999695081761,-0.15156085308874226,15.3458,-2.8128946,-0.70207816,0.22986668,12.071625,-10.556049,1.4170825,0.5293367,-0.16446488,0.4043535,0.7274972,-10.039402,1.087845,-2.0227377,5.99999,-5.9999995,-0.15156086,0
0.09999999999999999,17.45987389677967,5.999990050900011,-5.999999695081761,-0.15156085308874226,15.3458,-2.8128946,-0.70207816,0.22986668,11.971411,-10.544512,1.3969076,0.54647076,-0.12692949,0.40980792,0.71924686,-10.001407,1.2188014,-2.0118678,5.99999,-5.9999995,-0.15156086,0
0.10999999999999999,17.45987389677967,5.999990050900011,-5.999999695081761,-0.15156085308874226,15.3458,-2.8128946,-0.70207816,0.22986668,11.871643,-10.531695,1.3768518,0.56262106,-0.08916559,0.41452459,0.7097017,-9.950171,1.3434328,-1.9990191,5.99999,-5.9999995,-0.15156086,0
0.11999999999999998,17.45987389677967,5.999990050900011,-5.999999695081761,-0.15156085308874226,15.3458,-2.8128946,-0.70207816,0.22986668,11.772453,-10.517669,1.3569312,0.57775843,-0.051241163,0.41849494,0.6988788,-9.886073,1.4608306,-1.9849735,5.99999,-5.9999995,-0.15156086,0
0.12999999999999998,20.50104224298185,1.815012883540051,-5.999998370740699,1.200745612707939,14.242732,-3.0691476,2.1528995,-0.12576514,11.673965,-10.502508,1.3371538,0.59185565,-0.013224484,0.4217119,0.6867978,-9.809581,1.5701381,-1.9705205,5.99999,-5.9999995,-0.15156086,0
0.13999999999999999,20.50104224298185,1.815012883540051,-5.999998370740699,1.200745612707939,14.242732,-3.0691476,2.1528995,-0.12576514,11.57637,-10.486208,1.3176228,0.60020083,0.015284311,0.41005558,0.68657106,-9.708468,1.6882765,-1.9350691,1.8150129,-5.9999986,1.2007456,0
0.15,20.50104224298185,1.815012883540051,-5.999998370740699,1.200745612707939,14.242732,-3.0691476,2.1528995,-0.12576514,11.479818,-10.468779,1.2984653,0.6079348,0.04377754,0.3979817,0.6856452,-9.600867,1.7959667,-1.8959057,1.8150129,-5.9999986,1.2007456,0
0.16,19.64122381661798,-1.0659847346828297,-2.0777920947885287,1.081964080490566,12.810664,-3.8089893,2.2347615,-0.21383482,11.384374,-10.450326,1.2797152,0.6150498,0.0722262,0.38550258,0.6840212,-9.487093,1.8928152,-1.8536767,1.8150129,-5.9999986,1.2007456,0
0.17,19.64122381661798,-1.0659847346828297,-2.0777920947885287,1.081964080490566,12.810664,-3.8089893,2.2347615,-0.21383482,11.290065,-10.430971,1.2613708,0.6156884,0.07813366,0.37504473,0.68859607,-9.374807,1.9776114,-1.8147441,-1.0659847,-2.0777922,1.0819641,0
0.18000000000000002,19.64122381661798,-1.0659847346828297,-2.0777920947885287,1.081964080490566,12.810664,-3.8089893,2.2347615,-0.21383482,11.196876,-10.410787,1.2434297,0.61622494,0.08402818,0.36452475,0.6930569,-9.263235,2.058799,-1.7730715,-1.0659847,-2.0777922,1.0819641,0
0.19000000000000003,19.64122381661798,-1.0659847346828297,-2.0777920947885287,1.081964080490566,12.810664,-3.8089893,2.2347615,-0.21383482,11.104797,-10.389809,1.2259187,0.61665946,0.08990878,0.35394442,0.697403,-9.152397,2.136312,-1.728754,-1.0659847,-2.0777922,1.0819641,0
0.20000000000000004,18.384552043780726,-1.5200790609137942,0.04392182931760938,0.9157021324557142,14.90839,-3.1589975,5.802564,-0.010523375,11.013824,-10.368073,1.2088635,0.61699194,0.09577449,0.34330547,0.70163363,-9.042313,2.2100863,-1.6818888,-1.0659847,-2.0777922,1.0819641,0
0.21000000000000005,18.384552043780726,-1.5200790609137942,0.04392182931760938,0.9157021324557142,14.90839,-3.1589975,5.802564,-0.010523375,10.923912,-10.345638,1.1922415,0.61440784,0.092499115,0.33765632,0.7070611,-8.940568,2.2769473,-1.6422343,-1.520079,0.04392183,0.9157021,0
0.22000000000000006,18.384552043780726,-1.5200790609137942,0.04392182931760938,0.9157021324557142,14.90839,-3.1589975,5.802564,-0.010523375,10.835005,-10.322535,1.1760243,0.6117752,0.08921646,0.3319806,0.7124329,-8.841092,2.3438406,-1.6009476,-1.520079,0.04392183,0.9157021,0
0.23000000000000007,18.384552043780726,-1.5200790609137942,0.04392182931760938,0.9157021324557142,14.90839,-3.1589975,5.802564,-0.010523375,10.747082,-10.298761,1.160228,0.60909444,0.08592678,0.32627872,0.7177486,-8.743905,2.4107273,-1.5580535,-1.520079,0.04392183,0.9157021,0
0.24000000000000007,18.384552043780726,-1.5200790609137942,0.04392182931760938,0.9157021324557142,14.456794,-2.7082543,4.6927967,-0.060234603,10.660118,-10.274321,1.1448686,0.60636574,0.08263032,0.32055113,0.72300774,-8.649022,2.4775677,-1.513577,-1.520079,0.04392183,0.9157021,0
0.25000000000000006,18.384552043780726,-1.5200790609137942,0.04392182931760938,0.9157021324557142,14.456794,-2.7082543,4.6927967,-0.060234603,10.574093,-10.249211,1.1299617,0.6035892,0.07932736,0.31479827,0.7282099,-8.556459,2.5443232,-1.4675436,-1.520079,0.04392183,0.9157021,0
0.26000000000000006,18.384552043780726,-1.5200790609137942,0.04392182931760938,0.9157021324557142,14.456794,-2.7082543,4.6927967,-0.060234603,10.488981,-10.223434,1.115523,0.6007651,0.076018155,0.3090206,0.7333547,-8.466232,2.6109543,-1.4199795,-1.520079,0.04392183,0.9157021,0
0.2700000000000001,18.384552043780726,-1.5200790609137942,0.04392182931760938,0.9157021324557142,14.456794,-2.7082543,4.6927967,-0.060234603,10.404759,-10.196993,1.1015674,0.5978937,0.07270295,0.3032186,0.7384417,-8.378357,2.6774213,-1.3709109,-1.520079,0.04392183,0.9157021,0
0.2800000000000001,17.300508052702785,-1.803474682867551,1.423651211671348,0.7430110761736952,14.846231,-2.6847382,3.6506014,0.20415348,10.321404,-10.169888,1.0881099,0.59497523,0.06938202,0.29739273,0.74347055,-8.292846,2.7436852,-1.3203653,-1.520079,0.04392183,0.9157021,0
0.2900000000000001,17.300508052702785,-1.803474682867551,1.423651211671348,0.7430110761736952,14.846231,-2.6847382,3.6506014,0.20415348,10.238868,-10.142137,1.0751204,0.59067863,0.059824698,0.2946444,0.7488022,-8.215028,2.8066201,-1.277352,-1.8034747,1.4236512,0.74301106,0
0.3000000000000001,17.300508052702785,-1.803474682867551,1.423651211671348,0.7430110761736952,14.846231,-2.6847382,3.6506014,0.20415348,10.157093,-10.113748,1.062566,0.586296,0.050258655,0.29185313,0.7540246,-8.14058,2.8714266,-1.2333704,-1.8034747,1.4236512,0.74301106,0
0.3100000000000001,17.300508052702785,-1.803474682867551,1.423651211671348,0.7430110761736952,14.846231,-2.6847382,3.6506014,0.20415348,10.076045,-10.084702,1.050456,0.5818278,0.040685285,0.2890193,0.75913715,-8.0695505,2.9380465,-1.1884806,-1.8034747,1.4236512,0.74301106,0
0.3200000000000001,16.549024562092143,-1.9070406078218318,2.613290830439561,0.5798301557157094,15.094936,-3.0349135,3.3314464,0.38687795,9.995691,-10.05498,1.0387993,0.57727486,0.031105984,0.28614333,0.76413906,-8.001985,3.006421,-1.1427426,-1.8034747,1.4236512,0.74301106,0
0.3300000000000001,16.549024562092143,-1.9070406078218318,2.613290830439561,0.5798301557157094,15.094936,-3.0349135,3.3314464,0.38687795,9.915979,-10.02458,1.0275719,0.5715396,0.016442996,0.28627124,0.7688441,-7.941015,3.0740962,-1.1026853,-1.9070406,2.6132908,0.57983017,0
0.34000000000000014,16.549024562092143,-1.9070406078218318,2.613290830439561,0.5798301557157094,15.094936,-3.0349135,3.3314464,0.38687795,9.836856,-9.993487,1.016746,0.5656499,0.001775566,0.28632182,0.7733416,-7.8842754,3.1450477,-1.0624694,-1.9070406,2.6132908,0.57983017,0
0.35000000000000014,16.549024562092143,-1.9070406078218318,2.613290830439561,0.5798301557157094,15.094936,-3.0349135,3.3314464,0.38687795,9.75828,-9.961669,1.0063226,0.55960745,-0.012892342,0.2862951,0.7776302,-7.831842,3.21918,-1.0222223,-1.9070406,2.6132908,0.57983017,0
0.36000000000000015,16.21939815906002,-1.7306734047985246,2.244604858978521,0.4422669344608552,15.683111,-3.133646,3.1937015,0.45217365,9.680205,-9.929092,0.99630135,0.55341387,-0.02755677,0.28619102,0.7817089,-7.7837844,3.296395,-0.982072,-1.9070406,2.6132908,0.57983017,0
0.37000000000000016,16.21939815906002,-1.7306734047985246,2.244604858978521,0.4422669344608552,15.683111,-3.133646,3.1937015,0.45217365,9.602586,-9.895738,0.9866668,0.54817814,-0.04048266,0.2856691,0.78501946,-7.7408543,3.3748295,-0.9448565,-1.7306734,2.2446048,0.44226694,0
0.38000000000000017,16.21939815906002,-1.7306734047985246,2.244604858978521,0.4422669344608552,15.683111,-3.133646,3.1937015,0.45217365,9.525375,-9.861587,0.9774034,0.5428296,-0.053400215,0.2850884,0.78816843,-7.7018404,3.4556606,-0.907866,-1.7306734,2.2446048,0.44226694,0
0.3900000000000002,16.21939815906002,-1.7306734047985246,2.244604858978521,0.4422669344608552,15.683111,-3.133646,3.1937015,0.45217365,9.448536,-9.826616,0.96850836,0.5373694,-0.066306785,0.28444904,0.7911553,-7.666783,3.5388095,-0.8711978,-1.7306734,2.2446048,0.44226694,0
0.4000000000000002,16.139908651705074,-1.3915607125556981,1.028718746688474,0.3316235802491296,15.620443,-2.3795612,2.766276,0.033026878,9.372027,-9.790804,0.95997804,0.53179866,-0.079199724,0.2837512,0.79397947,-7.6357193,3.624195,-0.8349491,-1.7306734,2.2446048,0.44226694,0
0.4100000000000002,16.139908651705074,-1.3915607125556981,1.028718746688474,0.3316235802491296,15.620443,-2.3795612,2.766276,0.033026878,9.29581,-9.754129,0.9518051,0.52845097,-0.08651013,0.28108257,0.7963973,-7.6083207,3.710779,-0.79962623,-1.3915607,1.0287187,0.33162358,0
0.4200000000000002,16.139908651705074,-1.3915607125556981,1.028718746688474,0.3316235802491296,15.620443,-2.3795612,2.766276,0.033026878,9.2198515,-9.716586,0.9439859,0.52506226,-0.09381381,0.27839208,0.7987534,-7.583629,3.7980473,-0.76422095,-1.3915607,1.0287187,0.33162358,0
0.4300000000000002,16.139908651705074,-1.3915607125556981,1.028718746688474,0.3316235802491296,15.620443,-2.3795612,2.766276,0.033026878,9.144128,-9.678166,0.9365209,0.52163285,-0.101110205,0.27568,0.8010474,-7.561653,3.885966,-0.72876793,-1.3915607,1.0287187,0.33162358,0
0.4400000000000002,16.139908651705074,-1.3915607125556981,1.028718746688474,0.3316235802491296,16.228868,-2.0703382,2.65299,0.35261625,9.068609,-9.638864,0.9294105,0.51816297,-0.10839876,0.27294654,0.8032793,-7.542401,3.9745016,-0.69330204,-1.3915607,1.0287187,0.33162358,0
0.45000000000000023,16.139908651705074,-1.3915607125556981,1.028718746688474,0.3316235802491296,16.228868,-2.0703382,2.65299,0.35261625,8.99327,-9.598674,0.92265475,0.5146527,-0.1156789,0.27019188,0.8054488,-7.52588,4.0636196,-0.657858,-1.3915607,1.0287187,0.33162358,0
0.46000000000000024,16.139908651705074,-1.3915607125556981,1.028718746688474,0.3316235802491296,16.228868,-2.0703382,2.65299,0.35261625,8.918082,-9.55759,0.9162531,0.5111027,-0.12295006,0.26741624,0.8075558,-7.512097,4.1532865,-0.6224707,-1.3915607,1.0287187,0.33162358,0
0.47000000000000025,16.139908651705074,-1.3915607125556981,1.028718746688474,0.3316235802491296,16.228868,-2.0703382,2.65299,0.35261625,8.843018,-9.515607,0.9102049,0.5075129,-0.13021168,0.26461986,0.8096001,-7.501057,4.243468,-0.5871747,-1.3915607,1.0287187,0.33162358,0
0.48000000000000026,16.11194771213032,-1.0923979245754156,0.2949210195167615,0.30220055439738003,16.028307,-1.5938588,2.333276,0.41483754,8.76805,-9.472719,0.9045091,0.50388384,-0.1374632,0.2618029,0.8115816,-7.492767,4.3341293,-0.552005,-1.3915607,1.0287187,0.33162358,0
0.49000000000000027,16.11194771213032,-1.0923979245754156,0.2949210195167615,0.30220055439738003,16.028307,-1.5938588,2.333276,0.41483754,8.693152,-9.428925,0.8991636,0.50151205,-0.1410142,0.25831634,0.8135563,-7.486876,4.4248137,-0.5170604,-1.0923979,0.294921,0.30220056,0
0.5000000000000002,16.11194771213032,-1.0923979245754156,0.2949210195167615,0.30220055439738003,16.028307,-1.5938588,2.333276,0.41483754,8.618305,-9.384224,0.8941688,0.4991231,-0.14456038,0.25482088,0.8155031,-7.4827666,4.515214,-0.48185533,-1.0923979,0.294921,0.30220056,0
0.5100000000000002,16.11194771213032,-1.0923979245754156,0.2949210195167615,0.30220055439738003,16.028307,-1.5938588,2.333276,0.41483754,8.54349,-9.338621,0.8895273,0.49671698,-0.14810158,0.25131673,0.817422,-7.480438,4.605313,-0.4464039,-1.0923979,0.294921,0.30220056,0
0.5200000000000002,16.026734412565155,-0.6695018501085557,-0.8034149380226879,0.2691240525774553,16.047039,-1.3763608,1.9249257,0.52078503,8.468691,-9.292118,0.88524157,0.49429384,-0.15163772,0.24780391,0.81931275,-7.4798903,4.695095,-0.41072017,-1.0923979,0.294921,0.30220056,0
0.5300000000000002,16.026734412565155,-0.6695018501085557,-0.8034149380226879,0.2691240525774553,16.047039,-1.3763608,1.9249257,0.52078503,8.393888,-9.244724,0.88131094,0.49367198,-0.14966549,0.2432761,0.8214045,-7.480582,4.783686,-0.37526643,-0.66950184,-0.80341494,0.26912406,0
0.5400000000000003,16.026734412565155,-0.6695018501085557,-0.8034149380226879,0.2691240525774553,16.047039,-1.3763608,1.9249257,0.52078503,8.3190775,-9.196451,0.87773937,0.49303576,-0.14768888,0.2387412,0.82347244,-7.481621,4.870905,-0.33891478,-0.66950184,-0.80341494,0.26912406,0
0.5500000000000003,16.026734412565155,-0.6695018501085557,-0.8034149380226879,0.2691240525774553,16.047039,-1.3763608,1.9249257,0.52078503,8.244254,-9.147311,0.87453574,0.49238512,-0.14570798,0.23419935,0.82551634,-7.4830017,4.956741,-0.30167937,-0.66950184,-0.80341494,0.26912406,0
0.5600000000000003,15.97152420058043,-0.34114287550849554,-1.29485963103333,0.27283088270308453,16.418243,-1.2079386,1.0538453,0.67691773,8.169415,-9.09732,0.8717088,0.49172017,-0.14372282,0.22965065,0.82753617,-7.48472,5.041184,-0.26357457,-0.66950184,-0.80341494,0.26912406,0
0.5700000000000003,15.97152420058043,-0.34114287550849554,-1.29485963103333,0.27283088270308453,16.418243,-1.2079386,1.0538453,0.67691773,8.094559,-9.046494,0.86926514,0.4918215,-0.13888724,0.2252463,0.8295098,-7.4864516,5.1237993,-0.22499847,-0.34114286,-1.2948596,0.27283087,0
0.5800000000000003,15.97152420058043,-0.34114287550849554,-1.29485963103333,0.27283088270308453,16.418243,-1.2079386,1.0538453,0.67691773,8.019688,-8.99485,0.8672126,0.49189982,-0.13404518,0.22083142,0.83144474,-7.487674,5.2046323,-0.18535534,-0.34114286,-1.2948596,0.27283087,0
0.5900000000000003,15.97152420058043,-0.34114287550849554,-1.29485963103333,0.27283088270308453,16.418243,-1.2079386,1.0538453,0.67691773,7.9448066,-8.942407,0.86556166,0.49195522,-0.12919685,0.21640624,0.8333409,-7.488383,5.2836695,-0.14467053,-0.34114286,-1.2948596,0.27283087,0
0.6000000000000003,15.768283230872067,-0.10837520857838011,-1.2868973144559632,0.25604631452568305,16.449278,-0.6937152,0.5728517,0.52953523,7.869921,-8.889183,0.8643227,0.49198765,-0.12434251,0.21197096,0.83519804,-7.488571,5.360898,-0.1029696,-0.34114286,-1.2948596,0.27283087,0
0.6100000000000003,15.768283230872067,-0.10837520857838011,-1.2868973144559632,0.25604631452568305,16.449278,-0.6937152,0.5728517,0.52953523,7.795037,-8.8352,0.86349666,0.49220428,-0.11896101,0.20850731,0.83672464,-7.48812,5.4354086,-0.0621036,-0.10837521,-1.2868973,0.25604632,0
0.6200000000000003,15.768283230872067,-0.10837520857838011,-1.2868973144559632,0.25604631452568305,16.449278,-0.6937152,0.5728517,0.52953523,7.720161,-8.78048,0.8630836,0.49239957,-0.11357435,0.20503464,0.838215,-7.48683,5.5082765,-0.020374486,-0.10837521,-1.2868973,0.25604632,0
0.6300000000000003,15.768283230872067,-0.10837520857838011,-1.2868973144559632,0.25604631452568305,16.449278,-0.6937152,0.5728517,0.52953523,7.645303,-8.72504,0.86309206,0.49257353,-0.108182766,0.20155309,0.8396691,-7.484697,5.5794916,0.022193387,-0.10837521,-1.2868973,0.25604632,0
0.6400000000000003,15.768283230872067,-0.10837520857838011,-1.2868973144559632,0.25604631452568305,15.848827,-0.44043097,0.31132758,0.51519674,7.57047,-8.668897,0.8635303,0.49272615,-0.1027865,0.19806279,0.8410868,-7.481716,5.6490436,0.06557553,-0.10837521,-1.2868973,0.25604632,0
0.6500000000000004,15.768283230872067,-0.10837520857838011,-1.2868973144559632,0.25604631452568305,15.848827,-0.44043097,0.31132758,0.51519674,7.4956713,-8.612065,0.8644063,0.49285743,-0.09738578,0.19456391,0.8424681,-7.477884,5.7169228,0.10974731,-0.10837521,-1.2868973,0.25604632,0
0.6600000000000004,15.768283230872067,-0.10837520857838011,-1.2868973144559632,0.25604631452568305,15.848827,-0.44043097,0.31132758,0.51519674,7.420915,-8.5545635,0.86572784,0.49296734,-0.09198084,0.19105661,0.8438129,-7.473195,5.78312,0.15468395,-0.10837521,-1.2868973,0.25604632,0
0.6700000000000004,15.768283230872067,-0.10837520857838011,-1.2868973144559632,0.25604631452568305,15.848827,-0.44043097,0.31132758,0.51519674,7.34621,-8.496409,0.8675025,0.49305588,-0.08657191,0.18754102,0.8451211,-7.4676456,5.847626,0.20036055,-0.10837521,-1.2868973,0.25604632,0
0.6800000000000004,15.577151831907656,0.01804019703683762,-1.0350186393566774,0.26442143402189766,14.560387,-0.17630479,0.7279935,0.5791096,7.271565,-8.437618,0.86973757,0.49312305,-0.081159234,0.18401732,0.8463927,-7.461233,5.9104323,0.24675205,-0.10837521,-1.2868973,0.25604632,0
0.6900000000000004,15.577151831907656,0.01804019703683762,-1.0350186393566774,0.26442143402189766,14.560387,-0.17630479,0.7279935,0.5791096,7.1969876,-8.37821,0.87243104,0.49295664,-0.076490164,0.18164638,0.847436,-7.454051,5.9709415,0.29201046,0.018040197,-1.0350187,0.26442143,0
0.7000000000000004,15.577151831907656,0.01804019703683762,-1.0350186393566774,0.26442143402189766,14.560387,-0.17630479,0.7279935,0.5791096,7.1224866,-8.318204,0.87557954,0.49277616,-0.07181892,0.17927027,0.8484551,-7.4460354,6.0301614,0.33776218,0.018040197,-1.0350187,0.26442143,0
0.7100000000000004,15.577151831907656,0.01804019703683762,-1.0350186393566774,0.26442143402189766,14.560387,-0.17630479,0.7279935,0.5791096,7.04807,-8.257611,0.8791879,0.4925816,-0.067145616,0.17688905,0.84945,-7.4371834,6.0880876,0.3839907,0.018040197,-1.0350187,0.26442143,0
0.7200000000000004,15.196965090146504,0.24219591633733548,-0.9503651113518439,0.23631716375980155,13.890071,0.20016852,0.57518184,0.5043635,6.973746,-8.196445,0.8832609,0.492373,-0.062470395,0.17450276,0.8504206,-7.427492,6.1447163,0.43067956,0.018040197,-1.0350187,0.26442143,0
0.7300000000000004,15.196965090146504,0.24219591633733548,-0.9503651113518439,0.23631716375980155,13.890071,0.20016852,0.57518184,0.5043635,6.899522,-8.1347275,0.8877852,0.49226674,-0.057626124,0.17326453,0.8510771,-7.417131,6.19879,0.4742243,0.24219592,-0.9503651,0.23631716,0
0.7400000000000004,15.196965090146504,0.24219591633733548,-0.9503651113518439,0.23631716375980155,13.890071,0.20016852,0.57518184,0.5043635,6.825407,-8.072474,0.89274645,0.49214798,-0.05278039,0.1720219,0.8517119,-7.4057198,6.2518516,0.5180712,0.24219592,-0.9503651,0.23631716,0
0.7500000000000004,15.196965090146504,0.24219591633733548,-0.9503651113518439,0.23631716375980155,13.890071,0.20016852,0.57518184,0.5043635,6.751412,-8.009695,0.8981476,0.49201667,-0.047933314,0.17077488,0.8523251,-7.393257,6.303896,0.5622056,0.24219592,-0.9503651,0.23631716,0
0.7600000000000005,14.818923919706029,0.37677370501230667,-0.6148662838605768,0.25210686625391715,14.0447645,0.5686827,0.85320973,0.34249228,6.6775465,-7.9464006,0.9039915,0.49187285,-0.043085016,0.16952352,0.85291654,-7.3797417,6.354922,0.6066128,0.24219592,-0.9503651,0.23631716,0
0.7700000000000005,14.818923919706029,0.37677370501230667,-0.6148662838605768,0.25210686625391715,14.0447645,0.5686827,0.85320973,0.34249228,6.6038194,-7.882606,0.9102629,0.49139643,-0.03932225,0.1696712,0.8533434,-7.365566,6.4038706,0.64766395,0.37677372,-0.61486626,0.25210688,0
0.7800000000000005,14.818923919706029,0.37677370501230667,-0.6148662838605768,0.25210686625391715,14.0447645,0.5686827,0.85320973,0.34249228,6.530238,-7.8183246,0.9169451,0.49091285,-0.03555891,0.16981639,0.8537579,-7.350446,6.452324,0.6887892,0.37677372,-0.61486626,0.25210688,0
0.7900000000000005,14.818923919706029,0.37677370501230667,-0.6148662838605768,0.25210686625391715,14.0447645,0.5686827,0.85320973,0.34249228,6.456814,-7.7535615,0.92403895,0.49042213,-0.031795047,0.16995911,0.85415995,-7.334382,6.5002813,0.7299803,0.37677372,-0.61486626,0.25210688,0
0.8000000000000005,14.250560739547945,0.4976646872550561,-0.8282651917000049,0.22210860380577616,13.442457,0.8641697,-0.7405521,0.15936297,6.383555,-7.688321,0.93154496,0.48992425,-0.028030721,0.17009936,0.8545494,-7.317373,6.547743,0.771229,0.37677372,-0.61486626,0.25210688,1
0.8100000000000005,14.250560739547945,0.4976646872550561,-0.8282651917000049,0.22210860380577616,13.442457,0.8641697,-0.7405521,0.15936297,6.3104625,-7.62263,0.93939877,0.48998624,-0.02261367,0.17199719,0.8542945,-7.3008456,6.5904064,0.7995271,0.8641697,-0.7405521,0.15936297,1
0.8200000000000005,14.250560739547945,0.4976646872550561,-0.8282651917000049,0.22210860380577616,13.442457,0.8641697,-0.7405521,0.15936297,6.237543,-7.556514,0.9475351,0.49003202,-0.017195873,0.17388934,0.85401136,-7.28282,6.6327796,0.8277179,0.8641697,-0.7405521,0.15936297,1
0.8300000000000005,14.250560739547945,0.4976646872550561,-0.8282651917000049,0.22210860380577616,13.442457,0.8641697,-0.7405521,0.15936297,6.164811,-7.489975,0.95595264,0.49006158,-0.011777507,0.17577575,0.85370004,-7.2632985,6.6748595,0.85578436,0.8641697,-0.7405521,0.15936297,1
0.8400000000000005,14.250560739547945,0.4976646872550561,-0.8282651917000049,0.22210860380577616,13.195348,0.9766292,-0.8321373,0.1806485,6.092282,-7.423017,0.9646502,0.490075,-0.006358754,0.17765635,0.85336053,-7.242283,6.716643,0.8837092,0.8641697,-0.7405521,0.15936297,0
0.8500000000000005,14.250560739547945,0.4976646872550561,-0.8282651917000049,0.22210860380577616,13.195348,0.9766292,-0.8321373,0.1806485,6.019977,-7.355631,0.9736643,0.48987284,-0.0014078915,0.1777551,0.85347855,-7.218562,6.7604923,0.9191093,0.4976647,-0.8282652,0.2221086,0
0.8600000000000005,14.250560739547945,0.4976646872550561,-0.8282651917000049,0.22210860380577616,13.195348,0.9766292,-0.8321373,0.1806485,5.947915,-7.2878094,0.98303235,0.48965865,0.0035430053,0.17784949,0.8535756,-7.193634,6.8036795,0.9545052,0.4976647,-0.8282652,0.2221086,0
0.8700000000000006,14.250560739547945,0.4976646872550561,-0.8282651917000049,0.22210860380577616,13.195348,0.9766292,-0.8321373,0.1806485,5.876108,-7.219559,0.9927542,0.48943242,0.008493815,0.1779395,0.85365164,-7.1674995,6.846203,0.9898835,0.4976647,-0.8282652,0.2221086,0
0.8800000000000006,14.035174638116048,0.3259643316517654,-0.4103667263524992,0.27691987528360773,12.2361355,0.6451698,-0.47629547,0.2935421,5.8045692,-7.1508875,1.0028298,0.48919418,0.013444416,0.17802514,0.8537067,-7.1401596,6.888061,1.0252305,0.4976647,-0.8282652,0.2221086,0
0.8900000000000006,14.035174638116048,0.3259643316517654,-0.4103667263524992,0.27691987528360773,12.2361355,0.6451698,-0.47629547,0.2935421,5.733307,-7.0818033,1.0132486,0.48835334,0.01623981,0.17839338,0.85406256,-7.112237,6.9287734,1.0585129,0.32596433,-0.4103667,0.27691987,0
0.9000000000000006,14.035174638116048,0.3259643316517654,-0.4103667263524992,0.27691987528360773,12.2361355,0.6451698,-0.47629547,0.2935421,5.662327,-7.012314,1.0239998,0.4875082,0.019035062,0.17876007,0.8544109,-7.083634,6.9692125,1.0917336,0.32596433,-0.4103667,0.27691987,0
0.9100000000000006,14.035174638116048,0.3259643316517654,-0.4103667263524992,0.27691987528360773,12.2361355,0.6451698,-0.47629547,0.2935421,5.5916367,-6.9424205,1.0350829,0.48665878,0.021830147,0.17912517,0.85475177,-7.0543513,7.0093784,1.1248883,0.32596433,-0.4103667,0.27691987,0
0.9200000000000006,13.163959097243094,0.37066312084495046,-0.14661225813400983,0.27432051670282936,12.057439,0.63341135,-0.26597714,0.39245504,5.521242,-6.872127,1.0464972,0.48580506,0.02462504,0.1794887,0.8550851,-7.0243897,7.049272,1.1579727,0.32596433,-0.4103667,0.27691987,0
0.9300000000000006,13.163959097243094,0.37066312084495046,-0.14661225813400983,0.27432051670282936,12.057439,0.63341135,-0.26597714,0.39245504,5.4511414,-6.8014474,1.0582013,0.48471674,0.026398335,0.18068302,0.8553982,-6.995701,7.086554,1.1828196,0.3706631,-0.14661226,0.2743205,0
0.9400000000000006,13.163959097243094,0.37066312084495046,-0.14661225813400983,0.27432051670282936,12.057439,0.63341135,-0.26597714,0.39245504,5.3813295,-6.730396,1.0701531,0.48362562,0.028171474,0.18187627,0.8557063,-6.9665093,7.123901,1.2075286,0.3706631,-0.14661226,0.2743205,0
0.9500000000000006,13.163959097243094,0.37066312084495046,-0.14661225813400983,0.27432051670282936,12.057439,0.63341135,-0.26597714,0.39245504,5.311813,-6.6589704,1.0823513,0.48253164,0.029944448,0.18306845,0.85600936,-6.9368167,7.1613135,1.2320971,0.3706631,-0.14661226,0.2743205,0
0.9600000000000006,12.462757593755425,0.3590279710132558,0.5178798121973892,0.37163289221962764,13.5786705,0.6985829,0.17919898,0.4184124,5.242595,-6.5871696,1.0947944,0.4814348,0.03171725,0.18425956,0.85630745,-6.9066234,7.1987925,1.2565233,0.3706631,-0.14661226,0.2743205,0
0.9700000000000006,12.462757593755425,0.3590279710132558,0.5178798121973892,0.37163289221962764,13.5786705,0.6985829,0.17919898,0.4184124,5.173673,-6.5150037,1.1074485,0.47930637,0.030706346,0.18698321,0.8569476,-6.8777356,7.2345953,1.2742491,0.35902798,0.5178798,0.3716329,0
0.9800000000000006,12.462757593755425,0.3590279710132558,0.5178798121973892,0.37163289221962764,13.5786705,0.6985829,0.17919898,0.4184124,5.1050406,-6.4424753,1.1202786,0.4771715,0.02969503,0.18970434,0.8575763,-6.8488326,7.271146,1.2917372,0.35902798,0.5178798,0.3716329,0
0.9900000000000007,12.462757593755425,0.3590279710132558,0.5178798121973892,0.37163289221962764,13.5786705,0.6985829,0.17919898,0.4184124,5.0366964,-6.3695774,1.1332823,0.47503027,0.02868332,0.19242294,0.8581936,-6.8199186,7.308444,1.3089836,0.35902798,0.5178798,0.3716329,0
1.0000000000000007,11.429834258068478,0.3865153986971207,-0.6134078465753375,0.38439745826535626,13.479192,0.8167151,-0.5864588,0.30736512,4.968642,-6.296303,1.1464574,0.4728827,0.027671224,0.19513898,0.8587994,-6.790997,7.3464885,1.3259842,0.35902798,0.5178798,0.3716329,0
1.0100000000000007,11.429834258068478,0.3865153986971207,-0.6134078465753375,0.38439745826535626,13.479192,0.8167151,-0.5864588,0.30736512,4.9008656,-6.222662,1.1597538,0.47177312,0.03159389,0.1952935,0.85923904,-6.764192,7.3816695,1.3332782,0.3865154,-0.61340785,0.38439745,0
1.0200000000000007,11.429834258068478,0.3865153986971207,-0.6134078465753375,0.38439745826535626,13.479192,0.8167151,-0.5864588,0.30736512,4.8333607,-6.1486707,1.1731229,0.47065562,0.035516024,0.19544473,0.85966426,-6.736647,7.4164844,1.3405026,0.3865154,-0.61340785,0.38439745,0
1.0300000000000007,11.429834258068478,0.3865153986971207,-0.6134078465753375,0.38439745826535626,13.479192,0.8167151,-0.5864588,0.30736512,4.766135,-6.074333,1.1865637,0.4695302,0.039437562,0.19559267,0.86007494,-6.708362,7.450935,1.3476509,0.3865154,-0.61340785,0.38439745,0
1.0400000000000007,11.429834258068478,0.3865153986971207,-0.6134078465753375,0.38439745826535626,13.346181,0.7351295,-0.9178023,0.2927422,4.699197,-5.999653,1.2000756,0.46839687,0.04335843,0.19573733,0.8604712,-6.679337,7.485021,1.3547163,0.3865154,-0.61340785,0.38439745,0
1.0500000000000007,11.429834258068478,0.3865153986971207,-0.6134078465753375,0.38439745826535626,13.346181,0.7351295,-0.9178023,0.2927422,4.632551,-5.9246335,1.2136579,0.46725568,0.047278572,0.19587868,0.86085296,-6.6495724,7.518744,1.361692,0.3865154,-0.61340785,0.38439745,0
1.0600000000000007,11.429834258068478,0.3865153986971207,-0.6134078465753375,0.38439745826535626,13.346181,0.7351295,-0.9178023,0.2927422,4.566208,-5.849279,1.2273092,0.46610662,0.051197916,0.19601673,0.86122024,-6.619069,7.552105,1.3685712,0.3865154,-0.61340785,0.38439745,0
1.0700000000000007,11.429834258068478,0.3865153986971207,-0.6134078465753375,0.38439745826535626,13.346181,0.7351295,-0.9178023,0.2927422,4.5001726,-5.773593,1.2410289,0.4649497,0.0551164,0.1961515,0.861573,-6.587827,7.5851045,1.3753473,0.3865154,-0.61340785,0.38439745,0
1.0800000000000007,10.610335307394292,0.26677254888868146,-3.0940702636301363,0.4698274241069514,13.543246,0.35258105,-1.436293,0.5786833,4.4344535,-5.6975784,1.2548159,0.46378496,0.059033956,0.19628294,0.86191124,-6.555847,7.617744,1.3820136,0.3865154,-0.61340785,0.38439745,0
1.0900000000000007,10.610335307394292,0.26677254888868146,-3.0940702636301363,0.4698274241069514,13.543246,0.35258105,-1.436293,0.5786833,4.369048,-5.621253,1.2686317,0.4646608,0.07343988,0.19009507,0.8617194,-6.5249586,7.646872,1.3811479,0.26677254,-3.0940702,0.4698274,0
1.1000000000000008,10.610335307394292,0.26677254888868146,-3.0940702636301363,0.4698274241069514,13.543246,0.35258105,-1.436293,0.5786833,4.3039618,-5.5446496,1.2824391,0.46542206,0.08782769,0.18386032,0.861315,-6.492019,7.6734223,1.380347,0.26677254,-3.0940702,0.4698274,0
1.1100000000000008,10.610335307394292,0.26677254888868146,-3.0940702636301363,0.4698274241069514,13.543246,0.35258105,-1.436293,0.5786833,4.2392154,-5.467794,1.2962385,0.46606854,0.10219383,0.17758022,0.8606982,-6.4570494,7.6973777,1.379511,0.26677254,-3.0940702,0.4698274,0
1.1200000000000008,9.470650867239675,0.15345519096449656,-5.327428037094289,0.5057089843536435,13.632187,0.035968926,-3.140759,1.0168188,4.174828,-5.3907113,1.3100289,0.46660003,0.11653478,0.17125633,0.8598691,-6.4200716,7.7187243,1.3785402,0.26677254,-3.0940702,0.4698274,0
1.1300000000000008,9.470650867239675,0.15345519096449656,-5.327428037094289,0.5057089843536435,13.632187,0.035968926,-3.140759,1.0168188,4.110801,-5.313441,1.3237563,0.46873078,0.1401857,0.15913263,0.8575056,-6.384907,7.734748,1.3668923,0.1534552,-5.327428,0.505709,0
1.1400000000000008,9.470650867239675,0.15345519096449656,-5.327428037094289,0.5057089843536435,13.632187,0.035968926,-3.140759,1.0168188,4.0471396,-5.2360306,1.3373652,0.47052568,0.1637362,0.14689492,0.8545277,-6.3469906,7.746568,1.3547574,0.1534552,-5.327428,0.505709,0
1.1500000000000008,9.470650867239675,0.15345519096449656,-5.327428037094289,0.5057089843536435,13.632187,0.035968926,-3.140759,1.0168188,3.9838705,-5.1585236,1.350849,0.47198346,0.18716934,0.13455194,0.85093755,-6.3064127,7.754166,1.3418809,0.1534552,-5.327428,0.505709,0
1.1600000000000008,8.688692538613523,-0.02075900532156009,-5.999996665173533,0.6525959782761113,11.85621,-0.80873334,-2.0349717,0.6976654,3.92102,-5.0809617,1.3641994,0.47310305,0.2104684,0.12211256,0.8467377,-6.26327,7.7575336,1.3280108,0.1534552,-5.327428,0.505709,0
1.1700000000000008,8.688692538613523,-0.02075900532156009,-5.999996665173533,0.6525959782761113,11.85621,-0.80873334,-2.0349717,0.6976654,3.8585951,-5.0033884,1.3773705,0.4738098,0.23612012,0.10709151,0.84159523,-6.221374,7.75653,1.306009,-0.020759005,-5.9999967,0.652596,0
1.1800000000000008,8.688692538613523,-0.02075900532156009,-5.999996665173533,0.6525959782761113,11.85621,-0.80873334,-2.0349717,0.6976654,3.7966006,-4.925847,1.3903143,0.47408515,0.26155686,0.09197294,0.83568645,-6.1771846,7.751093,1.2825078,-0.020759005,-5.9999967,0.652596,0
1.1900000000000008,8.688692538613523,-0.02075900532156009,-5.999996665173533,0.6525959782761113,11.85621,-0.80873334,-2.0349717,0.6976654,3.7350588,-4.848382,1.4030145,0.47392878,0.2867554,0.076770626,0.82901675,-6.130836,7.7412596,1.2572247,-0.020759005,-5.9999967,0.652596,0
1.2000000000000008,8.252786222320617,-0.15982530756483065,-5.999993576008833,0.7239128848433984,12.031359,-0.44694433,-3.0962873,1.70938,3.6739905,-4.7710366,1.4154518,0.47334087,0.31169286,0.061498407,0.8215921,-6.0824695,7.727085,1.2298843,-0.020759005,-5.9999967,0.652596,0
1.2100000000000009,8.252786222320617,-0.15982530756483065,-5.999993576008833,0.7239128848433984,12.031359,-0.44694433,-3.0962873,1.70938,3.6134026,-4.69385,1.427587,0.47224498,0.33603883,0.045487788,0.8136296,-6.034785,7.7095394,1.1968017,-0.15982531,-5.999994,0.7239129,0
1.2200000000000009,8.252786222320617,-0.15982530756483065,-5.999993576008833,0.7239128848433984,12.031359,-0.44694433,-3.0962873,1.70938,3.5533,-4.6168594,1.4393795,0.4707176,0.36007774,0.029435609,0.8049237,-5.985554,7.6879544,1.161307,-0.15982531,-5.999994,0.7239129,0
1.2300000000000009,8.252786222320617,-0.15982530756483065,-5.999993576008833,0.7239128848433984,12.031359,-0.44694433,-3.0962873,1.70938,3.4936965,-4.5401044,1.450804,0.4687602,0.3837877,0.013356532,0.79548234,-5.9349294,7.662427,1.1231602,-0.15982531,-5.999994,0.7239129,0
1.2400000000000009,8.252786222320617,-0.15982530756483065,-5.999993576008833,0.7239128848433984,11.52649,-0.58067584,-3.3683224,1.8021948,3.4346054,-4.463624,1.4618328,0.4663745,0.40714693,-0.0027347477,0.7853142,-5.8830657,7.633068,1.0821311,-0.15982531,-5.999994,0.7239129,0
1.2500000000000009,8.252786222320617,-0.15982530756483065,-5.999993576008833,0.7239128848433984,11.52649,-0.58067584,-3.3683224,1.8021948,3.3760386,-4.3874564,1.4724358,0.46356264,0.4301342,-0.018823529,0.77442855,-5.830122,7.6000032,1.0380001,-0.15982531,-5.999994,0.7239129,0
1.260000000000001,8.252786222320617,-0.15982530756483065,-5.999993576008833,0.7239128848433984,11.52649,-0.58067584,-3.3683224,1.8021948,3.318006,-4.3116364,1.4825811,0.46032727,0.45272848,-0.03489511,0.7628353,-5.7762637,7.5633717,0.99055874,-0.15982531,-5.999994,0.7239129,0
1.270000000000001,8.252786222320617,-0.15982530756483065,-5.999993576008833,0.7239128848433984,11.52649,-0.58067584,-3.3683224,1.8021948,3.260516,-4.2362003,1.4922347,0.45667127,0.47490913,-0.05093481,0.7505451,-5.721658,7.5233235,0.9396108,-0.15982531,-5.999994,0.7239129,0
1.280000000000001,8.727730384870895,-0.20263091359577287,-5.99999532854598,0.9782581674160875,10.516389,-0.6852733,-2.8453133,1.2398487,3.2035747,-4.161181,1.5013607,0.45259804,0.49665588,-0.06692797,0.73756915,-5.6664753,7.480024,0.8849727,-0.15982531,-5.999994,0.7239129,0
1.290000000000001,8.727730384870895,-0.20263091359577287,-5.99999532854598,0.9782581674160875,10.516389,-0.6852733,-2.8453133,1.2398487,3.1472037,-4.086623,1.5099326,0.44727722,0.51776415,-0.08364893,0.7244764,-5.6076975,7.430973,0.82875794,-0.2026309,-5.999995,0.9782582,0
1.300000000000001,8.727730384870895,-0.20263091359577287,-5.99999532854598,0.9782581674160875,10.516389,-0.6852733,-2.8453133,1.2398487,3.0914216,-4.012572,1.5179213,0.4415427,0.53839344,-0.100292526,0.71071357,-5.5486937,7.378853,0.76830465,-0.2026309,-5.999995,0.9782582,0
1.310000000000001,8.727730384870895,-0.20263091359577287,-5.99999532854598,0.9782581674160875,10.516389,-0.6852733,-2.8453133,1.2398487,3.03623,-3.939056,1.5252837,0.43539983,0.5585249,-0.11684336,0.6962934,-5.4896393,7.3238797,0.70345837,-0.2026309,-5.999995,0.9782582,0
1.320000000000001,8.479034086045647,-0.4573653138723626,-1.9357772374758289,1.0764876108324997,10.934441,-1.0543791,-2.075761,0.90386015,2.9816284,-3.8661032,1.531975,0.42885426,0.57813966,-0.13328612,0.68122923,-5.4307094,7.266282,0.63408095,-0.2026309,-5.999995,0.9782582,0
1.330000000000001,8.479034086045647,-0.4573653138723626,-1.9357772374758289,1.0764876108324997,10.934441,-1.0543791,-2.075761,0.90386015,2.9276066,-3.7937286,1.5379493,0.42519227,0.58299804,-0.1420979,0.67759347,-5.373745,7.208491,0.5605655,-0.4573653,-1.9357772,1.0764877,0
1.340000000000001,8.479034086045647,-0.4573653138723626,-1.9357772374758289,1.0764876108324997,10.934441,-1.0543791,-2.075761,0.90386015,2.8741527,-3.7219365,1.5431815,0.42147592,0.58778185,-0.15089151,0.67387104,-5.317135,7.1497903,0.48567486,-0.4573653,-1.9357772,1.0764877,0
1.350000000000001,8.479034086045647,-0.4573653138723626,-1.9357772374758289,1.0764876108324997,10.934441,-1.0543791,-2.075761,0.90386015,2.8212628,-3.6507356,1.5476581,0.41770566,0.5924905,-0.15966582,0.67006254,-5.260888,7.0902123,0.4093908,-0.4573653,-1.9357772,1.0764877,0
1.360000000000001,8.246309029780695,-0.6401631036027831,2.8151702601104285,1.1841922390476725,10.749129,-0.576012,0.09209895,-0.031799015,2.7689335,-3.580135,1.5513645,0.413882,0.5971234,-0.1684197,0.6661683,-5.2050147,7.0297885,0.33169574,-0.4573653,-1.9357772,1.0764877,0
1.370000000000001,8.246309029780695,-0.6401631036027831,2.8151702601104285,1.1841922390476725,10.749129,-0.576012,0.09209895,-0.031799015,2.7171535,-3.510133,1.5542884,0.41416916,0.58535236,-0.1682413,0.6764032,-5.151014,6.970714,0.25344098,-0.6401631,2.8151703,1.1841922,0
1.380000000000001,8.246309029780695,-0.6401631036027831,2.8151702601104285,1.1841922390476725,10.749129,-0.576012,0.09209895,-0.031799015,2.665912,-3.4407191,1.5564412,0.41435555,0.5734389,-0.16802195,0.6864736,-5.097338,6.9121623,0.17748569,-0.6401631,2.8151703,1.1841922,0
1.390000000000001,8.246309029780695,-0.6401631036027831,2.8151702601104285,1.1841922390476725,10.749129,-0.576012,0.09209895,-0.031799015,2.6152055,-3.3718877,1.557846,0.41444105,0.5613858,-0.16776168,0.69637686,-5.0440545,6.8541636,0.103812575,-0.6401631,2.8151703,1.1841922,0
1.400000000000001,7.752097525616719,-0.8207240808772495,5.134485527224659,1.2021038493722254,12.268591,-1.5409224,1.4809474,-0.29678756,2.5650296,-3.3036335,1.5585253,0.41442567,0.549196,-0.16746059,0.70611054,-4.991227,6.796747,0.03240208,-0.6401631,2.8151703,1.1841922,0
1.410000000000001,7.752097525616719,-0.8207240808772495,5.134485527224659,1.2021038493722254,12.268591,-1.5409224,1.4809474,-0.29678756,2.5153635,-3.2359326,1.558495,0.41658658,0.5281682,-0.16296075,0.72176015,-4.942145,6.743594,-0.03787864,-0.82072407,5.1344857,1.2021039,0
1.420000000000001,7.752097525616719,-0.8207240808772495,5.134485527224659,1.2021038493722254,12.268591,-1.5409224,1.4809474,-0.29678756,2.4661841,-3.1687572,1.5577807,0.4184509,0.50676435,-0.1583449,0.7368959,-4.8939114,6.691755,-0.10444507,-0.82072407,5.1344857,1.2021039,0
1.430000000000001,7.752097525616719,-0.8207240808772495,5.134485527224659,1.2021038493722254,12.268591,-1.5409224,1.4809474,-0.29678756,2.417482,-3.102093,1.5564188,0.42001724,0.48499972,-0.15361628,0.75150704,-4.846693,6.641336,-0.1673797,-0.82072407,5.1344857,1.2021039,0
1.440000000000001,7.752097525616719,-0.8207240808772495,5.134485527224659,1.2021038493722254,12.594926,-1.666536,1.3220378,-0.11693603,2.3692462,-3.0359254,1.5544453,0.42128456,0.46288976,-0.1487783,0.76558304,-4.800654,6.5924416,-0.22677542,-0.82072407,5.1344857,1.2021039,0
1.450000000000001,7.752097525616719,-0.8207240808772495,5.134485527224659,1.2021038493722254,12.594926,-1.666536,1.3220378,-0.11693603,2.3214643,-2.9702387,1.551895,0.4222519,0.4404502,-0.1438344,0.779114,-4.7559543,6.545172,-0.28273508,-0.82072407,5.1344857,1.2021039,0
1.460000000000001,7.752097525616719,-0.8207240808772495,5.134485527224659,1.2021038493722254,12.594926,-1.666536,1.3220378,-0.11693603,2.274122,-2.905016,1.5488019,0.42291862,0.41769704,-0.13878809,0.79209024,-4.7127514,6.499622,-0.33537146,-0.82072407,5.1344857,1.2021039,0
1.470000000000001,7.752097525616719,-0.8207240808772495,5.134485527224659,1.2021038493722254,12.594926,-1.666536,1.3220378,-0.11693603,2.2272038,-2.84024,1.5451987,0.42328423,0.39464647,-0.13364296,0.8045025,-4.671197,6.455882,-0.38480672,-0.82072407,5.1344857,1.2021039,0
1.480000000000001,7.2855365866547155,-1.0394644631264744,5.773107441010971,1.0666511817642195,10.993566,-1.9199014,1.6692576,0.22908777,2.1806922,-2.775892,1.5411164,0.4233485,0.37131494,-0.12840265,0.81634194,-4.6314383,6.4140368,-0.4311721,-0.82072407,5.1344857,1.2021039,0
1.490000000000001,7.2855365866547155,-1.0394644631264744,5.773107441010971,1.0666511817642195,10.993566,-1.9199014,1.6692576,0.22908777,2.1345568,-2.71194,1.5365694,0.4244427,0.34470466,-0.122349404,0.8282862,-4.5960083,6.3766356,-0.47777086,-1.0394645,5.7731075,1.0666512,0
1.500000000000001,7.2855365866547155,-1.0394644631264744,5.773107441010971,1.0666511817642195,10.993566,-1.9199014,1.6692576,0.22908777,2.0887642,-2.6483517,1.531571,0.42515972,0.31778806,-0.11618745,0.8394943,-4.562847,6.341363,-0.5214407,-1.0394645,5.7731075,1.0666512,0
1.5100000000000011,7.2855365866547155,-1.0394644631264744,5.773107441010971,1.0666511817642195,10.993566,-1.9199014,1.6692576,0.22908777,2.0432913,-2.585105,1.52615,0.42549896,0.29058903,-0.10992225,0.8499564,-4.5320992,6.308308,-0.56237036,-1.0394645,5.7731075,1.0666512,0
1.5200000000000011,7.160324192982234,-1.158593008260501,5.999982967474898,0.8697429584344946,9.068909,-2.3132122,2.1379156,0.7291263,1.9981133,-2.5221775,1.5203325,0.4254601,0.26313186,-0.103559375,0.85966325,-4.5039034,6.277552,-0.60075843,-1.0394645,5.7731075,1.0666512,0
1.5300000000000011,7.160324192982234,-1.158593008260501,5.999982967474898,0.8697429584344946,9.068909,-2.3132122,2.1379156,0.7291263,1.9532017,-2.4595432,1.5141376,0.42615,0.23430626,-0.09687163,0.86839664,-4.4788814,6.249678,-0.6378463,-1.158593,5.999983,0.86974293,0
1.5400000000000011,7.160324192982234,-1.158593008260501,5.999982967474898,0.8697429584344946,9.068909,-2.3132122,2.1379156,0.7291263,1.9085258,-2.3971756,1.5075829,0.42643404,0.2052575,-0.09009163,0.876303,-4.4567604,6.2242665,-0.6727764,-1.158593,5.999983,0.86974293,0
1.5500000000000012,7.160324192982234,-1.158593008260501,5.999982967474898,0.8697429584344946,9.068909,-2.3132122,2.1379156,0.7291263,1.8640561,-2.3350494,1.5006887,0.42631197,0.17601326,-0.083225824,0.88337475,-4.437649,6.201384,-0.70578694,-1.158593,5.999983,0.86974293,0
1.5600000000000012,7.5969982199509065,-1.1544226263624902,5.999989495200033,0.5747826823370342,9.579068,-1.0161815,0.94262064,0.64725167,1.8197622,-2.2731392,1.4934729,0.42578387,0.1466014,-0.07628076,0.88960516,-4.421642,6.1810875,-0.7371234,-1.158593,5.999983,0.86974293,0
1.5700000000000012,7.5969982199509065,-1.1544226263624902,5.999989495200033,0.5747826823370342,9.579068,-1.0161815,0.94262064,0.64725167,1.7756164,-2.2114246,1.4859719,0.42616132,0.11717197,-0.069028705,0.894367,-4.408041,6.162349,-0.7628794,-1.1544226,5.9999895,0.57478267,0
1.5800000000000012,7.5969982199509065,-1.1544226263624902,5.999989495200033,0.5747826823370342,9.579068,-1.0161815,0.94262064,0.64725167,1.7315894,-2.1498828,1.4782196,0.42613754,0.08763225,-0.061711665,0.8982868,-4.3978915,6.1464553,-0.7873985,-1.1544226,5.9999895,0.57478267,0
1.5900000000000012,7.5969982199509065,-1.1544226263624902,5.999989495200033,0.5747826823370342,9.579068,-1.0161815,0.94262064,0.64725167,1.6876465,-2.0884855,1.4702271,0.42571253,0.058010012,-0.05433652,0.90136087,-4.3912487,6.1334443,-0.81095743,-1.1544226,5.9999895,0.57478267,0
1.6000000000000012,8.67369797701304,-1.0103008522855745,5.999955464447999,0.3479539951024439,8.899709,-1.3396133,0.5728883,1.0638762,1.6437522,-2.0272038,1.4620028,0.4248867,0.028333165,-0.046910226,0.90358627,-4.3881545,6.123346,-0.83383644,-1.1544226,5.9999895,0.57478267,0
1.6100000000000012,8.67369797701304,-1.0103008522855745,5.999955464447999,0.3479539951024439,8.899709,-1.3396133,0.5728883,1.0638762,1.5998712,-1.9660137,1.4536053,0.42466784,-0.0010107667,-0.038756967,0.90451884,-4.3886695,6.115191,-0.84559774,-1.0103009,5.9999557,0.347954,0
1.6200000000000012,8.67369797701304,-1.0103008522855745,5.999955464447999,0.3479539951024439,8.899709,-1.3396133,0.5728883,1.0638762,1.5559651,-1.904888,1.4450911,0.42405468,-0.03035376,-0.03056772,0.9046116,-4.393183,6.110475,-0.85721934,-1.0103009,5.9999557,0.347954,0
1.6300000000000012,8.67369797701304,-1.0103008522855745,5.999955464447999,0.3479539951024439,8.899709,-1.3396133,0.5728883,1.0638762,1.5119939,-1.8437924,1.4364603,0.4230478,-0.05966857,-0.022350095,0.90386444,-4.4016905,6.1092014,-0.8690226,-1.0103009,5.9999557,0.347954,0
1.6400000000000012,8.67369797701304,-1.0103008522855745,5.999955464447999,0.3479539951024439,9.158188,-1.5324624,1.0531058,0.9471628,1.4679177,-1.7826922,1.4277091,0.42164817,-0.088927984,-0.01411172,0.9022781,-4.414172,6.1113605,-0.8813283,-1.0103009,5.9999557,0.347954,0
1.6500000000000012,8.67369797701304,-1.0103008522855745,5.999955464447999,0.3479539951024439,9.158188,-1.5324624,1.0531058,0.9471628,1.423697,-1.7215533,1.4188309,0.41985705,-0.11810484,-0.00586024,0.89985406,-4.430595,6.1169314,-0.89445525,-1.0103009,5.9999557,0.347954,0
1.6600000000000013,8.67369797701304,-1.0103008522855745,5.999955464447999,0.3479539951024439,9.158188,-1.5324624,1.0531058,0.9471628,1.3792925,-1.6603419,1.409816,0.41767612,-0.14717203,0.0023966797,0.8965945,-4.450908,6.1258783,-0.9087194,-1.0103009,5.9999557,0.347954,0
1.6700000000000013,8.67369797701304,-1.0103008522855745,5.999955464447999,0.3479539951024439,9.158188,-1.5324624,1.0531058,0.9471628,1.3346657,-1.5990243,1.4006516,0.4151074,-0.17610258,0.010651375,0.89250255,-4.4750495,6.138155,-0.92443234,-1.0103009,5.9999557,0.347954,0
1.6800000000000013,9.842855682107327,-0.7803914591548601,3.2017933788911477,0.2145960710270068,10.042264,-0.36807093,1.092286,0.4510097,1.2897786,-1.5375675,1.3913214,0.41215324,-0.20486963,0.018896181,0.8875819,-4.5029407,6.1537013,-0.94190025,-1.0103009,5.9999557,0.347954,0
1.6900000000000013,9.842855682107327,-0.7803914591548601,3.2017933788911477,0.2145960710270068,10.042264,-0.36807093,1.092286,0.4510097,1.2445753,-1.4759289,1.381861,0.41004288,-0.22063817,0.022248115,0.8846972,-4.5380945,6.174288,-0.9504023,-0.78039145,3.2017934,0.21459608,0
1.7000000000000013,9.842855682107327,-0.7803914591548601,3.2017933788911477,0.2145960710270068,10.042264,-0.36807093,1.092286,0.4510097,1.1990086,-1.4140757,1.3723086,0.40782073,-0.23634657,0.025593983,0.8815713,-4.5756016,6.196624,-0.96028876,-0.78039145,3.2017934,0.21459608,0
1.7100000000000013,9.842855682107327,-0.7803914591548601,3.2017933788911477,0.2145960710270068,10.042264,-0.36807093,1.092286,0.4510097,1.1530553,-1.3519906,1.36265,0.4054874,-0.25199053,0.028932873,0.87820506,-4.6154265,6.22068,-0.9716556,-0.78039145,3.2017934,0.21459608,0
1.7200000000000013,11.329944987171663,-0.44961105892019676,-0.02665857243668443,0.12082990731092924,10.190112,-0.032042716,0.36369827,0.4478156,1.1066923,-1.2896563,1.3528701,0.40304345,-0.26756576,0.032263875,0.8745994,-4.6575294,6.246425,-0.9845973,-0.78039145,3.2017934,0.21459608,0
1.7300000000000013,11.329944987171663,-0.44961105892019676,-0.02665857243668443,0.12082990731092924,10.190112,-0.032042716,0.36369827,0.4478156,1.0598661,-1.2270383,1.3430178,0.40191677,-0.26833504,0.030405568,0.8749488,-4.707742,6.2771196,-0.9858813,-0.44961107,-0.026658572,0.12082991,0
1.7400000000000013,11.329944987171663,-0.44961105892019676,-0.02665857243668443,0.12082990731092924,10.190112,-0.032042716,0.36369827,0.4478156,1.0125362,-1.1641151,1.3331523,0.4007879,-0.2691028,0.028547095,0.87529343,-4.758305,6.3074493,-0.987233,-0.44961107,-0.026658572,0.12082991,0
1.7500000000000013,11.329944987171663,-0.44961105892019676,-0.02665857243668443,0.12082990731092924,10.190112,-0.032042716,0.36369827,0.4478156,0.9646988,-1.1008905,1.323273,0.39965683,-0.26986915,0.02668847,0.8756333,-4.8092175,6.337414,-0.9886539,-0.44961107,-0.026658572,0.12082991,0
1.7600000000000013,12.418137247776617,-0.17034753914763504,-1.7119163927493013,0.09452981630062174,10.687887,0.20466354,0.0053071883,0.47530252,0.9163506,-1.037368,1.313379,0.39852363,-0.27063406,0.024829697,0.8759684,-4.8604774,6.367012,-0.9901458,-0.44961107,-0.026658572,0.12082991,0
1.7700000000000014,12.418137247776617,-0.17034753914763504,-1.7119163927493013,0.09452981630062174,10.687887,0.20466354,0.0053071883,0.47530252,0.86746484,-0.9735388,1.3035173,0.39807683,-0.26345387,0.020799449,0.8784619,-4.9165254,6.3985996,-0.98203164,-0.17034754,-1.7119164,0.094529815,0
1.7800000000000014,12.418137247776617,-0.17034753914763504,-1.7119163927493013,0.09452981630062174,10.687887,0.20466354,0.0053071883,0.47530252,0.81802356,-0.90940166,1.2937417,0.39760047,-0.25625414,0.016767656,0.8808902,-4.971569,6.4285803,-0.97293097,-0.17034754,-1.7119164,0.094529815,0
1.7900000000000014,12.418137247776617,-0.17034753914763504,-1.7119163927493013,0.09452981630062174,10.687887,0.20466354,0.0053071883,0.47530252,0.76803696,-0.8449728,1.284062,0.39709467,-0.24903539,0.01273462,0.8832531,-5.025591,6.456947,-0.9628752,-0.17034754,-1.7119164,0.094529815,0
1.8000000000000014,13.35339744175457,0.0031398570832995836,-1.2211019141775246,0.0979974246595191,10.513436,-0.1673294,-0.40462995,0.46861857,0.71751535,-0.7802683,1.2744875,0.39655936,-0.24179815,0.008700639,0.88555044,-5.0785723,6.4836926,-0.95189583,-0.17034754,-1.7119164,0.094529815,0
1.8100000000000014,13.35339744175457,0.0031398570832995836,-1.2211019141775246,0.0979974246595191,10.513436,-0.1673294,-0.40462995,0.46861857,0.66644925,-0.7152943,1.2650683,0.39617494,-0.23637642,0.006411674,0.88720423,-5.134487,6.5109324,-0.9318321,0.003139857,-1.2211019,0.09799743,0
1.8200000000000014,13.35339744175457,0.0031398570832995836,-1.2211019141775246,0.0979974246595191,10.513436,-0.1673294,-0.40462995,0.46861857,0.6148287,-0.6500536,1.2558533,0.39577565,-0.23094583,0.004122468,0.8888249,-5.1894636,6.5370345,-0.91107327,0.003139857,-1.2211019,0.09799743,0
1.8300000000000014,13.35339744175457,0.0031398570832995836,-1.2211019141775246,0.0979974246595191,10.513436,-0.1673294,-0.40462995,0.46861857,0.56266314,-0.5845576,1.2468492,0.3953615,-0.22550656,0.0018331078,0.89041215,-5.243492,6.5619955,-0.88963675,0.003139857,-1.2211019,0.09799743,0
1.8400000000000014,13.35339744175457,0.0031398570832995836,-1.2211019141775246,0.0979974246595191,10.847044,-0.07653043,-0.65172595,0.49496275,0.5099621,-0.51881766,1.2380627,0.39493254,-0.22005884,-0.0004563217,0.89196604,-5.296564,6.5858126,-0.8675401,0.003139857,-1.2211019,0.09799743,0
1.8500000000000014,13.35339744175457,0.0031398570832995836,-1.2211019141775246,0.0979974246595191,10.847044,-0.07653043,-0.65172595,0.49496275,0.45673516,-0.45284528,1.2295005,0.39448878,-0.21460287,-0.002745734,0.8934863,-5.34867,6.6084843,-0.844801,0.003139857,-1.2211019,0.09799743,0
1.8600000000000014,13.35339744175457,0.0031398570832995836,-1.2211019141775246,0.0979974246595191,10.847044,-0.07653043,-0.65172595,0.49496275,0.40299204,-0.38665193,1.2211689,0.39403024,-0.20913884,-0.0050350437,0.89497316,-5.3998013,6.6300073,-0.82143724,0.003139857,-1.2211019,0.09799743,0
1.8700000000000014,13.35339744175457,0.0031398570832995836,-1.2211019141775246,0.0979974246595191,10.847044,-0.07653043,-0.65172595,0.49496275,0.3487425,-0.32024908,1.2130737,0.39355692,-0.20366697,-0.0073241647,0.89642644,-5.4499493,6.6503806,-0.7974666,0.003139857,-1.2211019,0.09799743,0
1.8800000000000014,13.856464289283696,0.08238997211887489,-0.9731565090893568,0.09446324040150532,12.290347,-0.2055417,-0.64037085,0.25192255,0.29399648,-0.25364825,1.2052214,0.39306882,-0.19818747,-0.009613012,0.89784604,-5.499105,6.669602,-0.7729069,0.003139857,-1.2211019,0.09799743,0
1.8900000000000015,13.856464289283696,0.08238997211887489,-0.9731565090893568,0.09446324040150532,12.290347,-0.2055417,-0.64037085,0.25192255,0.23875464,-0.18685721,1.1976407,0.3926749,-0.19365901,-0.011062003,0.8989892,-5.5491242,6.6884694,-0.7431708,0.08238997,-0.9731565,0.094463244,0
1.9000000000000015,13.856464289283696,0.08238997211887489,-0.9731565090893568,0.09446324040150532,12.290347,-0.2055417,-0.64037085,0.25192255,0.18301713,-0.11988189,1.1903597,0.39227152,-0.18912588,-0.012510727,0.9001107,-5.5982327,6.706458,-0.7129557,0.08238997,-0.9731565,0.094463244,0
1.9100000000000015,13.856464289283696,0.08238997211887489,-0.9731565090893568,0.09446324040150532,12.290347,-0.2055417,-0.64037085,0.25192255,0.12679312,-0.052731074,1.1833831,0.3918587,-0.18458821,-0.013959151,0.90121055,-5.6464252,6.723567,-0.68227375,0.08238997,-0.9731565,0.094463244,0
1.9200000000000015,14.417540169417167,0.1661961943939001,-0.21471652455901222,0.09889736820006631,12.731976,-0.32265863,-0.5701094,0.13920635,0.07009179,0.014586428,1.1767159,0.39143646,-0.18004607,-0.015407238,0.9022887,-5.693696,6.739796,-0.65113705,0.08238997,-0.9731565,0.094463244,0
1.9300000000000015,14.417540169417167,0.1661961943939001,-0.21471652455901222,0.09889736820006631,12.731976,-0.32265863,-0.5701094,0.13920635,0.012912317,0.0820659,1.170388,0.39112297,-0.17875953,-0.014988646,0.9026873,-5.7421427,6.7560897,-0.6144261,0.1661962,-0.21471652,0.09889737,0
1.9400000000000015,14.417540169417167,0.1661961943939001,-0.21471652455901222,0.09889736820006631,12.731976,-0.32265863,-0.5701094,0.13920635,-0.04474981,0.14970805,1.1644279,0.39080864,-0.17747264,-0.014570024,0.90308404,-5.7902265,6.7723284,-0.5775787,0.1661962,-0.21471652,0.09889737,0
1.9500000000000015,14.417540169417167,0.1661961943939001,-0.21471652455901222,0.09889736820006631,12.731976,-0.32265863,-0.5701094,0.13920635,-0.10289097,0.21751228,1.158837,0.3904935,-0.17618537,-0.014151372,0.90347904,-5.837947,6.788513,-0.54059595,0.1661962,-0.21471652,0.09889737,0
1.9600000000000015,14.566099517567265,0.20518478162019188,-0.2431892311912738,0.10060451410269274,12.913656,0.10773423,-1.1035115,0.08464223,-0.1615075,0.28547812,1.1536164,0.39017755,-0.17489773,-0.01373269,0.9038722,-5.8853035,6.8046446,-0.5034788,0.1661962,-0.21471652,0.09889737,0
1.9700000000000015,14.566099517567265,0.20518478162019188,-0.2431892311912738,0.10060451410269274,12.913656,0.10773423,-1.1035115,0.08464223,-0.22059813,0.35360584,1.1487747,0.38988507,-0.17340505,-0.013191825,0.90429395,-5.9327555,6.8208923,-0.46482557,0.20518479,-0.24318923,0.10060451,0
1.9800000000000015,14.566099517567265,0.20518478162019188,-0.2431892311912738,0.10060451410269274,12.913656,0.10773423,-1.1035115,0.08464223,-0.2801611,0.4218958,1.1443204,0.38959152,-0.1719119,-0.012650922,0.90471315,-5.9797726,6.837096,-0.42601717,0.20518479,-0.24318923,0.10060451,0
1.9900000000000015,14.566099517567265,0.20518478162019188,-0.2431892311912738,0.10060451410269274,12.913656,0.10773423,-1.1035115,0.08464223,-0.3401921,0.49034762,1.140255,0.38929686,-0.17041826,-0.012109985,0.9051299,-6.026355,6.853257,-0.38705504,0.20518479,-0.24318923,0.10060451,0
2.0000000000000013,,,,,13.165364,0.2152467,-0.47916892,0.11134237,-0.40068674,0.5589608,1.1365798,0.38900113,-0.16892415,-0.011569013,0.9055441,-6.0725017,6.869375,-0.34794056,0.20518479,-0.24318923,0.10060451,0
2.010000000000001,,,,,13.165364,0.2152467,-0.47916892,0.11134237,-0.4616424,0.62773573,1.1333011,0.38866085,-0.1682699,-0.010641347,0.90582335,-6.118592,6.8856354,-0.30775937,0.20805977,-0.05654117,0.11317962,0
2.020000000000001,,,,,13.165364,0.2152467,-0.47916892,0.11134237,-0.5230577,0.69667405,1.1304246,0.38832,-0.16761541,-0.009713666,0.9061013,-6.164415,6.9020495,-0.2675077,0.20805977,-0.05654117,0.11317962,0
2.0300000000000007,,,,,13.165364,0.2152467,-0.47916892,0.11134237,-0.5849299,0.7657773,1.1279511,0.38797858,-0.16696066,-0.00878597,0.90637785,-6.209971,6.918618,-0.22718629,0.20805977,-0.05654117,0.11317962,0
2.0400000000000005,,,,,13.165364,0.2152467,-0.47916892,0.11134237,-0.6472563,0.83504695,1.1258812,0.38763657,-0.16630563,-0.007858261,0.90665305,-6.25526,6.9353414,-0.18679589,0.20805977,-0.05654117,0.11317962,0
2.0500000000000003,,,,,13.356043,0.12791803,-0.4275448,0.1533069,-0.7100342,0.90448457,1.1242156,0.387294,-0.16565037,-0.00693054,0.90692693,-6.300282,6.952219,-0.1463372,0.20805977,-0.05654117,0.11317962,1
2.06,,,,,13.356043,0.12791803,-0.4275448,0.1533069,-0.7732407,0.9740837,1.122893,0.38668886,-0.16346875,-0.0070514097,0.90757984,-6.3409467,6.9675713,-0.11814746,0.12791803,-0.4275448,0.1533069,1
2.07,,,,,13.356043,0.12791803,-0.4275448,0.1533069,-0.8368514,1.043835,1.1218532,0.38608155,-0.16128622,-0.00717224,0.9082277,-6.3811216,6.9826403,-0.08976731,0.12791803,-0.4275448,0.1533069,1
2.0799999999999996,,,,,13.356043,0.12791803,-0.4275448,0.1533069,-0.90086144,1.1137357,1.1210982,0.3854721,-0.1591028,-0.0072930306,0.90887046,-6.4208064,6.9974284,-0.06119921,0.12791803,-0.4275448,0.1533069,1
2.0899999999999994,,,,,13.811643,-0.0980483,-0.24748397,0.047791425,-0.96526587,1.1837827,1.1206298,0.3848605,-0.1569185,-0.007413781,0.90950817,-6.4599996,7.0119348,-0.032445654,0.12791803,-0.4275448,0.1533069,1
2.099999999999999,,,,,13.811643,-0.0980483,-0.24748397,0.047791425,-1.0300667,1.2539757,1.1204715,0.38455668,-0.15598336,-0.00829839,0.90978986,-6.5001636,7.026629,0.0007827282,-0.0980483,-0.24748397,0.047791425,1
2.109999999999999,,,,,13.811643,-0.0980483,-0.24748397,0.047791425,-1.0952685,1.3243141,1.1206458,0.3842522,-0.15504794,-0.009182984,0.9100699,-6.540198,7.0409875,0.034087762,-0.0980483,-0.24748397,0.047791425,1
2.1199999999999988,,,,,13.811643,-0.0980483,-0.24748397,0.047791425,-1.1608701,1.3947943,1.1211534,0.383947,-0.15411223,-0.010067561,0.91034824,-6.5801015,7.0550103,0.06746857,-0.0980483,-0.24748397,0.047791425,1
2.1299999999999986,,,,,13.727293,-0.13569984,-0.14047457,0.095956504,-1.2268701,1.4654132,1.1219953,0.38364112,-0.15317623,-0.01095212,0.9106249,-6.6198745,7.0686975,0.100924246,-0.0980483,-0.24748397,0.047791425,1
2.1399999999999983,,,,,13.727293,-0.13569984,-0.14047457,0.095956504,-1.293266,1.5361669,1.1231681,0.38309234,-0.1528021,-0.011765939,0.9109086,-6.6593246,7.0819926,0.1336325,-0.13569984,-0.14047457,0.095956504,1
2.149999999999998,,,,,13.727293,-0.13569984,-0.14047457,0.095956504,-1.3600565,1.6070522,1.124668,0.38254312,-0.15242778,-0.012579746,0.9111912,-6.6987767,7.095021,0.16636693,-0.13569984,-0.14047457,0.095956504,1
2.159999999999998,,,,,13.727293,-0.13569984,-0.14047457,0.095956504,-1.4272417,1.6780664,1.1264955,0.3819935,-0.15205328,-0.013393537,0.9114727,-6.73823,7.107782,0.19912715,-0.13569984,-0.14047457,0.095956504,1
2.1699999999999977,,,,,13.012738,0.47252253,0.5409354,0.02803487,-1.4948212,1.7492069,1.1286508,0.3814434,-0.1516786,-0.014207312,0.9117532,-6.7776856,7.120276,0.2319127,-0.13569984,-0.14047457,0.095956504,1
2.1799999999999975,,,,,13.012738,0.47252253,0.5409354,0.02803487,-1.5627851,1.8204693,1.1310998,0.38170993,-0.1532444,-0.011000165,0.9114241,-6.815103,7.1323104,0.25786182,0.47252253,0.5409354,0.02803487,1
2.1899999999999973,,,,,13.012738,0.47252253,0.5409354,0.02803487,-1.6311234,1.8918563,1.1338078,0.38197154,-0.15480822,-0.007792875,0.9110832,-6.8525605,7.1452727,0.28370532,0.47252253,0.5409354,0.02803487,1
