time-since-start [s],throttle_mpc,roll_mpc,pitch_mpc,yaw_mpc,throttle_nw,roll_nw,pitch_nw,yaw_nw,position_x [m],position_y [m],position_z [m],rotation_w [quaternion],rotation_x [quaternion],rotation_y [quaternion],rotation_z [quaternion],velocity_x [m/s],velocity_y [m/s],velocity_z [m/s],omega_x [rad/s],omega_y [rad/s],omega_z [rad/s],network_used
0.0,10.837217979474392,5.999999608718663,-5.999999848434976,-0.006254992609842887,14.518173,-1.1252897,-3.9451249,-0.68855876,12.973533,-10.6136,1.5866098,0.34068125,-0.48335728,0.3229626,0.7389162,-9.882795,0.23084074,-1.6596903,0.65613496,0.34242573,0.68285346,0
0.01,10.837217979474392,5.999999608718663,-5.999999848434976,-0.006254992609842887,14.244174,-0.6570256,-3.1177127,-0.85826916,12.874444,-10.610852,1.5697037,0.36458012,-0.45055422,0.33460036,0.74305105,-9.933598,0.31908467,-1.7207754,5.9999995,-6.0,-0.0062549924,0
0.02,10.837217979474392,5.999999608718663,-5.999999848434976,-0.006254992609842887,14.244174,-0.6570256,-3.1177127,-0.85826916,12.774887,-10.607211,1.5522113,0.38782287,-0.41694027,0.3456359,0.7458486,-9.97683,0.40916336,-1.7769845,5.9999995,-6.0,-0.0062549924,0
0.03,10.837217979474392,5.999999608718663,-5.999999848434976,-0.006254992609842887,14.244174,-0.6570256,-3.1177127,-0.85826916,12.674935,-10.602664,1.5341798,0.4103676,-0.38257593,0.3560494,0.7473038,-10.012178,0.5004283,-1.8286185,5.9999995,-6.0,-0.0062549924,0
0.04,10.837217979474392,5.999999608718663,-5.999999848434976,-0.006254992609842887,14.489604,-1.6427672,-1.4875741,-0.67454046,12.574672,-10.597201,1.5156535,0.43217382,-0.34752306,0.3658221,0.74741405,-10.039392,0.5922225,-1.8760115,5.9999995,-6.0,-0.0062549924,0
0.05,10.837217979474392,5.999999608718663,-5.999999848434976,-0.006254992609842887,14.489604,-1.6427672,-1.4875741,-0.67454046,12.474176,-10.590819,1.4966727,0.45320222,-0.31184474,0.3749364,0.7461791,-10.058273,0.6838851,-1.9195278,5.9999995,-6.0,-0.0062549924,0
0.060000000000000005,10.837217979474392,5.999999608718663,-5.999999848434976,-0.006254992609842887,14.489604,-1.6427672,-1.4875741,-0.67454046,12.373534,-10.583526,1.4772747,0.473415,-0.27560517,0.38337594,0.74360126,-10.0686865,0.77475625,-1.9595598,5.9999995,-6.0,-0.0062549924,0
0.07,10.837217979474392,5.999999608718663,-5.999999848434976,-0.006254992609842887,14.489604,-1.6427672,-1.4875741,-0.67454046,12.272831,-10.575331,1.457492,0.49277574,-0.23886962,0.3911255,0.73968524,-10.070558,0.86418176,-1.9965248,5.9999995,-6.0,-0.0062549924,0
0.08,17.459873896779662,5.999990050900011,-5.999999695081761,-0.15156085308874534,15.429382,-2.7713459,-0.8842776,0.29225463,12.1721525,-10.566251,1.437353,0.5112496,-0.20170416,0.39817113,0.7344379,-10.063875,0.95151794,-2.0308623,5.9999995,-6.0,-0.0062549924,0
0.09,17.459873896779662,5.999990050900011,-5.999999695081761,-0.15156085308874534,15.429382,-2.7713459,-0.8842776,0.29225463,12.071625,-10.556049,1.4170825,0.5293367,-0.16446488,0.4043535,0.7274972,-10.039402,1.087845,-2.0227377,5.99999,-5.9999995,-0.15156086,0
0.09999999999999999,17.459873896779662,5.999990050900011,-5.999999695081761,-0.15156085308874534,15.429382,-2.7713459,-0.8842776,0.29225463,11.971411,-10.544512,1.3969076,0.54647076,-0.12692949,0.40980792,0.71924686,-10.001407,1.2188014,-2.0118678,5.99999,-5.9999995,-0.15156086,0
0.10999999999999999,17.459873896779662,5.999990050900011,-5.999999695081761,-0.15156085308874534,15.429382,-2.7713459,-0.8842776,0.29225463,11.871643,-10.531695,1.3768518,0.56262106,-0.08916559,0.41452459,0.7097017,-9.950171,1.3434328,-1.9990191,5.99999,-5.9999995,-0.15156086,0
0.11999999999999998,17.459873896779662,5.999990050900011,-5.999999695081761,-0.15156085308874534,15.429382,-2.7713459,-0.8842776,0.29225463,11.772453,-10.517669,1.3569312,0.57775843,-0.051241163,0.41849494,0.6988788,-9.886073,1.4608306,-1.9849735,5.99999,-5.9999995,-0.15156086,0
0.12999999999999998,20.501042242981853,1.815012883540052,-5.999998370740699,1.2007456127079226,14.386076,-3.1261952,2.0010989,-0.09783584,11.673965,-10.502508,1.3371538,0.59185565,-0.013224484,0.4217119,0.6867978,-9.809581,1.5701381,-1.9705205,5.99999,-5.9999995,-0.15156086,0
0.13999999999999999,20.501042242981853,1.815012883540052,-5.999998370740699,1.2007456127079226,14.386076,-3.1261952,2.0010989,-0.09783584,11.57637,-10.486208,1.3176228,0.60020083,0.015284311,0.41005558,0.68657106,-9.708468,1.6882765,-1.9350691,1.8150129,-5.9999986,1.2007456,0
0.15,20.501042242981853,1.815012883540052,-5.999998370740699,1.2007456127079226,14.386076,-3.1261952,2.0010989,-0.09783584,11.479818,-10.468779,1.2984653,0.6079348,0.04377754,0.3979817,0.6856452,-9.600867,1.7959667,-1.8959057,1.8150129,-5.9999986,1.2007456,0
0.16,19.641223816617984,-1.0659847346828208,-2.0777920947885327,1.081964080490569,12.532648,-3.7721386,2.0494428,-0.20310932,11.384374,-10.450326,1.2797152,0.6150498,0.0722262,0.38550258,0.6840212,-9.487093,1.8928152,-1.8536767,1.8150129,-5.9999986,1.2007456,0
0.17,19.641223816617984,-1.0659847346828208,-2.0777920947885327,1.081964080490569,12.532648,-3.7721386,2.0494428,-0.20310932,11.290065,-10.430971,1.2613708,0.6156884,0.07813366,0.37504473,0.68859607,-9.374807,1.9776114,-1.8147441,-1.0659847,-2.0777922,1.0819641,0
0.18000000000000002,19.641223816617984,-1.0659847346828208,-2.0777920947885327,1.081964080490569,12.532648,-3.7721386,2.0494428,-0.20310932,11.196876,-10.410787,1.2434297,0.61622494,0.08402818,0.36452475,0.6930569,-9.263235,2.058799,-1.7730715,-1.0659847,-2.0777922,1.0819641,0
0.19000000000000003,19.641223816617984,-1.0659847346828208,-2.0777920947885327,1.081964080490569,12.532648,-3.7721386,2.0494428,-0.20310932,11.104797,-10.389809,1.2259187,0.61665946,0.08990878,0.35394442,0.697403,-9.152397,2.136312,-1.728754,-1.0659847,-2.0777922,1.0819641,0
0.20000000000000004,18.384552043780722,-1.5200790609137982,0.04392182931760967,0.9157021324557186,14.986942,-3.1622777,5.5323386,-0.073736966,11.013824,-10.368073,1.2088635,0.61699194,0.09577449,0.34330547,0.70163363,-9.042313,2.2100863,-1.6818888,-1.0659847,-2.0777922,1.0819641,0
0.21000000000000005,18.384552043780722,-1.5200790609137982,0.04392182931760967,0.9157021324557186,14.986942,-3.1622777,5.5323386,-0.073736966,10.923912,-10.345638,1.1922415,0.61440784,0.092499115,0.33765632,0.7070611,-8.940568,2.2769473,-1.6422343,-1.520079,0.04392183,0.9157021,0
0.22000000000000006,18.384552043780722,-1.5200790609137982,0.04392182931760967,0.9157021324557186,14.986942,-3.1622777,5.5323386,-0.073736966,10.835005,-10.322535,1.1760243,0.6117752,0.08921646,0.3319806,0.7124329,-8.841092,2.3438406,-1.6009476,-1.520079,0.04392183,0.9157021,0
0.23000000000000007,18.384552043780722,-1.5200790609137982,0.04392182931760967,0.9157021324557186,14.986942,-3.1622777,5.5323386,-0.073736966,10.747082,-10.298761,1.160228,0.60909444,0.08592678,0.32627872,0.7177486,-8.743905,2.4107273,-1.5580535,-1.520079,0.04392183,0.9157021,0
0.24000000000000007,18.384552043780722,-1.5200790609137982,0.04392182931760967,0.9157021324557186,14.616064,-2.6444552,4.381033,-0.16023284,10.660118,-10.274321,1.1448686,0.60636574,0.08263032,0.32055113,0.72300774,-8.649022,2.4775677,-1.513577,-1.520079,0.04392183,0.9157021,0
0.25000000000000006,18.384552043780722,-1.5200790609137982,0.04392182931760967,0.9157021324557186,14.616064,-2.6444552,4.381033,-0.16023284,10.574093,-10.249211,1.1299617,0.6035892,0.07932736,0.31479827,0.7282099,-8.556459,2.5443232,-1.4675436,-1.520079,0.04392183,0.9157021,0
0.26000000000000006,18.384552043780722,-1.5200790609137982,0.04392182931760967,0.9157021324557186,14.616064,-2.6444552,4.381033,-0.16023284,10.488981,-10.223434,1.115523,0.6007651,0.076018155,0.3090206,0.7333547,-8.466232,2.6109543,-1.4199795,-1.520079,0.04392183,0.9157021,0
0.2700000000000001,18.384552043780722,-1.5200790609137982,0.04392182931760967,0.9157021324557186,14.616064,-2.6444552,4.381033,-0.16023284,10.404759,-10.196993,1.1015674,0.5978937,0.07270295,0.3032186,0.7384417,-8.378357,2.6774213,-1.3709109,-1.520079,0.04392183,0.9157021,0
0.2800000000000001,17.300508052702785,-1.8034746828675503,1.4236512116713487,0.7430110761736914,14.6774025,-2.7139006,3.7557683,0.2645089,10.321404,-10.169888,1.0881099,0.59497523,0.06938202,0.29739273,0.74347055,-8.292846,2.7436852,-1.3203653,-1.520079,0.04392183,0.9157021,0
0.2900000000000001,17.300508052702785,-1.8034746828675503,1.4236512116713487,0.7430110761736914,14.6774025,-2.7139006,3.7557683,0.2645089,10.238868,-10.142137,1.0751204,0.59067863,0.059824698,0.2946444,0.7488022,-8.215028,2.8066201,-1.277352,-1.8034747,1.4236512,0.74301106,0
0.3000000000000001,17.300508052702785,-1.8034746828675503,1.4236512116713487,0.7430110761736914,14.6774025,-2.7139006,3.7557683,0.2645089,10.157093,-10.113748,1.062566,0.586296,0.050258655,0.29185313,0.7540246,-8.14058,2.8714266,-1.2333704,-1.8034747,1.4236512,0.74301106,0
0.3100000000000001,17.300508052702785,-1.8034746828675503,1.4236512116713487,0.7430110761736914,14.6774025,-2.7139006,3.7557683,0.2645089,10.076045,-10.084702,1.050456,0.5818278,0.040685285,0.2890193,0.75913715,-8.0695505,2.9380465,-1.1884806,-1.8034747,1.4236512,0.74301106,0
0.3200000000000001,16.549024562092146,-1.9070406078218294,2.6132908304395657,0.5798301557157192,14.938267,-3.0875795,3.358567,0.4274568,9.995691,-10.05498,1.0387993,0.57727486,0.031105984,0.28614333,0.76413906,-8.001985,3.006421,-1.1427426,-1.8034747,1.4236512,0.74301106,0
0.3300000000000001,16.549024562092146,-1.9070406078218294,2.6132908304395657,0.5798301557157192,14.938267,-3.0875795,3.358567,0.4274568,9.915979,-10.02458,1.0275719,0.5715396,0.016442996,0.28627124,0.7688441,-7.941015,3.0740962,-1.1026853,-1.9070406,2.6132908,0.57983017,0
0.34000000000000014,16.549024562092146,-1.9070406078218294,2.6132908304395657,0.5798301557157192,14.938267,-3.0875795,3.358567,0.4274568,9.836856,-9.993487,1.016746,0.5656499,0.001775566,0.28632182,0.7733416,-7.8842754,3.1450477,-1.0624694,-1.9070406,2.6132908,0.57983017,0
0.35000000000000014,16.549024562092146,-1.9070406078218294,2.6132908304395657,0.5798301557157192,14.938267,-3.0875795,3.358567,0.4274568,9.75828,-9.961669,1.0063226,0.55960745,-0.012892342,0.2862951,0.7776302,-7.831842,3.21918,-1.0222223,-1.9070406,2.6132908,0.57983017,0
0.36000000000000015,16.21939815906003,-1.7306734047985224,2.2446048589785303,0.4422669344608646,15.276719,-2.958174,2.8295338,0.45723075,9.680205,-9.929092,0.99630135,0.55341387,-0.02755677,0.28619102,0.7817089,-7.7837844,3.296395,-0.982072,-1.9070406,2.6132908,0.57983017,0
0.37000000000000016,16.21939815906003,-1.7306734047985224,2.2446048589785303,0.4422669344608646,15.276719,-2.958174,2.8295338,0.45723075,9.602586,-9.895738,0.9866668,0.54817814,-0.04048266,0.2856691,0.78501946,-7.7408543,3.3748295,-0.9448565,-1.7306734,2.2446048,0.44226694,0
0.38000000000000017,16.21939815906003,-1.7306734047985224,2.2446048589785303,0.4422669344608646,15.276719,-2.958174,2.8295338,0.45723075,9.525375,-9.861587,0.9774034,0.5428296,-0.053400215,0.2850884,0.78816843,-7.7018404,3.4556606,-0.907866,-1.7306734,2.2446048,0.44226694,0
0.3900000000000002,16.21939815906003,-1.7306734047985224,2.2446048589785303,0.4422669344608646,15.276719,-2.958174,2.8295338,0.45723075,9.448536,-9.826616,0.96850836,0.5373694,-0.066306785,0.28444904,0.7911553,-7.666783,3.5388095,-0.8711978,-1.7306734,2.2446048,0.44226694,0
0.4000000000000002,16.139908651705078,-1.3915607125556984,1.028718746688471,0.3316235802491383,14.994158,-2.20205,2.6183882,0.11172813,9.372027,-9.790804,0.95997804,0.53179866,-0.079199724,0.2837512,0.79397947,-7.6357193,3.624195,-0.8349491,-1.7306734,2.2446048,0.44226694,0
0.4100000000000002,16.139908651705078,-1.3915607125556984,1.028718746688471,0.3316235802491383,14.994158,-2.20205,2.6183882,0.11172813,9.29581,-9.754129,0.9518051,0.52845097,-0.08651013,0.28108257,0.7963973,-7.6083207,3.710779,-0.79962623,-1.3915607,1.0287187,0.33162358,0
0.4200000000000002,16.139908651705078,-1.3915607125556984,1.028718746688471,0.3316235802491383,14.994158,-2.20205,2.6183882,0.11172813,9.2198515,-9.716586,0.9439859,0.52506226,-0.09381381,0.27839208,0.7987534,-7.583629,3.7980473,-0.76422095,-1.3915607,1.0287187,0.33162358,0
0.4300000000000002,16.139908651705078,-1.3915607125556984,1.028718746688471,0.3316235802491383,14.994158,-2.20205,2.6183882,0.11172813,9.144128,-9.678166,0.9365209,0.52163285,-0.101110205,0.27568,0.8010474,-7.561653,3.885966,-0.72876793,-1.3915607,1.0287187,0.33162358,0
0.4400000000000002,16.139908651705078,-1.3915607125556984,1.028718746688471,0.3316235802491383,15.741135,-1.8436588,2.579704,0.42607874,9.068609,-9.638864,0.9294105,0.51816297,-0.10839876,0.27294654,0.8032793,-7.542401,3.9745016,-0.69330204,-1.3915607,1.0287187,0.33162358,0
0.45000000000000023,16.139908651705078,-1.3915607125556984,1.028718746688471,0.3316235802491383,15.741135,-1.8436588,2.579704,0.42607874,8.99327,-9.598674,0.92265475,0.5146527,-0.1156789,0.27019188,0.8054488,-7.52588,4.0636196,-0.657858,-1.3915607,1.0287187,0.33162358,0
0.46000000000000024,16.139908651705078,-1.3915607125556984,1.028718746688471,0.3316235802491383,15.741135,-1.8436588,2.579704,0.42607874,8.918082,-9.55759,0.9162531,0.5111027,-0.12295006,0.26741624,0.8075558,-7.512097,4.1532865,-0.6224707,-1.3915607,1.0287187,0.33162358,0
0.47000000000000025,16.139908651705078,-1.3915607125556984,1.028718746688471,0.3316235802491383,15.741135,-1.8436588,2.579704,0.42607874,8.843018,-9.515607,0.9102049,0.5075129,-0.13021168,0.26461986,0.8096001,-7.501057,4.243468,-0.5871747,-1.3915607,1.0287187,0.33162358,0
0.48000000000000026,16.111947712130316,-1.0923979245754163,0.29492101951676364,0.30220055439738425,15.889012,-1.5538517,2.2922835,0.5043251,8.76805,-9.472719,0.9045091,0.50388384,-0.1374632,0.2618029,0.8115816,-7.492767,4.3341293,-0.552005,-1.3915607,1.0287187,0.33162358,0
0.49000000000000027,16.111947712130316,-1.0923979245754163,0.29492101951676364,0.30220055439738425,15.889012,-1.5538517,2.2922835,0.5043251,8.693152,-9.428925,0.8991636,0.50151205,-0.1410142,0.25831634,0.8135563,-7.486876,4.4248137,-0.5170604,-1.0923979,0.294921,0.30220056,0
0.5000000000000002,16.111947712130316,-1.0923979245754163,0.29492101951676364,0.30220055439738425,15.889012,-1.5538517,2.2922835,0.5043251,8.618305,-9.384224,0.8941688,0.4991231,-0.14456038,0.25482088,0.8155031,-7.4827666,4.515214,-0.48185533,-1.0923979,0.294921,0.30220056,0
0.5100000000000002,16.111947712130316,-1.0923979245754163,0.29492101951676364,0.30220055439738425,15.889012,-1.5538517,2.2922835,0.5043251,8.54349,-9.338621,0.8895273,0.49671698,-0.14810158,0.25131673,0.817422,-7.480438,4.605313,-0.4464039,-1.0923979,0.294921,0.30220056,0
0.5200000000000002,16.026734412565144,-0.6695018501085608,-0.8034149380226991,0.2691240525774587,15.835868,-1.3474582,1.9505316,0.59906167,8.468691,-9.292118,0.88524157,0.49429384,-0.15163772,0.24780391,0.81931275,-7.4798903,4.695095,-0.41072017,-1.0923979,0.294921,0.30220056,0
0.5300000000000002,16.026734412565144,-0.6695018501085608,-0.8034149380226991,0.2691240525774587,15.835868,-1.3474582,1.9505316,0.59906167,8.393888,-9.244724,0.88131094,0.49367198,-0.14966549,0.2432761,0.8214045,-7.480582,4.783686,-0.37526643,-0.66950184,-0.80341494,0.26912406,0
0.5400000000000003,16.026734412565144,-0.6695018501085608,-0.8034149380226991,0.2691240525774587,15.835868,-1.3474582,1.9505316,0.59906167,8.3190775,-9.196451,0.87773937,0.49303576,-0.14768888,0.2387412,0.82347244,-7.481621,4.870905,-0.33891478,-0.66950184,-0.80341494,0.26912406,0
0.5500000000000003,16.026734412565144,-0.6695018501085608,-0.8034149380226991,0.2691240525774587,15.835868,-1.3474582,1.9505316,0.59906167,8.244254,-9.147311,0.87453574,0.49238512,-0.14570798,0.23419935,0.82551634,-7.4830017,4.956741,-0.30167937,-0.66950184,-0.80341494,0.26912406,0
0.5600000000000003,15.971524200580427,-0.34114287550849526,-1.294859631033328,0.27283088270308625,15.9560585,-1.1156272,1.2397648,0.6832034,8.169415,-9.09732,0.8717088,0.49172017,-0.14372282,0.22965065,0.82753617,-7.48472,5.041184,-0.26357457,-0.66950184,-0.80341494,0.26912406,0
0.5700000000000003,15.971524200580427,-0.34114287550849526,-1.294859631033328,0.27283088270308625,15.9560585,-1.1156272,1.2397648,0.6832034,8.094559,-9.046494,0.86926514,0.4918215,-0.13888724,0.2252463,0.8295098,-7.4864516,5.1237993,-0.22499847,-0.34114286,-1.2948596,0.27283087,0
0.5800000000000003,15.971524200580427,-0.34114287550849526,-1.294859631033328,0.27283088270308625,15.9560585,-1.1156272,1.2397648,0.6832034,8.019688,-8.99485,0.8672126,0.49189982,-0.13404518,0.22083142,0.83144474,-7.487674,5.2046323,-0.18535534,-0.34114286,-1.2948596,0.27283087,0
0.5900000000000003,15.971524200580427,-0.34114287550849526,-1.294859631033328,0.27283088270308625,15.9560585,-1.1156272,1.2397648,0.6832034,7.9448066,-8.942407,0.86556166,0.49195522,-0.12919685,0.21640624,0.8333409,-7.488383,5.2836695,-0.14467053,-0.34114286,-1.2948596,0.27283087,0
0.6000000000000003,15.76828323087207,-0.10837520857837957,-1.286897314455956,0.2560463145256847,16.192823,-0.75914156,0.648809,0.5442259,7.869921,-8.889183,0.8643227,0.49198765,-0.12434251,0.21197096,0.83519804,-7.488571,5.360898,-0.1029696,-0.34114286,-1.2948596,0.27283087,0
0.6100000000000003,15.76828323087207,-0.10837520857837957,-1.286897314455956,0.2560463145256847,16.192823,-0.75914156,0.648809,0.5442259,7.795037,-8.8352,0.86349666,0.49220428,-0.11896101,0.20850731,0.83672464,-7.48812,5.4354086,-0.0621036,-0.10837521,-1.2868973,0.25604632,0
0.6200000000000003,15.76828323087207,-0.10837520857837957,-1.286897314455956,0.2560463145256847,16.192823,-0.75914156,0.648809,0.5442259,7.720161,-8.78048,0.8630836,0.49239957,-0.11357435,0.20503464,0.838215,-7.48683,5.5082765,-0.020374486,-0.10837521,-1.2868973,0.25604632,0
0.6300000000000003,15.76828323087207,-0.10837520857837957,-1.286897314455956,0.2560463145256847,16.192823,-0.75914156,0.648809,0.5442259,7.645303,-8.72504,0.86309206,0.49257353,-0.108182766,0.20155309,0.8396691,-7.484697,5.5794916,0.022193387,-0.10837521,-1.2868973,0.25604632,0
0.6400000000000003,15.76828323087207,-0.10837520857837957,-1.286897314455956,0.2560463145256847,15.739883,-0.6010951,0.40815893,0.5698387,7.57047,-8.668897,0.8635303,0.49272615,-0.1027865,0.19806279,0.8410868,-7.481716,5.6490436,0.06557553,-0.10837521,-1.2868973,0.25604632,0
0.6500000000000004,15.76828323087207,-0.10837520857837957,-1.286897314455956,0.2560463145256847,15.739883,-0.6010951,0.40815893,0.5698387,7.4956713,-8.612065,0.8644063,0.49285743,-0.09738578,0.19456391,0.8424681,-7.477884,5.7169228,0.10974731,-0.10837521,-1.2868973,0.25604632,0
0.6600000000000004,15.76828323087207,-0.10837520857837957,-1.286897314455956,0.2560463145256847,15.739883,-0.6010951,0.40815893,0.5698387,7.420915,-8.5545635,0.86572784,0.49296734,-0.09198084,0.19105661,0.8438129,-7.473195,5.78312,0.15468395,-0.10837521,-1.2868973,0.25604632,0
0.6700000000000004,15.76828323087207,-0.10837520857837957,-1.286897314455956,0.2560463145256847,15.739883,-0.6010951,0.40815893,0.5698387,7.34621,-8.496409,0.8675025,0.49305588,-0.08657191,0.18754102,0.8451211,-7.4676456,5.847626,0.20036055,-0.10837521,-1.2868973,0.25604632,0
0.6800000000000004,15.577151831907656,0.018040197036834422,-1.0350186393566732,0.26442143402189383,14.603561,-0.27543446,0.70847636,0.5568902,7.271565,-8.437618,0.86973757,0.49312305,-0.081159234,0.18401732,0.8463927,-7.461233,5.9104323,0.24675205,-0.10837521,-1.2868973,0.25604632,0
0.6900000000000004,15.577151831907656,0.018040197036834422,-1.0350186393566732,0.26442143402189383,14.603561,-0.27543446,0.70847636,0.5568902,7.1969876,-8.37821,0.87243104,0.49295664,-0.076490164,0.18164638,0.847436,-7.454051,5.9709415,0.29201046,0.018040197,-1.0350187,0.26442143,0
0.7000000000000004,15.577151831907656,0.018040197036834422,-1.0350186393566732,0.26442143402189383,14.603561,-0.27543446,0.70847636,0.5568902,7.1224866,-8.318204,0.87557954,0.49277616,-0.07181892,0.17927027,0.8484551,-7.4460354,6.0301614,0.33776218,0.018040197,-1.0350187,0.26442143,0
0.7100000000000004,15.577151831907656,0.018040197036834422,-1.0350186393566732,0.26442143402189383,14.603561,-0.27543446,0.70847636,0.5568902,7.04807,-8.257611,0.8791879,0.4925816,-0.067145616,0.17688905,0.84945,-7.4371834,6.0880876,0.3839907,0.018040197,-1.0350187,0.26442143,0
0.7200000000000004,15.196965090146502,0.242195916337339,-0.9503651113518443,0.23631716375980136,14.036422,0.051002648,0.635143,0.48978466,6.973746,-8.196445,0.8832609,0.492373,-0.062470395,0.17450276,0.8504206,-7.427492,6.1447163,0.43067956,0.018040197,-1.0350187,0.26442143,0
0.7300000000000004,15.196965090146502,0.242195916337339,-0.9503651113518443,0.23631716375980136,14.036422,0.051002648,0.635143,0.48978466,6.899522,-8.1347275,0.8877852,0.49226674,-0.057626124,0.17326453,0.8510771,-7.417131,6.19879,0.4742243,0.24219592,-0.9503651,0.23631716,0
0.7400000000000004,15.196965090146502,0.242195916337339,-0.9503651113518443,0.23631716375980136,14.036422,0.051002648,0.635143,0.48978466,6.825407,-8.072474,0.89274645,0.49214798,-0.05278039,0.1720219,0.8517119,-7.4057198,6.2518516,0.5180712,0.24219592,-0.9503651,0.23631716,0
0.7500000000000004,15.196965090146502,0.242195916337339,-0.9503651113518443,0.23631716375980136,14.036422,0.051002648,0.635143,0.48978466,6.751412,-8.009695,0.8981476,0.49201667,-0.047933314,0.17077488,0.8523251,-7.393257,6.303896,0.5622056,0.24219592,-0.9503651,0.23631716,0
0.7600000000000005,14.818923919706027,0.37677370501230867,-0.6148662838605774,0.25210686625391343,14.30956,0.28289762,1.0146335,0.33330435,6.6775465,-7.9464006,0.9039915,0.49187285,-0.043085016,0.16952352,0.85291654,-7.3797417,6.354922,0.6066128,0.24219592,-0.9503651,0.23631716,0
0.7700000000000005,14.818923919706027,0.37677370501230867,-0.6148662838605774,0.25210686625391343,14.30956,0.28289762,1.0146335,0.33330435,6.6038194,-7.882606,0.9102629,0.49139643,-0.03932225,0.1696712,0.8533434,-7.365566,6.4038706,0.64766395,0.37677372,-0.61486626,0.25210688,0
0.7800000000000005,14.818923919706027,0.37677370501230867,-0.6148662838605774,0.25210686625391343,14.30956,0.28289762,1.0146335,0.33330435,6.530238,-7.8183246,0.9169451,0.49091285,-0.03555891,0.16981639,0.8537579,-7.350446,6.452324,0.6887892,0.37677372,-0.61486626,0.25210688,0
0.7900000000000005,14.818923919706027,0.37677370501230867,-0.6148662838605774,0.25210686625391343,14.30956,0.28289762,1.0146335,0.33330435,6.456814,-7.7535615,0.92403895,0.49042213,-0.031795047,0.16995911,0.85415995,-7.334382,6.5002813,0.7299803,0.37677372,-0.61486626,0.25210688,0
0.8000000000000005,14.250560739547945,0.4976646872550543,-0.828265191700004,0.2221086038057754,13.592573,0.84840876,0.045348488,0.1458351,6.383555,-7.688321,0.93154496,0.48992425,-0.028030721,0.17009936,0.8545494,-7.317373,6.547743,0.771229,0.37677372,-0.61486626,0.25210688,1
0.8100000000000005,14.250560739547945,0.4976646872550543,-0.828265191700004,0.2221086038057754,13.592573,0.84840876,0.045348488,0.1458351,6.3104625,-7.6226273,0.9394057,0.4893769,-0.026021916,0.17385434,0.8541708,-7.3008757,6.591211,0.80085564,0.84840876,0.045348488,0.1458351,1
0.8200000000000005,14.250560739547945,0.4976646872550543,-0.828265191700004,0.2221086038057754,13.592573,0.84840876,0.045348488,0.1458351,6.2375402,-7.556495,0.947561,0.4888205,-0.02401263,0.17760608,0.8537763,-7.283436,6.635261,0.83015704,0.84840876,0.045348488,0.1458351,1
0.8300000000000005,14.250560739547945,0.4976646872550543,-0.828265191700004,0.2221086038057754,13.592573,0.84840876,0.045348488,0.1458351,6.1647973,-7.48992,0.95600766,0.48825502,-0.022002898,0.1813545,0.85336596,-7.2650557,6.679891,0.8591237,0.84840876,0.045348488,0.1458351,1
0.8400000000000005,14.250560739547945,0.4976646872550543,-0.828265191700004,0.2221086038057754,13.291393,0.9980249,0.014397105,0.19623226,6.092243,-7.422896,0.96474224,0.4876805,-0.019992758,0.18509956,0.8529397,-7.245737,6.7251005,0.8877462,0.84840876,0.045348488,0.1458351,1
0.8500000000000005,14.250560739547945,0.4976646872550543,-0.828265191700004,0.2221086038057754,13.291393,0.9980249,0.014397105,0.19623226,6.019884,-7.3554215,0.9737473,0.48692375,-0.01743871,0.18940814,0.8524821,-7.2258606,6.769893,0.91319585,0.9980249,0.014397105,0.19623226,1
0.8600000000000005,14.250560739547945,0.4976646872550543,-0.828265191700004,0.2221086038057754,13.291393,0.9980249,0.014397105,0.19623226,5.9477296,-7.287496,0.9830048,0.48615444,-0.014884211,0.19371183,0.8520024,-7.2048836,6.8153043,0.93823713,0.9980249,0.014397105,0.19623226,1
0.8700000000000006,14.250560739547945,0.4976646872550543,-0.828265191700004,0.2221086038057754,13.291393,0.9980249,0.014397105,0.19623226,5.87579,-7.2191133,0.9925106,0.4853725,-0.012329328,0.1980105,0.85150063,-7.18281,6.8613315,0.96285725,0.9980249,0.014397105,0.19623226,1
0.8800000000000006,14.061411251668716,0.2732777865427177,-1.0878495255006622,0.28276860754858985,12.944611,0.79232025,-0.045598887,0.24247974,5.8040767,-7.150267,1.0022604,0.48457804,-0.009774125,0.20230405,0.85097694,-7.159642,6.907972,0.98704344,0.9980249,0.014397105,0.19623226,0
0.8900000000000006,14.061411251668716,0.2732777865427177,-1.0878495255006622,0.28276860754858985,12.944611,0.79232025,-0.045598887,0.24247974,5.7326074,-7.0809402,1.012286,0.48448053,-0.0041971705,0.20084152,0.8514246,-7.1339884,6.9573126,1.0180926,0.2732778,-1.0878495,0.2827686,0
0.9000000000000006,14.061411251668716,0.2732777865427177,-1.0878495255006622,0.28276860754858985,12.944611,0.79232025,-0.045598887,0.24247974,5.6614003,-7.011125,1.022623,0.4843668,0.001379925,0.19937226,0.8518437,-7.1072054,7.005567,1.049323,0.2732778,-1.0878495,0.2827686,0
0.9100000000000006,14.061411251668716,0.2732777865427177,-1.0878495255006622,0.28276860754858985,12.944611,0.79232025,-0.045598887,0.24247974,5.5904675,-6.940832,1.033273,0.48423687,0.006956974,0.19789633,0.85223436,-7.0792933,7.052733,1.0807161,0.2732778,-1.0878495,0.2827686,0
0.9200000000000006,13.415228942973936,0.11435088043620083,-1.28979844917488,0.2806540058437564,12.962882,0.54308486,-0.16432856,0.2718436,5.5198193,-6.870074,1.0442377,0.48409072,0.01253379,0.1964138,0.8525965,-7.0502534,7.0988054,1.1122546,0.2732778,-1.0878495,0.2827686,0
0.9300000000000006,13.415228942973936,0.11435088043620083,-1.28979844917488,0.2806540058437564,12.962882,0.54308486,-0.16432856,0.2718436,5.4494596,-6.7988706,1.055489,0.48414317,0.018584263,0.19375752,0.853064,-7.021484,7.141595,1.1380011,0.11435088,-1.2897985,0.280654,0
0.9400000000000006,13.415228942973936,0.11435088043620083,-1.28979844917488,0.2806540058437564,12.962882,0.54308486,-0.16432856,0.2718436,5.3793926,-6.7272463,1.0669985,0.4841744,0.024633918,0.19109271,0.85349405,-6.99167,7.183013,1.1639668,0.11435088,-1.2897985,0.280654,0
0.9500000000000006,13.415228942973936,0.11435088043620083,-1.28979844917488,0.2806540058437564,12.962882,0.54308486,-0.16432856,0.2718436,5.3096294,-6.655215,1.0787688,0.48418435,0.030682495,0.18841954,0.85388666,-6.960814,7.223056,1.1901289,0.11435088,-1.2897985,0.280654,0
0.9600000000000006,12.698943624546118,0.14481485298444852,-0.20948381722796933,0.36053708497388526,12.832584,0.7181504,-0.64296407,0.35260934,5.2401795,-6.5827904,1.0908018,0.48417306,0.036729727,0.18573807,0.8542417,-6.928917,7.2617188,1.216465,0.11435088,-1.2897985,0.280654,1
0.9700000000000006,12.698943624546118,0.14481485298444852,-0.20948381722796933,0.36053708497388526,12.832584,0.7181504,-0.64296407,0.35260934,5.171047,-6.5099926,1.1030713,0.48312584,0.041541465,0.1871817,0.85429907,-6.8973393,7.297776,1.2374035,0.7181504,-0.64296407,0.35260934,1
0.9800000000000006,12.698943624546118,0.14481485298444852,-0.20948381722796933,0.36053708497388526,12.832584,0.7181504,-0.64296407,0.35260934,5.1022367,-6.4368353,1.1155491,0.48206592,0.04635211,0.1886204,0.85433394,-6.864578,7.3335667,1.2581024,0.7181504,-0.64296407,0.35260934,1
0.9900000000000007,12.698943624546118,0.14481485298444852,-0.20948381722796933,0.36053708497388526,12.832584,0.7181504,-0.64296407,0.35260934,5.0337596,-6.363322,1.1282326,0.48099327,0.051161535,0.19005415,0.8543463,-6.830635,7.36909,1.2785493,0.7181504,-0.64296407,0.35260934,1
1.0000000000000007,11.638934486973085,0.021194617591575652,-0.25061683561232057,0.3377970288951544,12.824252,0.63978684,-0.953399,0.40078944,4.965628,-6.2894545,1.1411191,0.479908,0.055969615,0.19148289,0.85433614,-6.7955136,7.404348,1.2987319,0.7181504,-0.64296407,0.35260934,0
1.0100000000000007,11.638934486973085,0.021194617591575652,-0.25061683561232057,0.3377970288951544,12.824252,0.63978684,-0.953399,0.40078944,4.8978357,-6.215252,1.1541516,0.47869796,0.057414312,0.1908771,0.8550544,-6.7629256,7.436088,1.3077631,0.021194618,-0.25061685,0.33779702,0
1.0200000000000007,11.638934486973085,0.021194617591575652,-0.25061683561232057,0.3377970288951544,12.824252,0.63978684,-0.953399,0.40078944,4.83037,-6.1407332,1.1672744,0.47748584,0.05885876,0.19027047,0.8557689,-6.730162,7.4675946,1.3168097,0.021194618,-0.25061685,0.33779702,0
1.0300000000000007,11.638934486973085,0.021194617591575652,-0.25061683561232057,0.3377970288951544,12.824252,0.63978684,-0.953399,0.40078944,4.7632327,-6.0659013,1.1804878,0.47627157,0.060302943,0.18966301,0.85647964,-6.697223,7.4988675,1.3258705,0.021194618,-0.25061685,0.33779702,0
1.0400000000000007,11.638934486973085,0.021194617591575652,-0.25061683561232057,0.3377970288951544,12.828766,0.36914828,-1.0744857,0.46015662,4.696426,-5.990757,1.1937917,0.47505522,0.061746858,0.18905468,0.85718656,-6.664107,7.5299077,1.3349447,0.021194618,-0.25061685,0.33779702,0
1.0500000000000007,11.638934486973085,0.021194617591575652,-0.25061683561232057,0.3377970288951544,12.828766,0.36914828,-1.0744857,0.46015662,4.6299515,-5.9153037,1.2071867,0.47383675,0.0631905,0.18844552,0.85788965,-6.6308136,7.560715,1.3440311,0.021194618,-0.25061685,0.33779702,0
1.0600000000000007,11.638934486973085,0.021194617591575652,-0.25061683561232057,0.3377970288951544,12.828766,0.36914828,-1.0744857,0.46015662,4.5638103,-5.839544,1.2206725,0.4726162,0.06463386,0.18783553,0.85858893,-6.597342,7.591291,1.3531286,0.021194618,-0.25061685,0.33779702,0
1.0700000000000007,11.638934486973085,0.021194617591575652,-0.25061683561232057,0.3377970288951544,12.828766,0.36914828,-1.0744857,0.46015662,4.498005,-5.763479,1.2342494,0.47139353,0.066076934,0.1872247,0.8592844,-6.5636926,7.621634,1.3622361,0.021194618,-0.25061685,0.33779702,0
1.0800000000000007,10.766458123951654,0.0409842182601319,-2.84003701588155,0.4304935257056159,12.410095,0.40706673,-0.619424,0.5032739,4.4325366,-5.687112,1.2479173,0.47016877,0.06751972,0.18661304,0.85997605,-6.5298643,7.651746,1.3713527,0.021194618,-0.25061685,0.33779702,0
1.0900000000000007,10.766458123951654,0.0409842182601319,-2.84003701588155,0.4304935257056159,12.410095,0.40706673,-0.619424,0.5032739,4.367397,-5.610459,1.2616364,0.47090527,0.08022216,0.17994842,0.8599024,-6.497827,7.678517,1.3724892,0.040984217,-2.840037,0.43049353,0
1.1000000000000008,10.766458123951654,0.0409842182601319,-2.84003701588155,0.4304935257056159,12.410095,0.40706673,-0.619424,0.5032739,4.3025856,-5.5335507,1.2753674,0.4715446,0.092908055,0.17324667,0.8596513,-6.4640923,7.702747,1.3737156,0.040984217,-2.840037,0.43049353,0
1.1100000000000008,10.766458123951654,0.0409842182601319,-2.84003701588155,0.4304935257056159,12.410095,0.40706673,-0.619424,0.5032739,4.2381206,-5.456413,1.2891108,0.47208664,0.10557478,0.1665092,0.8592229,-6.4286757,7.724423,1.3749471,0.040984217,-2.840037,0.43049353,0
1.1200000000000008,9.570639806877582,0.054344432073959954,-5.24973472123814,0.48228704665321315,12.566442,-0.030695532,-1.9158249,1.1128248,4.174018,-5.379071,1.3028661,0.47253132,0.118219726,0.15973735,0.85861707,-6.391596,7.7435346,1.3760982,0.040984217,-2.840037,0.43049353,0
1.1300000000000008,9.570639806877582,0.054344432073959954,-5.24973472123814,0.48228704665321315,12.566442,-0.030695532,-1.9158249,1.1128248,4.1102743,-5.3015623,1.316577,0.4744572,0.14122714,0.1472282,0.856312,-6.3567214,7.757501,1.3660121,0.05434443,-5.249735,0.48228705,0
1.1400000000000008,9.570639806877582,0.054344432073959954,-5.24973472123814,0.48228704665321315,12.566442,-0.030695532,-1.9158249,1.1128248,4.0468926,-5.2239356,1.3301847,0.4760534,0.16413642,0.13461675,0.85341185,-6.319236,7.767206,1.3554242,0.05434443,-5.249735,0.48228705,0
1.1500000000000008,9.570639806877582,0.054344432073959954,-5.24973472123814,0.48228704665321315,12.566442,-0.030695532,-1.9158249,1.1128248,3.9838984,-5.146233,1.3436829,0.47731882,0.18693167,0.12191176,0.8499187,-6.279223,7.7726355,1.3440839,0.05434443,-5.249735,0.48228705,0
1.1600000000000008,8.766038757725497,-0.04021743156311155,-5.999996650685225,0.6305409428192448,11.814903,-0.7175381,-1.7655221,0.76474243,3.9213166,-5.0684977,1.3570628,0.47825256,0.20959702,0.10912205,0.8458351,-6.2367754,7.773786,1.331743,0.05434443,-5.249735,0.48228705,0
1.1700000000000008,8.766038757725497,-0.04021743156311155,-5.999996650685225,0.6305409428192448,11.814903,-0.7175381,-1.7655221,0.76474243,3.8591526,-4.9907713,1.3702776,0.478684,0.23512068,0.093896255,0.84069276,-6.19567,7.770704,1.3109934,-0.040217433,-5.9999967,0.63054097,0
1.1800000000000008,8.766038757725497,-0.04021743156311155,-5.999996650685225,0.6305409428192448,11.814903,-0.7175381,-1.7655221,0.76474243,3.7974107,-4.9130983,1.3832774,0.4786799,0.2604304,0.078585014,0.8347855,-6.15231,7.7631345,1.2886873,-0.040217433,-5.9999967,0.63054097,0
1.1900000000000008,8.766038757725497,-0.04021743156311155,-5.999996650685225,0.6305409428192448,11.814903,-0.7175381,-1.7655221,0.76474243,3.7361135,-4.835524,1.3960451,0.47824022,0.28550315,0.06320228,0.8281187,-6.106824,7.751122,1.2645392,-0.040217433,-5.9999967,0.63054097,0
1.2000000000000008,8.292912772058859,-0.1369269258561562,-5.999993703480846,0.6987129923643147,10.291992,-0.61664915,-1.2992456,0.7041357,3.6752813,-4.7580914,1.408561,0.4773654,0.3103161,0.047762033,0.8206984,-6.0593505,7.734727,1.2382704,-0.040217433,-5.9999967,0.63054097,0
1.2100000000000009,8.292912772058859,-0.1369269258561562,-5.999993703480846,0.6987129923643147,10.291992,-0.61664915,-1.2992456,0.7041357,3.6149197,-4.6808395,1.4207835,0.47592592,0.33463177,0.031775728,0.812716,-6.01272,7.715128,1.2058728,-0.13692692,-5.999994,0.698713,0
1.2200000000000009,8.292912772058859,-0.1369269258561562,-5.999993703480846,0.6987129923643147,10.291992,-0.61664915,-1.2992456,0.7041357,3.555032,-4.6038036,1.43267,0.4740521,0.35864204,0.01576043,0.8039919,-5.9645505,7.691501,1.1709927,-0.13692692,-5.999994,0.698713,0
1.2300000000000009,8.292912772058859,-0.1369269258561562,-5.999993703480846,0.6987129923643147,10.291992,-0.61664915,-1.2992456,0.7041357,3.4956331,-4.527023,1.4441941,0.47174567,0.382325,-0.00026925374,0.7945341,-5.9149885,7.6639504,1.1333894,-0.13692692,-5.999994,0.698713,0
1.2400000000000009,8.292912772058859,-0.1369269258561562,-5.999993703480846,0.6987129923643147,9.401719,-0.4954662,-1.6431726,0.42568094,3.436736,-4.4505367,1.4553276,0.4690087,0.40565905,-0.016298689,0.78435117,-5.864186,7.632593,1.0928315,-0.13692692,-5.999994,0.698713,0
1.2500000000000009,8.292912772058859,-0.1369269258561562,-5.999993703480846,0.6987129923643147,9.401719,-0.4954662,-1.6431726,0.42568094,3.3783526,-4.374383,1.4660399,0.46584374,0.42862287,-0.032313254,0.77345246,-5.8122997,7.597561,1.0490992,-0.13692692,-5.999994,0.698713,0
1.260000000000001,8.292912772058859,-0.1369269258561562,-5.999993703480846,0.6987129923643147,9.401719,-0.4954662,-1.6431726,0.42568094,3.320493,-4.2985973,1.4762981,0.4622536,0.45119557,-0.048298325,0.76184785,-5.7594905,7.5589986,1.001984,-0.13692692,-5.999994,0.698713,0
1.270000000000001,8.292912772058859,-0.1369269258561562,-5.999993703480846,0.6987129923643147,9.401719,-0.4954662,-1.6431726,0.42568094,3.2631655,-4.223215,1.4860674,0.45824167,0.4733565,-0.06423932,0.749548,-5.705922,7.5170646,0.9512895,-0.13692692,-5.999994,0.698713,0
1.280000000000001,8.773070501818962,-0.1584864183657072,-5.999995304936235,0.9339154140914487,10.854726,-0.26407,-3.6732745,0.24250871,3.2063766,-4.1482677,1.495311,0.45381156,0.49508542,-0.0801217,0.7365642,-5.6517615,7.471929,0.8968326,-0.13692692,-5.999994,0.698713,0
1.290000000000001,8.773070501818962,-0.1584864183657072,-5.999995304936235,0.9339154140914487,10.854726,-0.26407,-3.6732745,0.24250871,3.1501474,-4.073801,1.5040023,0.44815233,0.51621693,-0.09659207,0.7234296,-5.594022,7.4209824,0.84074503,-0.15848641,-5.999995,0.93391544,0
1.300000000000001,8.773070501818962,-0.1584864183657072,-5.999995304936235,0.9339154140914487,10.854726,-0.26407,-3.6732745,0.24250871,3.094497,-3.9998586,1.5121113,0.44207975,0.5368724,-0.11297335,0.7096277,-5.5360203,7.36704,0.78033644,-0.15848641,-5.999995,0.93391544,0
1.310000000000001,8.773070501818962,-0.1584864183657072,-5.999995304936235,0.9339154140914487,10.854726,-0.26407,-3.6732745,0.24250871,3.0394273,-3.9264698,1.5195938,0.43559942,0.5570326,-0.1292504,0.69517124,-5.4779296,7.3103256,0.71545416,-0.15848641,-5.999995,0.93391544,0
1.320000000000001,8.48632663077307,-0.3972038845123124,-1.829226193145825,1.0282932814637835,10.700444,-0.7594422,-1.9301964,0.29653484,2.9849381,-3.8536608,1.5264046,0.4287173,0.576679,-0.14540826,0.68007356,-5.419922,7.25107,0.6459622,-0.15848641,-5.999995,0.93391544,0
1.330000000000001,8.48632663077307,-0.3972038845123124,-1.829226193145825,1.0282932814637835,10.700444,-0.7594422,-1.9301964,0.29653484,2.9310184,-3.7814445,1.5324966,0.4250117,0.581267,-0.15363653,0.676676,-5.3640537,7.192011,0.57219934,-0.3972039,-1.8292261,1.0282933,0
1.340000000000001,8.48632663077307,-0.3972038845123124,-1.829226193145825,1.0282932814637835,10.700444,-0.7594422,-1.9301964,0.29653484,2.877656,-3.7098231,1.5378441,0.42125764,0.5857888,-0.16184728,0.6732012,-5.3084955,7.132133,0.49711108,-0.3972039,-1.8292261,1.0282933,0
1.350000000000001,8.48632663077307,-0.3972038845123124,-1.829226193145825,1.0282932814637835,10.700444,-0.7594422,-1.9301964,0.29653484,2.8248475,-3.6388044,1.542434,0.41745558,0.59024376,-0.17003958,0.6696496,-5.2532554,7.071466,0.4206817,-0.3972039,-1.8292261,1.0282933,0
1.360000000000001,8.245487023232945,-0.5676908813541656,2.9094647433862284,1.1346065941269996,11.380558,-0.67214084,-0.124181606,-0.044443186,2.77259,-3.5683963,1.546253,0.41360593,0.59463143,-0.17821248,0.66602165,-5.1983404,7.0100384,0.34289598,-0.3972039,-1.8292261,1.0282933,0
1.370000000000001,8.245487023232945,-0.5676908813541656,2.9094647433862284,1.1346065941269996,11.380558,-0.67214084,-0.124181606,-0.044443186,2.7208717,-3.4985962,1.5492885,0.41405582,0.5826832,-0.17743704,0.6764282,-5.1452823,6.9501104,0.26459172,-0.5676909,2.9094648,1.1346066,0
1.380000000000001,8.245487023232945,-0.5676908813541656,2.9094647433862284,1.1346065941269996,11.380558,-0.67214084,-0.124181606,-0.044443186,2.669683,-3.4293926,1.5515528,0.4144014,0.57058823,-0.1766169,0.68666434,-5.092522,6.890748,0.18864648,-0.5676909,2.9094648,1.1346066,0
1.390000000000001,8.245487023232945,-0.5676908813541656,2.9094647433862284,1.1346065941269996,11.380558,-0.67214084,-0.124181606,-0.044443186,2.6190202,-3.3607795,1.5530694,0.41464263,0.5583495,-0.1757523,0.6967276,-5.0401278,6.831985,0.115042314,-0.5676909,2.9094648,1.1346066,0
1.400000000000001,7.739823739591952,-0.747232099575455,5.186540529172883,1.158316360668972,12.824512,-1.2603053,2.1764643,-0.16291338,2.5688791,-3.2927508,1.5538615,0.41477942,0.5459702,-0.17484343,0.7066153,-4.988165,6.7738547,0.043758914,-0.5676909,2.9094648,1.1346066,0
1.410000000000001,7.739823739591952,-0.747232099575455,5.186540529172883,1.158316360668972,12.824512,-1.2603053,2.1764643,-0.16291338,2.5192392,-3.2252817,1.5539453,0.41711137,0.5248894,-0.16982679,0.72226655,-4.939949,6.720154,-0.026400644,-0.7472321,5.1865406,1.1583164,0
1.420000000000001,7.739823739591952,-0.747232099575455,5.186540529172883,1.158316360668972,12.824512,-1.2603053,2.1764643,-0.16291338,2.470077,-3.158343,1.5533463,0.41914302,0.5034307,-0.16468789,0.7373978,-4.892569,6.667798,-0.09282733,-0.7472321,5.1865406,1.1583164,0
1.430000000000001,7.739823739591952,-0.747232099575455,5.186540529172883,1.158316360668972,12.824512,-1.2603053,2.1764643,-0.16291338,2.421384,-3.0919209,1.5521013,0.42087293,0.4816096,-0.15943041,0.75199807,-4.846191,6.6169,-0.15560535,-0.7472321,5.1865406,1.1583164,0
1.440000000000001,7.739823739591952,-0.747232099575455,5.186540529172883,1.158316360668972,13.59564,-1.3480788,1.741442,-0.05817252,2.3731492,-3.0259998,1.5502464,0.42229977,0.45944172,-0.15405816,0.76605695,-4.800977,6.5675683,-0.21482942,-0.7472321,5.1865406,1.1583164,0
1.450000000000001,7.739823739591952,-0.747232099575455,5.186540529172883,1.158316360668972,13.59564,-1.3480788,1.741442,-0.05817252,2.3253596,-2.9605634,1.5478165,0.42342263,0.43694308,-0.14857498,0.77956426,-4.757087,6.519909,-0.2706045,-0.7472321,5.1865406,1.1583164,0
1.460000000000001,7.739823739591952,-0.747232099575455,5.186540529172883,1.158316360668972,13.59564,-1.3480788,1.741442,-0.05817252,2.278002,-2.8955953,1.5448457,0.42424065,0.41412985,-0.14298484,0.79251033,-4.7146764,6.47402,-0.32304543,-0.7472321,5.1865406,1.1583164,0
1.470000000000001,7.739823739591952,-0.747232099575455,5.186540529172883,1.158316360668972,13.59564,-1.3480788,1.741442,-0.05817252,2.2310603,-2.8310769,1.5413667,0.4247532,0.39101845,-0.13729174,0.8048858,-4.6738963,6.4299965,-0.37227678,-0.7472321,5.1865406,1.1583164,0
1.480000000000001,7.264156644435,-0.9680865398438415,5.8073880166631655,1.0352824349974619,12.81139,-1.044865,0.17584413,-0.18114716,2.1845176,-2.766989,1.5374109,0.42495996,0.36762553,-0.13149981,0.8166818,-4.6348934,6.3879275,-0.4184322,-0.7472321,5.1865406,1.1583164,0
1.490000000000001,7.264156644435,-0.9680865398438415,5.8073880166631655,1.0352824349974619,12.81139,-1.044865,0.17584413,-0.18114716,2.1383438,-2.703299,1.5329918,0.42614028,0.34101364,-0.12495858,0.8285532,-4.6002016,6.350425,-0.46490473,-0.96808654,5.807388,1.0352825,0
1.500000000000001,7.264156644435,-0.9680865398438415,5.8073880166631655,1.0352824349974619,12.81139,-1.044865,0.17584413,-0.18114716,2.092506,-2.639973,1.5281227,0.42693996,0.31409714,-0.11830573,0.8396844,-4.5677524,6.3151035,-0.5084629,-0.96808654,5.807388,1.0352825,0
1.5100000000000011,7.264156644435,-0.9680865398438415,5.8073880166631655,1.0352824349974619,12.81139,-1.044865,0.17584413,-0.18114716,2.0469806,-2.5769892,1.5228319,0.42735824,0.2869,-0.11154718,0.8500656,-4.5376897,6.2820544,-0.54929703,-0.96808654,5.807388,1.0352825,0
1.5200000000000011,7.130877231703263,-1.0984443976543217,5.999983167532616,0.8507789009468496,9.531789,-1.6391249,1.4442685,0.5536588,2.0017433,-2.514324,1.5171456,0.42739475,0.25944662,-0.10468899,0.8596873,-4.510149,6.2513614,-0.58760726,-0.96808654,5.807388,1.0352825,0
1.5300000000000011,7.130877231703263,-1.0984443976543217,5.999983167532616,0.8507789009468496,9.531789,-1.6391249,1.4442685,0.5536588,1.9567658,-2.4519508,1.5110822,0.4281006,0.2307449,-0.097643904,0.86830485,-4.4857674,6.223632,-0.62471485,-1.0984443,5.9999833,0.8507789,0
1.5400000000000011,7.130877231703263,-1.0984443976543217,5.999983167532616,0.8507789009468496,9.531789,-1.6391249,1.4442685,0.5536588,1.912018,-2.3898427,1.5046586,0.4284005,0.20182438,-0.09050623,0.876099,-4.4642434,6.1983995,-0.6596998,-1.0984443,5.9999833,0.8507789,0
1.5500000000000012,7.130877231703263,-1.0984443976543217,5.999983167532616,0.8507789009468496,9.531789,-1.6391249,1.4442685,0.5536588,1.8674707,-2.327974,1.4978948,0.42829415,0.17271252,-0.08328275,0.8830625,-4.445682,6.1757307,-0.6927991,-1.0984443,5.9999833,0.8507789,0
1.5600000000000012,7.563191688897988,-1.1085982997682295,5.999989441307916,0.5676453439118606,9.808789,-0.8188633,1.2402011,0.4167971,1.8230939,-2.266319,1.4908082,0.42778176,0.14343688,-0.07598029,0.88918865,-4.4301777,6.155683,-0.7242569,-1.0984443,5.9999833,0.8507789,0
1.5700000000000012,7.563191688897988,-1.1085982997682295,5.999989441307916,0.5676453439118606,9.808789,-0.8188633,1.2402011,0.4167971,1.7788602,-2.2048569,1.4834349,0.42813164,0.114111684,-0.068448246,0.8938666,-4.4170647,6.1372495,-0.7501991,-1.1085984,5.9999895,0.5676454,0
1.5800000000000012,7.563191688897988,-1.1085982997682295,5.999989441307916,0.5676453439118606,9.808789,-0.8188633,1.2402011,0.4167971,1.7347409,-2.1435645,1.4758084,0.4280796,0.08467937,-0.060851946,0.8977055,-4.407354,6.1216884,-0.77493644,-1.1085984,5.9999895,0.5676454,0
1.5900000000000012,7.563191688897988,-1.1085982997682295,5.999989441307916,0.5676453439118606,9.808789,-0.8188633,1.2402011,0.4167971,1.6907012,-2.0824132,1.4679394,0.42762578,0.055167563,-0.053198524,0.9007017,-4.4010987,6.109039,-0.7987439,-1.1085984,5.9999895,0.5676454,0
1.6000000000000012,8.641853543499977,-0.9810813388634015,5.999953057979799,0.34701295650972735,9.170147,-0.64378965,0.34342164,0.7553173,1.6467067,-2.0213737,1.4598358,0.42677054,0.025603976,-0.045495167,0.9028524,-4.3983397,6.099328,-0.8218999,-1.1085984,5.9999895,0.5676454,0
1.6100000000000012,8.641853543499977,-0.9810813388634015,5.999953057979799,0.34701295650972735,9.170147,-0.64378965,0.34342164,0.7553173,1.6027223,-1.9604217,1.4515563,0.42649665,-0.003661153,-0.037145633,0.9037192,-4.399181,6.091635,-0.83394104,-0.98108137,5.9999533,0.34701297,0
1.6200000000000012,8.641853543499977,-0.9810813388634015,5.999953057979799,0.34701295650972735,9.170147,-0.64378965,0.34342164,0.7553173,1.5587096,-1.8995292,1.4431573,0.4258274,-0.03292289,-0.02876167,0.9037482,-4.403972,6.0874014,-0.8458719,-0.98108137,5.9999533,0.34701297,0
1.6300000000000012,8.641853543499977,-0.9810813388634015,5.999953057979799,0.34701295650972735,9.170147,-0.64378965,0.34342164,0.7553173,1.5146294,-1.8386618,1.4346381,0.42476347,-0.062154107,-0.020351043,0.9029395,-4.4127088,6.0866294,-0.85801214,-0.98108137,5.9999533,0.34701297,0
1.6400000000000012,8.641853543499977,-0.9810813388634015,5.999953057979799,0.34701295650972735,9.300123,-0.6427686,0.74964637,0.60440475,1.4704419,-1.7777847,1.4259952,0.42330578,-0.09132771,-0.01192155,0.9012937,-4.4253697,6.0893073,-0.8706807,-0.98108137,5.9999533,0.34701297,0
1.6500000000000012,8.641853543499977,-0.9810813388634015,5.999953057979799,0.34701295650972735,9.300123,-0.6427686,0.74964637,0.60440475,1.4261085,-1.7168638,1.4172218,0.42145568,-0.120416656,-0.003481006,0.8988125,-4.4419208,6.0954127,-0.88419455,-0.98108137,5.9999533,0.34701297,0
1.6600000000000013,8.641853543499977,-0.9810813388634015,5.999953057979799,0.34701295650972735,9.300123,-0.6427686,0.74964637,0.60440475,1.3815904,-1.6558647,1.4083076,0.4192149,-0.14939398,0.0049627647,0.89549804,-4.462312,6.104908,-0.89886767,-0.98108137,5.9999533,0.34701297,0
1.6700000000000013,8.641853543499977,-0.9810813388634015,5.999953057979799,0.34701295650972735,9.300123,-0.6427686,0.74964637,0.60440475,1.3368493,-1.5947539,1.3992395,0.41658553,-0.17823282,0.013401936,0.8913535,-4.4864798,6.117745,-0.9150096,-0.98108137,5.9999533,0.34701297,0
1.6800000000000013,9.809819551568527,-0.7634561978438286,3.1746152333574833,0.2167802812614121,9.874718,-0.004163596,1.1685625,0.32378942,1.2918481,-1.5334984,1.3900013,0.41356996,-0.20690644,0.021828685,0.88638264,-4.514347,6.133862,-0.9329245,-0.98108137,5.9999533,0.34701297,0
1.6900000000000013,9.809819551568527,-0.7634561978438286,3.1746152333574833,0.2167802812614121,9.874718,-0.004163596,1.1685625,0.32378942,1.2465311,-1.472055,1.380628,0.41141766,-0.22250272,0.025230933,0.8835115,-4.549431,6.1551046,-0.9419161,-0.7634562,3.1746151,0.21678028,0
1.7000000000000013,9.809819551568527,-0.7634561978438286,3.1746152333574833,0.2167802812614121,9.874718,-0.004163596,1.1685625,0.32378942,1.2008518,-1.4103904,1.3711581,0.40915522,-0.23803945,0.028626427,0.8804038,-4.5868235,6.1780853,-0.9522886,-0.7634562,3.1746151,0.21678028,0
1.7100000000000013,9.809819551568527,-0.7634561978438286,3.1746152333574833,0.2167802812614121,9.874718,-0.004163596,1.1685625,0.32378942,1.1547872,-1.3484874,1.361577,0.40678325,-0.25351244,0.03201426,0.8770604,-4.626489,6.2027745,-0.96413577,-0.7634562,3.1746151,0.21678028,0
1.7200000000000013,11.299620554460326,-0.44861332186708774,-0.06789064520122509,0.12467854664724858,10.5303545,0.34502628,0.2283326,0.2318278,1.1083145,-1.2863292,1.3518698,0.40430242,-0.2689176,0.03539352,0.8734823,-4.66839,6.22914,-0.97754973,-0.7634562,3.1746151,0.21678028,1
1.7300000000000013,11.299620554460326,-0.44861332186708774,-0.06789064520122509,0.12467854664724858,10.5303545,0.34502628,0.2283326,0.2318278,1.0613985,-1.2238902,1.3420528,0.4037123,-0.26917556,0.03767358,0.8735804,-4.7147956,6.2587023,-0.9858644,0.34502628,0.2283326,0.2318278,1
1.7400000000000013,11.299620554460326,-0.44861332186708774,-0.06789064520122509,0.12467854664724858,10.5303545,0.34502628,0.2283326,0.2318278,1.014019,-1.1611537,1.3321522,0.40311992,-0.26943204,0.039953426,0.87367356,-4.7610645,6.2886734,-0.9942441,0.34502628,0.2283326,0.2318278,1
1.7500000000000013,11.299620554460326,-0.44861332186708774,-0.06789064520122509,0.12467854664724858,10.5303545,0.34502628,0.2283326,0.2318278,0.9661775,-1.0981154,1.3221676,0.40252528,-0.26968697,0.04223305,0.8737619,-4.8071976,6.3190527,-1.002691,0.34502628,0.2283326,0.2318278,1
1.7600000000000013,12.525448799964266,-0.4245623390482098,-1.8734742073982618,0.08126968665806426,11.813545,0.9816645,-0.33733436,0.20508271,0.9178754,-1.0347713,1.3120983,0.40192837,-0.26994038,0.044512436,0.8738452,-4.8531938,6.34984,-1.0112071,0.34502628,0.2283326,0.2318278,0
1.7700000000000014,12.525448799964266,-0.4245623390482098,-1.8734742073982618,0.08126968665806426,11.813545,0.9816645,-0.33733436,0.20508271,0.8690713,-0.9710904,1.3020294,0.40139863,-0.2625775,0.039000135,0.8765912,-4.9074783,6.3860316,-1.0023882,-0.42456234,-1.8734742,0.08126969,0
1.7800000000000014,12.525448799964266,-0.4245623390482098,-1.8734742073982618,0.08126968665806426,11.813545,0.9816645,-0.33733436,0.20508271,0.8197288,-0.90705734,1.2920542,0.40083182,-0.25519037,0.03348423,0.8792561,-4.9608846,6.4202623,-0.9924867,-0.42456234,-1.8734742,0.08126969,0
1.7900000000000014,12.525448799964266,-0.4245623390482098,-1.8734742073982618,0.08126968665806426,11.813545,0.9816645,-0.33733436,0.20508271,0.7698567,-0.8426919,1.2821833,0.40022796,-0.24777968,0.02796523,0.8818399,-5.0133905,6.4525204,-0.98154163,-0.42456234,-1.8734742,0.08126969,0
1.8000000000000014,13.503625950165857,-0.3036911792645564,-1.3634502840538054,0.0907761719487968,11.240997,-0.06086919,-0.7636517,0.42762512,0.7194642,-0.77801377,1.2724268,0.3995871,-0.24034607,0.022443645,0.88434213,-5.0649743,6.4827957,-0.96959287,-0.42456234,-1.8734742,0.08126969,0
1.8100000000000014,13.503625950165857,-0.3036911792645564,-1.3634502840538054,0.0907761719487968,11.240997,-0.06086919,-0.7636517,0.42762512,0.66854036,-0.7130311,1.2628378,0.39896393,-0.23490801,0.018485297,0.8861744,-5.1196747,6.5135083,-0.9481138,-0.30369118,-1.3634503,0.090776175,0
1.8200000000000014,13.503625950165857,-0.3036911792645564,-1.3634502840538054,0.0907761719487968,11.240997,-0.06086919,-0.7636517,0.42762512,0.6170733,-0.64774907,1.2534671,0.39832124,-0.22945845,0.014526042,0.88796324,-5.1736183,6.5426564,-0.9259016,-0.30369118,-1.3634503,0.090776175,0
1.8300000000000014,13.503625950165857,-0.3036911792645564,-1.3634502840538054,0.0907761719487968,11.240997,-0.06086919,-0.7636517,0.42762512,0.5650706,-0.58218336,1.2443221,0.3976591,-0.22399764,0.010566076,0.8897086,-5.226793,6.570235,-0.9029793,-0.30369118,-1.3634503,0.090776175,0
1.8400000000000014,13.503625950165857,-0.3036911792645564,-1.3634502840538054,0.0907761719487968,11.3081665,-0.07910356,-1.2421566,0.43381268,0.5125401,-0.51634973,1.2354097,0.39697742,-0.21852586,0.0066055926,0.89141035,-5.2791867,6.5962396,-0.87937015,-0.30369118,-1.3634503,0.090776175,0
1.8500000000000014,13.503625950165857,-0.3036911792645564,-1.3634502840538054,0.0907761719487968,11.3081665,-0.07910356,-1.2421566,0.43381268,0.4594896,-0.45026395,1.2267369,0.39627632,-0.21304338,0.0026447857,0.8930685,-5.3307886,6.620666,-0.8550974,-0.30369118,-1.3634503,0.090776175,0
1.8600000000000014,13.503625950165857,-0.3036911792645564,-1.3634502840538054,0.0907761719487968,11.3081665,-0.07910356,-1.2421566,0.43381268,0.4059271,-0.38394183,1.21831,0.39555582,-0.20755045,-0.0013161511,0.8946828,-5.381587,6.643511,-0.8301846,-0.30369118,-1.3634503,0.090776175,0
1.8700000000000014,13.503625950165857,-0.3036911792645564,-1.3634502840538054,0.0907761719487968,11.3081665,-0.07910356,-1.2421566,0.43381268,0.35186067,-0.3173992,1.2101353,0.39481592,-0.20204736,-0.005277023,0.8962533,-5.4315705,6.66477,-0.8046552,-0.30369118,-1.3634503,0.090776175,0
1.8800000000000014,13.98022341359315,-0.12052377932075352,-1.026504924176634,0.0962428730237932,12.427335,0.13393918,-0.4651788,0.1955716,0.29729852,-0.2506519,1.2022189,0.39405668,-0.19653438,-0.009237638,0.8977799,-5.4807277,6.6844406,-0.77853304,-0.30369118,-1.3634503,0.090776175,0
1.8900000000000015,13.98022341359315,-0.12052377932075352,-1.026504924176634,0.0962428730237932,12.427335,0.13393918,-0.4651788,0.1955716,0.24224028,-0.18371205,1.1945884,0.3934535,-0.19216578,-0.011706451,0.89896053,-5.5307946,6.703349,-0.74748087,-0.12052378,-1.0265049,0.096242875,0
1.9000000000000015,13.98022341359315,-0.12052377932075352,-1.026504924176634,0.0962428730237932,12.427335,0.13393918,-0.4651788,0.1955716,0.18668523,-0.116588816,1.1872708,0.39283973,-0.18779202,-0.014174949,0.900117,-5.5800962,6.7211204,-0.71597356,-0.12052378,-1.0265049,0.096242875,0
1.9100000000000015,13.98022341359315,-0.12052377932075352,-1.026504924176634,0.0962428730237932,12.427335,0.13393918,-0.4651788,0.1955716,0.13064101,-0.049293563,1.1802704,0.39221537,-0.1834132,-0.016643066,0.90124923,-5.628626,6.7377524,-0.6840245,-0.12052378,-1.0265049,0.096242875,0
1.9200000000000015,14.508655151471661,0.08219191976028059,-0.1819614136204177,0.10629041013989844,12.980606,-0.041352365,-0.35217974,0.109588325,0.074115396,0.018162316,1.1735917,0.39158046,-0.17902942,-0.019110734,0.90235716,-5.6763773,6.753245,-0.6516473,-0.12052378,-1.0265049,0.096242875,0
1.9300000000000015,14.508655151471661,0.08219191976028059,-0.1819614136204177,0.10629041013989844,12.980606,-0.041352365,-0.35217974,0.109588325,0.017106649,0.08577134,1.1672633,0.39115685,-0.17805757,-0.019001005,0.9027354,-5.7253323,6.7685437,-0.61402905,0.08219192,-0.18196142,0.10629041,0
1.9400000000000015,14.508655151471661,0.08219191976028059,-0.1819614136204177,0.10629041013989844,12.980606,-0.041352365,-0.35217974,0.109588325,-0.040390395,0.15353282,1.1613115,0.39073277,-0.1770855,-0.018891254,0.90311253,-5.7740374,6.783737,-0.57630897,0.08219192,-0.18196142,0.10629041,0
1.9500000000000015,14.508655151471661,0.08219191976028059,-0.1819614136204177,0.10629041013989844,12.980606,-0.041352365,-0.35217974,0.109588325,-0.09837325,0.2214457,1.1557374,0.39030814,-0.1761132,-0.01878148,0.90348846,-5.8224926,6.798825,-0.53848773,0.08219192,-0.18196142,0.10629041,0
1.9600000000000015,14.629232846498498,0.19619452167536314,-0.1870295492720373,0.10717231295259262,13.093773,0.1666154,-0.8595911,0.088012636,-0.1568394,0.28950894,1.150542,0.38988298,-0.17514066,-0.01867168,0.90386325,-5.870697,6.8138075,-0.5005658,0.08219192,-0.18196142,0.10629041,0
1.9700000000000015,14.629232846498498,0.19619452167536314,-0.1870295492720373,0.10717231295259262,13.093773,0.1666154,-0.8595911,0.088012636,-0.21578822,0.35772222,1.145732,0.38955256,-0.17392278,-0.018055743,0.9042533,-5.9190035,6.8288507,-0.4614011,0.19619451,-0.18702956,0.10717231,0
1.9800000000000015,14.629232846498498,0.19619452167536314,-0.1870295492720373,0.10717231295259262,13.093773,0.1666154,-0.8595911,0.088012636,-0.2752182,0.42608595,1.1413144,0.3892213,-0.17270452,-0.017439766,0.90464145,-5.966936,6.8438993,-0.42210576,0.19619451,-0.18702956,0.10717231,0
1.9900000000000015,14.629232846498498,0.19619452167536314,-0.1870295492720373,0.10717231295259262,13.093773,0.1666154,-0.8595911,0.088012636,-0.33512563,0.4946002,1.1372904,0.38888925,-0.1714859,-0.016823754,0.9050277,-6.0144935,6.858953,-0.3826809,0.19619451,-0.18702956,0.10717231,0
2.0000000000000013,,,,,13.05603,0.062760144,-0.520068,0.081798255,-0.39550677,0.563265,1.1336612,0.38855636,-0.1702669,-0.016207706,0.905412,-6.061676,6.8740125,-0.34312752,0.19619451,-0.18702956,0.10717231,0
2.010000000000001,,,,,13.05603,0.062760144,-0.520068,0.081798255,-0.45635924,0.63208103,1.1304319,0.38821128,-0.16972576,-0.015116339,0.9056805,-6.1087813,6.889236,-0.30272555,0.2287991,-0.023438817,0.118758336,0
2.020000000000001,,,,,13.05603,0.062760144,-0.520068,0.081798255,-0.51768154,0.7010504,1.1276069,0.38786557,-0.16918434,-0.014024946,0.9059474,-6.15563,6.9046702,-0.26225972,0.2287991,-0.023438817,0.118758336,0
2.0300000000000007,,,,,13.05603,0.062760144,-0.520068,0.081798255,-0.579471,0.77017516,1.1251869,0.3875192,-0.16864264,-0.012933531,0.9062128,-6.2022214,6.9203153,-0.22173086,0.2287991,-0.023438817,0.118758336,0
2.0400000000000005,,,,,13.05603,0.062760144,-0.520068,0.081798255,-0.64172506,0.83945745,1.1231725,0.3871722,-0.16810066,-0.011842093,0.90647674,-6.2485557,6.9361715,-0.18113986,0.2287991,-0.023438817,0.118758336,0
2.0500000000000003,,,,,13.270586,-0.029299352,-0.45332253,0.10866302,-0.7044412,0.9088993,1.1215644,0.38682455,-0.1675584,-0.0107506355,0.9067391,-6.294633,6.9522386,-0.1404875,0.2287991,-0.023438817,0.118758336,1
2.06,,,,,13.270586,-0.029299352,-0.45332253,0.10866302,-0.7675942,0.9784943,1.1202953,0.38628194,-0.16556522,-0.011669184,0.907325,-6.3359256,6.966685,-0.11329976,-0.029299352,-0.45332253,0.10866302,1
2.07,,,,,13.270586,-0.029299352,-0.45332253,0.10866302,-0.8311584,1.0482314,1.1192989,0.3857372,-0.16357115,-0.012587669,0.907906,-6.3768563,6.98068,-0.08594217,-0.029299352,-0.45332253,0.10866302,1
2.0799999999999996,,,,,13.270586,-0.029299352,-0.45332253,0.10866302,-0.89513004,1.1181061,1.1185771,0.3851904,-0.16157618,-0.013506086,0.908482,-6.417424,6.9942236,-0.058417227,-0.029299352,-0.45332253,0.10866302,1
2.0899999999999994,,,,,13.581914,-0.16513011,-0.0344261,0.05236358,-0.95950556,1.1881142,1.1181312,0.38464147,-0.15958034,-0.014424427,0.9090531,-6.4576273,7.0073166,-0.030727416,-0.029299352,-0.45332253,0.10866302,1
2.099999999999999,,,,,13.581914,-0.16513011,-0.0344261,0.05236358,-1.0242865,1.2582526,1.1179776,0.38426906,-0.15974514,-0.015199409,0.909169,-6.498587,7.020356,1.0016374e-05,-0.16513011,-0.0344261,0.05236358,1
2.109999999999999,,,,,13.581914,-0.16513011,-0.0344261,0.05236358,-1.0894777,1.3285205,1.1181314,0.38389638,-0.15990983,-0.01597438,0.90928423,-6.5396724,7.033205,0.030726796,-0.16513011,-0.0344261,0.05236358,1
2.1199999999999988,,,,,13.581914,-0.16513011,-0.0344261,0.05236358,-1.1550804,1.3989159,1.1185923,0.38352337,-0.1600744,-0.016749337,0.90939873,-6.580882,7.045863,0.06142259,-0.16513011,-0.0344261,0.05236358,1
2.1299999999999986,,,,,13.430266,-0.15003213,-0.00096348114,0.12170237,-1.2210958,1.4694369,1.1193599,0.3831501,-0.16023885,-0.017524283,0.9095125,-6.6222167,7.0583305,0.09209707,-0.16513011,-0.0344261,0.05236358,1
2.1399999999999983,,,,,13.430266,-0.15003213,-0.00096348114,0.12170237,-1.2875228,1.5400811,1.1204268,0.38247618,-0.16053247,-0.018110894,0.90973294,-6.663219,7.070487,0.12130882,-0.15003213,-0.00096348114,0.12170237,1
2.149999999999998,,,,,13.430266,-0.15003213,-0.00096348114,0.12170237,-1.3543607,1.6108462,1.121786,0.3818019,-0.16082595,-0.018697487,0.9099524,-6.7043586,7.0825,0.15048957,-0.15003213,-0.00096348114,0.12170237,1
2.159999999999998,,,,,13.430266,-0.15003213,-0.00096348114,0.12170237,-1.4216106,1.6817306,1.1234366,0.38112727,-0.16111928,-0.019284064,0.9101711,-6.745637,7.0943694,0.17963912,-0.15003213,-0.00096348114,0.12170237,1
2.1699999999999977,,,,,12.957257,0.5223056,0.4329157,0.09186429,-1.489274,1.7527331,1.1253786,0.38045228,-0.16141246,-0.019870622,0.9103889,-6.787053,7.106095,0.20875722,-0.15003213,-0.00096348114,0.12170237,1
2.1799999999999975,,,,,12.957257,0.5223056,0.4329157,0.09186429,-1.5573447,1.8238511,1.1275892,0.3804964,-0.16239767,-0.016595345,0.9102608,-6.827057,7.117648,0.23335677,0.5223056,0.4329157,0.09186429,1
