time-since-start [s],throttle_mpc,roll_mpc,pitch_mpc,yaw_mpc,throttle_nw,roll_nw,pitch_nw,yaw_nw,position_x [m],position_y [m],position_z [m],rotation_w [quaternion],rotation_x [quaternion],rotation_y [quaternion],rotation_z [quaternion],velocity_x [m/s],velocity_y [m/s],velocity_z [m/s],omega_x [rad/s],omega_y [rad/s],omega_z [rad/s],network_used
0.0,10.837217979474385,5.999999608718663,-5.999999848434976,-0.0062549926098414005,14.593806,-1.096714,-4.022355,-0.6591794,12.973533,-10.6136,1.5866098,0.34068125,-0.48335728,0.3229626,0.7389162,-9.882795,0.23084074,-1.6596903,0.65613496,0.34242573,0.68285346,0
0.01,10.837217979474385,5.999999608718663,-5.999999848434976,-0.0062549926098414005,14.368224,-0.675784,-3.1096213,-0.8326077,12.874444,-10.610852,1.5697037,0.36458012,-0.45055422,0.33460036,0.74305105,-9.933598,0.31908467,-1.7207754,5.9999995,-6.0,-0.0062549924,0
0.02,10.837217979474385,5.999999608718663,-5.999999848434976,-0.0062549926098414005,14.368224,-0.675784,-3.1096213,-0.8326077,12.774887,-10.607211,1.5522113,0.38782287,-0.41694027,0.3456359,0.7458486,-9.97683,0.40916336,-1.7769845,5.9999995,-6.0,-0.0062549924,0
0.03,10.837217979474385,5.999999608718663,-5.999999848434976,-0.0062549926098414005,14.368224,-0.675784,-3.1096213,-0.8326077,12.674935,-10.602664,1.5341798,0.4103676,-0.38257593,0.3560494,0.7473038,-10.012178,0.5004283,-1.8286185,5.9999995,-6.0,-0.0062549924,0
0.04,10.837217979474385,5.999999608718663,-5.999999848434976,-0.0062549926098414005,14.54299,-1.6636304,-1.5084431,-0.64894825,12.574672,-10.597201,1.5156535,0.43217382,-0.34752306,0.3658221,0.74741405,-10.039392,0.5922225,-1.8760115,5.9999995,-6.0,-0.0062549924,0
0.05,10.837217979474385,5.999999608718663,-5.999999848434976,-0.0062549926098414005,14.54299,-1.6636304,-1.5084431,-0.64894825,12.474176,-10.590819,1.4966727,0.45320222,-0.31184474,0.3749364,0.7461791,-10.058273,0.6838851,-1.9195278,5.9999995,-6.0,-0.0062549924,0
0.060000000000000005,10.837217979474385,5.999999608718663,-5.999999848434976,-0.0062549926098414005,14.54299,-1.6636304,-1.5084431,-0.64894825,12.373534,-10.583526,1.4772747,0.473415,-0.27560517,0.38337594,0.74360126,-10.0686865,0.77475625,-1.9595598,5.9999995,-6.0,-0.0062549924,0
0.07,10.837217979474385,5.999999608718663,-5.999999848434976,-0.0062549926098414005,14.54299,-1.6636304,-1.5084431,-0.64894825,12.272831,-10.575331,1.457492,0.49277574,-0.23886962,0.3911255,0.73968524,-10.070558,0.86418176,-1.9965248,5.9999995,-6.0,-0.0062549924,0
0.08,17.459873896779673,5.999990050900011,-5.999999695081761,-0.15156085308874326,15.485483,-2.754645,-0.92604166,0.31406873,12.1721525,-10.566251,1.437353,0.5112496,-0.20170416,0.39817113,0.7344379,-10.063875,0.95151794,-2.0308623,5.9999995,-6.0,-0.0062549924,0
0.09,17.459873896779673,5.999990050900011,-5.999999695081761,-0.15156085308874326,15.485483,-2.754645,-0.92604166,0.31406873,12.071625,-10.556049,1.4170825,0.5293367,-0.16446488,0.4043535,0.7274972,-10.039402,1.087845,-2.0227377,5.99999,-5.9999995,-0.15156086,0
0.09999999999999999,17.459873896779673,5.999990050900011,-5.999999695081761,-0.15156085308874326,15.485483,-2.754645,-0.92604166,0.31406873,11.971411,-10.544512,1.3969076,0.54647076,-0.12692949,0.40980792,0.71924686,-10.001407,1.2188014,-2.0118678,5.99999,-5.9999995,-0.15156086,0
0.10999999999999999,17.459873896779673,5.999990050900011,-5.999999695081761,-0.15156085308874326,15.485483,-2.754645,-0.92604166,0.31406873,11.871643,-10.531695,1.3768518,0.56262106,-0.08916559,0.41452459,0.7097017,-9.950171,1.3434328,-1.9990191,5.99999,-5.9999995,-0.15156086,0
0.11999999999999998,17.459873896779673,5.999990050900011,-5.999999695081761,-0.15156085308874326,15.485483,-2.754645,-0.92604166,0.31406873,11.772453,-10.517669,1.3569312,0.57775843,-0.051241163,0.41849494,0.6988788,-9.886073,1.4608306,-1.9849735,5.99999,-5.9999995,-0.15156086,0
0.12999999999999998,20.501042242981857,1.8150128835400507,-5.999998370740699,1.2007456127079317,14.459444,-3.226364,1.9627382,-0.07452804,11.673965,-10.502508,1.3371538,0.59185565,-0.013224484,0.4217119,0.6867978,-9.809581,1.5701381,-1.9705205,5.99999,-5.9999995,-0.15156086,0
0.13999999999999999,20.501042242981857,1.8150128835400507,-5.999998370740699,1.2007456127079317,14.459444,-3.226364,1.9627382,-0.07452804,11.57637,-10.486208,1.3176228,0.60020083,0.015284311,0.41005558,0.68657106,-9.708468,1.6882765,-1.9350691,1.8150129,-5.9999986,1.2007456,0
0.15,20.501042242981857,1.8150128835400507,-5.999998370740699,1.2007456127079317,14.459444,-3.226364,1.9627382,-0.07452804,11.479818,-10.468779,1.2984653,0.6079348,0.04377754,0.3979817,0.6856452,-9.600867,1.7959667,-1.8959057,1.8150129,-5.9999986,1.2007456,0
0.16,19.64122381661798,-1.0659847346828297,-2.077792094788526,1.0819640804905633,12.507828,-3.6939352,2.0492747,-0.23035127,11.384374,-10.450326,1.2797152,0.6150498,0.0722262,0.38550258,0.6840212,-9.487093,1.8928152,-1.8536767,1.8150129,-5.9999986,1.2007456,0
0.17,19.64122381661798,-1.0659847346828297,-2.077792094788526,1.0819640804905633,12.507828,-3.6939352,2.0492747,-0.23035127,11.290065,-10.430971,1.2613708,0.6156884,0.07813366,0.37504473,0.68859607,-9.374807,1.9776114,-1.8147441,-1.0659847,-2.0777922,1.0819641,0
0.18000000000000002,19.64122381661798,-1.0659847346828297,-2.077792094788526,1.0819640804905633,12.507828,-3.6939352,2.0492747,-0.23035127,11.196876,-10.410787,1.2434297,0.61622494,0.08402818,0.36452475,0.6930569,-9.263235,2.058799,-1.7730715,-1.0659847,-2.0777922,1.0819641,0
0.19000000000000003,19.64122381661798,-1.0659847346828297,-2.077792094788526,1.0819640804905633,12.507828,-3.6939352,2.0492747,-0.23035127,11.104797,-10.389809,1.2259187,0.61665946,0.08990878,0.35394442,0.697403,-9.152397,2.136312,-1.728754,-1.0659847,-2.0777922,1.0819641,0
0.20000000000000004,18.38455204378073,-1.5200790609137858,0.04392182931761518,0.9157021324557156,15.0344925,-3.0830119,5.722894,-0.07892066,11.013824,-10.368073,1.2088635,0.61699194,0.09577449,0.34330547,0.70163363,-9.042313,2.2100863,-1.6818888,-1.0659847,-2.0777922,1.0819641,0
0.21000000000000005,18.38455204378073,-1.5200790609137858,0.04392182931761518,0.9157021324557156,15.0344925,-3.0830119,5.722894,-0.07892066,10.923912,-10.345638,1.1922415,0.61440784,0.092499115,0.33765632,0.7070611,-8.940568,2.2769473,-1.6422343,-1.520079,0.04392183,0.9157021,0
0.22000000000000006,18.38455204378073,-1.5200790609137858,0.04392182931761518,0.9157021324557156,15.0344925,-3.0830119,5.722894,-0.07892066,10.835005,-10.322535,1.1760243,0.6117752,0.08921646,0.3319806,0.7124329,-8.841092,2.3438406,-1.6009476,-1.520079,0.04392183,0.9157021,0
0.23000000000000007,18.38455204378073,-1.5200790609137858,0.04392182931761518,0.9157021324557156,15.0344925,-3.0830119,5.722894,-0.07892066,10.747082,-10.298761,1.160228,0.60909444,0.08592678,0.32627872,0.7177486,-8.743905,2.4107273,-1.5580535,-1.520079,0.04392183,0.9157021,0
0.24000000000000007,18.38455204378073,-1.5200790609137858,0.04392182931761518,0.9157021324557156,14.652211,-2.6360133,4.605766,-0.13155586,10.660118,-10.274321,1.1448686,0.60636574,0.08263032,0.32055113,0.72300774,-8.649022,2.4775677,-1.513577,-1.520079,0.04392183,0.9157021,0
0.25000000000000006,18.38455204378073,-1.5200790609137858,0.04392182931761518,0.9157021324557156,14.652211,-2.6360133,4.605766,-0.13155586,10.574093,-10.249211,1.1299617,0.6035892,0.07932736,0.31479827,0.7282099,-8.556459,2.5443232,-1.4675436,-1.520079,0.04392183,0.9157021,0
0.26000000000000006,18.38455204378073,-1.5200790609137858,0.04392182931761518,0.9157021324557156,14.652211,-2.6360133,4.605766,-0.13155586,10.488981,-10.223434,1.115523,0.6007651,0.076018155,0.3090206,0.7333547,-8.466232,2.6109543,-1.4199795,-1.520079,0.04392183,0.9157021,0
0.2700000000000001,18.38455204378073,-1.5200790609137858,0.04392182931761518,0.9157021324557156,14.652211,-2.6360133,4.605766,-0.13155586,10.404759,-10.196993,1.1015674,0.5978937,0.07270295,0.3032186,0.7384417,-8.378357,2.6774213,-1.3709109,-1.520079,0.04392183,0.9157021,0
0.2800000000000001,17.300508052702785,-1.8034746828675468,1.4236512116713473,0.7430110761736861,14.922092,-2.813375,3.3845747,0.12591618,10.321404,-10.169888,1.0881099,0.59497523,0.06938202,0.29739273,0.74347055,-8.292846,2.7436852,-1.3203653,-1.520079,0.04392183,0.9157021,0
0.2900000000000001,17.300508052702785,-1.8034746828675468,1.4236512116713473,0.7430110761736861,14.922092,-2.813375,3.3845747,0.12591618,10.238868,-10.142137,1.0751204,0.59067863,0.059824698,0.2946444,0.7488022,-8.215028,2.8066201,-1.277352,-1.8034747,1.4236512,0.74301106,0
0.3000000000000001,17.300508052702785,-1.8034746828675468,1.4236512116713473,0.7430110761736861,14.922092,-2.813375,3.3845747,0.12591618,10.157093,-10.113748,1.062566,0.586296,0.050258655,0.29185313,0.7540246,-8.14058,2.8714266,-1.2333704,-1.8034747,1.4236512,0.74301106,0
0.3100000000000001,17.300508052702785,-1.8034746828675468,1.4236512116713473,0.7430110761736861,14.922092,-2.813375,3.3845747,0.12591618,10.076045,-10.084702,1.050456,0.5818278,0.040685285,0.2890193,0.75913715,-8.0695505,2.9380465,-1.1884806,-1.8034747,1.4236512,0.74301106,0
0.3200000000000001,16.54902456209215,-1.907040607821827,2.6132908304395643,0.5798301557157145,15.2618065,-3.1046712,2.9702606,0.25242466,9.995691,-10.05498,1.0387993,0.57727486,0.031105984,0.28614333,0.76413906,-8.001985,3.006421,-1.1427426,-1.8034747,1.4236512,0.74301106,0
0.3300000000000001,16.54902456209215,-1.907040607821827,2.6132908304395643,0.5798301557157145,15.2618065,-3.1046712,2.9702606,0.25242466,9.915979,-10.02458,1.0275719,0.5715396,0.016442996,0.28627124,0.7688441,-7.941015,3.0740962,-1.1026853,-1.9070406,2.6132908,0.57983017,0
0.34000000000000014,16.54902456209215,-1.907040607821827,2.6132908304395643,0.5798301557157145,15.2618065,-3.1046712,2.9702606,0.25242466,9.836856,-9.993487,1.016746,0.5656499,0.001775566,0.28632182,0.7733416,-7.8842754,3.1450477,-1.0624694,-1.9070406,2.6132908,0.57983017,0
0.35000000000000014,16.54902456209215,-1.907040607821827,2.6132908304395643,0.5798301557157145,15.2618065,-3.1046712,2.9702606,0.25242466,9.75828,-9.961669,1.0063226,0.55960745,-0.012892342,0.2862951,0.7776302,-7.831842,3.21918,-1.0222223,-1.9070406,2.6132908,0.57983017,0
0.36000000000000015,16.219398159060027,-1.7306734047985208,2.244604858978531,0.4422669344608621,15.5621395,-2.791406,2.6625166,0.37386388,9.680205,-9.929092,0.99630135,0.55341387,-0.02755677,0.28619102,0.7817089,-7.7837844,3.296395,-0.982072,-1.9070406,2.6132908,0.57983017,0
0.37000000000000016,16.219398159060027,-1.7306734047985208,2.244604858978531,0.4422669344608621,15.5621395,-2.791406,2.6625166,0.37386388,9.602586,-9.895738,0.9866668,0.54817814,-0.04048266,0.2856691,0.78501946,-7.7408543,3.3748295,-0.9448565,-1.7306734,2.2446048,0.44226694,0
0.38000000000000017,16.219398159060027,-1.7306734047985208,2.244604858978531,0.4422669344608621,15.5621395,-2.791406,2.6625166,0.37386388,9.525375,-9.861587,0.9774034,0.5428296,-0.053400215,0.2850884,0.78816843,-7.7018404,3.4556606,-0.907866,-1.7306734,2.2446048,0.44226694,0
0.3900000000000002,16.219398159060027,-1.7306734047985208,2.244604858978531,0.4422669344608621,15.5621395,-2.791406,2.6625166,0.37386388,9.448536,-9.826616,0.96850836,0.5373694,-0.066306785,0.28444904,0.7911553,-7.666783,3.5388095,-0.8711978,-1.7306734,2.2446048,0.44226694,0
0.4000000000000002,16.139908651705074,-1.3915607125556952,1.0287187466884782,0.3316235802491389,15.104917,-2.2252383,2.3857932,0.04634923,9.372027,-9.790804,0.95997804,0.53179866,-0.079199724,0.2837512,0.79397947,-7.6357193,3.624195,-0.8349491,-1.7306734,2.2446048,0.44226694,0
0.4100000000000002,16.139908651705074,-1.3915607125556952,1.0287187466884782,0.3316235802491389,15.104917,-2.2252383,2.3857932,0.04634923,9.29581,-9.754129,0.9518051,0.52845097,-0.08651013,0.28108257,0.7963973,-7.6083207,3.710779,-0.79962623,-1.3915607,1.0287187,0.33162358,0
0.4200000000000002,16.139908651705074,-1.3915607125556952,1.0287187466884782,0.3316235802491389,15.104917,-2.2252383,2.3857932,0.04634923,9.2198515,-9.716586,0.9439859,0.52506226,-0.09381381,0.27839208,0.7987534,-7.583629,3.7980473,-0.76422095,-1.3915607,1.0287187,0.33162358,0
0.4300000000000002,16.139908651705074,-1.3915607125556952,1.0287187466884782,0.3316235802491389,15.104917,-2.2252383,2.3857932,0.04634923,9.144128,-9.678166,0.9365209,0.52163285,-0.101110205,0.27568,0.8010474,-7.561653,3.885966,-0.72876793,-1.3915607,1.0287187,0.33162358,0
0.4400000000000002,16.139908651705074,-1.3915607125556952,1.0287187466884782,0.3316235802491389,15.852187,-1.8900193,2.4624267,0.3243193,9.068609,-9.638864,0.9294105,0.51816297,-0.10839876,0.27294654,0.8032793,-7.542401,3.9745016,-0.69330204,-1.3915607,1.0287187,0.33162358,0
0.45000000000000023,16.139908651705074,-1.3915607125556952,1.0287187466884782,0.3316235802491389,15.852187,-1.8900193,2.4624267,0.3243193,8.99327,-9.598674,0.92265475,0.5146527,-0.1156789,0.27019188,0.8054488,-7.52588,4.0636196,-0.657858,-1.3915607,1.0287187,0.33162358,0
0.46000000000000024,16.139908651705074,-1.3915607125556952,1.0287187466884782,0.3316235802491389,15.852187,-1.8900193,2.4624267,0.3243193,8.918082,-9.55759,0.9162531,0.5111027,-0.12295006,0.26741624,0.8075558,-7.512097,4.1532865,-0.6224707,-1.3915607,1.0287187,0.33162358,0
0.47000000000000025,16.139908651705074,-1.3915607125556952,1.0287187466884782,0.3316235802491389,15.852187,-1.8900193,2.4624267,0.3243193,8.843018,-9.515607,0.9102049,0.5075129,-0.13021168,0.26461986,0.8096001,-7.501057,4.243468,-0.5871747,-1.3915607,1.0287187,0.33162358,0
0.48000000000000026,16.111947712130323,-1.092397924575401,0.2949210195167672,0.3022005543973807,16.086002,-1.6043702,2.4178886,0.54581517,8.76805,-9.472719,0.9045091,0.50388384,-0.1374632,0.2618029,0.8115816,-7.492767,4.3341293,-0.552005,-1.3915607,1.0287187,0.33162358,0
0.49000000000000027,16.111947712130323,-1.092397924575401,0.2949210195167672,0.3022005543973807,16.086002,-1.6043702,2.4178886,0.54581517,8.693152,-9.428925,0.8991636,0.50151205,-0.1410142,0.25831634,0.8135563,-7.486876,4.4248137,-0.5170604,-1.0923979,0.294921,0.30220056,0
0.5000000000000002,16.111947712130323,-1.092397924575401,0.2949210195167672,0.3022005543973807,16.086002,-1.6043702,2.4178886,0.54581517,8.618305,-9.384224,0.8941688,0.4991231,-0.14456038,0.25482088,0.8155031,-7.4827666,4.515214,-0.48185533,-1.0923979,0.294921,0.30220056,0
0.5100000000000002,16.111947712130323,-1.092397924575401,0.2949210195167672,0.3022005543973807,16.086002,-1.6043702,2.4178886,0.54581517,8.54349,-9.338621,0.8895273,0.49671698,-0.14810158,0.25131673,0.817422,-7.480438,4.605313,-0.4464039,-1.0923979,0.294921,0.30220056,0
0.5200000000000002,16.02673441256515,-0.669501850108561,-0.8034149380226966,0.2691240525774574,16.08545,-1.3457226,1.9058875,0.6190991,8.468691,-9.292118,0.88524157,0.49429384,-0.15163772,0.24780391,0.81931275,-7.4798903,4.695095,-0.41072017,-1.0923979,0.294921,0.30220056,0
0.5300000000000002,16.02673441256515,-0.669501850108561,-0.8034149380226966,0.2691240525774574,16.08545,-1.3457226,1.9058875,0.6190991,8.393888,-9.244724,0.88131094,0.49367198,-0.14966549,0.2432761,0.8214045,-7.480582,4.783686,-0.37526643,-0.66950184,-0.80341494,0.26912406,0
0.5400000000000003,16.02673441256515,-0.669501850108561,-0.8034149380226966,0.2691240525774574,16.08545,-1.3457226,1.9058875,0.6190991,8.3190775,-9.196451,0.87773937,0.49303576,-0.14768888,0.2387412,0.82347244,-7.481621,4.870905,-0.33891478,-0.66950184,-0.80341494,0.26912406,0
0.5500000000000003,16.02673441256515,-0.669501850108561,-0.8034149380226966,0.2691240525774574,16.08545,-1.3457226,1.9058875,0.6190991,8.244254,-9.147311,0.87453574,0.49238512,-0.14570798,0.23419935,0.82551634,-7.4830017,4.956741,-0.30167937,-0.66950184,-0.80341494,0.26912406,0
0.5600000000000003,15.97152420058043,-0.34114287550849554,-1.2948596310333296,0.27283088270308586,16.534674,-1.1404799,1.288192,0.5589244,8.169415,-9.09732,0.8717088,0.49172017,-0.14372282,0.22965065,0.82753617,-7.48472,5.041184,-0.26357457,-0.66950184,-0.80341494,0.26912406,0
0.5700000000000003,15.97152420058043,-0.34114287550849554,-1.2948596310333296,0.27283088270308586,16.534674,-1.1404799,1.288192,0.5589244,8.094559,-9.046494,0.86926514,0.4918215,-0.13888724,0.2252463,0.8295098,-7.4864516,5.1237993,-0.22499847,-0.34114286,-1.2948596,0.27283087,0
0.5800000000000003,15.97152420058043,-0.34114287550849554,-1.2948596310333296,0.27283088270308586,16.534674,-1.1404799,1.288192,0.5589244,8.019688,-8.99485,0.8672126,0.49189982,-0.13404518,0.22083142,0.83144474,-7.487674,5.2046323,-0.18535534,-0.34114286,-1.2948596,0.27283087,0
0.5900000000000003,15.97152420058043,-0.34114287550849554,-1.2948596310333296,0.27283088270308586,16.534674,-1.1404799,1.288192,0.5589244,7.9448066,-8.942407,0.86556166,0.49195522,-0.12919685,0.21640624,0.8333409,-7.488383,5.2836695,-0.14467053,-0.34114286,-1.2948596,0.27283087,0
0.6000000000000003,15.768283230872068,-0.10837520857837823,-1.2868973144559648,0.25604631452568194,16.484337,-1.034407,1.144953,0.59636754,7.869921,-8.889183,0.8643227,0.49198765,-0.12434251,0.21197096,0.83519804,-7.488571,5.360898,-0.1029696,-0.34114286,-1.2948596,0.27283087,0
0.6100000000000003,15.768283230872068,-0.10837520857837823,-1.2868973144559648,0.25604631452568194,16.484337,-1.034407,1.144953,0.59636754,7.795037,-8.8352,0.86349666,0.49220428,-0.11896101,0.20850731,0.83672464,-7.48812,5.4354086,-0.0621036,-0.10837521,-1.2868973,0.25604632,0
0.6200000000000003,15.768283230872068,-0.10837520857837823,-1.2868973144559648,0.25604631452568194,16.484337,-1.034407,1.144953,0.59636754,7.720161,-8.78048,0.8630836,0.49239957,-0.11357435,0.20503464,0.838215,-7.48683,5.5082765,-0.020374486,-0.10837521,-1.2868973,0.25604632,0
0.6300000000000003,15.768283230872068,-0.10837520857837823,-1.2868973144559648,0.25604631452568194,16.484337,-1.034407,1.144953,0.59636754,7.645303,-8.72504,0.86309206,0.49257353,-0.108182766,0.20155309,0.8396691,-7.484697,5.5794916,0.022193387,-0.10837521,-1.2868973,0.25604632,0
0.6400000000000003,15.768283230872068,-0.10837520857837823,-1.2868973144559648,0.25604631452568194,15.87788,-0.7983607,0.8444115,0.5632691,7.57047,-8.668897,0.8635303,0.49272615,-0.1027865,0.19806279,0.8410868,-7.481716,5.6490436,0.06557553,-0.10837521,-1.2868973,0.25604632,0
0.6500000000000004,15.768283230872068,-0.10837520857837823,-1.2868973144559648,0.25604631452568194,15.87788,-0.7983607,0.8444115,0.5632691,7.4956713,-8.612065,0.8644063,0.49285743,-0.09738578,0.19456391,0.8424681,-7.477884,5.7169228,0.10974731,-0.10837521,-1.2868973,0.25604632,0
0.6600000000000004,15.768283230872068,-0.10837520857837823,-1.2868973144559648,0.25604631452568194,15.87788,-0.7983607,0.8444115,0.5632691,7.420915,-8.5545635,0.86572784,0.49296734,-0.09198084,0.19105661,0.8438129,-7.473195,5.78312,0.15468395,-0.10837521,-1.2868973,0.25604632,0
0.6700000000000004,15.768283230872068,-0.10837520857837823,-1.2868973144559648,0.25604631452568194,15.87788,-0.7983607,0.8444115,0.5632691,7.34621,-8.496409,0.8675025,0.49305588,-0.08657191,0.18754102,0.8451211,-7.4676456,5.847626,0.20036055,-0.10837521,-1.2868973,0.25604632,0
0.6800000000000004,15.577151831907656,0.018040197036837024,-1.0350186393566694,0.2644214340218964,14.745448,-0.30256197,0.59966344,0.5745556,7.271565,-8.437618,0.86973757,0.49312305,-0.081159234,0.18401732,0.8463927,-7.461233,5.9104323,0.24675205,-0.10837521,-1.2868973,0.25604632,0
0.6900000000000004,15.577151831907656,0.018040197036837024,-1.0350186393566694,0.2644214340218964,14.745448,-0.30256197,0.59966344,0.5745556,7.1969876,-8.37821,0.87243104,0.49295664,-0.076490164,0.18164638,0.847436,-7.454051,5.9709415,0.29201046,0.018040197,-1.0350187,0.26442143,0
0.7000000000000004,15.577151831907656,0.018040197036837024,-1.0350186393566694,0.2644214340218964,14.745448,-0.30256197,0.59966344,0.5745556,7.1224866,-8.318204,0.87557954,0.49277616,-0.07181892,0.17927027,0.8484551,-7.4460354,6.0301614,0.33776218,0.018040197,-1.0350187,0.26442143,0
0.7100000000000004,15.577151831907656,0.018040197036837024,-1.0350186393566694,0.2644214340218964,14.745448,-0.30256197,0.59966344,0.5745556,7.04807,-8.257611,0.8791879,0.4925816,-0.067145616,0.17688905,0.84945,-7.4371834,6.0880876,0.3839907,0.018040197,-1.0350187,0.26442143,0
0.7200000000000004,15.196965090146504,0.24219591633733967,-0.9503651113518412,0.23631716375980055,14.099149,0.043759253,0.44660187,0.49376673,6.973746,-8.196445,0.8832609,0.492373,-0.062470395,0.17450276,0.8504206,-7.427492,6.1447163,0.43067956,0.018040197,-1.0350187,0.26442143,0
0.7300000000000004,15.196965090146504,0.24219591633733967,-0.9503651113518412,0.23631716375980055,14.099149,0.043759253,0.44660187,0.49376673,6.899522,-8.1347275,0.8877852,0.49226674,-0.057626124,0.17326453,0.8510771,-7.417131,6.19879,0.4742243,0.24219592,-0.9503651,0.23631716,0
0.7400000000000004,15.196965090146504,0.24219591633733967,-0.9503651113518412,0.23631716375980055,14.099149,0.043759253,0.44660187,0.49376673,6.825407,-8.072474,0.89274645,0.49214798,-0.05278039,0.1720219,0.8517119,-7.4057198,6.2518516,0.5180712,0.24219592,-0.9503651,0.23631716,0
0.7500000000000004,15.196965090146504,0.24219591633733967,-0.9503651113518412,0.23631716375980055,14.099149,0.043759253,0.44660187,0.49376673,6.751412,-8.009695,0.8981476,0.49201667,-0.047933314,0.17077488,0.8523251,-7.393257,6.303896,0.5622056,0.24219592,-0.9503651,0.23631716,0
0.7600000000000005,14.818923919706027,0.37677370501231056,-0.6148662838605713,0.2521068662539096,14.095961,0.45827547,0.7342717,0.32808417,6.6775465,-7.9464006,0.9039915,0.49187285,-0.043085016,0.16952352,0.85291654,-7.3797417,6.354922,0.6066128,0.24219592,-0.9503651,0.23631716,0
0.7700000000000005,14.818923919706027,0.37677370501231056,-0.6148662838605713,0.2521068662539096,14.095961,0.45827547,0.7342717,0.32808417,6.6038194,-7.882606,0.9102629,0.49139643,-0.03932225,0.1696712,0.8533434,-7.365566,6.4038706,0.64766395,0.37677372,-0.61486626,0.25210688,0
0.7800000000000005,14.818923919706027,0.37677370501231056,-0.6148662838605713,0.2521068662539096,14.095961,0.45827547,0.7342717,0.32808417,6.530238,-7.8183246,0.9169451,0.49091285,-0.03555891,0.16981639,0.8537579,-7.350446,6.452324,0.6887892,0.37677372,-0.61486626,0.25210688,0
0.7900000000000005,14.818923919706027,0.37677370501231056,-0.6148662838605713,0.2521068662539096,14.095961,0.45827547,0.7342717,0.32808417,6.456814,-7.7535615,0.92403895,0.49042213,-0.031795047,0.16995911,0.85415995,-7.334382,6.5002813,0.7299803,0.37677372,-0.61486626,0.25210688,0
0.8000000000000005,14.25056073954795,0.4976646872550563,-0.8282651916999985,0.22210860380577901,13.663165,0.58527136,-0.51639,0.122734964,6.383555,-7.688321,0.93154496,0.48992425,-0.028030721,0.17009936,0.8545494,-7.317373,6.547743,0.771229,0.37677372,-0.61486626,0.25210688,1
0.8100000000000005,14.25056073954795,0.4976646872550563,-0.8282651916999985,0.22210860380577901,13.663165,0.58527136,-0.51639,0.122734964,6.310464,-7.622627,0.93940926,0.48991722,-0.024286032,0.17135099,0.85441804,-7.3007545,6.591136,0.8016163,0.58527136,-0.51639,0.122734964,1
0.8200000000000005,14.25056073954795,0.4976646872550563,-0.8282651916999985,0.22210860380577901,13.663165,0.58527136,-0.51639,0.122734964,6.2375436,-7.556499,0.947577,0.48990256,-0.020540962,0.17259994,0.8542733,-7.2830944,6.6343136,0.83193725,0.58527136,-0.51639,0.122734964,1
0.8300000000000005,14.25056073954795,0.4976646872550563,-0.8282651916999985,0.22210860380577901,13.663165,0.58527136,-0.51639,0.122734964,6.1648054,-7.489941,0.95604765,0.48988026,-0.016795572,0.1738462,0.85411525,-7.264393,6.6772738,0.86218363,0.58527136,-0.51639,0.122734964,1
0.8400000000000005,14.25056073954795,0.4976646872550563,-0.8282651916999985,0.22210860380577901,13.445895,0.69868046,-0.5751055,0.14161962,6.0922594,-7.422955,0.9648204,0.48985034,-0.013049918,0.17508975,0.8539438,-7.244651,6.7200155,0.89234716,0.58527136,-0.51639,0.122734964,1
0.8500000000000005,14.25056073954795,0.4976646872550563,-0.8282651916999985,0.22210860380577901,13.445895,0.69868046,-0.5751055,0.14161962,6.0199146,-7.3555455,0.97388405,0.4897896,-0.008759033,0.17667174,0.8537076,-7.2241364,6.7618628,0.9203704,0.69868046,-0.5751055,0.14161962,1
0.8600000000000005,14.25056073954795,0.4976646872550563,-0.8282651916999985,0.22210860380577901,13.445895,0.69868046,-0.5751055,0.14161962,5.947781,-7.2877183,0.9832273,0.4897186,-0.0044679632,0.17825003,0.85345346,-7.2024307,6.803496,0.94826514,0.69868046,-0.5751055,0.14161962,1
0.8700000000000006,14.25056073954795,0.4976646872550563,-0.8282651916999985,0.22210860380577901,13.445895,0.69868046,-0.5751055,0.14161962,5.87587,-7.219476,0.9928488,0.4896373,-0.00017679995,0.17982458,0.8531814,-7.179536,6.844913,0.97602034,0.69868046,-0.5751055,0.14161962,1
0.8800000000000006,14.024351110242835,0.43667803231844243,-0.607596011189601,0.28688623434083754,13.05584,0.6401231,-0.47371924,0.27310318,5.8041945,-7.150821,1.002747,0.48954573,0.004114367,0.18139534,0.8528915,-7.1554537,6.886112,1.0036252,0.69868046,-0.5751055,0.14161962,1
0.8900000000000006,14.024351110242835,0.43667803231844243,-0.607596011189601,0.28688623434083754,13.05584,0.6401231,-0.47371924,0.27310318,5.7327614,-7.081761,1.0129024,0.48879325,0.007949021,0.18295835,0.8529621,-7.130968,6.925932,1.0274276,0.6401231,-0.47371924,0.27310318,1
0.9000000000000006,14.024351110242835,0.43667803231844243,-0.607596011189601,0.28688623434083754,13.05584,0.6401231,-0.47371924,0.27310318,5.6615787,-7.012303,1.023295,0.4880321,0.011783534,0.18451811,0.8530176,-7.105465,6.9656143,1.051066,0.6401231,-0.47371924,0.27310318,1
0.9100000000000006,14.024351110242835,0.43667803231844243,-0.607596011189601,0.28688623434083754,13.05584,0.6401231,-0.47371924,0.27310318,5.5906553,-6.9424486,1.033923,0.4872623,0.015617838,0.18607461,0.853058,-7.078946,7.005161,1.0745319,0.6401231,-0.47371924,0.27310318,1
0.9200000000000006,13.433550406276826,0.3522757761702506,-0.5586678220174468,0.29046407379823286,13.057743,0.55135036,-0.3792703,0.43560857,5.520003,-6.8722,1.0447849,0.48648387,0.019451868,0.18762782,0.85308325,-7.0514126,7.0445704,1.0978165,0.6401231,-0.47371924,0.27310318,1
0.9300000000000006,13.433550406276826,0.3522757761702506,-0.5586678220174468,0.29046407379823286,13.057743,0.55135036,-0.3792703,0.43560857,5.4496307,-6.8015575,1.0558788,0.48492414,0.022819227,0.18901315,0.8535819,-7.0229216,7.083868,1.1209369,0.55135036,-0.3792703,0.43560857,1
0.9400000000000006,13.433550406276826,0.3522757761702506,-0.5586678220174468,0.29046407379823286,13.057743,0.55135036,-0.3792703,0.43560857,5.3795476,-6.7305226,1.067203,0.48335665,0.02618622,0.19039546,0.85406697,-6.993579,7.1230803,1.1438812,0.55135036,-0.3792703,0.43560857,1
0.9500000000000006,13.433550406276826,0.3522757761702506,-0.5586678220174468,0.29046407379823286,13.057743,0.55135036,-0.3792703,0.43560857,5.309762,-6.6590962,1.0787559,0.48178148,0.029552797,0.19177474,0.8545384,-6.9633856,7.1622105,1.1666431,0.55135036,-0.3792703,0.43560857,1
0.9600000000000006,12.922968214832057,0.18101438711535323,0.13372379802548656,0.3599775351777218,14.649107,0.21988383,-0.33475363,0.82901686,5.2402825,-6.587279,1.0905354,0.48019862,0.032918904,0.19315097,0.8549962,-6.932343,7.2012596,1.1892158,0.55135036,-0.3792703,0.43560857,0
0.9700000000000006,12.922968214832057,0.18101438711535323,0.13372379802548656,0.3599775351777218,14.649107,0.21988383,-0.33475363,0.82901686,5.1711154,-6.515073,1.1025333,0.4784997,0.033129428,0.1941862,0.85570574,-6.90106,7.239951,1.2103828,0.18101439,0.1337238,0.35997754,0
0.9800000000000006,12.922968214832057,0.18101438711535323,0.13372379802548656,0.3599775351777218,14.649107,0.21988383,-0.33475363,0.82901686,5.102261,-6.442478,1.1147425,0.47679865,0.033339802,0.19522054,0.85641146,-6.869682,7.2788963,1.2314423,0.18101439,0.1337238,0.35997754,0
0.9900000000000007,12.922968214832057,0.18101438711535323,0.13372379802548656,0.3599775351777218,14.649107,0.21988383,-0.33475363,0.82901686,5.0337214,-6.3694935,1.1271617,0.47509545,0.033550028,0.196254,0.85711336,-6.838209,7.3180943,1.2523941,0.18101439,0.1337238,0.35997754,0
1.0000000000000007,11.867546021230513,0.21719895558510238,-0.5927207586340012,0.3592067208723294,14.128684,0.5735034,-0.32560962,0.35905713,4.965497,-6.2961154,1.1397899,0.4733901,0.0337601,0.19728658,0.85781145,-6.8066435,7.3575454,1.2732373,0.18101439,0.1337238,0.35997754,0
1.0100000000000007,11.867546021230513,0.21719895558510238,-0.5927207586340012,0.3592067208723294,14.128684,0.5735034,-0.32560962,0.35905713,4.897577,-6.222358,1.1525778,0.47239432,0.037170514,0.19675326,0.8583417,-6.7773805,7.3937488,1.2843018,0.21719895,-0.59272075,0.3592067,0
1.0200000000000007,11.867546021230513,0.21719895558510238,-0.5927207586340012,0.3592067208723294,14.128684,0.5735034,-0.32560962,0.35905713,4.8299513,-6.1482415,1.1654762,0.4713923,0.04058044,0.19621739,0.8588607,-6.7475247,7.4294944,1.2953566,0.21719895,-0.59272075,0.3592067,0
1.0300000000000007,11.867546021230513,0.21719895558510238,-0.5927207586340012,0.3592067208723294,14.128684,0.5735034,-0.32560962,0.35905713,4.7626276,-6.0737696,1.1784849,0.4703841,0.04398983,0.1956789,0.85936826,-6.717076,7.464782,1.3063965,0.21719895,-0.59272075,0.3592067,0
1.0400000000000007,11.867546021230513,0.21719895558510238,-0.5927207586340012,0.3592067208723294,13.841169,0.59128296,-0.46007162,0.35599273,4.6956115,-5.998947,1.191604,0.46936968,0.047398638,0.19513784,0.8598646,-6.6860337,7.4996123,1.317416,0.21719895,-0.59272075,0.3592067,0
1.0500000000000007,11.867546021230513,0.21719895558510238,-0.5927207586340012,0.3592067208723294,13.841169,0.59128296,-0.46007162,0.35599273,4.628909,-5.9237795,1.2048331,0.46834907,0.050806824,0.19459422,0.86034954,-6.6543984,7.5339866,1.3284096,0.21719895,-0.59272075,0.3592067,0
1.0600000000000007,11.867546021230513,0.21719895558510238,-0.5927207586340012,0.3592067208723294,13.841169,0.59128296,-0.46007162,0.35599273,4.5625257,-5.8482695,1.2181722,0.46732226,0.05421434,0.19404802,0.8608231,-6.622169,7.5679054,1.3393719,0.21719895,-0.59272075,0.3592067,0
1.0700000000000007,11.867546021230513,0.21719895558510238,-0.5927207586340012,0.3592067208723294,13.841169,0.59128296,-0.46007162,0.35599273,4.4964676,-5.7724223,1.2316206,0.46628934,0.05762114,0.19349925,0.8612854,-6.5893455,7.601369,1.3502978,0.21719895,-0.59272075,0.3592067,0
1.0800000000000007,10.945697022494898,0.16449461431223866,-3.0313502802787315,0.44656279399036086,13.854435,0.39196792,-1.1932622,0.4540283,4.430741,-5.6962433,1.245178,0.46525025,0.06102718,0.19294795,0.86173624,-6.555928,7.6343775,1.3611817,0.21719895,-0.59272075,0.3592067,0
1.0900000000000007,10.945697022494898,0.16449461431223866,-3.0313502802787315,0.44656279399036086,13.854435,0.39196792,-1.1932622,0.4540283,4.3653393,-5.6197515,1.2588019,0.46614563,0.07489404,0.1864463,0.86158997,-6.5240173,7.663565,1.363629,0.16449462,-3.0313504,0.4465628,0
1.1000000000000008,10.945697022494898,0.16449461431223866,-3.0313502802787315,0.44656279399036086,13.854435,0.39196792,-1.1932622,0.4540283,4.3002667,-5.542981,1.2724509,0.46693128,0.088743284,0.17990077,0.8612409,-6.4901257,7.6900864,1.3661666,0.16449462,-3.0313504,0.4465628,0
1.1100000000000008,10.945697022494898,0.16449461431223866,-3.0313502802787315,0.44656279399036086,13.854435,0.39196792,-1.1932622,0.4540283,4.235543,-5.465959,1.2861253,0.46760705,0.10257163,0.17331289,0.8606891,-6.454273,7.713925,1.368696,0.16449462,-3.0313504,0.4465628,0
1.1200000000000008,9.705120021135304,0.11207431552421172,-5.276525471107636,0.49011398167487075,13.454473,0.06316593,-2.586723,0.53423613,4.1711874,-5.388712,1.2998245,0.46817276,0.11637584,0.16668421,0.8599347,-6.4164824,7.7350674,1.3711188,0.16449462,-3.0313504,0.4465628,0
1.1300000000000008,9.705120021135304,0.11207431552421172,-5.276525471107636,0.49011398167487075,13.454473,0.06316593,-2.586723,0.53423613,4.1071987,-5.31128,1.31349,0.4702331,0.1396904,0.15447217,0.8576165,-6.3808613,7.7507105,1.3619193,0.112074316,-5.2765255,0.49011397,0
1.1400000000000008,9.705120021135304,0.11207431552421172,-5.276525471107636,0.49011398167487075,13.454473,0.06316593,-2.586723,0.53423613,4.0435796,-5.233712,1.3270613,0.47196323,0.16290684,0.14215165,0.85469604,-6.3424907,7.762062,1.3522258,0.112074316,-5.2765255,0.49011397,0
1.1500000000000008,9.705120021135304,0.11207431552421172,-5.276525471107636,0.49011398167487075,13.454473,0.06316593,-2.586723,0.53423613,3.9803574,-5.156053,1.340532,0.47336188,0.18600886,0.12973128,0.8511753,-6.3014584,7.769103,1.3417823,0.112074316,-5.2765255,0.49011397,0
1.1600000000000008,8.85903475921688,-0.03007358930253829,-5.9999965790433825,0.6397514339860948,12.659704,-0.737507,-1.8553289,0.872891,3.9175587,-5.0783453,1.3538934,0.47442806,0.20898026,0.11721979,0.84705675,-6.25786,7.771827,1.330335,0.112074316,-5.2765255,0.49011397,0
1.1700000000000008,8.85903475921688,-0.03007358930253829,-5.9999965790433825,0.6397514339860948,12.659704,-0.737507,-1.8553289,0.872891,3.8551888,-5.000632,1.3670969,0.4750505,0.23459657,0.10214004,0.8419378,-6.215742,7.7701507,1.3101405,-0.030073589,-5.9999967,0.63975143,0
1.1800000000000008,8.85903475921688,-0.03007358930253829,-5.9999965790433825,0.6397514339860948,12.659704,-0.737507,-1.8553289,0.872891,3.7932518,-4.922958,1.3800911,0.4752406,0.25999933,0.086967334,0.8360525,-6.171297,7.7639503,1.2884095,-0.030073589,-5.9999967,0.63975143,0
1.1900000000000008,8.85903475921688,-0.03007358930253829,-5.9999965790433825,0.6397514339860948,12.659704,-0.737507,-1.8553289,0.872891,3.73177,-4.845368,1.392859,0.47499806,0.28516546,0.071715474,0.8294062,-6.124659,7.753267,1.2648535,-0.030073589,-5.9999967,0.63975143,0
1.2000000000000008,8.358644427665753,-0.15128625034154095,-5.999993593414314,0.7111975845752387,12.070639,-0.13918623,-2.980961,2.172832,3.6707652,-4.7679076,1.405381,0.47432324,0.31007203,0.056398332,0.822005,-6.075971,7.7381563,1.2391909,-0.030073589,-5.9999967,0.63975143,0
1.2100000000000009,8.358644427665753,-0.15128625034154095,-5.999993593414314,0.7111975845752387,12.070639,-0.13918623,-2.980961,2.172832,3.610243,-4.690615,1.4176148,0.47311026,0.3344286,0.040420927,0.814058,-6.0282683,7.7197704,1.2072054,-0.15128624,-5.999994,0.71119756,0
1.2200000000000009,8.358644427665753,-0.15128625034154095,-5.999993593414314,0.7111975845752387,12.070639,-0.13918623,-2.980961,2.172832,3.5502055,-4.6135263,1.4295166,0.47146526,0.35847983,0.02440661,0.80536765,-5.9789934,7.6973057,1.1727611,-0.15128624,-5.999994,0.71119756,0
1.2300000000000009,8.358644427665753,-0.15128625034154095,-5.999993593414314,0.7111975845752387,12.070639,-0.13918623,-2.980961,2.172832,3.4906678,-4.536682,1.4410607,0.4693898,0.38220364,0.008370007,0.79594195,-5.9282966,7.6708627,1.1356145,-0.15128624,-5.999994,0.71119756,0
1.2400000000000009,8.358644427665753,-0.15128625034154095,-5.999993593414314,0.7111975845752387,11.70301,-0.28750208,-3.526622,2.3489413,3.4316435,-4.4601226,1.4522187,0.46688572,0.40557846,-0.007674239,0.7857894,-5.8763337,7.6405554,1.0955323,-0.15128624,-5.999994,0.71119756,0
1.2500000000000009,8.358644427665753,-0.15128625034154095,-5.999993593414314,0.7111975845752387,11.70301,-0.28750208,-3.526622,2.3489413,3.3731449,-4.3838844,1.4629604,0.46395525,0.42858297,-0.023711478,0.77491933,-5.823266,7.606512,1.0522919,-0.15128624,-5.999994,0.71119756,0
1.260000000000001,8.358644427665753,-0.15128625034154095,-5.999993593414314,0.7111975845752387,11.70301,-0.28750208,-3.526622,2.3489413,3.3151817,-4.308005,1.4732529,0.46060115,0.4511961,-0.03972707,0.76334167,-5.769257,7.568875,1.005682,-0.15128624,-5.999994,0.71119756,0
1.270000000000001,8.358644427665753,-0.15128625034154095,-5.999993593414314,0.7111975845752387,11.70301,-0.28750208,-3.526622,2.3489413,3.2577624,-4.2325187,1.4830617,0.45682645,0.47339723,-0.05570638,0.7510669,-5.7144756,7.527799,0.9555039,-0.15128624,-5.999994,0.71119756,0
1.280000000000001,8.79678771580863,-0.1886917238076259,-5.999995251378522,0.9586276358691731,10.259777,-0.72097945,-2.879205,0.94165486,3.2008944,-4.1574597,1.4923501,0.45263463,0.49516606,-0.07163483,0.7381063,-5.659092,7.4834523,0.90157163,-0.15128624,-5.999994,0.71119756,0
1.290000000000001,8.79678771580863,-0.1886917238076259,-5.999995251378522,0.9586276358691731,10.259777,-0.72097945,-2.879205,0.94165486,3.144597,-4.0828724,1.5010904,0.44720665,0.51630676,-0.08824798,0.7250143,-5.6003623,7.4335217,0.84582627,-0.18869172,-5.999995,0.95862764,0
1.300000000000001,8.79678771580863,-0.1886917238076259,-5.999995251378522,0.9586276358691731,10.259777,-0.72097945,-2.879205,0.94165486,3.0888882,-4.0087996,1.5092518,0.4413655,0.53697056,-0.10477959,0.71125257,-5.5413804,7.380527,0.78578985,-0.18869172,-5.999995,0.95862764,0
1.310000000000001,8.79678771580863,-0.1886917238076259,-5.999995251378522,0.9586276358691731,10.259777,-0.72097945,-2.879205,0.94165486,3.0337696,-3.9352713,1.5167907,0.43511668,0.55713826,-0.12121442,0.6968338,-5.4823217,7.324687,0.7213071,-0.18869172,-5.999995,0.95862764,0
1.320000000000001,8.51553281322848,-0.4355204481761161,-1.9382255952646685,1.0573887371697617,10.340842,-0.95371497,-1.9024242,1.0485526,2.9792414,-3.8623145,1.523662,0.4284659,0.5767914,-0.13753727,0.6817712,-5.4233613,7.2662325,0.6522394,-0.18869172,-5.999995,0.95862764,0
1.330000000000001,8.51553281322848,-0.4355204481761161,-1.9382255952646685,1.0573887371697617,10.340842,-0.95371497,-1.9024242,1.0485526,2.9252923,-3.7899435,1.5298188,0.4247575,0.58170176,-0.1462148,0.67810416,-5.3665495,7.2078304,0.57889354,-0.43552044,-1.9382256,1.0573888,0
1.340000000000001,8.51553281322848,-0.4355204481761161,-1.9382255952646685,1.0573887371697617,10.340842,-0.95371497,-1.9024242,1.0485526,2.8719094,-3.718161,1.5352352,0.42099532,0.58653843,-0.15487382,0.6743512,-5.3100753,7.148533,0.5041526,-0.43552044,-1.9382256,1.0573888,0
1.350000000000001,8.51553281322848,-0.4355204481761161,-1.9382255952646685,1.0573887371697617,10.340842,-0.95371497,-1.9024242,1.0485526,2.8190897,-3.646976,1.5398971,0.41717985,0.59130085,-0.16351321,0.6705129,-5.2539477,7.088373,0.42799878,-0.43552044,-1.9382256,1.0573888,0
1.360000000000001,8.26332166855186,-0.614553415074554,2.8054387301595427,1.1660155034708934,10.258391,-0.57457185,0.711049,-0.0070651136,2.7668293,-3.5763967,1.5437903,0.41331154,0.59598845,-0.17213191,0.6665897,-5.1981764,7.0273824,0.35041478,-0.43552044,-1.9382256,1.0573888,0
1.370000000000001,8.26332166855186,-0.614553415074554,2.8054387301595427,1.1660155034708934,10.258391,-0.57457185,0.711049,-0.0070651136,2.7151167,-3.5064209,1.5469015,0.4136215,0.5842934,-0.17183658,0.67674994,-5.144383,6.9678993,0.2722112,-0.6145534,2.8054388,1.1660155,0
1.380000000000001,8.26332166855186,-0.614553415074554,2.8054387301595427,1.1660155034708934,10.258391,-0.57457185,0.711049,-0.0070651136,2.6639404,-3.437037,1.549242,0.41383207,0.5724581,-0.17149997,0.6867477,-5.0909095,6.908941,0.19629969,-0.6145534,2.8054388,1.1660155,0
1.390000000000001,8.26332166855186,-0.614553415074554,2.8054387301595427,1.1660155034708934,10.258391,-0.57457185,0.711049,-0.0070651136,2.613297,-3.36824,1.5508349,0.4139433,0.5604851,-0.17112218,0.6965805,-5.037822,6.850537,0.122663096,-0.6145534,2.8054388,1.1660155,0
1.400000000000001,7.754736701355444,-0.7952208471764264,5.141723907497508,1.1865646446573481,11.682648,-1.502434,1.9390382,-0.25593048,2.5631824,-3.3000245,1.5517029,0.41395506,0.5483776,-0.17070328,0.7062461,-4.9851837,6.7927175,0.05128209,-0.6145534,2.8054388,1.1660155,0
1.410000000000001,7.754736701355444,-0.7952208471764264,5.141723907497508,1.1865646446573481,11.682648,-1.502434,1.9390382,-0.25593048,2.513575,-3.2323656,1.5518612,0.41618636,0.52736956,-0.16606238,0.721868,-4.936357,6.73928,-0.019018697,-0.79522085,5.141724,1.1865647,0
1.420000000000001,7.754736701355444,-0.7952208471764264,5.141723907497508,1.1865646446573481,11.682648,-1.502434,1.9390382,-0.25593048,2.464452,-3.1652343,1.5513352,0.41812137,0.5059861,-0.16130327,0.73697597,-4.888376,6.6871576,-0.08560074,-0.79522085,5.141724,1.1865647,0
1.430000000000001,7.754736701355444,-0.7952208471764264,5.141723907497508,1.1865646446573481,11.682648,-1.502434,1.9390382,-0.25593048,2.4158041,-3.0986173,1.5501617,0.4197587,0.48424244,-0.15642932,0.7515593,-4.8414063,6.6364584,-0.1485467,-0.79522085,5.141724,1.1865647,0
1.440000000000001,7.754736701355444,-0.7952208471764264,5.141723907497508,1.1865646446573481,12.260321,-1.6483178,1.6533662,-0.09374553,2.3676202,-3.0325,1.5483766,0.42109722,0.46215403,-0.15144402,0.76560766,-4.795611,6.587289,-0.20794956,-0.79522085,5.141724,1.1865647,0
1.450000000000001,7.754736701355444,-0.7952208471764264,5.141723907497508,1.1865646446573481,12.260321,-1.6483178,1.6533662,-0.09374553,2.3198874,-2.966866,1.5460147,0.42213598,0.4397366,-0.14635088,0.779111,-4.751149,6.5397496,-0.26391244,-0.79522085,5.141724,1.1865647,0
1.460000000000001,7.754736701355444,-0.7952208471764264,5.141723907497508,1.1865646446573481,12.260321,-1.6483178,1.6533662,-0.09374553,2.272592,-2.901699,1.5431098,0.42287418,0.41700616,-0.14115356,0.7920597,-4.7081776,6.493937,-0.3165482,-0.79522085,5.141724,1.1865647,0
1.470000000000001,7.754736701355444,-0.7952208471764264,5.141723907497508,1.1865646446573481,12.260321,-1.6483178,1.6533662,-0.09374553,2.2257183,-2.8369813,1.5396947,0.42331138,0.39397883,-0.13585576,0.80444455,-4.666847,6.449943,-0.36597916,-0.79522085,5.141724,1.1865647,0
1.480000000000001,7.273705696128539,-1.01301522857695,5.765929271626127,1.0575985568057804,12.366294,-1.7219427,1.4963112,0.16199034,2.1792488,-2.772694,1.5358006,0.42344722,0.37067103,-0.13046126,0.81625664,-4.6273046,6.407854,-0.41233692,-0.79522085,5.141724,1.1865647,0
1.490000000000001,7.273705696128539,-1.01301522857695,5.765929271626127,1.0575985568057804,12.366294,-1.7219427,1.4963112,0.16199034,2.1331532,-2.7088048,1.5314415,0.424582,0.3441439,-0.12429112,0.8281585,-4.592137,6.370307,-0.45902944,-1.0130153,5.765929,1.0575986,0
1.500000000000001,7.273705696128539,-1.01301522857695,5.765929271626127,1.0575985568057804,12.366294,-1.7219427,1.4963112,0.16199034,2.087398,-2.6452806,1.52663,0.42534116,0.3173123,-0.11801103,0.83932763,-4.5592194,6.33489,-0.50280297,-1.0130153,5.765929,1.0575986,0
1.5100000000000011,7.273705696128539,-1.01301522857695,5.765929271626127,1.0575985568057804,12.366294,-1.7219427,1.4963112,0.16199034,2.0419602,-2.5820994,1.5213947,0.425724,0.29019997,-0.11162653,0.8497542,-4.5286975,6.3016925,-0.5438452,-1.0130153,5.765929,1.0575986,0
1.5200000000000011,7.133566360899408,-1.1359332207200716,5.999984230707671,0.8666358851760941,9.341677,-2.273351,2.2798042,0.7814557,1.9968153,-2.519239,1.5157617,0.4257302,0.2628309,-0.10514327,0.85942906,-4.500706,6.270796,-0.5823535,-1.0130153,5.765929,1.0575986,0
1.5300000000000011,7.133566360899408,-1.1359332207200716,5.999984230707671,0.8666358851760941,9.341677,-2.273351,2.2798042,0.7814557,1.9519345,-2.456673,1.5097498,0.42645067,0.23405407,-0.09834264,0.8681515,-4.4759192,6.2428465,-0.61969376,-1.1359333,5.9999843,0.86663586,0
1.5400000000000011,7.133566360899408,-1.1359332207200716,5.999984230707671,0.8666358851760941,9.341677,-2.273351,2.2798042,0.7814557,1.907287,-2.394374,1.5033753,0.42676556,0.20505466,-0.091448486,0.8760483,-4.454009,6.21736,-0.6548838,-1.1359333,5.9999843,0.86663586,0
1.5500000000000012,7.133566360899408,-1.1359332207200716,5.999984230707671,0.8666358851760941,9.341677,-2.273351,2.2798042,0.7814557,1.8628439,-2.332317,1.4966587,0.42667466,0.17586024,-0.084467374,0.8831121,-4.4350824,6.194403,-0.6881604,-1.1359333,5.9999843,0.86663586,0
1.5600000000000012,7.560106399539678,-1.1369557832533295,5.999989707453905,0.5765893953661095,9.503959,-1.1535119,0.48686194,0.72715276,1.8185745,-2.2704768,1.4896178,0.426178,0.14649858,-0.07740593,0.88933605,-4.4192357,6.174034,-0.7197678,-1.1359333,5.9999843,0.86663586,0
1.5700000000000012,7.560106399539678,-1.1369557832533295,5.999989707453905,0.5765893953661095,9.503959,-1.1535119,0.48686194,0.72715276,1.774452,-2.2088327,1.4822886,0.42656857,0.117108375,-0.07006338,0.8941006,-4.405793,6.1552396,-0.7458959,-1.1369557,5.9999895,0.5765894,0
1.5800000000000012,7.560106399539678,-1.1369557832533295,5.999989707453905,0.5765893953661095,9.503959,-1.1535119,0.48686194,0.72715276,1.7304468,-2.1473622,1.4747044,0.4265579,0.08760802,-0.06265494,0.89802414,-4.395773,6.139287,-0.770791,-1.1369557,5.9999895,0.5765894,0
1.5900000000000012,7.560106399539678,-1.1369557832533295,5.999989707453905,0.5765893953661095,9.503959,-1.1535119,0.48686194,0.72715276,1.6865245,-2.086037,1.4668761,0.4261461,0.058025252,-0.055187568,0.90110314,-4.3892293,6.1262145,-0.794728,-1.1369557,5.9999895,0.5765894,0
1.6000000000000012,8.632608613749937,-0.9989151036942322,5.999731124638882,0.35103411913899474,9.40179,-1.6249566,1.4428487,1.1627645,1.6426501,-2.024828,1.4588121,0.42533344,0.02838791,-0.047668286,0.9033345,-4.386204,6.116051,-0.8179854,-1.1369557,5.9999895,0.5765894,0
1.6100000000000012,8.632608613749937,-0.9989151036942322,5.999731124638882,0.35103411913899474,9.40179,-1.6249566,1.4428487,1.1627645,1.5987883,-1.9637114,1.4505711,0.42512238,-0.00092757354,-0.039449606,0.90427524,-4.386764,6.1078167,-0.83016735,-0.9989151,5.999731,0.3510341,0
1.6200000000000012,8.632608613749937,-0.9989151036942322,5.999731124638882,0.35103411913899474,9.40179,-1.6249566,1.4428487,1.1627645,1.5549011,-1.9026599,1.4422091,0.42451686,-0.030242197,-0.03119432,0.90437704,-4.391293,6.1030145,-0.84220654,-0.9989151,5.999731,0.3510341,0
1.6300000000000012,8.632608613749937,-0.9989151036942322,5.999731124638882,0.35103411913899474,9.40179,-1.6249566,1.4428487,1.1627645,1.5109489,-1.8416392,1.4337262,0.42351744,-0.059528768,-0.02291009,0.9036396,-4.3997855,6.1016483,-0.8544226,-0.9989151,5.999731,0.3510341,0
1.6400000000000012,8.632608613749937,-0.9989151036942322,5.999731124638882,0.35103411913899474,9.563844,-1.7435586,1.67818,0.98851997,1.4668919,-1.7806151,1.4251189,0.42212504,-0.08876009,-0.014604603,0.90206367,-4.4122233,6.1037097,-0.8671347,-0.9989151,5.999731,0.3510341,0
1.6500000000000012,8.632608613749937,-0.9989151036942322,5.999731124638882,0.35103411913899474,9.563844,-1.7435586,1.67818,0.98851997,1.422691,-1.7195534,1.4163808,0.42034099,-0.11790906,-0.006285565,0.8996508,-4.4285717,6.1091766,-0.88065994,-0.9989151,5.999731,0.3510341,0
1.6600000000000013,8.632608613749937,-0.9989151036942322,5.999731124638882,0.35103411913899474,9.563844,-1.7435586,1.67818,0.98851997,1.3783072,-1.6584198,1.4075019,0.4181669,-0.14694864,0.0020393054,0.89640313,-4.4487815,6.118015,-0.8953125,-0.9989151,5.999731,0.3510341,0
1.6700000000000013,8.632608613749937,-0.9989151036942322,5.999731124638882,0.35103411913899474,9.563844,-1.7435586,1.67818,0.98851997,1.3337022,-1.5971814,1.3984696,0.4156048,-0.17585187,0.010362284,0.89232373,-4.4727907,6.130178,-0.9114024,-0.9989151,5.999731,0.3510341,0
1.6800000000000013,9.808088093043468,-0.7733671132278661,3.258450306640058,0.21811179733801617,10.645431,0.45160094,1.5472788,0.2303974,1.2888386,-1.5358051,1.3892679,0.41265705,-0.20459192,0.018675648,0.8874163,-4.5005217,6.1456075,-0.92923427,-0.9989151,5.999731,0.3510341,0
1.6900000000000013,9.808088093043468,-0.7733671132278661,3.258450306640058,0.21811179733801617,10.645431,0.45160094,1.5472788,0.2303974,1.2436602,-1.4742479,1.3799325,0.4105359,-0.22059567,0.022187594,0.8844805,-4.5355215,6.1660976,-0.93803596,-0.7733671,3.2584503,0.2181118,0
1.7000000000000013,9.808088093043468,-0.7733671132278661,3.258450306640058,0.21811179733801617,10.645431,0.45160094,1.5472788,0.2303974,1.1981201,-1.4124769,1.3705024,0.40829912,-0.23653732,0.025693292,0.8812956,-4.572891,6.1883793,-0.9482381,-0.7733671,3.2584503,0.2181118,0
1.7100000000000013,9.808088093043468,-0.7733671132278661,3.258450306640058,0.21811179733801617,10.645431,0.45160094,1.5472788,0.2303974,1.1521945,-1.3504742,1.3609627,0.4059474,-0.25241238,0.029191755,0.87786263,-4.612594,6.212421,-0.9599395,-0.7733671,3.2584503,0.2181118,0
1.7200000000000013,11.2985180920821,-0.4471935698428862,0.020447198061487305,0.1243352690806302,11.519776,0.43706778,0.4432168,0.3145277,1.1058605,-1.2882224,1.3512981,0.40348136,-0.26821637,0.032681998,0.8741824,-4.6545887,6.23819,-0.97323734,-0.7733671,3.2584503,0.2181118,1
1.7300000000000013,11.2985180920821,-0.4471935698428862,0.020447198061487305,0.1243352690806302,11.519776,0.43706778,0.4432168,0.3145277,1.0590597,-1.2256821,1.3415669,0.40261787,-0.26921886,0.035908137,0.8741458,-4.7055364,6.269964,-0.9730256,0.43706778,0.4432168,0.3145277,1
1.7400000000000013,11.2985180920821,-0.4471935698428862,0.020447198061487305,0.1243352690806302,11.519776,0.43706778,0.4432168,0.3145277,1.01175,-1.1628207,1.3318369,0.40174946,-0.27021807,0.03913383,0.87409854,-4.756391,6.3024273,-0.9729908,0.43706778,0.4432168,0.3145277,1
1.7500000000000013,11.2985180920821,-0.4471935698428862,0.020447198061487305,0.1243352690806302,11.519776,0.43706778,0.4432168,0.3145277,0.96393216,-1.0996312,1.3221064,0.40087616,-0.271214,0.042359054,0.8740407,-4.8071527,6.335577,-0.97313774,0.43706778,0.4432168,0.3145277,1
1.7600000000000013,12.346172201317955,-0.45027945887361986,-1.8924457693892238,0.07032754030256229,11.944462,0.009925869,0.22485045,0.48415762,0.9156073,-1.0361067,1.3123735,0.399998,-0.2722066,0.045583762,0.8739722,-4.8578215,6.3694134,-0.9734713,0.43706778,0.4432168,0.3145277,0
1.7700000000000014,12.346172201317955,-0.45027945887361986,-1.8924457693892238,0.07032754030256229,11.944462,0.009925869,0.22485045,0.48415762,0.8667588,-0.97223103,1.3026729,0.39949024,-0.2648086,0.039924882,0.87674963,-4.9117446,6.4054027,-0.966503,-0.45027944,-1.8924458,0.07032754,0
1.7800000000000014,12.346172201317955,-0.45027945887361986,-1.8924457693892238,0.07032754030256229,11.944462,0.009925869,0.22485045,0.48415762,0.81737536,-0.90800536,1.2930473,0.39894462,-0.25738555,0.034262218,0.8794441,-4.964809,6.4394298,-0.95844907,-0.45027944,-1.8924458,0.07032754,0
1.7900000000000014,12.346172201317955,-0.45027945887361986,-1.8924457693892238,0.07032754030256229,11.944462,0.009925869,0.22485045,0.48415762,0.76746565,-0.84344923,1.2835076,0.3983612,-0.2499381,0.028596306,0.8820553,-5.0169926,6.4714823,-0.9493492,-0.45027944,-1.8924458,0.07032754,0
1.8000000000000014,13.285905980862864,-0.3335452467650076,-1.429195114830513,0.07858957337920561,11.368709,-0.3700343,-0.51876813,0.38560313,0.7170386,-0.7785825,1.2740638,0.39774007,-0.24246699,0.022927687,0.8845829,-5.068275,6.501549,-0.9392437,-0.45027944,-1.8924458,0.07032754,0
1.8100000000000014,13.285905980862864,-0.3335452467650076,-1.429195114830513,0.07858957337920561,11.368709,-0.3700343,-0.51876813,0.38560313,0.6660838,-0.7134138,1.2647673,0.39714122,-0.2367936,0.018704899,0.8864862,-5.122558,6.5319567,-0.9199555,-0.33354524,-1.4291952,0.07858957,0
1.8200000000000014,13.285905980862864,-0.3335452467650076,-1.429195114830513,0.07858957337920561,11.368709,-0.3700343,-0.51876813,0.38560313,0.61459005,-0.64794904,1.2556673,0.3965209,-0.2311074,0.014481103,0.8883416,-5.176072,6.5607414,-0.89990747,-0.33354524,-1.4291952,0.07858957,0
1.8300000000000014,13.285905980862864,-0.3335452467650076,-1.429195114830513,0.07858957337920561,11.368709,-0.3700343,-0.51876813,0.38560313,0.5625651,-0.5822046,1.2467715,0.39587918,-0.22540873,0.010256524,0.89014906,-5.228803,6.5878983,-0.8791247,-0.33354524,-1.4291952,0.07858957,0
1.8400000000000014,13.285905980862864,-0.3335452467650076,-1.429195114830513,0.07858957337920561,11.611266,-0.266417,-1.00669,0.3648532,0.51001674,-0.5161967,1.2380872,0.39521608,-0.21969791,0.006031391,0.89190847,-5.2807403,6.613422,-0.8576324,-0.33354524,-1.4291952,0.07858957,0
1.8500000000000014,13.285905980862864,-0.3335452467650076,-1.429195114830513,0.07858957337920561,11.611266,-0.266417,-1.00669,0.3648532,0.45695305,-0.44994178,1.2296212,0.39453164,-0.21397522,0.0018059319,0.8936197,-5.33187,6.6373086,-0.8354559,-0.33354524,-1.4291952,0.07858957,0
1.8600000000000014,13.285905980862864,-0.3335452467650076,-1.429195114830513,0.07858957337920561,11.611266,-0.266417,-1.00669,0.3648532,0.40338215,-0.3834562,1.2213802,0.39382592,-0.20824097,-0.0024196245,0.8952827,-5.3821797,6.659553,-0.81262076,-0.33354524,-1.4291952,0.07858957,0
1.8700000000000014,13.285905980862864,-0.3335452467650076,-1.429195114830513,0.07858957337920561,11.611266,-0.266417,-1.00669,0.3648532,0.3493123,-0.3167564,1.2133708,0.39309892,-0.20249549,-0.0066450504,0.8968973,-5.431658,6.6801505,-0.78915256,-0.33354524,-1.4291952,0.07858957,0
1.8800000000000014,13.80844428367659,-0.13549502695842663,-1.0667183247390555,0.08650789817064225,12.454423,-0.18455932,-0.5369781,0.2356965,0.29475188,-0.24985886,1.2055991,0.3923507,-0.19673905,-0.010870118,0.8984635,-5.4802933,6.699099,-0.76507723,-0.33354524,-1.4291952,0.07858957,0
1.8900000000000015,13.80844428367659,-0.13549502695842663,-1.0667183247390555,0.08650789817064225,12.454423,-0.18455932,-0.5369781,0.2356965,0.23969983,-0.18277603,1.1980952,0.39176515,-0.19221468,-0.013486175,0.8996621,-5.5299964,6.71728,-0.73563814,-0.13549502,-1.0667183,0.0865079,0
1.9000000000000015,13.80844428367659,-0.13549502695842663,-1.0667183247390555,0.08650789817064225,12.454423,-0.18455932,-0.5369781,0.2356965,0.18415463,-0.1155173,1.1908879,0.39116815,-0.18768471,-0.016101839,0.9008345,-5.5789194,6.7342844,-0.7057361,-0.13549502,-1.0667183,0.0865079,0
1.9100000000000015,13.80844428367659,-0.13549502695842663,-1.0667183247390555,0.08650789817064225,12.454423,-0.18455932,-0.5369781,0.2356965,0.12812415,-0.048094384,1.1839819,0.3905598,-0.1831493,-0.018717036,0.9019807,-5.627055,6.7501125,-0.67538553,-0.13549502,-1.0667183,0.0865079,0
1.9200000000000015,14.383854884903792,0.08429377465561605,-0.1841304692606567,0.09869044807415639,12.959563,-0.20182797,-0.43525207,0.13271254,0.071616255,0.019480912,1.1773816,0.38994005,-0.17860855,-0.021331688,0.90310067,-5.6743975,6.764763,-0.64460117,-0.13549502,-1.0667183,0.0865079,0
1.9300000000000015,14.383854884903792,0.08429377465561605,-0.1841304692606567,0.09869044807415639,12.959563,-0.20182797,-0.43525207,0.13271254,0.014628574,0.087200895,1.1711179,0.38954982,-0.1776232,-0.02122191,0.9034659,-5.7230988,6.7792177,-0.60813236,0.084293775,-0.18413047,0.09869045,0
1.9400000000000015,14.383854884903792,0.08429377465561605,-0.1841304692606567,0.09869044807415639,12.959563,-0.20182797,-0.43525207,0.13271254,-0.042844858,0.15506493,1.1652194,0.3891591,-0.1766376,-0.021112107,0.90383005,-5.7715483,6.793568,-0.5715614,0.084293775,-0.18413047,0.09869045,0
1.9500000000000015,14.383854884903792,0.08429377465561605,-0.1841304692606567,0.09869044807415639,12.959563,-0.20182797,-0.43525207,0.13271254,-0.10080152,0.22307192,1.1596872,0.38876793,-0.17565177,-0.021002274,0.90419304,-5.8197446,6.807815,-0.53488886,0.084293775,-0.18413047,0.09869045,0
1.9600000000000015,14.54178448604061,0.2072431392007813,-0.17401092369023874,0.10026949716463966,13.121549,0.24202695,-1.0939368,0.08780366,-0.15923887,0.29122084,1.1545221,0.38837618,-0.1746657,-0.020892417,0.90455484,-5.8676887,6.821958,-0.49811524,0.084293775,-0.18413047,0.09869045,0
1.9700000000000015,14.54178448604061,0.2072431392007813,-0.17401092369023874,0.10026949716463966,13.121549,0.24202695,-1.0939368,0.08780366,-0.2181569,0.35951164,1.1497326,0.3880851,-0.17348655,-0.020205421,0.90492225,-5.91586,6.836202,-0.45974928,0.20724314,-0.17401092,0.1002695,0
1.9800000000000015,14.54178448604061,0.2072431392007813,-0.17401092369023874,0.10026949716463966,13.121549,0.24202695,-1.0939368,0.08780366,-0.27755478,0.42794502,1.1453276,0.3877932,-0.17230703,-0.019518383,0.90528774,-5.9636602,6.8504767,-0.42125607,0.20724314,-0.17401092,0.1002695,0
1.9900000000000015,14.54178448604061,0.2072431392007813,-0.17401092369023874,0.10026949716463966,13.121549,0.24202695,-1.0939368,0.08780366,-0.3374288,0.4965213,1.1413081,0.3875005,-0.17112716,-0.018831305,0.90565133,-6.011089,6.8647833,-0.3826367,0.20724314,-0.17401092,0.1002695,0
2.0000000000000013,,,,,13.083195,0.19689599,-0.61199933,0.13976258,-0.39777526,0.5652408,1.1376753,0.38720697,-0.16994692,-0.018144188,0.906013,-6.058146,6.879121,-0.34389222,0.20724314,-0.17401092,0.1002695,0
2.010000000000001,,,,,13.083195,0.19689599,-0.61199933,0.13976258,-0.45859227,0.6341046,1.1344354,0.3869013,-0.16943984,-0.016968826,0.9062613,-6.1052146,6.8936715,-0.30405125,0.24275967,-0.010413472,0.112730026,0
2.020000000000001,,,,,13.083195,0.19689599,-0.61199933,0.13976258,-0.5198787,0.7031151,1.1315943,0.38659492,-0.16893244,-0.015793433,0.906508,-6.1520257,6.9084606,-0.26414818,0.24275967,-0.010413472,0.112730026,0
2.0300000000000007,,,,,13.083195,0.19689599,-0.61199933,0.13976258,-0.5816319,0.7722747,1.1291527,0.38628784,-0.16842474,-0.014618011,0.90675306,-6.19858,6.923488,-0.22418384,0.24275967,-0.010413472,0.112730026,0
2.0400000000000005,,,,,13.083195,0.19689599,-0.61199933,0.13976258,-0.64384943,0.8415857,1.1271108,0.38598007,-0.16791674,-0.013442564,0.9069965,-6.2448764,6.938754,-0.1841592,0.24275967,-0.010413472,0.112730026,0
2.0500000000000003,,,,,13.389024,0.247296,-0.6701086,0.16378397,-0.70652854,0.91105056,1.1254696,0.38567162,-0.16740845,-0.012267091,0.9072383,-6.2909164,6.954259,-0.1440752,0.24275967,-0.010413472,0.112730026,1
2.06,,,,,13.389024,0.247296,-0.6701086,0.16378397,-0.7696465,0.98066425,1.1241705,0.38509196,-0.16390076,-0.012300341,0.90812415,-6.3325496,6.968418,-0.11571285,0.247296,-0.6701086,0.16378397,1
2.07,,,,,13.389024,0.247296,-0.6701086,0.16378397,-0.83317673,1.0504175,1.1231564,0.38450715,-0.16039087,-0.012333428,0.9089978,-6.3733697,6.982179,-0.08704192,0.247296,-0.6701086,0.16378397,1
2.0799999999999996,,,,,13.389024,0.247296,-0.6701086,0.16378397,-0.89711106,1.1203065,1.1224307,0.38391715,-0.15687881,-0.012366347,0.9098592,-6.4133744,6.995542,-0.05806882,0.247296,-0.6701086,0.16378397,1
2.0899999999999994,,,,,13.531634,0.24948588,-0.61976624,0.026522342,-0.96144134,1.190327,1.1219962,0.383322,-0.15336467,-0.012399102,0.91070837,-6.452561,7.008508,-0.028799968,0.247296,-0.6701086,0.16378397,1
2.099999999999999,,,,,13.531634,0.24948588,-0.61976624,0.026522342,-1.0261616,1.2604761,1.1218625,0.38335198,-0.15006517,-0.0124305,0.9112448,-6.491351,7.02123,0.0021112692,0.24948588,-0.61976624,0.026522342,1
2.109999999999999,,,,,13.531634,0.24948588,-0.61976624,0.026522342,-1.0912657,1.3307506,1.1220393,0.38337767,-0.146764,-0.01246176,0.91177106,-6.5293527,7.0336013,0.03329108,0.24948588,-0.61976624,0.026522342,1
2.1199999999999988,,,,,13.531634,0.24948588,-0.61976624,0.026522342,-1.1567459,1.401147,1.1225293,0.38339907,-0.14346117,-0.01249288,0.9122872,-6.5665636,7.0456214,0.06473371,0.24948588,-0.61976624,0.026522342,1
2.1299999999999986,,,,,13.344879,0.13526228,-0.33811888,0.08315605,-1.2225943,1.4716618,1.1233348,0.38341618,-0.14015675,-0.012523861,0.9127931,-6.6029825,7.0572906,0.09643337,0.24948588,-0.61976624,0.026522342,1
2.1399999999999983,,,,,13.344879,0.13526228,-0.33811888,0.08315605,-1.2888007,1.542291,1.1244496,0.3831096,-0.13835925,-0.012496433,0.9131963,-6.6382494,7.0685105,0.1265477,0.13526228,-0.33811888,0.08315605,1
2.149999999999998,,,,,13.344879,0.13526228,-0.33811888,0.08315605,-1.3553578,1.6130315,1.1258662,0.38280168,-0.13656127,-0.012468961,0.9135964,-6.673089,7.079541,0.15679517,0.13526228,-0.33811888,0.08315605,1
2.159999999999998,,,,,13.344879,0.13526228,-0.33811888,0.08315605,-1.422261,1.6838812,1.127586,0.38249242,-0.13476282,-0.012441448,0.9139933,-6.7075014,7.0903816,0.18717413,0.13526228,-0.33811888,0.08315605,1
2.1699999999999977,,,,,13.084866,0.33758,0.90151256,0.051184837,-1.4895064,1.7548383,1.1296102,0.38218182,-0.1329639,-0.01241389,0.914387,-6.741485,7.101033,0.21768287,0.13526228,-0.33811888,0.08315605,1
2.1799999999999975,,,,,13.084866,0.33758,0.90151256,0.051184837,-1.5570871,1.8259016,1.1319273,0.38222376,-0.1364421,-0.009113627,0.9138958,-6.774726,7.1117887,0.24568047,0.33758,0.90151256,0.051184837,1
2.1899999999999973,,,,,13.084866,0.33758,0.90151256,0.051184837,-1.6250025,1.897078,1.134523,0.3822568,-0.1399171,-0.0058131525,0.91338336,-6.8084507,7.1236844,0.273447,0.33758,0.90151256,0.051184837,1
