time-since-start [s],throttle_mpc,roll_mpc,pitch_mpc,yaw_mpc,throttle_nw,roll_nw,pitch_nw,yaw_nw,position_x [m],position_y [m],position_z [m],rotation_w [quaternion],rotation_x [quaternion],rotation_y [quaternion],rotation_z [quaternion],velocity_x [m/s],velocity_y [m/s],velocity_z [m/s],omega_x [rad/s],omega_y [rad/s],omega_z [rad/s],network_used
0.0,10.83721797947439,5.999999608718663,-5.999999848434976,-0.006254992609839212,14.591477,-1.0966951,-4.016682,-0.6616877,12.973533,-10.6136,1.5866098,0.34068125,-0.48335728,0.3229626,0.7389162,-9.882795,0.23084074,-1.6596903,0.65613496,0.34242573,0.68285346,0
0.01,10.83721797947439,5.999999608718663,-5.999999848434976,-0.006254992609839212,14.36712,-0.68560123,-3.102739,-0.8304878,12.874444,-10.610852,1.5697037,0.36458012,-0.45055422,0.33460036,0.74305105,-9.933598,0.31908467,-1.7207754,5.9999995,-6.0,-0.0062549924,0
0.02,10.83721797947439,5.999999608718663,-5.999999848434976,-0.006254992609839212,14.36712,-0.68560123,-3.102739,-0.8304878,12.774887,-10.607211,1.5522113,0.38782287,-0.41694027,0.3456359,0.7458486,-9.97683,0.40916336,-1.7769845,5.9999995,-6.0,-0.0062549924,0
0.03,10.83721797947439,5.999999608718663,-5.999999848434976,-0.006254992609839212,14.36712,-0.68560123,-3.102739,-0.8304878,12.674935,-10.602664,1.5341798,0.4103676,-0.38257593,0.3560494,0.7473038,-10.012178,0.5004283,-1.8286185,5.9999995,-6.0,-0.0062549924,0
0.04,10.83721797947439,5.999999608718663,-5.999999848434976,-0.006254992609839212,14.544544,-1.6685106,-1.5055892,-0.65227693,12.574672,-10.597201,1.5156535,0.43217382,-0.34752306,0.3658221,0.74741405,-10.039392,0.5922225,-1.8760115,5.9999995,-6.0,-0.0062549924,0
0.05,10.83721797947439,5.999999608718663,-5.999999848434976,-0.006254992609839212,14.544544,-1.6685106,-1.5055892,-0.65227693,12.474176,-10.590819,1.4966727,0.45320222,-0.31184474,0.3749364,0.7461791,-10.058273,0.6838851,-1.9195278,5.9999995,-6.0,-0.0062549924,0
0.060000000000000005,10.83721797947439,5.999999608718663,-5.999999848434976,-0.006254992609839212,14.544544,-1.6685106,-1.5055892,-0.65227693,12.373534,-10.583526,1.4772747,0.473415,-0.27560517,0.38337594,0.74360126,-10.0686865,0.77475625,-1.9595598,5.9999995,-6.0,-0.0062549924,0
0.07,10.83721797947439,5.999999608718663,-5.999999848434976,-0.006254992609839212,14.544544,-1.6685106,-1.5055892,-0.65227693,12.272831,-10.575331,1.457492,0.49277574,-0.23886962,0.3911255,0.73968524,-10.070558,0.86418176,-1.9965248,5.9999995,-6.0,-0.0062549924,0
0.08,17.45987389677967,5.999990050900011,-5.999999695081761,-0.1515608530887458,15.37647,-2.7828643,-0.748843,0.2917282,12.1721525,-10.566251,1.437353,0.5112496,-0.20170416,0.39817113,0.7344379,-10.063875,0.95151794,-2.0308623,5.9999995,-6.0,-0.0062549924,0
0.09,17.45987389677967,5.999990050900011,-5.999999695081761,-0.1515608530887458,15.37647,-2.7828643,-0.748843,0.2917282,12.071625,-10.556049,1.4170825,0.5293367,-0.16446488,0.4043535,0.7274972,-10.039402,1.087845,-2.0227377,5.99999,-5.9999995,-0.15156086,0
0.09999999999999999,17.45987389677967,5.999990050900011,-5.999999695081761,-0.1515608530887458,15.37647,-2.7828643,-0.748843,0.2917282,11.971411,-10.544512,1.3969076,0.54647076,-0.12692949,0.40980792,0.71924686,-10.001407,1.2188014,-2.0118678,5.99999,-5.9999995,-0.15156086,0
0.10999999999999999,17.45987389677967,5.999990050900011,-5.999999695081761,-0.1515608530887458,15.37647,-2.7828643,-0.748843,0.2917282,11.871643,-10.531695,1.3768518,0.56262106,-0.08916559,0.41452459,0.7097017,-9.950171,1.3434328,-1.9990191,5.99999,-5.9999995,-0.15156086,0
0.11999999999999998,17.45987389677967,5.999990050900011,-5.999999695081761,-0.1515608530887458,15.37647,-2.7828643,-0.748843,0.2917282,11.772453,-10.517669,1.3569312,0.57775843,-0.051241163,0.41849494,0.6988788,-9.886073,1.4608306,-1.9849735,5.99999,-5.9999995,-0.15156086,0
0.12999999999999998,20.501042242981846,1.8150128835400516,-5.999998370740699,1.200745612707931,14.367251,-3.1025634,2.119593,-0.103304446,11.673965,-10.502508,1.3371538,0.59185565,-0.013224484,0.4217119,0.6867978,-9.809581,1.5701381,-1.9705205,5.99999,-5.9999995,-0.15156086,0
0.13999999999999999,20.501042242981846,1.8150128835400516,-5.999998370740699,1.200745612707931,14.367251,-3.1025634,2.119593,-0.103304446,11.57637,-10.486208,1.3176228,0.60020083,0.015284311,0.41005558,0.68657106,-9.708468,1.6882765,-1.9350691,1.8150129,-5.9999986,1.2007456,0
0.15,20.501042242981846,1.8150128835400516,-5.999998370740699,1.200745612707931,14.367251,-3.1025634,2.119593,-0.103304446,11.479818,-10.468779,1.2984653,0.6079348,0.04377754,0.3979817,0.6856452,-9.600867,1.7959667,-1.8959057,1.8150129,-5.9999986,1.2007456,0
0.16,19.641223816617988,-1.0659847346828226,-2.077792094788528,1.0819640804905766,12.722336,-3.828138,2.048356,-0.22175914,11.384374,-10.450326,1.2797152,0.6150498,0.0722262,0.38550258,0.6840212,-9.487093,1.8928152,-1.8536767,1.8150129,-5.9999986,1.2007456,0
0.17,19.641223816617988,-1.0659847346828226,-2.077792094788528,1.0819640804905766,12.722336,-3.828138,2.048356,-0.22175914,11.290065,-10.430971,1.2613708,0.6156884,0.07813366,0.37504473,0.68859607,-9.374807,1.9776114,-1.8147441,-1.0659847,-2.0777922,1.0819641,0
0.18000000000000002,19.641223816617988,-1.0659847346828226,-2.077792094788528,1.0819640804905766,12.722336,-3.828138,2.048356,-0.22175914,11.196876,-10.410787,1.2434297,0.61622494,0.08402818,0.36452475,0.6930569,-9.263235,2.058799,-1.7730715,-1.0659847,-2.0777922,1.0819641,0
0.19000000000000003,19.641223816617988,-1.0659847346828226,-2.077792094788528,1.0819640804905766,12.722336,-3.828138,2.048356,-0.22175914,11.104797,-10.389809,1.2259187,0.61665946,0.08990878,0.35394442,0.697403,-9.152397,2.136312,-1.728754,-1.0659847,-2.0777922,1.0819641,0
0.20000000000000004,18.38455204378072,-1.5200790609137949,0.04392182931760981,0.9157021324557134,15.041337,-3.1553583,5.793749,-0.0417543,11.013824,-10.368073,1.2088635,0.61699194,0.09577449,0.34330547,0.70163363,-9.042313,2.2100863,-1.6818888,-1.0659847,-2.0777922,1.0819641,0
0.21000000000000005,18.38455204378072,-1.5200790609137949,0.04392182931760981,0.9157021324557134,15.041337,-3.1553583,5.793749,-0.0417543,10.923912,-10.345638,1.1922415,0.61440784,0.092499115,0.33765632,0.7070611,-8.940568,2.2769473,-1.6422343,-1.520079,0.04392183,0.9157021,0
0.22000000000000006,18.38455204378072,-1.5200790609137949,0.04392182931760981,0.9157021324557134,15.041337,-3.1553583,5.793749,-0.0417543,10.835005,-10.322535,1.1760243,0.6117752,0.08921646,0.3319806,0.7124329,-8.841092,2.3438406,-1.6009476,-1.520079,0.04392183,0.9157021,0
0.23000000000000007,18.38455204378072,-1.5200790609137949,0.04392182931760981,0.9157021324557134,15.041337,-3.1553583,5.793749,-0.0417543,10.747082,-10.298761,1.160228,0.60909444,0.08592678,0.32627872,0.7177486,-8.743905,2.4107273,-1.5580535,-1.520079,0.04392183,0.9157021,0
0.24000000000000007,18.38455204378072,-1.5200790609137949,0.04392182931760981,0.9157021324557134,14.56298,-2.7132967,4.6562243,-0.1056748,10.660118,-10.274321,1.1448686,0.60636574,0.08263032,0.32055113,0.72300774,-8.649022,2.4775677,-1.513577,-1.520079,0.04392183,0.9157021,0
0.25000000000000006,18.38455204378072,-1.5200790609137949,0.04392182931760981,0.9157021324557134,14.56298,-2.7132967,4.6562243,-0.1056748,10.574093,-10.249211,1.1299617,0.6035892,0.07932736,0.31479827,0.7282099,-8.556459,2.5443232,-1.4675436,-1.520079,0.04392183,0.9157021,0
0.26000000000000006,18.38455204378072,-1.5200790609137949,0.04392182931760981,0.9157021324557134,14.56298,-2.7132967,4.6562243,-0.1056748,10.488981,-10.223434,1.115523,0.6007651,0.076018155,0.3090206,0.7333547,-8.466232,2.6109543,-1.4199795,-1.520079,0.04392183,0.9157021,0
0.2700000000000001,18.38455204378072,-1.5200790609137949,0.04392182931760981,0.9157021324557134,14.56298,-2.7132967,4.6562243,-0.1056748,10.404759,-10.196993,1.1015674,0.5978937,0.07270295,0.3032186,0.7384417,-8.378357,2.6774213,-1.3709109,-1.520079,0.04392183,0.9157021,0
0.2800000000000001,17.300508052702785,-1.803474682867553,1.4236512116713465,0.743011076173692,14.841312,-2.7196794,3.3294396,0.14533967,10.321404,-10.169888,1.0881099,0.59497523,0.06938202,0.29739273,0.74347055,-8.292846,2.7436852,-1.3203653,-1.520079,0.04392183,0.9157021,0
0.2900000000000001,17.300508052702785,-1.803474682867553,1.4236512116713465,0.743011076173692,14.841312,-2.7196794,3.3294396,0.14533967,10.238868,-10.142137,1.0751204,0.59067863,0.059824698,0.2946444,0.7488022,-8.215028,2.8066201,-1.277352,-1.8034747,1.4236512,0.74301106,0
0.3000000000000001,17.300508052702785,-1.803474682867553,1.4236512116713465,0.743011076173692,14.841312,-2.7196794,3.3294396,0.14533967,10.157093,-10.113748,1.062566,0.586296,0.050258655,0.29185313,0.7540246,-8.14058,2.8714266,-1.2333704,-1.8034747,1.4236512,0.74301106,0
0.3100000000000001,17.300508052702785,-1.803474682867553,1.4236512116713465,0.743011076173692,14.841312,-2.7196794,3.3294396,0.14533967,10.076045,-10.084702,1.050456,0.5818278,0.040685285,0.2890193,0.75913715,-8.0695505,2.9380465,-1.1884806,-1.8034747,1.4236512,0.74301106,0
0.3200000000000001,16.549024562092143,-1.9070406078218316,2.6132908304395697,0.579830155715721,15.205139,-3.0039628,3.0012648,0.253838,9.995691,-10.05498,1.0387993,0.57727486,0.031105984,0.28614333,0.76413906,-8.001985,3.006421,-1.1427426,-1.8034747,1.4236512,0.74301106,0
0.3300000000000001,16.549024562092143,-1.9070406078218316,2.6132908304395697,0.579830155715721,15.205139,-3.0039628,3.0012648,0.253838,9.915979,-10.02458,1.0275719,0.5715396,0.016442996,0.28627124,0.7688441,-7.941015,3.0740962,-1.1026853,-1.9070406,2.6132908,0.57983017,0
0.34000000000000014,16.549024562092143,-1.9070406078218316,2.6132908304395697,0.579830155715721,15.205139,-3.0039628,3.0012648,0.253838,9.836856,-9.993487,1.016746,0.5656499,0.001775566,0.28632182,0.7733416,-7.8842754,3.1450477,-1.0624694,-1.9070406,2.6132908,0.57983017,0
0.35000000000000014,16.549024562092143,-1.9070406078218316,2.6132908304395697,0.579830155715721,15.205139,-3.0039628,3.0012648,0.253838,9.75828,-9.961669,1.0063226,0.55960745,-0.012892342,0.2862951,0.7776302,-7.831842,3.21918,-1.0222223,-1.9070406,2.6132908,0.57983017,0
0.36000000000000015,16.219398159060027,-1.7306734047985244,2.2446048589785295,0.4422669344608677,15.416404,-2.7767107,2.7457952,0.40262955,9.680205,-9.929092,0.99630135,0.55341387,-0.02755677,0.28619102,0.7817089,-7.7837844,3.296395,-0.982072,-1.9070406,2.6132908,0.57983017,0
0.37000000000000016,16.219398159060027,-1.7306734047985244,2.2446048589785295,0.4422669344608677,15.416404,-2.7767107,2.7457952,0.40262955,9.602586,-9.895738,0.9866668,0.54817814,-0.04048266,0.2856691,0.78501946,-7.7408543,3.3748295,-0.9448565,-1.7306734,2.2446048,0.44226694,0
0.38000000000000017,16.219398159060027,-1.7306734047985244,2.2446048589785295,0.4422669344608677,15.416404,-2.7767107,2.7457952,0.40262955,9.525375,-9.861587,0.9774034,0.5428296,-0.053400215,0.2850884,0.78816843,-7.7018404,3.4556606,-0.907866,-1.7306734,2.2446048,0.44226694,0
0.3900000000000002,16.219398159060027,-1.7306734047985244,2.2446048589785295,0.4422669344608677,15.416404,-2.7767107,2.7457952,0.40262955,9.448536,-9.826616,0.96850836,0.5373694,-0.066306785,0.28444904,0.7911553,-7.666783,3.5388095,-0.8711978,-1.7306734,2.2446048,0.44226694,0
0.4000000000000002,16.13990865170507,-1.3915607125557008,1.0287187466884695,0.3316235802491376,15.32702,-2.2945092,2.3302205,0.074395835,9.372027,-9.790804,0.95997804,0.53179866,-0.079199724,0.2837512,0.79397947,-7.6357193,3.624195,-0.8349491,-1.7306734,2.2446048,0.44226694,0
0.4100000000000002,16.13990865170507,-1.3915607125557008,1.0287187466884695,0.3316235802491376,15.32702,-2.2945092,2.3302205,0.074395835,9.29581,-9.754129,0.9518051,0.52845097,-0.08651013,0.28108257,0.7963973,-7.6083207,3.710779,-0.79962623,-1.3915607,1.0287187,0.33162358,0
0.4200000000000002,16.13990865170507,-1.3915607125557008,1.0287187466884695,0.3316235802491376,15.32702,-2.2945092,2.3302205,0.074395835,9.2198515,-9.716586,0.9439859,0.52506226,-0.09381381,0.27839208,0.7987534,-7.583629,3.7980473,-0.76422095,-1.3915607,1.0287187,0.33162358,0
0.4300000000000002,16.13990865170507,-1.3915607125557008,1.0287187466884695,0.3316235802491376,15.32702,-2.2945092,2.3302205,0.074395835,9.144128,-9.678166,0.9365209,0.52163285,-0.101110205,0.27568,0.8010474,-7.561653,3.885966,-0.72876793,-1.3915607,1.0287187,0.33162358,0
0.4400000000000002,16.13990865170507,-1.3915607125557008,1.0287187466884695,0.3316235802491376,16.00984,-2.0189626,2.3051527,0.40788454,9.068609,-9.638864,0.9294105,0.51816297,-0.10839876,0.27294654,0.8032793,-7.542401,3.9745016,-0.69330204,-1.3915607,1.0287187,0.33162358,0
0.45000000000000023,16.13990865170507,-1.3915607125557008,1.0287187466884695,0.3316235802491376,16.00984,-2.0189626,2.3051527,0.40788454,8.99327,-9.598674,0.92265475,0.5146527,-0.1156789,0.27019188,0.8054488,-7.52588,4.0636196,-0.657858,-1.3915607,1.0287187,0.33162358,0
0.46000000000000024,16.13990865170507,-1.3915607125557008,1.0287187466884695,0.3316235802491376,16.00984,-2.0189626,2.3051527,0.40788454,8.918082,-9.55759,0.9162531,0.5111027,-0.12295006,0.26741624,0.8075558,-7.512097,4.1532865,-0.6224707,-1.3915607,1.0287187,0.33162358,0
0.47000000000000025,16.13990865170507,-1.3915607125557008,1.0287187466884695,0.3316235802491376,16.00984,-2.0189626,2.3051527,0.40788454,8.843018,-9.515607,0.9102049,0.5075129,-0.13021168,0.26461986,0.8096001,-7.501057,4.243468,-0.5871747,-1.3915607,1.0287187,0.33162358,0
0.48000000000000026,16.111947712130316,-1.0923979245754165,0.29492101951676175,0.3022005543973847,15.819155,-1.6450964,2.4718652,0.4627301,8.76805,-9.472719,0.9045091,0.50388384,-0.1374632,0.2618029,0.8115816,-7.492767,4.3341293,-0.552005,-1.3915607,1.0287187,0.33162358,0
0.49000000000000027,16.111947712130316,-1.0923979245754165,0.29492101951676175,0.3022005543973847,15.819155,-1.6450964,2.4718652,0.4627301,8.693152,-9.428925,0.8991636,0.50151205,-0.1410142,0.25831634,0.8135563,-7.486876,4.4248137,-0.5170604,-1.0923979,0.294921,0.30220056,0
0.5000000000000002,16.111947712130316,-1.0923979245754165,0.29492101951676175,0.3022005543973847,15.819155,-1.6450964,2.4718652,0.4627301,8.618305,-9.384224,0.8941688,0.4991231,-0.14456038,0.25482088,0.8155031,-7.4827666,4.515214,-0.48185533,-1.0923979,0.294921,0.30220056,0
0.5100000000000002,16.111947712130316,-1.0923979245754165,0.29492101951676175,0.3022005543973847,15.819155,-1.6450964,2.4718652,0.4627301,8.54349,-9.338621,0.8895273,0.49671698,-0.14810158,0.25131673,0.817422,-7.480438,4.605313,-0.4464039,-1.0923979,0.294921,0.30220056,0
0.5200000000000002,16.02673441256515,-0.6695018501085547,-0.8034149380227009,0.2691240525774564,15.7536335,-1.3588821,1.975525,0.5498733,8.468691,-9.292118,0.88524157,0.49429384,-0.15163772,0.24780391,0.81931275,-7.4798903,4.695095,-0.41072017,-1.0923979,0.294921,0.30220056,0
0.5300000000000002,16.02673441256515,-0.6695018501085547,-0.8034149380227009,0.2691240525774564,15.7536335,-1.3588821,1.975525,0.5498733,8.393888,-9.244724,0.88131094,0.49367198,-0.14966549,0.2432761,0.8214045,-7.480582,4.783686,-0.37526643,-0.66950184,-0.80341494,0.26912406,0
0.5400000000000003,16.02673441256515,-0.6695018501085547,-0.8034149380227009,0.2691240525774564,15.7536335,-1.3588821,1.975525,0.5498733,8.3190775,-9.196451,0.87773937,0.49303576,-0.14768888,0.2387412,0.82347244,-7.481621,4.870905,-0.33891478,-0.66950184,-0.80341494,0.26912406,0
0.5500000000000003,16.02673441256515,-0.6695018501085547,-0.8034149380227009,0.2691240525774564,15.7536335,-1.3588821,1.975525,0.5498733,8.244254,-9.147311,0.87453574,0.49238512,-0.14570798,0.23419935,0.82551634,-7.4830017,4.956741,-0.30167937,-0.66950184,-0.80341494,0.26912406,0
0.5600000000000003,15.97152420058042,-0.3411428755085024,-1.2948596310333447,0.27283088270309047,16.291056,-1.3292669,1.2145694,0.5889651,8.169415,-9.09732,0.8717088,0.49172017,-0.14372282,0.22965065,0.82753617,-7.48472,5.041184,-0.26357457,-0.66950184,-0.80341494,0.26912406,0
0.5700000000000003,15.97152420058042,-0.3411428755085024,-1.2948596310333447,0.27283088270309047,16.291056,-1.3292669,1.2145694,0.5889651,8.094559,-9.046494,0.86926514,0.4918215,-0.13888724,0.2252463,0.8295098,-7.4864516,5.1237993,-0.22499847,-0.34114286,-1.2948596,0.27283087,0
0.5800000000000003,15.97152420058042,-0.3411428755085024,-1.2948596310333447,0.27283088270309047,16.291056,-1.3292669,1.2145694,0.5889651,8.019688,-8.99485,0.8672126,0.49189982,-0.13404518,0.22083142,0.83144474,-7.487674,5.2046323,-0.18535534,-0.34114286,-1.2948596,0.27283087,0
0.5900000000000003,15.97152420058042,-0.3411428755085024,-1.2948596310333447,0.27283088270309047,16.291056,-1.3292669,1.2145694,0.5889651,7.9448066,-8.942407,0.86556166,0.49195522,-0.12919685,0.21640624,0.8333409,-7.488383,5.2836695,-0.14467053,-0.34114286,-1.2948596,0.27283087,0
0.6000000000000003,15.768283230872072,-0.10837520857837797,-1.2868973144559575,0.25604631452567783,16.38226,-0.9828495,0.94738203,0.53189415,7.869921,-8.889183,0.8643227,0.49198765,-0.12434251,0.21197096,0.83519804,-7.488571,5.360898,-0.1029696,-0.34114286,-1.2948596,0.27283087,0
0.6100000000000003,15.768283230872072,-0.10837520857837797,-1.2868973144559575,0.25604631452567783,16.38226,-0.9828495,0.94738203,0.53189415,7.795037,-8.8352,0.86349666,0.49220428,-0.11896101,0.20850731,0.83672464,-7.48812,5.4354086,-0.0621036,-0.10837521,-1.2868973,0.25604632,0
0.6200000000000003,15.768283230872072,-0.10837520857837797,-1.2868973144559575,0.25604631452567783,16.38226,-0.9828495,0.94738203,0.53189415,7.720161,-8.78048,0.8630836,0.49239957,-0.11357435,0.20503464,0.838215,-7.48683,5.5082765,-0.020374486,-0.10837521,-1.2868973,0.25604632,0
0.6300000000000003,15.768283230872072,-0.10837520857837797,-1.2868973144559575,0.25604631452567783,16.38226,-0.9828495,0.94738203,0.53189415,7.645303,-8.72504,0.86309206,0.49257353,-0.108182766,0.20155309,0.8396691,-7.484697,5.5794916,0.022193387,-0.10837521,-1.2868973,0.25604632,0
0.6400000000000003,15.768283230872072,-0.10837520857837797,-1.2868973144559575,0.25604631452567783,15.751816,-0.76962054,0.7058763,0.5377154,7.57047,-8.668897,0.8635303,0.49272615,-0.1027865,0.19806279,0.8410868,-7.481716,5.6490436,0.06557553,-0.10837521,-1.2868973,0.25604632,0
0.6500000000000004,15.768283230872072,-0.10837520857837797,-1.2868973144559575,0.25604631452567783,15.751816,-0.76962054,0.7058763,0.5377154,7.4956713,-8.612065,0.8644063,0.49285743,-0.09738578,0.19456391,0.8424681,-7.477884,5.7169228,0.10974731,-0.10837521,-1.2868973,0.25604632,0
0.6600000000000004,15.768283230872072,-0.10837520857837797,-1.2868973144559575,0.25604631452567783,15.751816,-0.76962054,0.7058763,0.5377154,7.420915,-8.5545635,0.86572784,0.49296734,-0.09198084,0.19105661,0.8438129,-7.473195,5.78312,0.15468395,-0.10837521,-1.2868973,0.25604632,0
0.6700000000000004,15.768283230872072,-0.10837520857837797,-1.2868973144559575,0.25604631452567783,15.751816,-0.76962054,0.7058763,0.5377154,7.34621,-8.496409,0.8675025,0.49305588,-0.08657191,0.18754102,0.8451211,-7.4676456,5.847626,0.20036055,-0.10837521,-1.2868973,0.25604632,0
0.6800000000000004,15.577151831907658,0.01804019703683729,-1.0350186393566723,0.2644214340218953,14.5931,-0.49725732,0.36893874,0.5166926,7.271565,-8.437618,0.86973757,0.49312305,-0.081159234,0.18401732,0.8463927,-7.461233,5.9104323,0.24675205,-0.10837521,-1.2868973,0.25604632,0
0.6900000000000004,15.577151831907658,0.01804019703683729,-1.0350186393566723,0.2644214340218953,14.5931,-0.49725732,0.36893874,0.5166926,7.1969876,-8.37821,0.87243104,0.49295664,-0.076490164,0.18164638,0.847436,-7.454051,5.9709415,0.29201046,0.018040197,-1.0350187,0.26442143,0
0.7000000000000004,15.577151831907658,0.01804019703683729,-1.0350186393566723,0.2644214340218953,14.5931,-0.49725732,0.36893874,0.5166926,7.1224866,-8.318204,0.87557954,0.49277616,-0.07181892,0.17927027,0.8484551,-7.4460354,6.0301614,0.33776218,0.018040197,-1.0350187,0.26442143,0
0.7100000000000004,15.577151831907658,0.01804019703683729,-1.0350186393566723,0.2644214340218953,14.5931,-0.49725732,0.36893874,0.5166926,7.04807,-8.257611,0.8791879,0.4925816,-0.067145616,0.17688905,0.84945,-7.4371834,6.0880876,0.3839907,0.018040197,-1.0350187,0.26442143,0
0.7200000000000004,15.196965090146506,0.24219591633734042,-0.9503651113518385,0.23631716375980094,14.007817,-0.17747149,0.18706362,0.46154898,6.973746,-8.196445,0.8832609,0.492373,-0.062470395,0.17450276,0.8504206,-7.427492,6.1447163,0.43067956,0.018040197,-1.0350187,0.26442143,0
0.7300000000000004,15.196965090146506,0.24219591633734042,-0.9503651113518385,0.23631716375980094,14.007817,-0.17747149,0.18706362,0.46154898,6.899522,-8.1347275,0.8877852,0.49226674,-0.057626124,0.17326453,0.8510771,-7.417131,6.19879,0.4742243,0.24219592,-0.9503651,0.23631716,0
0.7400000000000004,15.196965090146506,0.24219591633734042,-0.9503651113518385,0.23631716375980094,14.007817,-0.17747149,0.18706362,0.46154898,6.825407,-8.072474,0.89274645,0.49214798,-0.05278039,0.1720219,0.8517119,-7.4057198,6.2518516,0.5180712,0.24219592,-0.9503651,0.23631716,0
0.7500000000000004,15.196965090146506,0.24219591633734042,-0.9503651113518385,0.23631716375980094,14.007817,-0.17747149,0.18706362,0.46154898,6.751412,-8.009695,0.8981476,0.49201667,-0.047933314,0.17077488,0.8523251,-7.393257,6.303896,0.5622056,0.24219592,-0.9503651,0.23631716,0
0.7600000000000005,14.818923919706027,0.3767737050123091,-0.6148662838605666,0.2521068662539157,13.957728,0.34311095,0.5336408,0.29492348,6.6775465,-7.9464006,0.9039915,0.49187285,-0.043085016,0.16952352,0.85291654,-7.3797417,6.354922,0.6066128,0.24219592,-0.9503651,0.23631716,0
0.7700000000000005,14.818923919706027,0.3767737050123091,-0.6148662838605666,0.2521068662539157,13.957728,0.34311095,0.5336408,0.29492348,6.6038194,-7.882606,0.9102629,0.49139643,-0.03932225,0.1696712,0.8533434,-7.365566,6.4038706,0.64766395,0.37677372,-0.61486626,0.25210688,0
0.7800000000000005,14.818923919706027,0.3767737050123091,-0.6148662838605666,0.2521068662539157,13.957728,0.34311095,0.5336408,0.29492348,6.530238,-7.8183246,0.9169451,0.49091285,-0.03555891,0.16981639,0.8537579,-7.350446,6.452324,0.6887892,0.37677372,-0.61486626,0.25210688,0
0.7900000000000005,14.818923919706027,0.3767737050123091,-0.6148662838605666,0.2521068662539157,13.957728,0.34311095,0.5336408,0.29492348,6.456814,-7.7535615,0.92403895,0.49042213,-0.031795047,0.16995911,0.85415995,-7.334382,6.5002813,0.7299803,0.37677372,-0.61486626,0.25210688,0
0.8000000000000005,14.250560739547947,0.4976646872550525,-0.8282651917000083,0.22210860380577768,13.678123,0.6064819,-0.8195355,0.1426515,6.383555,-7.688321,0.93154496,0.48992425,-0.028030721,0.17009936,0.8545494,-7.317373,6.547743,0.771229,0.37677372,-0.61486626,0.25210688,1
0.8100000000000005,14.250560739547947,0.4976646872550525,-0.8282651917000083,0.22210860380577768,13.678123,0.6064819,-0.8195355,0.1426515,6.310464,-7.6226263,0.93941003,0.49009025,-0.022921728,0.1707009,0.8544866,-7.300647,6.5910597,0.80178696,0.6064819,-0.8195355,0.1426515,1
0.8200000000000005,14.250560739547947,0.4976646872550525,-0.8282651917000083,0.22210860380577768,13.678123,0.6064819,-0.8195355,0.1426515,6.2375464,-7.5565014,0.94758075,0.4902433,-0.017812131,0.17129792,0.8544011,-7.2826376,6.6338296,0.8323547,0.6064819,-0.8195355,0.1426515,1
0.8300000000000005,14.250560739547947,0.4976646872550525,-0.8282651917000083,0.22210860380577768,13.678123,0.6064819,-0.8195355,0.1426515,6.164815,-7.4899516,0.95605713,0.49038333,-0.01270206,0.1718904,0.854293,-7.263347,6.6760497,0.86291826,0.6064819,-0.8195355,0.1426515,1
0.8400000000000005,14.250560739547947,0.4976646872550525,-0.8282651917000083,0.22210860380577768,13.460365,0.7360715,-0.9490418,0.14989418,6.0922832,-7.422982,0.96483904,0.49051037,-0.0075916513,0.1724783,0.8541623,-7.242777,6.7177176,0.89346355,0.6064819,-0.8195355,0.1426515,1
0.8500000000000005,14.250560739547947,0.4976646872550525,-0.8282651917000083,0.22210860380577768,13.460365,0.7360715,-0.9490418,0.14989418,6.019963,-7.3556023,0.973916,0.4907076,-0.0016038496,0.17329688,0.8539155,-7.221186,6.758151,0.92192155,0.7360715,-0.9490418,0.14989418,1
0.8600000000000005,14.250560739547947,0.4976646872550525,-0.8282651917000083,0.22210860380577768,13.460365,0.7360715,-0.9490418,0.14989418,5.9478655,-7.2878213,0.9832772,0.49088687,0.004384011,0.17410912,0.85363746,-7.1981025,6.7979693,0.95031106,0.7360715,-0.9490418,0.14989418,1
0.8700000000000006,14.250560739547947,0.4976646872550525,-0.8282651917000083,0.22210860380577768,13.460365,0.7360715,-0.9490418,0.14989418,5.8760066,-7.219645,0.99292195,0.49104816,0.010371711,0.17491497,0.8533281,-7.1735277,6.8371687,0.97861296,0.7360715,-0.9490418,0.14989418,1
0.8800000000000006,14.01875126551368,0.4254704927205529,-0.3390242971284713,0.28141369108605535,12.119228,0.7577234,-0.61486536,0.2505178,5.8044004,-7.1510797,1.0028492,0.49119145,0.01635903,0.17571442,0.8529875,-7.1474648,6.875746,1.0068083,0.7360715,-0.9490418,0.14989418,0
0.8900000000000006,14.01875126551368,0.4254704927205529,-0.3390242971284713,0.28141369108605535,12.119228,0.7577234,-0.61486536,0.2505178,5.733067,-7.0821233,1.013084,0.490252,0.019097047,0.17667253,0.8532731,-7.1190753,6.9154673,1.0401186,0.4254705,-0.3390243,0.2814137,0
0.9000000000000006,14.01875126551368,0.4254704927205529,-0.3390242971284713,0.28141369108605535,12.119228,0.7577234,-0.61486536,0.2505178,5.662021,-7.01277,1.0236512,0.4893079,0.021834884,0.17762901,0.85355073,-7.089944,6.955061,1.0733052,0.4254705,-0.3390243,0.2814137,0
0.9100000000000006,14.01875126551368,0.4254704927205529,-0.3390242971284713,0.28141369108605535,12.119228,0.7577234,-0.61486536,0.2505178,5.591271,-6.9430223,1.0345497,0.48835927,0.024572516,0.17858385,0.8538203,-7.060072,6.9945273,1.1063639,0.4254705,-0.3390243,0.2814137,0
0.9200000000000006,13.29744950415564,0.38205559835867126,-0.03337439363575189,0.2810411126511913,11.90699,0.6839954,-0.5138375,0.32852858,5.520823,-6.8728805,1.045778,0.48740605,0.027309917,0.17953697,0.8540819,-7.02946,7.0338664,1.1392899,0.4254705,-0.3390243,0.2814137,0
0.9300000000000006,13.29744950415564,0.38205559835867126,-0.03337439363575189,0.2810411126511913,11.90699,0.6839954,-0.5138375,0.32852858,5.450676,-6.8023553,1.0573013,0.4861823,0.028635727,0.18104829,0.85441685,-6.999819,7.0711803,1.1653318,0.3820556,-0.033374395,0.28104112,0
0.9400000000000006,13.29744950415564,0.38205559835867126,-0.03337439363575189,0.2810411126511913,11.90699,0.6839954,-0.5138375,0.32852858,5.380828,-6.7314563,1.0690842,0.48495582,0.029961376,0.18255858,0.85474694,-6.9697375,7.108692,1.1912085,0.3820556,-0.033374395,0.28104112,0
0.9500000000000006,13.29744950415564,0.38205559835867126,-0.03337439363575189,0.2810411126511913,11.90699,0.6839954,-0.5138375,0.32852858,5.311282,-6.660181,1.0811249,0.4837266,0.031286858,0.18406785,0.85507226,-6.939217,7.1464005,1.2169175,0.3820556,-0.033374395,0.28104112,0
0.9600000000000006,12.596099869901686,0.3393936669768002,0.6318258302354639,0.3803988284966993,13.621,0.21407738,-0.10103717,0.44651002,5.2420444,-6.588527,1.0934219,0.48249462,0.03261216,0.18557607,0.8553928,-6.9082584,7.184308,1.2424572,0.3820556,-0.033374395,0.28104112,0
0.9700000000000006,12.596099869901686,0.3393936669768002,0.6318258302354639,0.3803988284966993,13.621,0.21407738,-0.10103717,0.44651002,5.1731095,-6.5165033,1.1059409,0.4802221,0.031081343,0.18848832,0.85609156,-6.8787026,7.220659,1.261281,0.33939368,0.6318258,0.38039884,0
0.9800000000000006,12.596099869901686,0.3393936669768002,0.6318258302354639,0.3803988284966993,13.621,0.21407738,-0.10103717,0.44651002,5.10447,-6.444111,1.1186469,0.4779417,0.029550014,0.19139747,0.8567762,-6.8492274,7.2578735,1.2798531,0.33939368,0.6318258,0.38039884,0
0.9900000000000007,12.596099869901686,0.3393936669768002,0.6318258302354639,0.3803988284966993,13.621,0.21407738,-0.10103717,0.44651002,5.0361247,-6.371342,1.1315372,0.47565338,0.028018197,0.19430348,0.85744673,-6.819837,7.29595,1.2981683,0.33939368,0.6318258,0.38039884,0
1.0000000000000007,11.523226790877034,0.37512925114776735,-0.5826327678746988,0.3880001642752822,13.83134,0.62633586,-0.29957753,0.3832571,4.968073,-6.2981887,1.1446093,0.47335723,0.026485918,0.19720629,0.85810316,-6.7905364,7.3348866,1.3162215,0.33939368,0.6318258,0.38039884,0
1.0100000000000007,11.523226790877034,0.37512925114776735,-0.5826327678746988,0.3880001642752822,13.83134,0.62633586,-0.29957753,0.3832571,4.9003024,-6.2246594,1.1578115,0.4722136,0.030255927,0.19738388,0.85856766,-6.7635164,7.370867,1.324205,0.37512925,-0.5826328,0.38800016,0
1.0200000000000007,11.523226790877034,0.37512925114776735,-0.5826327678746988,0.3880001642752822,13.83134,0.62633586,-0.29957753,0.3832571,4.8328056,-6.150772,1.1710932,0.4710625,0.034025457,0.19755837,0.8590186,-6.73578,7.4065003,1.332121,0.37512925,-0.5826328,0.38800016,0
1.0300000000000007,11.523226790877034,0.37512925114776735,-0.5826327678746988,0.3880001642752822,13.83134,0.62633586,-0.29957753,0.3832571,4.7655897,-6.0765305,1.1844537,0.469904,0.037794452,0.19772974,0.85945606,-6.707328,7.441788,1.3399628,0.37512925,-0.5826328,0.38800016,0
1.0400000000000007,11.523226790877034,0.37512925114776735,-0.5826327678746988,0.3880001642752822,13.687788,0.51661456,-0.5685996,0.3905713,4.6986613,-6.001938,1.1978922,0.46873808,0.04156285,0.19789797,0.8598799,-6.67816,7.4767313,1.3477243,0.37512925,-0.5826328,0.38800016,0
1.0500000000000007,11.523226790877034,0.37512925114776735,-0.5826327678746988,0.3880001642752822,13.687788,0.51661456,-0.5685996,0.3905713,4.632029,-5.9269977,1.2114079,0.46756476,0.045330595,0.1980631,0.8602902,-6.648277,7.5113297,1.3553991,0.37512925,-0.5826328,0.38800016,0
1.0600000000000007,11.523226790877034,0.37512925114776735,-0.5826327678746988,0.3880001642752822,13.687788,0.51661456,-0.5685996,0.3905713,4.565699,-5.8517127,1.2249999,0.46638408,0.049097624,0.19822511,0.86068696,-6.6176786,7.5455856,1.3629812,0.37512925,-0.5826328,0.38800016,0
1.0700000000000007,11.523226790877034,0.37512925114776735,-0.5826327678746988,0.3880001642752822,13.687788,0.51661456,-0.5685996,0.3905713,4.4996786,-5.7760873,1.2386672,0.46519604,0.052863877,0.19838399,0.8610701,-6.586365,7.5794997,1.3704641,0.37512925,-0.5826328,0.38800016,0
1.0800000000000007,10.672762722065773,0.26026314655140537,-3.0780505625862635,0.47391727815428447,13.989411,0.38245812,-1.3368603,0.40770262,4.4339743,-5.700124,1.2524089,0.46400067,0.056629296,0.19853973,0.8614397,-6.554338,7.613073,1.3778417,0.37512925,-0.5826328,0.38800016,0
1.0900000000000007,10.672762722065773,0.26026314655140537,-3.0780505625862635,0.47391727815428447,13.989411,0.38245812,-1.3368603,0.40770262,4.368583,-5.6238413,1.2661852,0.4648846,0.07095384,0.19236147,0.86130416,-6.523489,7.6430078,1.3774256,0.26026314,-3.0780506,0.47391728,0
1.1000000000000008,10.672762722065773,0.26026314655140537,-3.0780505625862635,0.47391727815428447,13.989411,0.38245812,-1.3368603,0.40770262,4.3035116,-5.5472727,1.2799578,0.46565503,0.085261054,0.18613625,0.86095834,-6.4905906,7.6703615,1.3770976,0.26026314,-3.0780506,0.47391728,0
1.1100000000000008,10.672762722065773,0.26026314655140537,-3.0780505625862635,0.47391727815428447,13.989411,0.38245812,-1.3368603,0.40770262,4.2387786,-5.4704432,1.2937272,0.46631175,0.09954747,0.17986555,0.8604022,-6.4556627,7.6951175,1.3767582,0.26026314,-3.0780506,0.47391728,0
1.1200000000000008,9.51121190180871,0.14871132625429082,-5.314996448627458,0.5091455284964207,13.569595,0.028479721,-2.9004245,0.4725086,4.174405,-5.3933787,1.3074927,0.46685466,0.11380957,0.17355095,0.85963607,-6.418728,7.7172604,1.3763077,0.26026314,-3.0780506,0.47391728,0
1.1300000000000008,9.51121190180871,0.14871132625429082,-5.314996448627458,0.5091455284964207,13.569595,0.028479721,-2.9004245,0.4725086,4.1103916,-5.316119,1.3211995,0.46902695,0.13739994,0.1614333,0.8573647,-6.3836527,7.733959,1.3650132,0.14871132,-5.3149962,0.50914556,0
1.1400000000000008,9.51121190180871,0.14871132625429082,-5.314996448627458,0.5091455284964207,13.569595,0.028479721,-2.9004245,0.4725086,4.046742,-5.2387137,1.3347913,0.47086474,0.1608923,0.1492005,0.8544818,-6.3458195,7.7464437,1.3532678,0.14871132,-5.3149962,0.50914556,0
1.1500000000000008,9.51121190180871,0.14871132625429082,-5.314996448627458,0.5091455284964207,13.569595,0.028479721,-2.9004245,0.4725086,3.9834847,-5.161205,1.3482623,0.47236672,0.1842699,0.1368613,0.8509895,-6.3053164,7.754693,1.3408171,0.14871132,-5.3149962,0.50914556,0
1.1600000000000008,8.700527407067089,-0.02431064667287871,-5.999996700684683,0.6561379809956653,12.43366,-0.8391516,-2.03176,0.41651946,3.9206448,-5.083635,1.3616043,0.47353178,0.2075161,0.124424495,0.8468903,-6.2622395,7.758698,1.3274087,0.14871132,-5.3149962,0.50914556,0
1.1700000000000008,8.700527407067089,-0.02431064667287871,-5.999996700684683,0.6561379809956653,12.43366,-0.8391516,-2.03176,0.41651946,3.858229,-5.0060463,1.3747708,0.4742956,0.23317504,0.109380424,0.8418485,-6.220514,7.758261,1.3056407,-0.024310647,-5.9999967,0.656138,0
1.1800000000000008,8.700527407067089,-0.02431064667287871,-5.999996700684683,0.6561379809956653,12.43366,-0.8391516,-2.03176,0.41651946,3.7962422,-4.9284844,1.3877122,0.47462744,0.25862163,0.09423675,0.83604,-6.1764846,7.7533765,1.2824098,-0.024310647,-5.9999967,0.656138,0
1.1900000000000008,8.700527407067089,-0.02431064667287871,-5.999996700684683,0.6561379809956653,12.43366,-0.8391516,-2.03176,0.41651946,3.7347066,-4.850994,1.4004129,0.47452706,0.2838327,0.07900724,0.8294702,-6.130285,7.7440786,1.2574323,-0.024310647,-5.9999967,0.656138,0
1.2000000000000008,8.259798973570568,-0.1655128238128695,-5.999993634661752,0.7276890052083143,12.144857,-0.47477815,-3.030232,1.1366099,3.6736436,-4.773618,1.412854,0.47399455,0.30878523,0.06370578,0.8221449,-6.082055,7.730419,1.2304316,-0.024310647,-5.9999967,0.656138,0
1.2100000000000009,8.259798973570568,-0.1655128238128695,-5.999993634661752,0.7276890052083143,12.144857,-0.47477815,-3.030232,1.1366099,3.6130595,-4.696397,1.4249963,0.47295347,0.33314428,0.04765541,0.8142842,-6.034514,7.713352,1.1976695,-0.16551283,-5.999994,0.727689,0
1.2200000000000009,8.259798973570568,-0.1655128238128695,-5.999993634661752,0.7276890052083143,12.144857,-0.47477815,-3.030232,1.1366099,3.5529587,-4.619366,1.4367992,0.47148016,0.35719883,0.031561494,0.8056793,-5.985417,7.6922255,1.1625271,-0.16551283,-5.999994,0.727689,0
1.2300000000000009,8.259798973570568,-0.1655128238128695,-5.999993634661752,0.7276890052083143,12.144857,-0.47477815,-3.030232,1.1366099,3.493356,-4.542567,1.4482378,0.46957597,0.380927,0.015438737,0.79633814,-5.934914,7.667135,1.1247629,-0.16551283,-5.999994,0.727689,0
1.2400000000000009,8.259798973570568,-0.1655128238128695,-5.999993634661752,0.7276890052083143,11.483795,-0.69919026,-2.9062905,1.2251749,3.4342647,-4.4660373,1.4592845,0.46724272,0.40430704,-0.0006981273,0.7862693,-5.88316,7.638189,1.0841454,-0.16551283,-5.999994,0.727689,0
1.2500000000000009,8.259798973570568,-0.1655128238128695,-5.999993634661752,0.7276890052083143,11.483795,-0.69919026,-2.9062905,1.2251749,3.3756964,-4.389816,1.4699101,0.46448243,0.42731765,-0.016834356,0.7754819,-5.830315,7.6055126,1.040453,-0.16551283,-5.999994,0.727689,0
1.260000000000001,8.259798973570568,-0.1655128238128695,-5.999993634661752,0.7276890052083143,11.483795,-0.69919026,-2.9062905,1.2251749,3.3176615,-4.3139396,1.4800824,0.46129766,0.44993773,-0.032955196,0.7639858,-5.7765427,7.5692425,0.9934756,-0.16551283,-5.999994,0.727689,0
1.270000000000001,8.259798973570568,-0.1655128238128695,-5.999993634661752,0.7276890052083143,11.483795,-0.69919026,-2.9062905,1.2251749,3.2601683,-4.238444,1.4897677,0.45769137,0.47214663,-0.049045924,0.75179154,-5.72201,7.5295296,0.9430153,-0.16551283,-5.999994,0.727689,0
1.280000000000001,8.712173165200387,-0.209528700880303,-5.99999539212862,0.981926793782557,11.052536,-0.4875799,-1.9726671,0.36360246,3.2032235,-4.163361,1.4989301,0.4536668,0.49392402,-0.06509183,0.73891026,-5.6668863,7.4865365,0.8888865,-0.16551283,-5.999994,0.727689,0
1.290000000000001,8.712173165200387,-0.209528700880303,-5.99999539212862,0.981926793782557,11.052536,-0.4875799,-1.9726671,0.36360246,3.1468472,-4.0887365,1.5075433,0.44839466,0.5150647,-0.08186823,0.7259118,-5.608311,7.4379063,0.83311975,-0.2095287,-5.999995,0.9819268,0
1.300000000000001,8.712173165200387,-0.209528700880303,-5.99999539212862,0.981926793782557,11.052536,-0.4875799,-1.9726671,0.36360246,3.0910583,-4.014614,1.515578,0.4427077,0.5357289,-0.09856888,0.71224177,-5.549496,7.386182,0.77314466,-0.2095287,-5.999995,0.9819268,0
1.310000000000001,8.712173165200387,-0.209528700880303,-5.99999539212862,0.981926793782557,11.052536,-0.4875799,-1.9726671,0.36360246,3.0358577,-3.941023,1.5229913,0.43661118,0.5558974,-0.11517835,0.69791293,-5.490617,7.3315787,0.7088049,-0.2095287,-5.999995,0.9819268,0
1.320000000000001,8.482668932499339,-0.45922934610147326,-2.0465842820281073,1.0825162265747037,11.060252,-0.7553474,-1.893574,0.12340194,2.9812455,-3.8679917,1.5297388,0.4301107,0.5755517,-0.13168125,0.68293834,-5.4318466,7.274323,0.6399603,-0.2095287,-5.999995,0.9819268,0
1.330000000000001,8.482668932499339,-0.45922934610147326,-2.0465842820281073,1.0825162265747037,11.060252,-0.7553474,-1.893574,0.12340194,2.9272122,-3.7955358,1.5357748,0.42635843,0.58079964,-0.14075649,0.67902696,-5.3749013,7.216701,0.56700414,-0.45922935,-2.0465844,1.0825162,0
1.340000000000001,8.482668932499339,-0.45922934610147326,-2.0465842820281073,1.0825162265747037,11.060252,-0.7553474,-1.893574,0.12340194,2.8737462,-3.723661,1.5410739,0.4225468,0.5859667,-0.14981215,0.67502093,-5.31831,7.158121,0.49259135,-0.45922935,-2.0465844,1.0825162,0
1.350000000000001,8.482668932499339,-0.45922934610147326,-2.0465842820281073,1.0825162265747037,11.060252,-0.7553474,-1.893574,0.12340194,2.8208444,-3.6523767,1.5456215,0.4186763,0.5910522,-0.15884693,0.6709209,-5.262083,7.098618,0.41670197,-0.45922935,-2.0465844,1.0825162,0
1.360000000000001,8.246264727468454,-0.6425419101839348,2.711017257287843,1.190965533352335,10.560244,-0.4059082,-0.26851496,-0.08581215,2.7685032,-3.5816915,1.5494027,0.4147475,0.5960552,-0.1678596,0.6667275,-5.206233,7.0382285,0.33931696,-0.45922935,-2.0465844,1.0825162,0
1.370000000000001,8.246264727468454,-0.6425419101839348,2.711017257287843,1.190965533352335,10.560244,-0.4059082,-0.26851496,-0.08581215,2.716711,-3.5116048,1.5524039,0.41491994,0.5846177,-0.1679098,0.67666066,-5.152283,6.979179,0.26127288,-0.6425419,2.7110174,1.1909655,0
1.380000000000001,8.246264727468454,-0.6425419101839348,2.711017257287843,1.190965533352335,10.560244,-0.4059082,-0.26851496,-0.08581215,2.6654568,-3.442106,1.5546358,0.41499716,0.57304597,-0.16792147,0.68643856,-5.0986648,6.9206247,0.18544742,-0.6425419,2.7110174,1.1909655,0
1.390000000000001,8.246264727468454,-0.6425419101839348,2.711017257287843,1.190965533352335,10.560244,-0.4059082,-0.26851496,-0.08581215,2.6147366,-3.3731904,1.5561204,0.41497913,0.5613427,-0.1678946,0.6960589,-5.0454397,6.862593,0.11182421,-0.6425419,2.7110174,1.1909655,0
1.400000000000001,7.752032533987605,-0.8228038345481845,5.091322460053247,1.2095248287648717,12.332106,-1.6765765,0.36305583,-0.26156896,2.5645463,-3.3048522,1.5568798,0.41486585,0.54951054,-0.16782919,0.70551944,-4.99267,6.805111,0.04038483,-0.6425419,2.7110174,1.1909655,0
1.410000000000001,7.752032533987605,-0.8228038345481845,5.091322460053247,1.2095248287648717,12.332106,-1.6765765,0.36305583,-0.26156896,2.5148654,-3.2370684,1.5569289,0.4169864,0.5286383,-0.1634355,0.72107726,-4.9436364,6.7518697,-0.02997959,-0.82280385,5.0913224,1.2095249,0
1.420000000000001,7.752032533987605,-0.8228038345481845,5.091322460053247,1.2095248287648717,12.332106,-1.6765765,0.36305583,-0.26156896,2.4656708,-3.1698105,1.5562929,0.41881448,0.5073953,-0.15892717,0.7361292,-4.895444,6.699925,-0.09665751,-0.82280385,5.0913224,1.2095249,0
1.430000000000001,7.752032533987605,-0.8228038345481845,5.091322460053247,1.2095248287648717,12.332106,-1.6765765,0.36305583,-0.26156896,2.416953,-3.1030653,1.5550082,0.42034873,0.48579633,-0.15430735,0.7506649,-4.848257,6.6493816,-0.15972984,-0.82280385,5.0913224,1.2095249,0
1.440000000000001,7.752032533987605,-0.8228038345481845,5.091322460053247,1.2095248287648717,12.750964,-1.4861088,-0.119906746,-0.25760096,2.3687015,-3.0368178,1.5531105,0.42158812,0.46385658,-0.14957929,0.76467395,-4.8022375,6.6003428,-0.21928757,-0.82280385,5.0913224,1.2095249,0
1.450000000000001,7.752032533987605,-0.8228038345481845,5.091322460053247,1.2095248287648717,12.750964,-1.4861088,-0.119906746,-0.25760096,2.3209035,-2.9710526,1.5506344,0.42253172,0.4415914,-0.14474629,0.77814656,-4.7575436,6.552906,-0.2754316,-0.82280385,5.0913224,1.2095249,0
1.460000000000001,7.752032533987605,-0.8228038345481845,5.091322460053247,1.2095248287648717,12.750964,-1.4861088,-0.119906746,-0.25760096,2.2735455,-2.9057539,1.5476134,0.42317897,0.41901648,-0.13981175,0.7910733,-4.7143297,6.507165,-0.32827237,-0.82280385,5.0913224,1.2095249,0
1.470000000000001,7.752032533987605,-0.8228038345481845,5.091322460053247,1.2095248287648717,12.750964,-1.4861088,-0.119906746,-0.25760096,2.2266114,-2.8409035,1.5440799,0.42352936,0.39614764,-0.13477916,0.80344516,-4.672745,6.463208,-0.3779296,-0.82280385,5.0913224,1.2095249,0
1.480000000000001,7.281460177437607,-1.0396621597920577,5.735886867944079,1.0758876560711839,11.2919655,-1.9009831,1.0081075,0.24168319,2.1800845,-2.776483,1.5400653,0.4235826,0.3730009,-0.129652,0.8152534,-4.6329374,6.4211197,-0.42453194,-0.82280385,5.0913224,1.2095249,0
1.490000000000001,7.281460177437607,-1.0396621597920577,5.735886867944079,1.0758876560711839,11.2919655,-1.9009831,1.0081075,0.24168319,2.1339343,-2.7124617,1.5355833,0.4246681,0.34656057,-0.123692274,0.82719564,-4.5974593,6.383486,-0.47139138,-1.0396621,5.735887,1.0758877,0
1.500000000000001,7.281460177437607,-1.0396621597920577,5.735886867944079,1.0758876560711839,11.2919655,-1.9009831,1.0081075,0.24168319,2.0881276,-2.648806,1.5306474,0.42538056,0.31981578,-0.1176239,0.83841133,-4.564226,6.3479557,-0.5153277,-1.0396621,5.735887,1.0758877,0
1.5100000000000011,7.281460177437607,-1.0396621597920577,5.735886867944079,1.0758876560711839,11.2919655,-1.9009831,1.0081075,0.24168319,2.0426416,-2.5854952,1.5252861,0.42571935,0.2927901,-0.111452214,0.8488905,-4.5333824,6.3146167,-0.55652654,-1.0396621,5.735887,1.0758877,0
1.5200000000000011,7.1511966968226295,-1.1584932732188395,5.999983930403407,0.8802863240759607,9.8853,-2.0871499,1.4774706,0.50201637,1.9974513,-2.5225062,1.5195256,0.4256842,0.2655072,-0.10518263,0.858624,-4.5050645,6.2835507,-0.5951831,-1.0396621,5.735887,1.0758877,0
1.5300000000000011,7.1511966968226295,-1.1584932732188395,5.999983930403407,0.8802863240759607,9.8853,-2.0871499,1.4774706,0.50201637,1.9525286,-2.4598136,1.5133852,0.4263955,0.2366979,-0.098505236,0.867443,-4.47992,6.255373,-0.6325688,-1.1584933,5.999984,0.88028634,0
1.5400000000000011,7.1511966968226295,-1.1584932732188395,5.999983930403407,0.8802863240759607,9.8853,-2.0871499,1.4774706,0.50201637,1.907843,-2.3973906,1.5068818,0.4267005,0.20766307,-0.09173399,0.8754355,-4.4576607,6.2296486,-0.66777796,-1.1584933,5.999984,0.88028634,0
1.5500000000000012,7.1511966968226295,-1.1584932732188395,5.999983930403407,0.8802863240759607,9.8853,-2.0871499,1.4774706,0.50201637,1.8633653,-2.3352122,1.5000362,0.4265989,0.17843038,-0.08487534,0.8825938,-4.438397,6.2064447,-0.7010478,-1.1584933,5.999984,0.88028634,0
1.5600000000000012,7.5826530465331405,-1.154653076490905,5.9999897529768305,0.5849745996229924,9.4637985,-1.3921583,1.1993722,0.6394785,1.8190646,-2.273253,1.4928668,0.42609084,0.14902765,-0.077935815,0.8889111,-4.422226,6.185819,-0.732623,-1.1584933,5.999984,0.88028634,0
1.5700000000000012,7.5826530465331405,-1.154653076490905,5.9999897529768305,0.5849745996229924,9.4637985,-1.3921583,1.1993722,0.6394785,1.7749139,-2.211492,1.4854093,0.4264886,0.1196069,-0.07068535,0.8937589,-4.4084473,6.1667366,-0.7586537,-1.1546531,5.99999,0.5849746,0
1.5800000000000012,7.5826530465331405,-1.154653076490905,5.9999897529768305,0.5849745996229924,9.4637985,-1.3921583,1.1993722,0.6394785,1.7308838,-2.1499083,1.477698,0.42648467,0.0900735,-0.06336832,0.89776486,-4.398106,6.1504903,-0.78342485,-1.1546531,5.99999,0.5849746,0
1.5900000000000012,7.5826530465331405,-1.154653076490905,5.9999897529768305,0.5849745996229924,9.4637985,-1.3921583,1.1993722,0.6394785,1.6869397,-2.0884724,1.4697441,0.42607912,0.06045528,-0.055991605,0.9009253,-4.391259,6.137121,-0.80721223,-1.1546531,5.99999,0.5849746,0
1.6000000000000012,8.654969489972707,-1.0112344522356853,5.9997519721009605,0.3561667797830384,9.032012,-1.5138867,1.401738,1.027364,1.6430465,-2.0271559,1.4615561,0.42527226,0.030780112,-0.04856215,0.9032372,-4.387949,6.126658,-0.8302952,-1.1546531,5.99999,0.5849746,0
1.6100000000000012,8.654969489972707,-1.0112344522356853,5.9997519721009605,0.3561667797830384,9.032012,-1.5138867,1.401738,1.027364,1.5991688,-1.9659348,1.453193,0.42507872,0.0014376342,-0.04040496,0.9042528,-4.388205,6.118084,-0.84228426,-1.0112344,5.999752,0.35616678,0
1.6200000000000012,8.654969489972707,-1.0112344522356853,5.9997519721009605,0.3561667797830384,9.032012,-1.5138867,1.401738,1.027364,1.5552685,-1.9047823,1.444711,0.42449048,-0.02790618,-0.03221025,0.9044287,-4.392449,6.1129427,-0.8541042,-1.0112344,5.999752,0.35616678,0
1.6300000000000012,8.654969489972707,-1.0112344522356853,5.9997519721009605,0.3561667797830384,9.032012,-1.5138867,1.401738,1.027364,1.511306,-1.8436642,1.4361104,0.42350805,-0.057224084,-0.023985628,0.9037648,-4.4006763,6.111239,-0.86607593,-1.0112344,5.999752,0.35616678,0
1.6400000000000012,8.654969489972707,-1.0112344522356853,5.9997519721009605,0.3561667797830384,9.267559,-1.6540858,1.5043037,0.9583699,1.4672413,-1.7825458,1.4273878,0.42213234,-0.08648884,-0.015738733,0.9022616,-4.412869,6.1129656,-0.87851954,-1.0112344,5.999752,0.35616678,0
1.6500000000000012,8.654969489972707,-1.0112344522356853,5.9997519721009605,0.3561667797830384,9.267559,-1.6540858,1.5043037,0.9583699,1.423035,-1.7213931,1.4185371,0.42036465,-0.115673296,-0.007477225,0.89992064,-4.428995,6.118102,-0.89175344,-1.0112344,5.999752,0.35616678,0
1.6600000000000013,8.654969489972707,-1.0112344522356853,5.9997519721009605,0.3561667797830384,9.267559,-1.6540858,1.5043037,0.9583699,1.3786482,-1.6601721,1.409549,0.41820663,-0.14475034,0.0007912279,0.89674395,-4.4490066,6.126614,-0.90609324,-1.0112344,5.999752,0.35616678,0
1.6700000000000013,8.654969489972707,-1.0112344522356853,5.9997519721009605,0.3561667797830384,9.267559,-1.6540858,1.5043037,0.9583699,1.334042,-1.5988494,1.4004105,0.41566026,-0.17369297,0.009058947,0.8927346,-4.472841,6.138456,-0.9218502,-1.0112344,5.999752,0.35616678,0
1.6800000000000013,9.832461932107755,-0.7811783057273548,3.2780005996269503,0.22120288353927142,9.576462,-0.62842596,1.5213667,0.44506127,1.2891785,-1.5373919,1.3911061,0.4127279,-0.20247431,0.017318252,0.8878962,-4.500422,6.15357,-0.9393306,-1.0112344,5.999752,0.35616678,0
1.6900000000000013,9.832461932107755,-0.7811783057273548,3.2780005996269503,0.22120288353927142,9.576462,-0.62842596,1.5213667,0.44506127,1.2440019,-1.4757568,1.3816719,0.41061243,-0.21859021,0.020836143,0.8849753,-4.5352764,6.173712,-0.9477291,-0.7811783,3.2780006,0.22120288,0
1.7000000000000013,9.832461932107755,-0.7811783057273548,3.2780005996269503,0.22120288353927142,9.576462,-0.62842596,1.5213667,0.44506127,1.1984648,-1.4139112,1.3721467,0.40837994,-0.2346438,0.024348091,0.8818022,-4.5725284,6.1956615,-0.9575265,-0.7811783,3.2780006,0.22120288,0
1.7100000000000013,9.832461932107755,-0.7811783057273548,3.2780005996269503,0.22120288353927142,9.576462,-0.62842596,1.5213667,0.44506127,1.1525433,-1.3518374,1.3625162,0.406031,-0.2506305,0.027853096,0.8783777,-4.6121397,6.219389,-0.9688234,-0.7811783,3.2780006,0.22120288,0
1.7200000000000013,11.322011562020892,-0.44934555241242735,0.05049884511598455,0.12601478657825416,9.904568,-0.12796018,0.6403516,0.36685508,1.106214,-1.2895175,1.3527647,0.4035663,-0.26654574,0.031350162,0.8747027,-4.6540704,6.2448606,-0.98171866,-0.7811783,3.2780006,0.22120288,0
1.7300000000000013,11.322011562020892,-0.44934555241242735,0.05049884511598455,0.12601478657825416,9.904568,-0.12796018,0.6403516,0.36685508,1.0594233,-1.2269166,1.3429414,0.40240732,-0.26765278,0.0296547,0.8749577,-4.704149,6.2753143,-0.98295015,-0.44934556,0.050498847,0.12601478,0
1.7400000000000013,11.322011562020892,-0.44934555241242735,0.05049884511598455,0.12601478657825416,9.904568,-0.12796018,0.6403516,0.36685508,1.0121298,-1.1640124,1.3331054,0.4012461,-0.2687584,0.027959075,0.8752079,-4.754625,6.3054643,-0.98429286,-0.44934556,0.050498847,0.12601478,0
1.7500000000000013,11.322011562020892,-0.44934555241242735,0.05049884511598455,0.12601478657825416,9.904568,-0.12796018,0.6403516,0.36685508,0.9643294,-1.1008083,1.3232553,0.40008265,-0.2698625,0.026263297,0.87545335,-4.8054957,6.3353105,-0.98574835,-0.44934556,0.050498847,0.12601478,0
1.7600000000000013,12.410364858398639,-0.1691132251688278,-1.6792887470607656,0.09825518959630967,10.940361,0.23019513,0.21664149,0.38179606,0.9160184,-1.0373073,1.31339,0.39891702,-0.27096513,0.024567373,0.8756938,-4.856761,6.36485,-0.9873183,-0.44934556,0.050498847,0.12601478,0
1.7700000000000014,12.410364858398639,-0.1691132251688278,-1.6792887470607656,0.09825518959630967,10.940361,0.23019513,0.21664149,0.38179606,0.8671696,-0.9734996,1.303556,0.39844972,-0.2639281,0.02060972,0.8781544,-4.9128604,6.3964295,-0.97931904,-0.16911322,-1.6792887,0.09825519,0
1.7800000000000014,12.410364858398639,-0.1691132251688278,-1.6792887470607656,0.09825518959630967,10.940361,0.23019513,0.21664149,0.38179606,0.81776464,-0.9093841,1.293807,0.39795396,-0.25687215,0.016650593,0.8805522,-4.9679785,6.4264307,-0.97035235,-0.16911322,-1.6792887,0.09825519,0
1.7900000000000014,12.410364858398639,-0.1691132251688278,-1.6792887470607656,0.09825518959630967,10.940361,0.23019513,0.21664149,0.38179606,0.7678135,-0.8449765,1.2841523,0.39742973,-0.24979785,0.012690277,0.882887,-5.0220985,6.4548464,-0.9604483,-0.16911322,-1.6792887,0.09825519,0
1.8000000000000014,13.347082403850495,0.004791835880489291,-1.220723638960721,0.1009122865269075,11.125566,-0.068445414,-0.29881036,0.3393485,0.71732616,-0.78029263,1.2746011,0.39687714,-0.24270572,0.008729055,0.88515884,-5.075204,6.4816704,-0.9496371,-0.16911322,-1.6792887,0.09825519,0
1.8100000000000014,13.347082403850495,0.004791835880489291,-1.220723638960721,0.1009122865269075,11.125566,-0.068445414,-0.29881036,0.3393485,0.666293,-0.7153383,1.2652036,0.39648217,-0.23728462,0.006450186,0.8868236,-5.1312776,6.5090203,-0.92974585,0.004791836,-1.2207236,0.10091229,0
1.8200000000000014,13.347082403850495,0.004791835880489291,-1.220723638960721,0.1009122865269075,11.125566,-0.068445414,-0.29881036,0.3393485,0.61470383,-0.6501161,1.2560085,0.39607233,-0.2318546,0.0041710753,0.8884552,-5.1864142,6.535234,-0.9091573,0.004791836,-1.2207236,0.10091229,0
1.8300000000000014,13.347082403850495,0.004791835880489291,-1.220723638960721,0.1009122865269075,11.125566,-0.068445414,-0.29881036,0.3393485,0.56256795,-0.5846375,1.2470227,0.39564764,-0.22641592,0.0018918084,0.89005345,-5.2406044,6.560309,-0.8878887,0.004791836,-1.2207236,0.10091229,0
1.8400000000000014,13.347082403850495,0.004791835880489291,-1.220723638960721,0.1009122865269075,11.4012785,-0.030631516,-1.2180643,0.3517179,0.5098949,-0.51891387,1.238253,0.3952081,-0.22096874,-0.00038752932,0.8916183,-5.29384,6.584243,-0.86595774,0.004791836,-1.2207236,0.10091229,0
1.8500000000000014,13.347082403850495,0.004791835880489291,-1.220723638960721,0.1009122865269075,11.4012785,-0.030631516,-1.2180643,0.3517179,0.4566944,-0.45295656,1.2297058,0.39475372,-0.21551326,-0.0026668524,0.89314973,-5.34611,6.6070333,-0.8433819,0.004791836,-1.2207236,0.10091229,0
1.8600000000000014,13.347082403850495,0.004791835880489291,-1.220723638960721,0.1009122865269075,11.4012785,-0.030631516,-1.2180643,0.3517179,0.40297604,-0.3867771,1.2213875,0.39428458,-0.21004969,-0.0049460754,0.8946476,-5.397407,6.6286774,-0.820179,0.004791836,-1.2207236,0.10091229,0
1.8700000000000014,13.347082403850495,0.004791835880489291,-1.220723638960721,0.1009122865269075,11.4012785,-0.030631516,-1.2180643,0.3517179,0.34874964,-0.32038695,1.2133042,0.39380065,-0.20457825,-0.0072251135,0.8961119,-5.4477215,6.6491733,-0.7963667,0.004791836,-1.2207236,0.10091229,0
1.8800000000000014,13.851317512996825,0.08426276471951488,-0.9791122355799937,0.09684439150823151,12.230058,-0.054971073,-0.11521646,0.33372992,0.29402503,-0.2537976,1.2054621,0.39330193,-0.19909912,-0.0095038805,0.89754266,-5.497045,6.6685185,-0.7719629,0.004791836,-1.2207236,0.10091229,0
1.8900000000000015,13.851317512996825,0.08426276471951488,-0.9791122355799937,0.09684439150823151,12.230058,-0.054971073,-0.11521646,0.33372992,0.2388029,-0.18701673,1.1978899,0.39289987,-0.19454163,-0.010954636,0.8987008,-5.5472426,6.687517,-0.7423719,0.084262766,-0.9791122,0.09684439,0
1.9000000000000015,13.851317512996825,0.08426276471951488,-0.9791122355799937,0.09684439150823151,12.230058,-0.054971073,-0.11521646,0.33372992,0.18308334,-0.12005029,1.1906163,0.39248824,-0.1899794,-0.012405126,0.89983696,-5.5965242,6.705633,-0.7122967,0.084262766,-0.9791122,0.09684439,0
1.9100000000000015,13.851317512996825,0.08426276471951488,-0.9791122355799937,0.09684439150823151,12.230058,-0.054971073,-0.11521646,0.33372992,0.1268756,-0.052907094,1.1836456,0.39206707,-0.18541254,-0.013855314,0.9009512,-5.644884,6.722866,-0.6817496,0.084262766,-0.9791122,0.09684439,0
1.9200000000000015,14.414259893838443,0.1680070202801469,-0.22559830415439064,0.10081415969527698,12.67202,-0.06742415,-0.16607817,0.13812107,0.070188865,0.014403999,1.1769828,0.39163637,-0.18084116,-0.015305162,0.9020435,-5.6923175,6.739214,-0.6507427,0.084262766,-0.9791122,0.09684439,0
1.9300000000000015,14.414259893838443,0.1680070202801469,-0.22559830415439064,0.10081415969527698,12.67202,-0.06742415,-0.16607817,0.13812107,0.013022317,0.08187825,1.1706581,0.3913159,-0.17950219,-0.014898003,0.9024567,-5.740933,6.7556276,-0.614142,0.16800702,-0.2255983,0.100814156,0
1.9400000000000015,14.414259893838443,0.1680070202801469,-0.22559830415439064,0.10081415969527698,12.67202,-0.06742415,-0.16607817,0.13812107,-0.044628505,0.14951633,1.1647004,0.39099455,-0.17816283,-0.01449081,0.902868,-5.7891726,6.771978,-0.5773991,0.16800702,-0.2255983,0.100814156,0
1.9500000000000015,14.414259893838443,0.1680070202801469,-0.22559830415439064,0.10081415969527698,12.67202,-0.06742415,-0.16607817,0.13812107,-0.10275985,0.21731758,1.1591108,0.39067233,-0.17682306,-0.014083585,0.90327716,-5.8370385,6.7882648,-0.540515,0.16800702,-0.2255983,0.100814156,0
1.9600000000000015,14.564027850298801,0.2068283203656933,-0.2532400085251323,0.10212879598906399,13.203786,-0.07258317,-0.8925438,0.051848356,-0.16136798,0.2852814,1.1538906,0.39034924,-0.1754829,-0.013676329,0.9036844,-5.8845286,6.8044887,-0.50349087,0.16800702,-0.2255983,0.100814156,0
1.9700000000000015,14.564027850298801,0.2068283203656933,-0.2532400085251323,0.10212879598906399,13.203786,-0.07258317,-0.8925438,0.051848356,-0.2204515,0.35340798,1.1490484,0.39005136,-0.1739417,-0.013146422,0.9041187,-5.9321084,6.820822,-0.46491432,0.20682833,-0.25324002,0.1021288,0
1.9800000000000015,14.564027850298801,0.2068283203656933,-0.2532400085251323,0.10212879598906399,13.203786,-0.07258317,-0.8925438,0.051848356,-0.28000864,0.42169765,1.1445928,0.38975233,-0.1724,-0.012616477,0.9045504,-5.979243,6.837102,-0.42617738,0.20682833,-0.25324002,0.1021288,0
1.9900000000000015,14.564027850298801,0.2068283203656933,-0.2532400085251323,0.10212879598906399,13.203786,-0.07258317,-0.8925438,0.051848356,-0.34003487,0.49014986,1.1405253,0.38945216,-0.17085779,-0.012086495,0.9049794,-6.025932,6.8533306,-0.38728148,0.20682833,-0.25324002,0.1021288,0
2.0000000000000013,,,,,13.421312,0.23177806,-0.74150616,0.007410709,-0.40052575,0.55876404,1.1368477,0.38915086,-0.16931508,-0.011556477,0.9054058,-6.072174,6.8695073,-0.34822813,0.20682833,-0.25324002,0.1021288,0
2.010000000000001,,,,,13.421312,0.23177806,-0.74150616,0.007410709,-0.46147862,0.6275405,1.1335661,0.38880622,-0.16862793,-0.010634739,0.90569335,-6.118355,6.88582,-0.30809376,0.20938434,-0.06322384,0.114411876,0
2.020000000000001,,,,,13.421312,0.23177806,-0.74150616,0.007410709,-0.52289194,0.6964809,1.1306863,0.388461,-0.16794054,-0.009712985,0.9059795,-6.164261,6.9022813,-0.26788557,0.20938434,-0.06322384,0.114411876,0
2.0300000000000007,,,,,13.421312,0.23177806,-0.74150616,0.007410709,-0.58476293,0.76558656,1.1282089,0.38811517,-0.16725288,-0.008791216,0.9062643,-6.2098923,6.9188914,-0.22760431,0.20938434,-0.06322384,0.114411876,0
2.0400000000000005,,,,,13.421312,0.23177806,-0.74150616,0.007410709,-0.6470888,0.83485913,1.1261346,0.38776875,-0.16656496,-0.007869434,0.9065477,-6.255249,6.9356503,-0.18725073,0.20938434,-0.06322384,0.114411876,0
2.0500000000000003,,,,,13.66278,0.120404154,-0.6694547,0.0468666,-0.7098669,0.9043001,1.1244643,0.38742176,-0.16587679,-0.0069476394,0.9068298,-6.300331,6.952558,-0.14682558,0.20938434,-0.06322384,0.114411876,1
2.06,,,,,13.66278,0.120404154,-0.6694547,0.0468666,-0.77307856,0.97390425,1.1231513,0.3872836,-0.16260882,-0.007659604,0.90747476,-6.3419056,6.9681983,-0.11572024,0.120404154,-0.6694547,0.0468666,1
2.07,,,,,13.66278,0.120404154,-0.6694547,0.0468666,-0.83670247,1.0436623,1.1221508,0.38714096,-0.15933897,-0.008371479,0.90810907,-6.3827734,6.9833083,-0.084326625,0.120404154,-0.6694547,0.0468666,1
2.0799999999999996,,,,,13.66278,0.120404154,-0.6694547,0.0468666,-0.90073156,1.1135687,1.1214657,0.38699383,-0.15606725,-0.009083257,0.9087329,-6.4229317,6.997888,-0.052650712,0.120404154,-0.6694547,0.0468666,1
2.0899999999999994,,,,,13.744935,0.26394907,-0.6959682,-0.004757937,-0.9651587,1.1836183,1.1210986,0.3868422,-0.15279374,-0.009794929,0.9093462,-6.4623795,7.011937,-0.020698452,0.120404154,-0.6694547,0.0468666,1
2.099999999999999,,,,,13.744935,0.26394907,-0.6959682,-0.004757937,-1.0299778,1.2538062,1.1210566,0.3870287,-0.14911754,-0.0099445395,0.90987533,-6.501286,7.025579,0.01232143,0.26394907,-0.6959682,-0.004757937,1
2.109999999999999,,,,,13.744935,0.26394907,-0.6959682,-0.004757937,-1.0951813,1.3241284,1.1213461,0.38720986,-0.14543928,-0.010094012,0.91039187,-6.539311,7.0387983,0.045642883,0.26394907,-0.6959682,-0.004757937,1
2.1199999999999988,,,,,13.744935,0.26394907,-0.6959682,-0.004757937,-1.1607609,1.3945807,1.1219704,0.38738567,-0.14175901,-0.010243345,0.91089576,-6.5764527,7.0515947,0.07925861,0.26394907,-0.6959682,-0.004757937,1
2.1299999999999986,,,,,13.577371,0.2182993,-0.49781632,0.025242511,-1.2267072,1.4651589,1.1229323,0.3875561,-0.13807675,-0.010392536,0.911387,-6.612708,7.0639668,0.11316134,0.26394907,-0.6959682,-0.004757937,1
2.1399999999999983,,,,,13.577371,0.2182993,-0.49781632,0.025242511,-1.2930099,1.535858,1.1242265,0.38756445,-0.13538602,-0.010344954,0.9117876,-6.647727,7.075824,0.14570394,0.2182993,-0.49781632,0.025242511,1
2.149999999999998,,,,,13.577371,0.2182993,-0.49781632,0.025242511,-1.3596596,1.6066744,1.125847,0.38756993,-0.13269427,-0.010297295,0.9121814,-6.68209,7.0874085,0.17844516,0.2182993,-0.49781632,0.025242511,1
2.159999999999998,,,,,13.577371,0.2182993,-0.49781632,0.025242511,-1.4266496,1.6776054,1.1277959,0.38757256,-0.13000157,-0.010249561,0.91256845,-6.715795,7.098721,0.21138115,0.2182993,-0.49781632,0.025242511,1
2.1699999999999977,,,,,13.082449,0.08339432,0.21889524,0.0638513,-1.4939733,1.7486479,1.1300753,0.38757232,-0.12730792,-0.010201748,0.91294885,-6.748842,7.1097608,0.24450804,0.2182993,-0.49781632,0.025242511,1
2.1799999999999975,,,,,13.082449,0.08339432,0.21889524,0.0638513,-1.561619,1.8197982,1.1326627,0.3873448,-0.12814867,-0.009356236,0.9129368,-6.780329,7.120339,0.27294528,0.08339432,0.21889524,0.0638513,1
2.1899999999999973,,,,,13.082449,0.08339432,0.21889524,0.0638513,-1.6295804,1.8910557,1.135534,0.38711673,-0.12898925,-0.008510709,0.91292346,-6.811931,7.1311965,0.3013304,0.08339432,0.21889524,0.0638513,1
