time-since-start [s],throttle_mpc,roll_mpc,pitch_mpc,yaw_mpc,throttle_nw,roll_nw,pitch_nw,yaw_nw,position_x [m],position_y [m],position_z [m],rotation_w [quaternion],rotation_x [quaternion],rotation_y [quaternion],rotation_z [quaternion],velocity_x [m/s],velocity_y [m/s],velocity_z [m/s],omega_x [rad/s],omega_y [rad/s],omega_z [rad/s],network_used
0.0,6.342846098924691,5.999999080209747,-5.999999872578259,-3.121371708918046,12.640454,0.42750242,-4.5097637,-0.9406002,18.404099,-10.117969,2.1919658,0.009981953,-0.42930624,0.1681649,0.8873089,-10.513048,-2.8614645,-0.29049966,1.7673715,-0.15450773,-0.050796162,0
0.01,6.342846098924691,5.999999080209747,-5.999999872578259,-3.121371708918046,11.787506,0.73519295,-6.230718,-0.86111814,18.298729,-10.146482,2.1887546,0.04173317,-0.40458173,0.18760611,0.8940782,-10.559983,-2.840492,-0.35147583,5.999999,-6.0,-3.1213717,0
0.02,6.342846098924691,5.999999080209747,-5.999999872578259,-3.121371708918046,11.787506,0.73519295,-6.230718,-0.86111814,18.19291,-10.1747675,2.1849422,0.07339911,-0.37903056,0.20666401,0.8990208,-10.6035595,-2.81567,-0.41076958,5.999999,-6.0,-3.1213717,0
0.03,6.342846098924691,5.999999080209747,-5.999999872578259,-3.121371708918046,11.787506,0.73519295,-6.230718,-0.86111814,18.086672,-10.202785,2.1805446,0.10491509,-0.35270494,0.22529963,0.90212643,-10.643411,-2.7872798,-0.46853724,5.999999,-6.0,-3.1213717,0
0.04,6.342846098924691,5.999999080209747,-5.999999872578259,-3.121371708918046,12.137917,-1.4603432,-4.1038666,-0.072570264,17.980055,-10.230501,2.1755762,0.13621671,-0.32565868,0.2434749,0.90338886,-10.679205,-2.755631,-0.5249475,5.999999,-6.0,-3.1213717,0
0.05,6.342846098924691,5.999999080209747,-5.999999872578259,-3.121371708918046,12.137917,-1.4603432,-4.1038666,-0.072570264,17.8731,-10.257888,2.1700497,0.16724,-0.29794702,0.26115268,0.90280545,-10.71064,-2.72106,-0.58018017,5.999999,-6.0,-3.1213717,0
0.060000000000000005,6.342846098924691,5.999999080209747,-5.999999872578259,-3.121371708918046,12.137917,-1.4603432,-4.1038666,-0.072570264,17.765856,-10.284914,2.163976,0.19792159,-0.2696266,0.2782969,0.9003774,-10.73745,-2.6839273,-0.6344247,5.999999,-6.0,-3.1213717,0
0.07,6.342846098924691,5.999999080209747,-5.999999872578259,-3.121371708918046,12.137917,-1.4603432,-4.1038666,-0.072570264,17.65837,-10.311559,2.157364,0.22819877,-0.24075525,0.2948725,0.89610964,-10.759406,-2.6446142,-0.68787843,5.999999,-6.0,-3.1213717,0
0.08,13.462734225612138,5.99999785855199,-5.999999814258261,-1.2563152355916056,13.754273,-1.9436494,-0.9144406,0.34608644,17.550686,-10.337801,2.1502206,0.2580097,-0.211392,0.3108456,0.890011,-10.776323,-2.60352,-0.7407455,5.999999,-6.0,-3.1213717,0
0.09,13.462734225612138,5.99999785855199,-5.999999814258261,-1.2563152355916056,13.754273,-1.9436494,-0.9144406,0.34608644,17.442787,-10.363388,2.1428063,0.2790237,-0.17871955,0.3281865,0.8845897,-10.80122,-2.513378,-0.74205214,5.999998,-6.0,-1.2563152,0
0.09999999999999999,13.462734225612138,5.99999785855199,-5.999999814258261,-1.2563152355916056,13.754273,-1.9436494,-0.9144406,0.34608644,17.334698,-10.388062,2.1353805,0.29952455,-0.14571841,0.34492382,0.8775415,-10.814902,-2.4211023,-0.7431351,5.999998,-6.0,-1.2563152,0
0.10999999999999999,13.462734225612138,5.99999785855199,-5.999999814258261,-1.2563152355916056,13.754273,-1.9436494,-0.9144406,0.34608644,17.226528,-10.411805,2.1279426,0.31947452,-0.11244924,0.36102676,0.86887926,-10.817257,-2.3274589,-0.74459296,5.999998,-6.0,-1.2563152,0
0.11999999999999998,13.462734225612138,5.99999785855199,-5.999999814258261,-1.2563152355916056,13.754273,-1.9436494,-0.9144406,0.34608644,17.11839,-10.434608,2.1204855,0.3388369,-0.07897328,0.3764657,0.858619,-10.808251,-2.2332237,-0.74702173,5.999998,-6.0,-1.2563152,0
0.12999999999999998,18.402038810960818,3.3393909643548967,-5.999999362130276,0.20354745879446126,12.804427,-3.1273704,0.49251428,0.18263596,17.010399,-10.45647,2.1129968,0.35757613,-0.045352064,0.39121228,0.8467796,-10.787937,-2.1391776,-0.75101024,5.999998,-6.0,-1.2563152,0
0.13999999999999999,18.402038810960818,3.3393909643548967,-5.999999362130276,0.20354745879446126,12.804427,-3.1273704,0.49251428,0.18263596,16.90272,-10.477225,2.1056306,0.3689947,-0.013559587,0.39443833,0.8414735,-10.746064,-2.0127022,-0.7222175,3.339391,-5.9999995,0.20354746,0
0.15,18.402038810960818,3.3393909643548967,-5.999999362130276,0.20354745879446126,12.804427,-3.1273704,0.49251428,0.18263596,16.795519,-10.4967375,2.0985506,0.379978,0.018248884,0.3971991,0.83517474,-10.692256,-1.8903333,-0.6938994,3.339391,-5.9999995,0.20354746,0
0.16,18.74224207618885,0.8689135160640347,-4.784479984964972,0.4829323434446806,13.681426,-4.0278916,1.0132595,-0.4848258,16.688913,-10.515048,2.0917487,0.39051303,0.050035823,0.39949128,0.8278907,-10.6267605,-1.7726303,-0.6666704,3.339391,-5.9999995,0.20354746,0
0.17,18.74224207618885,0.8689135160640347,-4.784479984964972,0.4829323434446806,13.681426,-4.0278916,1.0132595,-0.4848258,16.583023,-10.532198,2.0852258,0.39773607,0.07248503,0.39350662,0.82565415,-10.550081,-1.658087,-0.63780266,0.86891353,-4.78448,0.48293233,0
0.18000000000000002,18.74224207618885,0.8689135160640347,-4.784479984964972,0.4829323434446806,13.681426,-4.0278916,1.0132595,-0.4848258,16.477934,-10.54823,2.0789952,0.40472168,0.09489097,0.38728705,0.82292473,-10.46637,-1.5493045,-0.6083119,0.86891353,-4.78448,0.48293233,0
0.19000000000000003,18.74224207618885,0.8689135160640347,-4.784479984964972,0.4829323434446806,13.681426,-4.0278916,1.0132595,-0.4848258,16.373718,-10.563205,2.0730608,0.41146564,0.11724026,0.3808363,0.81970406,-10.375802,-1.4465182,-0.578532,0.86891353,-4.78448,0.48293233,0
0.20000000000000004,17.153763222182327,0.0666248089359171,-1.2830683096844369,0.17743345010397288,13.608763,-3.6395938,3.6996145,-0.41371447,16.270441,-10.577183,2.0674245,0.417964,0.13951957,0.3741582,0.815994,-10.278573,-1.3499491,-0.54879725,0.86891353,-4.78448,0.48293233,0
0.21000000000000005,17.153763222182327,0.0666248089359171,-1.2830683096844369,0.17743345010397288,13.608763,-3.6395938,3.6996145,-0.41371447,16.168121,-10.590261,2.0620303,0.4195852,0.14522265,0.37161702,0.8153279,-10.185335,-1.2658454,-0.5300298,0.066624805,-1.2830683,0.17743345,0
0.22000000000000006,17.153763222182327,0.0666248089359171,-1.2830683096844369,0.17743345010397288,13.608763,-3.6395938,3.6996145,-0.41371447,16.066738,-10.602507,2.0568242,0.42118874,0.15091962,0.36906022,0.8146276,-10.090696,-1.183441,-0.5111776,0.066624805,-1.2830683,0.17743345,0
0.23000000000000007,17.153763222182327,0.0666248089359171,-1.2830683096844369,0.17743345010397288,13.608763,-3.6395938,3.6996145,-0.41371447,15.966311,-10.613937,2.051807,0.42277452,0.15661024,0.36648786,0.813893,-9.994671,-1.1027482,-0.49226287,0.066624805,-1.2830683,0.17743345,0
0.24000000000000007,17.153763222182327,0.0666248089359171,-1.2830683096844369,0.17743345010397288,14.139908,-2.8288097,5.459833,-0.5678769,15.866851,-10.624569,2.046979,0.4243425,0.16229427,0.36390013,0.8131241,-9.897271,-1.0237783,-0.47330767,0.066624805,-1.2830683,0.17743345,0
0.25000000000000006,17.153763222182327,0.0666248089359171,-1.2830683096844369,0.17743345010397288,14.139908,-2.8288097,5.459833,-0.5678769,15.768371,-10.6344185,2.0423408,0.4258927,0.16797148,0.36129707,0.8123211,-9.798512,-0.946543,-0.45433426,0.066624805,-1.2830683,0.17743345,0
0.26000000000000006,17.153763222182327,0.0666248089359171,-1.2830683096844369,0.17743345010397288,14.139908,-2.8288097,5.459833,-0.5678769,15.670884,-10.643505,2.0378923,0.42742497,0.17364162,0.35867882,0.8114839,-9.698408,-0.8710533,-0.43536478,0.066624805,-1.2830683,0.17743345,0
0.2700000000000001,17.153763222182327,0.0666248089359171,-1.2830683096844369,0.17743345010397288,14.139908,-2.8288097,5.459833,-0.5678769,15.574407,-10.651845,2.0336335,0.42893925,0.17930447,0.35604548,0.8106126,-9.596973,-0.79732007,-0.4164214,0.066624805,-1.2830683,0.17743345,0
0.2800000000000001,15.800872423381167,-0.38192163847358407,0.9834158415169644,0.011634588841073315,15.376327,-2.2060301,6.2437897,-0.6299024,15.4789505,-10.659457,2.0295637,0.43043548,0.18495977,0.3533972,0.8097072,-9.494222,-0.72535384,-0.39752638,0.066624805,-1.2830683,0.17743345,0
0.2900000000000001,15.800872423381167,-0.38192163847358407,0.9834158415169644,0.011634588841073315,15.376327,-2.2060301,6.2437897,-0.6299024,15.384483,-10.666383,2.025637,0.42899787,0.18017441,0.35395175,0.8113053,-9.399279,-0.65968955,-0.38773444,-0.38192165,0.98341584,0.011634589,0
0.3000000000000001,15.800872423381167,-0.38192163847358407,0.9834158415169644,0.011634588841073315,15.376327,-2.2060301,6.2437897,-0.6299024,15.290959,-10.6726465,2.0218103,0.42754835,0.17538404,0.3544965,0.8128808,-9.305559,-0.5929746,-0.3775187,-0.38192165,0.98341584,0.011634589,0
0.3100000000000001,15.800872423381167,-0.38192163847358407,0.9834158415169644,0.011634588841073315,15.376327,-2.2060301,6.2437897,-0.6299024,15.198366,-10.678238,2.018088,0.42608693,0.17058879,0.35503137,0.8144337,-9.213074,-0.5252166,-0.36689118,-0.38192165,0.98341584,0.011634589,0
0.3200000000000001,14.326667824198804,-1.0474812940380749,4.628530947460386,-0.2146062422321027,15.718183,-2.2235126,5.457249,-0.5863436,15.106693,-10.6831455,2.0144742,0.42461368,0.1657888,0.35555637,0.8159639,-9.121831,-0.45642313,-0.3558638,-0.38192165,0.98341584,0.011634589,0
0.3300000000000001,14.326667824198804,-1.0474812940380749,4.628530947460386,-0.2146062422321027,15.718183,-2.2235126,5.457249,-0.5863436,15.01588,-10.68739,2.010922,0.41800985,0.14425507,0.36118662,0.8209766,-9.041607,-0.39168072,-0.35449433,-1.0474813,4.628531,-0.21460624,0
0.34000000000000014,14.326667824198804,-1.0474812940380749,4.628530947460386,-0.2146062422321027,15.718183,-2.2235126,5.457249,-0.5863436,14.925843,-10.690964,2.0073867,0.4111702,0.12263998,0.3666131,0.8255261,-8.966272,-0.3222636,-0.35245624,-1.0474813,4.628531,-0.21460624,0
0.35000000000000014,14.326667824198804,-1.0474812940380749,4.628530947460386,-0.2146062422321027,15.718183,-2.2235126,5.457249,-0.5863436,14.836535,-10.69382,2.0038743,0.40409863,0.1009557,0.37183273,0.82960993,-8.895991,-0.24831998,-0.34998545,-1.0474813,4.628531,-0.21460624,0
0.36000000000000015,13.781403773913901,-1.1093749924234741,4.556051876019519,-0.331463587935735,15.45438,-2.6721551,5.2161765,-0.7130392,14.747906,-10.695915,2.0003881,0.3967991,0.079214476,0.37684262,0.8332257,-8.830914,-0.17000833,-0.3473187,-1.0474813,4.628531,-0.21460624,0
0.37000000000000016,13.781403773913901,-1.1093749924234741,4.556051876019519,-0.331463587935735,15.45438,-2.6721551,5.2161765,-0.7130392,14.659888,-10.697222,1.9969091,0.38992584,0.05738796,0.38128677,0.8362325,-8.773449,-0.09067616,-0.3484985,-1.109375,4.5560517,-0.33146358,0
0.38000000000000017,13.781403773913901,-1.1093749924234741,4.556051876019519,-0.331463587935735,15.45438,-2.6721551,5.2161765,-0.7130392,14.572419,-10.697717,1.9934175,0.3828372,0.03552974,0.38552028,0.83877724,-8.721227,-0.0075737163,-0.34987074,-1.109375,4.5560517,-0.33146358,0
0.3900000000000002,13.781403773913901,-1.1093749924234741,4.556051876019519,-0.331463587935735,15.45438,-2.6721551,5.2161765,-0.7130392,14.485445,-10.697362,1.9899101,0.37553707,0.013651896,0.38954085,0.8408587,-8.674355,0.079128236,-0.35166326,-1.109375,4.5560517,-0.33146358,0
0.4000000000000002,13.516702441554811,-1.0853980637193619,3.877121851713671,-0.45506078299587893,15.228251,-3.1159637,4.8369536,-0.7255779,14.398912,-10.696122,1.9863819,0.36802948,-0.0082334895,0.3933462,0.8424756,-8.632924,0.169251,-0.35410303,-1.109375,4.5560517,-0.33146358,0
0.4100000000000002,13.516702441554811,-1.0853980637193619,3.877121851713671,-0.45506078299587893,15.228251,-3.1159637,4.8369536,-0.7255779,14.312765,-10.6939745,1.9828162,0.3622013,-0.027454663,0.3958089,0.84344035,-8.597448,0.26061514,-0.35913414,-1.0853981,3.877122,-0.45506078,0
0.4200000000000002,13.516702441554811,-1.0853980637193619,3.877121851713671,-0.45506078299587893,15.228251,-3.1159637,4.8369536,-0.7255779,14.226948,-10.690901,1.9791965,0.35622448,-0.04666457,0.39810923,0.84405893,-8.566751,0.35446155,-0.3649391,-1.0853981,3.877122,-0.45506078,0
0.4300000000000002,13.516702441554811,-1.0853980637193619,3.877121851713671,-0.45506078299587893,15.228251,-3.1159637,4.8369536,-0.7255779,14.141415,-10.686877,1.9755143,0.35010147,-0.065855324,0.40024614,0.844331,-8.540874,0.45065218,-0.3716852,-1.0853981,3.877122,-0.45506078,0
0.4400000000000002,13.516702441554811,-1.0853980637193619,3.877121851713671,-0.45506078299587893,13.869352,-3.048313,4.083374,-0.61210376,14.056114,-10.681881,1.9717591,0.3438348,-0.085019045,0.4022188,0.84425664,-8.519848,0.5490451,-0.3795381,-1.0853981,3.877122,-0.45506078,0
0.45000000000000023,13.516702441554811,-1.0853980637193619,3.877121851713671,-0.45506078299587893,13.869352,-3.048313,4.083374,-0.61210376,13.971001,-10.675891,1.9679191,0.33742696,-0.10414787,0.40402636,0.8438358,-8.503696,0.64949477,-0.3886617,-1.0853981,3.877122,-0.45506078,0
0.46000000000000024,13.516702441554811,-1.0853980637193619,3.877121851713671,-0.45506078299587893,13.869352,-3.048313,4.083374,-0.61210376,13.886024,-10.668885,1.9639809,0.33088067,-0.12323396,0.40566808,0.84306866,-8.492435,0.75185233,-0.39921778,-1.0853981,3.877122,-0.45506078,0
0.47000000000000025,13.516702441554811,-1.0853980637193619,3.877121851713671,-0.45506078299587893,13.869352,-3.048313,4.083374,-0.61210376,13.801135,-10.660847,1.9599293,0.32419857,-0.14226948,0.40714332,0.8419555,-8.486073,0.8559657,-0.41136584,-1.0853981,3.877122,-0.45506078,0
0.48000000000000026,13.333922217902016,-0.8114149017085838,1.7079682621668444,-0.4880047661598646,13.274278,-3.5637908,3.5835466,-0.33350855,13.716285,-10.65176,1.9557476,0.31738338,-0.1612466,0.40845147,0.8404967,-8.484608,0.96167994,-0.42526272,-1.0853981,3.877122,-0.45506078,0
0.49000000000000027,13.333922217902016,-0.8114149017085838,1.7079682621668444,-0.4880047661598646,13.274278,-3.5637908,3.5835466,-0.33350855,13.631429,-10.641618,1.9514134,0.3152768,-0.17070074,0.407339,0.8399624,-8.487085,1.0670303,-0.441668,-0.8114149,1.7079682,-0.48800477,0
0.5000000000000002,13.333922217902016,-0.8114149017085838,1.7079682621668444,-0.4880047661598646,13.274278,-3.5637908,3.5835466,-0.33350855,13.546535,-10.630419,1.9469122,0.31314018,-0.18013863,0.4061877,0.839348,-8.49198,1.1727661,-0.45868263,-0.8114149,1.7079682,-0.48800477,0
0.5100000000000002,13.333922217902016,-0.8114149017085838,1.7079682621668444,-0.4880047661598646,13.274278,-3.5637908,3.5835466,-0.33350855,13.46158,-10.61816,1.9422375,0.3109737,-0.18955936,0.4049977,0.8386535,-8.499285,1.2788568,-0.4763448,-0.8114149,1.7079682,-0.48800477,0
0.5200000000000002,13.368096810727613,-0.5700917579028442,0.31692657137394703,-0.4834718412067037,13.091156,-3.611084,3.0336053,-0.22902757,13.376541,-10.60484,1.9373828,0.3087776,-0.19896199,0.40376908,0.83787906,-8.508994,1.3852719,-0.49469253,-0.8114149,1.7079682,-0.48800477,0
0.5300000000000002,13.368096810727613,-0.5700917579028442,0.31692657137394703,-0.4834718412067037,13.091156,-3.611084,3.0336053,-0.22902757,13.291393,-10.590455,1.932343,0.30959356,-0.20214428,0.40138572,0.8379614,-8.520541,1.4920666,-0.5132183,-0.5700918,0.31692657,-0.48347184,0
0.5400000000000003,13.368096810727613,-0.5700917579028442,0.31692657137394703,-0.4834718412067037,13.091156,-3.611084,3.0336053,-0.22902757,13.206127,-10.575002,1.9271189,0.31040442,-0.20532323,0.3989958,0.8380299,-8.532916,1.5986423,-0.5315747,-0.5700918,0.31692657,-0.48347184,0
0.5500000000000003,13.368096810727613,-0.5700917579028442,0.31692657137394703,-0.4834718412067037,13.091156,-3.611084,3.0336053,-0.22902757,13.120732,-10.558483,1.921712,0.31121016,-0.20849882,0.39659926,0.83808464,-8.546118,1.7049967,-0.54976857,-0.5700918,0.31692657,-0.48347184,0
0.5600000000000003,13.34042334640188,-0.34909864395057427,-0.9462218727318368,-0.42580911564555485,13.390476,-3.0528235,1.4548423,-0.23708802,13.035201,-10.540903,1.916124,0.31201077,-0.21167098,0.3941962,0.8381255,-8.560147,1.8111277,-0.56780654,-0.5700918,0.31692657,-0.48347184,0
0.5700000000000003,13.34042334640188,-0.34909864395057427,-0.9462218727318368,-0.42580911564555485,13.390476,-3.0528235,1.4548423,-0.23708802,12.949527,-10.522264,1.9103564,0.315286,-0.20908643,0.39080057,0.8391382,-8.574449,1.9166421,-0.58554006,-0.34909865,-0.9462219,-0.42580912,0
0.5800000000000003,13.34042334640188,-0.34909864395057427,-0.9462218727318368,-0.42580911564555485,13.390476,-3.0528235,1.4548423,-0.23708802,12.863713,-10.502572,1.9044164,0.31855175,-0.20649561,0.3873932,0.84012574,-8.58817,2.0214655,-0.60227466,-0.34909865,-0.9462219,-0.42580912,0
0.5900000000000003,13.34042334640188,-0.34909864395057427,-0.9462218727318368,-0.42580911564555485,13.390476,-3.0528235,1.4548423,-0.23708802,12.777765,-10.481836,1.8983142,0.32180795,-0.20389861,0.38397425,0.8410881,-8.601316,2.1255853,-0.6180171,-0.34909865,-0.9462219,-0.42580912,0
0.6000000000000003,13.49176935898649,-0.25330395381072235,-0.5464283476499173,-0.3570725534117334,12.957083,-3.1123834,1.7917802,-0.29022723,12.691689,-10.460063,1.8920596,0.32505456,-0.2012955,0.38054377,0.8420252,-8.613891,2.2289891,-0.6327741,-0.34909865,-0.9462219,-0.42580912,0
0.6100000000000003,13.49176935898649,-0.25330395381072235,-0.5464283476499173,-0.3570725534117334,12.957083,-3.1123834,1.7917802,-0.29022723,12.605488,-10.437253,1.8856664,0.32734063,-0.20008484,0.37822753,0.84247166,-8.626143,2.3329341,-0.6457388,-0.25330395,-0.5464283,-0.35707256,0
0.6200000000000003,13.49176935898649,-0.25330395381072235,-0.5464283476499173,-0.3570725534117334,12.957083,-3.1123834,1.7917802,-0.29022723,12.519166,-10.413405,1.8791466,0.32962272,-0.19887172,0.37590665,0.8429078,-8.638116,2.436414,-0.65809894,-0.25330395,-0.5464283,-0.35707256,0
0.6300000000000003,13.49176935898649,-0.25330395381072235,-0.5464283476499173,-0.3570725534117334,12.957083,-3.1123834,1.7917802,-0.29022723,12.432726,-10.388526,1.8725063,0.33190075,-0.19765615,0.37358117,0.84333354,-8.64981,2.539424,-0.66985714,-0.25330395,-0.5464283,-0.35707256,0
0.6400000000000003,13.49176935898649,-0.25330395381072235,-0.5464283476499173,-0.3570725534117334,12.375663,-3.113878,1.8179629,-0.10795814,12.34617,-10.362618,1.8657514,0.33417472,-0.1964382,0.3712511,0.843749,-8.661227,2.6419597,-0.681016,-0.25330395,-0.5464283,-0.35707256,0
0.6500000000000004,13.49176935898649,-0.25330395381072235,-0.5464283476499173,-0.3570725534117334,12.375663,-3.113878,1.8179629,-0.10795814,12.259502,-10.335689,1.858888,0.3364446,-0.19521779,0.3689165,0.8441541,-8.672373,2.744017,-0.69157803,-0.25330395,-0.5464283,-0.35707256,0
0.6600000000000004,13.49176935898649,-0.25330395381072235,-0.5464283476499173,-0.3570725534117334,12.375663,-3.113878,1.8179629,-0.10795814,12.172724,-10.30774,1.851922,0.3387103,-0.193995,0.3665774,0.8445488,-8.683247,2.8455904,-0.7015457,-0.25330395,-0.5464283,-0.35707256,0
0.6700000000000004,13.49176935898649,-0.25330395381072235,-0.5464283476499173,-0.3570725534117334,12.375663,-3.113878,1.8179629,-0.10795814,12.085838,-10.278779,1.8448591,0.3409719,-0.19276983,0.36423373,0.8449333,-8.693851,2.946676,-0.71092176,-0.25330395,-0.5464283,-0.35707256,0
0.6800000000000004,13.594666126829964,-0.2280827365280439,-0.7435404021266225,-0.2975410961869616,13.486504,-1.8613993,0.94807035,-0.18976551,11.998848,-10.248809,1.8377054,0.3432293,-0.19154231,0.36188564,0.8453073,-8.70419,3.0472693,-0.71970874,-0.25330395,-0.5464283,-0.35707256,0
0.6900000000000004,13.594666126829964,-0.2280827365280439,-0.7435404021266225,-0.2975410961869616,13.486504,-1.8613993,0.94807035,-0.18976551,11.911755,-10.217831,1.8304703,0.34561083,-0.18932787,0.3593575,0.8459141,-8.714263,3.148091,-0.7271727,-0.22808273,-0.7435404,-0.29754108,0
0.7000000000000004,13.594666126829964,-0.2280827365280439,-0.7435404021266225,-0.2975410961869616,13.486504,-1.8613993,0.94807035,-0.18976551,11.824564,-10.185849,1.8231643,0.34798637,-0.18711013,0.35682318,0.8465063,-8.723863,3.2483044,-0.7339132,-0.22808273,-0.7435404,-0.29754108,0
0.7100000000000004,13.594666126829964,-0.2280827365280439,-0.7435404021266225,-0.2975410961869616,13.486504,-1.8613993,0.94807035,-0.18976551,11.73728,-10.152867,1.8157946,0.3503559,-0.18488914,0.35428265,0.8470838,-8.73299,3.347902,-0.739935,-0.22808273,-0.7435404,-0.29754108,0
0.7200000000000004,13.739030728034866,-0.1597052699614562,-0.5981450489194962,-0.230160691369371,13.373312,-1.5732133,1.0124924,-0.04471546,11.649906,-10.118893,1.8083681,0.35271934,-0.18266495,0.35173598,0.84764665,-8.741649,3.446877,-0.74524266,-0.22808273,-0.7435404,-0.29754108,0
0.7300000000000004,13.739030728034866,-0.1597052699614562,-0.5981450489194962,-0.230160691369371,13.373312,-1.5732133,1.0124924,-0.04471546,11.5624485,-10.083926,1.8008969,0.35459897,-0.18081531,0.34979215,0.8480633,-8.749953,3.5463197,-0.7489062,-0.15970527,-0.59814507,-0.2301607,0
0.7400000000000004,13.739030728034866,-0.1597052699614562,-0.5981450489194962,-0.230160691369371,13.373312,-1.5732133,1.0124924,-0.04471546,11.474909,-10.047968,1.793392,0.35647473,-0.1789637,0.3478445,0.8484707,-8.757855,3.6452622,-0.7520114,-0.15970527,-0.59814507,-0.2301607,0
0.7500000000000004,13.739030728034866,-0.1597052699614562,-0.5981450489194962,-0.230160691369371,13.373312,-1.5732133,1.0124924,-0.04471546,11.387292,-10.011023,1.7858586,0.3583466,-0.17711014,0.34589306,0.8488688,-8.765358,3.7436998,-0.75456136,-0.15970527,-0.59814507,-0.2301607,0
0.7600000000000005,13.991738588336894,-0.20351539668764718,-0.44005629099596943,-0.17684857817299415,13.7648115,-1.0311694,0.67450804,-0.09241229,11.2996025,-9.973096,1.7783027,0.3602146,-0.17525464,0.34393778,0.84925765,-8.772461,3.8416278,-0.7565591,-0.15970527,-0.59814507,-0.2301607,0
0.7700000000000005,13.991738588336894,-0.20351539668764718,-0.44005629099596943,-0.17684857817299415,13.7648115,-1.0311694,0.67450804,-0.09241229,11.2118435,-9.934184,1.7707382,0.36154276,-0.17405614,0.3421249,0.8496719,-8.779363,3.9408636,-0.7562645,-0.2035154,-0.4400563,-0.17684858,0
0.7800000000000005,13.991738588336894,-0.20351539668764718,-0.44005629099596943,-0.17684857817299415,13.7648115,-1.0311694,0.67450804,-0.09241229,11.124016,-9.894281,1.7631791,0.36286855,-0.17285646,0.34030977,0.85008055,-8.786056,4.0396514,-0.75550556,-0.2035154,-0.4400563,-0.17684858,0
0.7900000000000005,13.991738588336894,-0.20351539668764718,-0.44005629099596943,-0.17684857817299415,13.7648115,-1.0311694,0.67450804,-0.09241229,11.036122,-9.853393,1.7556298,0.36419192,-0.17165564,0.33849236,0.8504835,-8.7925415,4.137988,-0.75428426,-0.2035154,-0.4400563,-0.17684858,0
0.8000000000000005,14.076236676470439,-0.17073542852437013,-0.6035928242535857,-0.12185430928664663,13.763585,-0.83553267,0.24197567,-0.024461325,10.948166,-9.8115225,1.7480949,0.36551282,-0.17045367,0.3366727,0.8508807,-8.7988205,4.235871,-0.7526028,-0.2035154,-0.4400563,-0.17684858,1
0.8100000000000005,14.076236676470439,-0.17073542852437013,-0.6035928242535857,-0.12185430928664663,13.763585,-0.83553267,0.24197567,-0.024461325,10.860146,-9.768684,1.740571,0.364494,-0.17304967,0.3335362,0.8520282,-8.805272,4.331722,-0.75214094,-0.83553267,0.24197567,-0.024461325,1
0.8200000000000005,14.076236676470439,-0.17073542852437013,-0.6035928242535857,-0.12185430928664663,13.763585,-0.83553267,0.24197567,-0.024461325,10.772055,-9.72489,1.7330533,0.36346826,-0.17564242,0.3303934,0.8531596,-8.812796,4.427154,-0.75134873,-0.83553267,0.24197567,-0.024461325,1
0.8300000000000005,14.076236676470439,-0.17073542852437013,-0.6035928242535857,-0.12185430928664663,13.763585,-0.83553267,0.24197567,-0.024461325,10.683885,-9.680143,1.7255452,0.36243567,-0.17823182,0.3272443,0.8542748,-8.82139,4.52216,-0.75023395,-0.83553267,0.24197567,-0.024461325,1
0.8400000000000005,14.076236676470439,-0.17073542852437013,-0.6035928242535857,-0.12185430928664663,13.804106,-0.87324786,0.07301851,-0.0010419451,10.595623,-9.634447,1.7180496,0.36139622,-0.18081786,0.32408902,0.8553738,-8.831056,4.6167326,-0.74880415,-0.83553267,0.24197567,-0.024461325,1
0.8500000000000005,14.076236676470439,-0.17073542852437013,-0.6035928242535857,-0.12185430928664663,13.804106,-0.87324786,0.07301851,-0.0010419451,10.50726,-9.587809,1.7105716,0.3604894,-0.18270804,0.32048216,0.85671276,-8.841779,4.7110877,-0.7467174,-0.87324786,0.07301851,-0.0010419451,1
0.8600000000000005,14.076236676470439,-0.17073542852437013,-0.6035928242535857,-0.12185430928664663,13.804106,-0.87324786,0.07301851,-0.0010419451,10.418785,-9.540228,1.7031167,0.35957566,-0.18459472,0.31686914,0.85803527,-8.853456,4.804849,-0.74418145,-0.87324786,0.07301851,-0.0010419451,1
0.8700000000000006,14.076236676470439,-0.17073542852437013,-0.6035928242535857,-0.12185430928664663,13.804106,-0.87324786,0.07301851,-0.0010419451,10.330188,-9.4917145,1.6956894,0.358655,-0.18647784,0.31325004,0.85934126,-8.866084,4.8980107,-0.74120396,-0.87324786,0.07301851,-0.0010419451,1
0.8800000000000006,14.469106545656537,0.10514391007623838,-0.864727682754071,-0.09714217396983779,13.902841,-1.0607587,-0.22969624,-0.00010400638,10.24146,-9.442271,1.6882942,0.35772747,-0.18835738,0.30962494,0.8606308,-8.879665,4.990565,-0.7377927,-0.87324786,0.07301851,-0.0010419451,0
0.8900000000000006,14.469106545656537,0.10514391007623838,-0.864727682754071,-0.09714217396983779,13.902841,-1.0607587,-0.22969624,-0.00010400638,10.15259,-9.391883,1.6809598,0.3595798,-0.18459684,0.30843624,0.86110044,-8.894166,5.086972,-0.72897834,0.10514391,-0.8647277,-0.097142175,0
0.9000000000000006,14.469106545656537,0.10514391007623838,-0.864727682754071,-0.09714217396983779,13.902841,-1.0607587,-0.22969624,-0.00010400638,10.06358,-9.340533,1.6737167,0.36142522,-0.18083276,0.30724162,0.8615535,-8.907712,5.1828327,-0.71954834,0.10514391,-0.8647277,-0.097142175,0
0.9100000000000006,14.469106545656537,0.10514391007623838,-0.864727682754071,-0.09714217396983779,13.902841,-1.0607587,-0.22969624,-0.00010400638,9.974439,-9.288228,1.666571,0.36326367,-0.17706521,0.30604112,0.86199003,-8.920304,5.2781377,-0.7095103,0.10514391,-0.8647277,-0.097142175,0
0.9200000000000006,14.46388766889551,0.3433770807296884,-1.6014336078324207,-0.04798482169344079,13.927296,-0.6958227,-0.56468457,0.00055069104,9.885177,-9.234972,1.6595287,0.36509517,-0.17329426,0.30483472,0.86240995,-8.931943,5.372879,-0.6988719,0.10514391,-0.8647277,-0.097142175,0
0.9300000000000006,14.46388766889551,0.3433770807296884,-1.6014336078324207,-0.04798482169344079,13.927296,-0.6958227,-0.56468457,0.00055069104,9.795805,-9.180773,1.652596,0.36802816,-0.16582939,0.30334023,0.86315763,-8.942259,5.466874,-0.68752575,0.34337708,-1.6014336,-0.04798482,0
0.9400000000000006,14.46388766889551,0.3433770807296884,-1.6014336078324207,-0.04798482169344079,13.927296,-0.6958227,-0.56468457,0.00055069104,9.706339,-9.125637,1.6457816,0.3709365,-0.15835337,0.30182534,0.8638474,-8.950648,5.5599046,-0.6751952,0.34337708,-1.6014336,-0.04798482,0
0.9500000000000006,14.46388766889551,0.3433770807296884,-1.6014336078324207,-0.04798482169344079,13.927296,-0.6958227,-0.56468457,0.00055069104,9.616798,-9.069577,1.6390953,0.37381992,-0.15086673,0.30029023,0.8644791,-8.9571085,5.6519446,-0.6619093,0.34337708,-1.6014336,-0.04798482,0
0.9600000000000006,14.743156295800562,0.08493094264157165,-0.6126857288829852,-0.0358772757471119,13.0668955,-0.39859864,-0.27497327,0.04651398,9.527204,-9.012602,1.6325465,0.37667826,-0.14336996,0.29873493,0.8650529,-8.96164,5.742969,-0.6476973,0.34337708,-1.6014336,-0.04798482,0
0.9700000000000006,14.743156295800562,0.08493094264157165,-0.6126857288829852,-0.0358772757471119,13.0668955,-0.39859864,-0.27497327,0.04651398,9.43757,-8.954712,1.6261547,0.37780768,-0.14061287,0.2979212,0.8652935,-8.964768,5.834925,-0.6306004,0.08493094,-0.61268574,-0.035877276,0
0.9800000000000006,14.743156295800562,0.08493094264157165,-0.6126857288829852,-0.0358772757471119,13.0668955,-0.39859864,-0.27497327,0.04651398,9.34791,-8.895905,1.6199358,0.37893346,-0.13785444,0.29710463,0.8655258,-8.967194,5.926434,-0.61313105,0.08493094,-0.61268574,-0.035877276,0
0.9900000000000007,14.743156295800562,0.08493094264157165,-0.6126857288829852,-0.0358772757471119,13.0668955,-0.39859864,-0.27497327,0.04651398,9.258228,-8.8361845,1.6138934,0.3800556,-0.13509469,0.29628518,0.86574984,-8.968914,6.0174913,-0.5952935,0.08493094,-0.61268574,-0.035877276,0
1.0000000000000007,14.429409341447657,-0.11447814296728119,-0.8260127199891372,0.008649534414126083,13.307314,-0.074979275,0.34858882,-0.038845595,9.168533,-8.775557,1.6080312,0.3811741,-0.13233364,0.29546288,0.86596555,-8.969935,6.108094,-0.5770921,0.08493094,-0.61268574,-0.035877276,0
1.0100000000000007,14.429409341447657,-0.11447814296728119,-0.8260127199891372,0.008649534414126083,13.307314,-0.074979275,0.34858882,-0.038845595,9.078832,-8.714034,1.6023406,0.38227785,-0.12896141,0.2933961,0.86669016,-8.970249,6.1961956,-0.5609173,-0.11447814,-0.82601273,0.008649535,0
1.0200000000000007,14.429409341447657,-0.11447814296728119,-0.8260127199891372,0.008649534414126083,13.307314,-0.074979275,0.34858882,-0.038845595,8.98913,-8.651635,1.5968148,0.38337493,-0.12558694,0.2913242,0.8673997,-8.969881,6.2835097,-0.5441401,-0.11447814,-0.82601273,0.008649535,0
1.0300000000000007,14.429409341447657,-0.11447814296728119,-0.8260127199891372,0.008649534414126083,13.307314,-0.074979275,0.34858882,-0.038845595,8.899436,-8.588367,1.5914599,0.38446534,-0.12221028,0.28924724,0.8680942,-8.968831,6.3700304,-0.5267684,-0.11447814,-0.82601273,0.008649535,0
1.0400000000000007,14.429409341447657,-0.11447814296728119,-0.8260127199891372,0.008649534414126083,13.332522,-0.16643569,0.54026765,-0.004072007,8.809755,-8.524239,1.5862815,0.38554907,-0.1188315,0.28716525,0.8687736,-8.967099,6.4557514,-0.5088102,-0.11447814,-0.82601273,0.008649535,0
1.0500000000000007,14.429409341447657,-0.11447814296728119,-0.8260127199891372,0.008649534414126083,13.332522,-0.16643569,0.54026765,-0.004072007,8.720096,-8.459256,1.5812857,0.38662612,-0.11545065,0.2850783,0.8694378,-8.964685,6.540668,-0.4902738,-0.11447814,-0.82601273,0.008649535,0
1.0600000000000007,14.429409341447657,-0.11447814296728119,-0.8260127199891372,0.008649534414126083,13.332522,-0.16643569,0.54026765,-0.004072007,8.630464,-8.393428,1.576478,0.3876965,-0.11206779,0.28298634,0.870087,-8.961589,6.624773,-0.47116718,-0.11447814,-0.82601273,0.008649535,0
1.0700000000000007,14.429409341447657,-0.11447814296728119,-0.8260127199891372,0.008649534414126083,13.332522,-0.16643569,0.54026765,-0.004072007,8.540866,-8.326762,1.5718641,0.3887601,-0.10868299,0.28088948,0.870721,-8.957811,6.708061,-0.4514986,-0.11447814,-0.82601273,0.008649535,0
1.0800000000000007,14.699427784085975,-0.3159756787319896,0.09077949545845185,0.01787703787900956,13.106897,0.045961525,0.9714071,-0.04967433,8.45131,-8.259269,1.5674498,0.38981694,-0.1052963,0.27878773,0.8713399,-8.953352,6.790527,-0.43127626,-0.11447814,-0.82601273,0.008649535,0
1.0900000000000007,14.699427784085975,-0.3159756787319896,0.09077949545845185,0.01787703787900956,13.106897,0.045961525,0.9714071,-0.04967433,8.3618,-8.190947,1.563251,0.38944563,-0.1062826,0.2775971,0.8717662,-8.948538,6.8739467,-0.40844095,-0.31597567,0.0907795,0.017877039,0
1.1000000000000008,14.699427784085975,-0.3159756787319896,0.09077949545845185,0.01787703787900956,13.106897,0.045961525,0.9714071,-0.04967433,8.272336,-8.12179,1.5592813,0.38907325,-0.10726861,0.27640572,0.8721901,-8.944157,6.9571967,-0.38547274,-0.31597567,0.0907795,0.017877039,0
1.1100000000000008,14.699427784085975,-0.3159756787319896,0.09077949545845185,0.01787703787900956,13.106897,0.045961525,0.9714071,-0.04967433,8.182915,-8.051803,1.555542,0.38869983,-0.108254336,0.27521357,0.87261176,-8.9402075,7.0402765,-0.36237285,-0.31597567,0.0907795,0.017877039,0
1.1200000000000008,14.314102138013295,-0.4488871279990079,-0.2531305516036185,0.06280582016440786,13.1081085,0.037060406,0.77192855,-0.014239129,8.093531,-7.980985,1.5520344,0.38832536,-0.109239765,0.2740207,0.873031,-8.936691,7.123185,-0.33914256,-0.31597567,0.0907795,0.017877039,0
1.1300000000000008,14.314102138013295,-0.4488871279990079,-0.2531305516036185,0.06280582016440786,13.1081085,0.037060406,0.77192855,-0.014239129,8.004179,-7.909351,1.548744,0.38815156,-0.10891996,0.27160314,0.87390333,-8.933619,7.2036,-0.31886464,-0.44888714,-0.25313056,0.06280582,0
1.1400000000000008,14.314102138013295,-0.4488871279990079,-0.2531305516036185,0.06280582016440786,13.1081085,0.037060406,0.77192855,-0.014239129,7.9148574,-7.836915,1.5456585,0.38797513,-0.10859943,0.26918375,0.87476975,-8.930775,7.283436,-0.2981903,-0.44888714,-0.25313056,0.06280582,0
1.1500000000000008,14.314102138013295,-0.4488871279990079,-0.2531305516036185,0.06280582016440786,13.1081085,0.037060406,0.77192855,-0.014239129,7.825563,-7.7636843,1.5427816,0.38779607,-0.10827816,0.26676255,0.8756302,-8.92816,7.362692,-0.2771226,-0.44888714,-0.25313056,0.06280582,0
1.1600000000000008,14.496556685537529,-0.5927102136863182,0.2358650052486109,0.06886327584359254,13.217388,-0.35138997,0.40992808,0.15356988,7.736294,-7.6896634,1.5401174,0.3876144,-0.10795617,0.26433954,0.8764848,-8.925774,7.4413652,-0.2556646,-0.44888714,-0.25313056,0.06280582,0
1.1700000000000008,14.496556685537529,-0.5927102136863182,0.2358650052486109,0.06886327584359254,13.217388,-0.35138997,0.40992808,0.15356988,7.6470466,-7.6148534,1.537677,0.38667893,-0.11004697,0.26223496,0.8772698,-8.923824,7.5205703,-0.2323658,-0.5927102,0.23586501,0.06886327,0
1.1800000000000008,14.496556685537529,-0.5927102136863182,0.2358650052486109,0.06886327584359254,13.217388,-0.35138997,0.40992808,0.15356988,7.5578146,-7.5392528,1.5354706,0.3857395,-0.11213663,0.2601277,0.8780458,-8.922739,7.599504,-0.20887959,-0.5927102,0.23586501,0.06886327,0
1.1900000000000008,14.496556685537529,-0.5927102136863182,0.2358650052486109,0.06886327584359254,13.217388,-0.35138997,0.40992808,0.15356988,7.468589,-7.4628644,1.5335,0.3847961,-0.11422515,0.25801775,0.8788128,-8.922518,7.6781626,-0.18521059,-0.5927102,0.23586501,0.06886327,0
1.2000000000000008,13.932214375658395,-0.5935218014163733,-0.7334706310023372,0.10832015117898365,12.88237,-0.439092,0.40956688,0.19766277,7.3793616,-7.3856907,1.5317669,0.38384873,-0.116312474,0.25590515,0.8795707,-8.92316,7.756542,-0.16136342,-0.5927102,0.23586501,0.06886327,0
1.2100000000000009,13.932214375658395,-0.5935218014163733,-0.7334706310023372,0.10832015117898365,12.88237,-0.439092,0.40956688,0.19766277,7.2901244,-7.3077507,1.5302501,0.38396135,-0.11408599,0.25194734,0.8809547,-8.924263,7.8312864,-0.14189419,-0.5935218,-0.7334706,0.108320154,0
1.2200000000000009,13.932214375658395,-0.5935218014163733,-0.7334706310023372,0.10832015117898365,12.88237,-0.439092,0.40956688,0.19766277,7.200876,-7.2290688,1.5289314,0.3840653,-0.11185693,0.24798386,0.8823188,-8.92528,7.9049215,-0.12172592,-0.5935218,-0.7334706,0.108320154,0
1.2300000000000009,13.932214375658395,-0.5935218014163733,-0.7334706310023372,0.10832015117898365,12.88237,-0.439092,0.40956688,0.19766277,7.111619,-7.149656,1.5278178,0.3841606,-0.10962535,0.24401477,0.883663,-8.926208,7.97744,-0.10086914,-0.5935218,-0.7334706,0.108320154,0
1.2400000000000009,13.932214375658395,-0.5935218014163733,-0.7334706310023372,0.10832015117898365,12.71217,-0.6108618,0.29408026,0.2695734,7.022352,-7.0695233,1.5269161,0.38424727,-0.10739129,0.24004018,0.8849873,-8.927047,8.048835,-0.07933451,-0.5935218,-0.7334706,0.108320154,0
1.2500000000000009,13.932214375658395,-0.5935218014163733,-0.7334706310023372,0.10832015117898365,12.71217,-0.6108618,0.29408026,0.2695734,6.933078,-6.9886827,1.5262333,0.38432524,-0.10515481,0.23606019,0.88629156,-8.927794,8.119102,-0.057132717,-0.5935218,-0.7334706,0.108320154,0
1.260000000000001,13.932214375658395,-0.5935218014163733,-0.7334706310023372,0.10832015117898365,12.71217,-0.6108618,0.29408026,0.2695734,6.8437963,-6.907145,1.5257758,0.38439453,-0.102915965,0.23207486,0.8875758,-8.928449,8.188233,-0.03427451,-0.5935218,-0.7334706,0.108320154,0
1.270000000000001,13.932214375658395,-0.5935218014163733,-0.7334706310023372,0.10832015117898365,12.71217,-0.6108618,0.29408026,0.2695734,6.754509,-6.824922,1.5255501,0.38445517,-0.1006748,0.2280843,0.88884,-8.9290085,8.256225,-0.01077071,-0.5935218,-0.7334706,0.108320154,0
1.280000000000001,14.100633933652047,-0.6469507311652068,0.273374293688483,0.10778689402505597,13.730122,-0.4689456,-0.077704735,0.3099665,6.6652164,-6.7420254,1.5255626,0.38450715,-0.09843136,0.22408861,0.8900842,-8.929473,8.323069,0.013367817,-0.5935218,-0.7334706,0.108320154,1
1.290000000000001,14.100633933652047,-0.6469507311652068,0.273374293688483,0.10778689402505597,13.730122,-0.4689456,-0.077704735,0.3099665,6.575919,-6.658469,1.5258102,0.3829824,-0.09863941,0.22200388,0.8912402,-8.930018,8.3880625,0.036210835,-0.4689456,-0.077704735,0.3099665,1
1.300000000000001,14.100633933652047,-0.6469507311652068,0.273374293688483,0.10778689402505597,13.730122,-0.4689456,-0.077704735,0.3099665,6.486614,-6.5742655,1.5262876,0.38145456,-0.09884667,0.21991736,0.892389,-8.93096,8.452596,0.059297167,-0.4689456,-0.077704735,0.3099665,1
1.310000000000001,14.100633933652047,-0.6469507311652068,0.273374293688483,0.10778689402505597,13.730122,-0.4689456,-0.077704735,0.3099665,6.3972983,-6.489419,1.5269969,0.37992364,-0.09905313,0.21782905,0.89353067,-8.932293,8.516667,0.08262465,-0.4689456,-0.077704735,0.3099665,1
1.320000000000001,13.4534865843058,-0.6633775937147598,-0.43311718329898236,0.13587150549861723,13.6144285,-0.6127969,-0.22771761,0.3897552,6.307967,-6.4039335,1.5279408,0.3783897,-0.099258795,0.215739,0.8946651,-8.934018,8.580275,0.10619113,-0.4689456,-0.077704735,0.3099665,1
1.330000000000001,13.4534865843058,-0.6633775937147598,-0.43311718329898236,0.13587150549861723,13.6144285,-0.6127969,-0.22771761,0.3897552,6.2186165,-6.3178177,1.5291164,0.37658498,-0.098978385,0.2127588,0.8961701,-8.936114,8.642788,0.12901594,-0.6127969,-0.22771761,0.3897552,1
1.340000000000001,13.4534865843058,-0.6633775937147598,-0.43311718329898236,0.13587150549861723,13.6144285,-0.6127969,-0.22771761,0.3897552,6.129243,-6.23108,1.5305222,0.37477478,-0.098696545,0.20977552,0.89766204,-8.938592,8.704584,0.15220195,-0.6127969,-0.22771761,0.3897552,1
1.350000000000001,13.4534865843058,-0.6633775937147598,-0.43311718329898236,0.13587150549861723,13.6144285,-0.6127969,-0.22771761,0.3897552,6.039843,-6.1437283,1.5321617,0.3729592,-0.09841327,0.20678921,0.899141,-8.94145,8.765658,0.17574467,-0.6127969,-0.22771761,0.3897552,1
1.360000000000001,13.494898996082481,-0.7152584632368177,0.6237766411718316,0.08244903259298898,13.296263,-0.44357,-0.20795855,0.4369418,5.9504128,-6.05577,1.5340384,0.3711382,-0.09812857,0.2037999,0.90060693,-8.944685,8.826007,0.19963963,-0.6127969,-0.22771761,0.3897552,1
1.370000000000001,13.494898996082481,-0.7152584632368177,0.6237766411718316,0.08244903259298898,13.296263,-0.44357,-0.20795855,0.4369418,5.8609486,-5.967218,1.5361413,0.36916292,-0.09756949,0.20162988,0.9019669,-8.948156,8.884294,0.2209954,-0.44357,-0.20795855,0.4369418,1
1.380000000000001,13.494898996082481,-0.7152584632368177,0.6237766411718316,0.08244903259298898,13.296263,-0.44357,-0.20795855,0.4369418,5.771449,-5.878086,1.5384591,0.36718366,-0.097009346,0.19945768,0.9033172,-8.951847,8.942026,0.2426133,-0.44357,-0.20795855,0.4369418,1
1.390000000000001,13.494898996082481,-0.7152584632368177,0.6237766411718316,0.08244903259298898,13.296263,-0.44357,-0.20795855,0.4369418,5.6819115,-5.788379,1.5409943,0.36520043,-0.09644816,0.19728333,0.9046578,-8.955756,8.999203,0.264491,-0.44357,-0.20795855,0.4369418,1
1.400000000000001,12.690735855294031,-0.7879716974668773,-0.6537510170888255,0.06922254132193156,13.11516,-0.6080792,-0.50750107,0.46090716,5.5923333,-5.6981034,1.5437497,0.36321327,-0.09588594,0.19510685,0.9059886,-8.95988,9.05582,0.28662607,-0.44357,-0.20795855,0.4369418,1
1.410000000000001,12.690735855294031,-0.7879716974668773,-0.6537510170888255,0.06922254132193156,13.11516,-0.6080792,-0.50750107,0.46090716,5.5027137,-5.6072683,1.5467198,0.36132511,-0.094240665,0.19164957,0.90765256,-8.9641075,9.110969,0.30744386,-0.6080792,-0.50750107,0.46090716,1
1.420000000000001,12.690735855294031,-0.7879716974668773,-0.6537510170888255,0.06922254132193156,13.11516,-0.6080792,-0.50750107,0.46090716,5.413051,-5.515887,1.5499002,0.3594294,-0.09259342,0.18818827,0.90929765,-8.968407,9.165175,0.32869175,-0.6080792,-0.50750107,0.46090716,1
1.430000000000001,12.690735855294031,-0.7879716974668773,-0.6537510170888255,0.06922254132193156,13.11516,-0.6080792,-0.50750107,0.46090716,5.323345,-5.4239683,1.5532951,0.35752612,-0.09094422,0.184723,0.91092354,-8.972774,9.218435,0.3503625,-0.6080792,-0.50750107,0.46090716,1
1.440000000000001,12.690735855294031,-0.7879716974668773,-0.6537510170888255,0.06922254132193156,13.011719,-0.6989263,-0.62609893,0.551397,5.2335954,-5.3315215,1.5569088,0.35561535,-0.089293115,0.18125387,0.91253024,-8.977202,9.270744,0.3724489,-0.6080792,-0.50750107,0.46090716,1
1.450000000000001,12.690735855294031,-0.7879716974668773,-0.6537510170888255,0.06922254132193156,13.011719,-0.6989263,-0.62609893,0.551397,5.143801,-5.238559,1.5607407,0.35334966,-0.08717816,0.17719516,0.91441005,-8.981641,9.32163,0.39402092,-0.6989263,-0.62609893,0.551397,1
1.460000000000001,12.690735855294031,-0.7879716974668773,-0.6537510170888255,0.06922254132193156,13.011719,-0.6989263,-0.62609893,0.551397,5.0539627,-5.1450925,1.5647908,0.35107347,-0.08506063,0.17313121,0.9162628,-8.986098,9.371388,0.41606477,-0.6989263,-0.62609893,0.551397,1
1.470000000000001,12.690735855294031,-0.7879716974668773,-0.6537510170888255,0.06922254132193156,13.011719,-0.6989263,-0.62609893,0.551397,4.964079,-5.051135,1.5690635,0.3487869,-0.08294058,0.16906215,0.9180885,-8.990565,9.420017,0.43857017,-0.6989263,-0.62609893,0.551397,1
1.480000000000001,12.624349686796204,-0.7376333326905128,1.1830332261083583,-0.01237840028152384,12.978743,-0.89538777,-1.0072806,0.46224564,4.874151,-4.956697,1.5735636,0.34649,-0.08081807,0.16498809,0.91988695,-8.995036,9.467512,0.4615267,-0.6989263,-0.62609893,0.551397,0
1.490000000000001,12.624349686796204,-0.7376333326905128,1.1830332261083583,-0.01237840028152384,12.978743,-0.89538777,-1.0072806,0.46224564,4.7841773,-4.8617945,1.5782768,0.34526452,-0.08754546,0.16363592,0.9199736,-9.000024,9.512997,0.4810847,-0.73763335,1.1830332,-0.0123784,0
1.500000000000001,12.624349686796204,-0.7376333326905128,1.1830332261083583,-0.01237840028152384,12.978743,-0.89538777,-1.0072806,0.46224564,4.694145,-4.7664366,1.5831846,0.3440223,-0.0942686,0.16227582,0.9200156,-9.006743,9.55873,0.5004603,-0.73763335,1.1830332,-0.0123784,0
1.5100000000000011,12.624349686796204,-0.7376333326905128,1.1830332261083583,-0.01237840028152384,12.978743,-0.89538777,-1.0072806,0.46224564,4.604037,-4.6706195,1.5882852,0.34276327,-0.10098716,0.16090782,0.92001283,-9.015195,9.604702,0.5196307,-0.73763335,1.1830332,-0.0123784,0
1.5200000000000011,11.673866265621506,-0.6823560102949968,-0.5722601225994957,-0.02659707951198751,13.339547,-0.66402113,-1.2496477,0.19912046,4.513835,-4.5743413,1.5935763,0.34148768,-0.1077008,0.15953201,0.9199653,-9.025376,9.650904,0.53857285,-0.73763335,1.1830332,-0.0123784,0
1.5300000000000011,11.673866265621506,-0.6823560102949968,-0.5722601225994957,-0.02659707951198751,13.339547,-0.66402113,-1.2496477,0.19912046,4.423529,-4.4776187,1.5990124,0.34169564,-0.106253736,0.1554003,0.9207632,-9.035802,9.693394,0.5487029,-0.682356,-0.57226014,-0.026597079,0
1.5400000000000011,11.673866265621506,-0.6823560102949968,-0.5722601225994957,-0.02659707951198751,13.339547,-0.66402113,-1.2496477,0.19912046,4.333119,-4.3804765,1.6045517,0.34189683,-0.10480456,0.15126552,0.9215428,-9.046258,9.734914,0.55920583,-0.682356,-0.57226014,-0.026597079,0
1.5500000000000012,11.673866265621506,-0.6823560102949968,-0.5722601225994957,-0.02659707951198751,13.339547,-0.66402113,-1.2496477,0.19912046,4.242604,-4.282924,1.6101978,0.34209123,-0.10335331,0.14712772,0.9223042,-9.056745,9.77546,0.57007295,-0.682356,-0.57226014,-0.026597079,0
1.5600000000000012,11.494905442582034,-0.4948543068761811,-0.2831435940365631,-0.010584269984664543,13.4459505,-0.5221952,-1.8081161,0.36667746,4.1519837,-4.184971,1.6159544,0.34227884,-0.10190001,0.14298698,0.92304724,-9.067261,9.81503,0.58129567,-0.682356,-0.57226014,-0.026597079,0
1.5700000000000012,11.494905442582034,-0.4948543068761811,-0.2831435940365631,-0.010584269984664543,13.4459505,-0.5221952,-1.8081161,0.36667746,4.0612593,-4.08663,1.6218164,0.34227657,-0.10144727,0.14021258,0.92352337,-9.077683,9.853162,0.5911332,-0.4948543,-0.28314358,-0.01058427,0
1.5800000000000012,11.494905442582034,-0.4948543068761811,-0.2831435940365631,-0.010584269984664543,13.4459505,-0.5221952,-1.8081161,0.36667746,3.97043,-3.9879103,1.6277777,0.34227157,-0.10099372,0.13743703,0.9239921,-9.088239,9.890687,0.60117114,-0.4948543,-0.28314358,-0.01058427,0
1.5900000000000012,11.494905442582034,-0.4948543068761811,-0.2831435940365631,-0.010584269984664543,13.4459505,-0.5221952,-1.8081161,0.36667746,3.8794942,-3.8888185,1.6338404,0.34226376,-0.10053934,0.13466036,0.9244532,-9.0989275,9.927599,0.6114061,-0.4948543,-0.28314358,-0.01058427,0
1.6000000000000012,10.830621606957541,-0.4293404786966253,-2.3113599720932805,-0.0006403092503377262,12.603343,-0.3455623,-3.0246284,0.19904071,3.788451,-3.7893605,1.6400064,0.34225315,-0.100084156,0.13188261,0.9249069,-9.109749,9.9639,0.6218345,-0.4948543,-0.28314358,-0.01058427,0
1.6100000000000012,10.830621606957541,-0.4293404786966253,-2.3113599720932805,-0.0006403092503377262,12.603343,-0.3455623,-3.0246284,0.19904071,3.6973038,-3.6895545,1.646247,0.3435417,-0.090123646,0.12593246,0.92628163,-9.119437,9.997043,0.62638634,-0.42934048,-2.31136,-0.00064030924,0
1.6200000000000012,10.830621606957541,-0.4293404786966253,-2.3113599720932805,-0.0006403092503377262,12.603343,-0.3455623,-3.0246284,0.19904071,3.6060674,-3.589426,1.6525366,0.34478283,-0.08015068,0.11996491,0.9275284,-9.127562,10.028312,0.63165957,-0.42934048,-2.31136,-0.00064030924,0
1.6300000000000012,10.830621606957541,-0.4293404786966253,-2.3113599720932805,-0.0006403092503377262,12.603343,-0.3455623,-3.0246284,0.19904071,3.5147579,-3.4889946,1.6588824,0.34597632,-0.07016663,0.11398079,0.928647,-9.134117,10.057689,0.63759696,-0.42934048,-2.31136,-0.00064030924,0
1.6400000000000012,10.830621606957541,-0.4293404786966253,-2.3113599720932805,-0.0006403092503377262,12.1369505,-0.5107981,-3.6916308,0.6626381,3.4233904,-3.388279,1.6652907,0.34712198,-0.0601729,0.10798093,0.9296373,-9.139099,10.085157,0.64414114,-0.42934048,-2.31136,-0.00064030924,0
1.6500000000000012,10.830621606957541,-0.4293404786966253,-2.3113599720932805,-0.0006403092503377262,12.1369505,-0.5107981,-3.6916308,0.6626381,3.331981,-3.2872982,1.6717671,0.3482197,-0.050170854,0.10196615,0.9304992,-9.142506,10.1107025,0.6512341,-0.42934048,-2.31136,-0.00064030924,0
1.6600000000000013,10.830621606957541,-0.4293404786966253,-2.3113599720932805,-0.0006403092503377262,12.1369505,-0.5107981,-3.6916308,0.6626381,3.2405455,-3.1860719,1.6783171,0.34926927,-0.040161878,0.09593727,0.93123245,-9.144335,10.13431,0.6588178,-0.42934048,-2.31136,-0.00064030924,0
1.6700000000000013,10.830621606957541,-0.4293404786966253,-2.3113599720932805,-0.0006403092503377262,12.1369505,-0.5107981,-3.6916308,0.6626381,3.1490998,-3.084619,1.6849451,0.35027063,-0.030147351,0.08989514,0.9318371,-9.144587,10.155968,0.6668339,-0.42934048,-2.31136,-0.00064030924,0
1.6800000000000013,10.679379375664377,-0.2909426464516897,-0.2518136795020807,0.051312966090764515,10.863064,-0.8738972,-4.680074,0.05502707,3.0576591,-2.9829593,1.6916552,0.35122356,-0.020128658,0.083840586,0.93231297,-9.143259,10.175661,0.6752237,-0.42934048,-2.31136,-0.00064030924,0
1.6900000000000013,10.679379375664377,-0.2909426464516897,-0.2518136795020807,0.051312966090764515,10.863064,-0.8738972,-4.680074,0.05502707,2.966238,-2.8811123,1.6984429,0.35105997,-0.019444196,0.082047135,0.93254864,-9.140978,10.193714,0.6823557,-0.29094264,-0.25181368,0.051312964,0
1.7000000000000013,10.679379375664377,-0.2909426464516897,-0.2518136795020807,0.051312966090764515,10.863064,-0.8738972,-4.680074,0.05502707,2.8748398,-2.7790866,1.7053025,0.35089508,-0.018759659,0.08025337,0.9327808,-9.1387005,10.211363,0.6895565,-0.29094264,-0.25181368,0.051312964,0
1.7100000000000013,10.679379375664377,-0.2909426464516897,-0.2518136795020807,0.051312966090764515,10.863064,-0.8738972,-4.680074,0.05502707,2.7834644,-2.6768866,1.7122343,0.35072884,-0.01807505,0.0784593,0.9330094,-9.136423,10.228605,0.6968244,-0.29094264,-0.25181368,0.051312964,0
1.7200000000000013,10.330120732608814,-0.20728511178662912,-0.5216064830023365,0.05811511365711029,10.660434,-1.8127314,-5.809215,0.21413106,2.692112,-2.574516,1.7192391,0.3505613,-0.017390374,0.07666494,0.9332345,-9.134149,10.245442,0.7041579,-0.29094264,-0.25181368,0.051312964,0
1.7300000000000013,10.330120732608814,-0.20728511178662912,-0.5216064830023365,0.05811511365711029,10.660434,-1.8127314,-5.809215,0.21413106,2.6007814,-2.471982,1.7263005,0.35047066,-0.015297455,0.07478818,0.93345743,-9.131849,10.261292,0.7081099,-0.2072851,-0.5216065,0.058115114,0
1.7400000000000013,10.330120732608814,-0.20728511178662912,-0.5216064830023365,0.05811511365711029,10.660434,-1.8127314,-5.809215,0.21413106,2.5094755,-2.369292,1.7334018,0.3503772,-0.0132044135,0.07291083,0.93367296,-9.129285,10.276631,0.7121335,-0.2072851,-0.5216065,0.058115114,0
1.7500000000000013,10.330120732608814,-0.20728511178662912,-0.5216064830023365,0.05811511365711029,10.660434,-1.8127314,-5.809215,0.21413106,2.4181964,-2.2664511,1.7405436,0.350281,-0.011111268,0.071032904,0.9338811,-9.126454,10.29146,0.7162256,-0.2072851,-0.5216065,0.058115114,0
1.7600000000000013,10.24971850422096,-0.12011538297134289,1.3138224413564354,0.10660975227272787,10.733569,-1.370284,-3.6863058,0.26745123,2.326947,-2.1634645,1.7477267,0.35018197,-0.009018034,0.06915441,0.9340818,-9.123358,10.3057785,0.7203828,-0.2072851,-0.5216065,0.058115114,0
1.7700000000000014,10.24971850422096,-0.12011538297134289,1.3138224413564354,0.10660975227272787,10.733569,-1.370284,-3.6863058,0.26745123,2.2357283,-2.0603364,1.7549473,0.34921673,-0.015327326,0.07089709,0.9342302,-9.120531,10.319963,0.7237538,-0.120115384,1.3138224,0.106609754,0
1.7800000000000014,10.24971850422096,-0.12011538297134289,1.3138224413564354,0.10660975227272787,10.733569,-1.370284,-3.6863058,0.26745123,2.1445324,-1.9570624,1.7622013,0.3482361,-0.021635948,0.072636664,0.93433785,-9.118803,10.334932,0.72703665,-0.120115384,1.3138224,0.106609754,0
1.7900000000000014,10.24971850422096,-0.12011538297134289,1.3138224413564354,0.10660975227272787,10.733569,-1.370284,-3.6863058,0.26745123,2.0533485,-1.853635,1.7694876,0.34724027,-0.027943622,0.07437305,0.9344045,-9.118174,10.350681,0.730214,-0.120115384,1.3138224,0.106609754,0
1.8000000000000014,10.079522305400394,-0.10517633687661462,-0.20288334322710627,0.1187471573430336,12.023856,-0.79273236,-4.7964115,0.536323,1.9621651,-1.7500461,1.7768052,0.34622926,-0.034250073,0.07610619,0.9344302,-9.118645,10.367208,0.7332684,-0.120115384,1.3138224,0.106609754,0
1.8100000000000014,10.079522305400394,-0.10517633687661462,-0.20288334322710627,0.1187471573430336,12.023856,-0.79273236,-4.7964115,0.536323,1.870973,-1.6462905,1.7841444,0.34573334,-0.03343903,0.07528384,0.9347097,-9.119753,10.383855,0.734573,-0.10517634,-0.20288335,0.11874716,0
1.8200000000000014,10.079522305400394,-0.10517633687661462,-0.20288334322710627,0.1187471573430336,12.023856,-0.79273236,-4.7964115,0.536323,1.7797703,-1.5423696,1.791497,0.34523687,-0.032627936,0.07446137,0.9349877,-9.120774,10.400292,0.7359137,-0.10517634,-0.20288335,0.11874716,0
1.8300000000000014,10.079522305400394,-0.10517633687661462,-0.20288334322710627,0.1187471573430336,12.023856,-0.79273236,-4.7964115,0.536323,1.6885577,-1.4382854,1.7988629,0.34473982,-0.031816784,0.07363878,0.93526417,-9.12171,10.416519,0.7372897,-0.10517634,-0.20288335,0.11874716,0
1.8400000000000014,10.079522305400394,-0.10517633687661462,-0.20288334322710627,0.1187471573430336,11.369117,-1.0067657,-2.7953062,0.78041226,1.5973364,-1.3340399,1.806243,0.3442422,-0.031005578,0.072816074,0.93553907,-9.122559,10.432535,0.73870075,-0.10517634,-0.20288335,0.11874716,0
1.8500000000000014,10.079522305400394,-0.10517633687661462,-0.20288334322710627,0.1187471573430336,11.369117,-1.0067657,-2.7953062,0.78041226,1.506107,-1.2296354,1.8136371,0.34374398,-0.030194324,0.07199325,0.9358124,-9.123321,10.44834,0.7401461,-0.10517634,-0.20288335,0.11874716,0
1.8600000000000014,10.079522305400394,-0.10517633687661462,-0.20288334322710627,0.1187471573430336,11.369117,-1.0067657,-2.7953062,0.78041226,1.4148704,-1.1250738,1.821046,0.34324524,-0.029383019,0.0711703,0.9360842,-9.123995,10.463935,0.7416253,-0.10517634,-0.20288335,0.11874716,0
1.8700000000000014,10.079522305400394,-0.10517633687661462,-0.20288334322710627,0.1187471573430336,11.369117,-1.0067657,-2.7953062,0.78041226,1.3236274,-1.0203574,1.8284699,0.34274593,-0.028571665,0.070347235,0.93635446,-9.124582,10.47932,0.74313784,-0.10517634,-0.20288335,0.11874716,0
1.8800000000000014,10.121915483765415,-0.14010464287970195,1.1465724047891277,0.17961333679583505,12.501232,-0.73689395,-3.8146088,1.3412496,1.2323788,-0.9154882,1.835909,0.34224603,-0.027760264,0.06952405,0.93662316,-9.125082,10.4944935,0.744683,-0.10517634,-0.20288335,0.11874716,0
1.8900000000000015,10.121915483765415,-0.14010464287970195,1.1465724047891277,0.17961333679583505,12.501232,-0.73689395,-3.8146088,1.3412496,1.1411247,-0.81046706,1.8433657,0.34098104,-0.033306602,0.07085371,0.93680406,-9.1258955,10.509836,0.7466288,-0.14010464,1.1465724,0.17961334,0
1.9000000000000015,10.121915483765415,-0.14010464287970195,1.1465724047891277,0.17961333679583505,12.501232,-0.73689395,-3.8146088,1.3412496,1.0498575,-0.70528936,1.8508413,0.33970436,-0.038851805,0.07218095,0.93695295,-9.127688,10.525806,0.7484634,-0.14010464,1.1465724,0.17961334,0
1.9100000000000015,10.121915483765415,-0.14010464287970195,1.1465724047891277,0.17961333679583505,12.501232,-0.73689395,-3.8146088,1.3412496,0.9585675,-0.5999489,1.8583345,0.3384161,-0.044395678,0.07350572,0.9370699,-9.130462,10.542402,0.75017357,-0.14010464,1.1465724,0.17961334,0
1.9200000000000015,9.986735496648933,-0.17037211112723907,0.2910938933749016,0.2269912491893713,12.4928665,-1.3323792,-4.351064,1.4730258,0.8672449,-0.4944393,1.8658442,0.33711627,-0.04993803,0.074827984,0.93715477,-9.134216,10.55962,0.75174636,-0.14010464,1.1465724,0.17961334,0
1.9300000000000015,9.986735496648933,-0.17037211112723907,0.2910938933749016,0.2269912491893713,12.4928665,-1.3323792,-4.351064,1.4730258,0.7758809,-0.38875622,1.8733624,0.33590052,-0.051504176,0.07457684,0.93752646,-9.13865,10.577008,0.7518883,-0.17037211,0.2910939,0.22699125,0
1.9400000000000015,9.986735496648933,-0.17037211112723907,0.2910938933749016,0.2269912491893713,12.4928665,-1.3323792,-4.351064,1.4730258,0.68447083,-0.28289896,1.8808819,0.33468333,-0.05307011,0.0743254,0.93789434,-9.143415,10.594448,0.7520055,-0.17037211,0.2910939,0.22699125,0
1.9500000000000015,9.986735496648933,-0.17037211112723907,0.2910938933749016,0.2269912491893713,12.4928665,-1.3323792,-4.351064,1.4730258,0.59301144,-0.17686707,1.8884023,0.3334648,-0.054635823,0.07407364,0.9382584,-9.148513,10.6119375,0.75209713,-0.17037211,0.2910939,0.22699125,0
1.9600000000000015,9.922528693151548,-0.32872143074740867,0.23228675927390732,0.30418163563429623,11.697899,-0.9699104,-2.942875,1.136961,0.5014995,-0.07066003,1.8959237,0.33224487,-0.05620131,0.07382158,0.9386185,-9.153943,10.629477,0.75216216,-0.17037211,0.2910939,0.22699125,0
1.9700000000000015,9.922528693151548,-0.32872143074740867,0.23228675927390732,0.30418163563429623,11.697899,-0.9699104,-2.942875,1.136961,0.4099316,0.035721894,1.9034423,0.33063814,-0.057725072,0.07274998,0.93917686,-9.159689,10.646893,0.75157803,-0.32872143,0.23228677,0.30418164,0
1.9800000000000015,9.922528693151548,-0.32872143074740867,0.23228675927390732,0.30418163563429623,11.697899,-0.9699104,-2.942875,1.136961,0.31830436,0.14227742,1.9109551,0.32902932,-0.059248473,0.07167792,0.9397293,-9.165817,10.664198,0.75099015,-0.32872143,0.23228677,0.30418164,0
1.9900000000000015,9.922528693151548,-0.32872143074740867,0.23228675927390732,0.30418163563429623,11.697899,-0.9699104,-2.942875,1.136961,0.22661392,0.24900547,1.9184622,0.3274184,-0.0607715,0.070605405,0.94027567,-9.172331,10.681392,0.7503971,-0.32872143,0.23228677,0.30418164,0
2.0000000000000013,,,,,12.385846,-1.4382242,-3.7025657,1.6914093,0.13485643,0.3559049,1.925963,0.3258054,-0.062294133,0.06953244,0.9408161,-9.179226,10.698473,0.7497975,-0.32872143,0.23228677,0.30418164,0
2.010000000000001,,,,,12.385846,-1.4382242,-3.7025657,1.6914093,0.043028936,0.4629731,1.9334524,0.32402137,-0.06120958,0.06709572,0.94168,-9.186272,10.715082,0.7480661,-0.42207295,-0.34880576,0.37670007,0
2.020000000000001,,,,,12.385846,-1.4382242,-3.7025657,1.6914093,-0.04886897,0.5702047,1.9409248,0.32223377,-0.060124356,0.06465825,0.94253343,-9.193307,10.731162,0.7464252,-0.42207295,-0.34880576,0.37670007,0
2.0300000000000007,,,,,12.385846,-1.4382242,-3.7025657,1.6914093,-0.14083716,0.6775945,1.9483812,0.32044262,-0.05903847,0.062220063,0.9433764,-9.200328,10.746712,0.74487203,-0.42207295,-0.34880576,0.37670007,0
2.0400000000000005,,,,,12.385846,-1.4382242,-3.7025657,1.6914093,-0.2328755,0.7851371,1.9558225,0.31864792,-0.05795193,0.059781194,0.9442091,-9.207334,10.761732,0.74340385,-0.42207295,-0.34880576,0.37670007,0
2.0500000000000003,,,,,12.528915,-1.4705263,-3.3578262,2.1784143,-0.32498378,0.89282733,1.9632496,0.3168497,-0.056864753,0.05734166,0.9450313,-9.214321,10.776222,0.742018,-0.42207295,-0.34880576,0.37670007,1
2.06,,,,,12.528915,-1.4705263,-3.3578262,2.1784143,-0.4171691,1.0006757,1.9707983,0.3070297,-0.042691756,0.045680784,0.9496437,-9.222391,10.792836,0.7678315,-1.4705263,-3.3578262,2.1784143,1
2.07,,,,,12.528915,-1.4705263,-3.3578262,2.1784143,-0.5094237,1.1086705,1.9786083,0.29707012,-0.028499356,0.03399914,0.9538243,-9.228156,10.805524,0.7942366,-1.4705263,-3.3578262,2.1784143,1
2.0799999999999996,,,,,12.528915,-1.4705263,-3.3578262,2.1784143,-0.6017239,1.2167726,1.9866844,0.2869755,-0.0142939985,0.022302048,0.9575714,-9.231523,10.814318,0.8210648,-1.4705263,-3.3578262,2.1784143,1
2.0899999999999994,,,,,13.480687,-1.1272627,-2.1263933,1.5365324,-0.69404554,1.3249433,1.9950305,0.27675042,-8.2144514e-05,0.010594819,0.9608832,-9.232402,10.819261,0.84814674,-1.4705263,-3.3578262,2.1784143,1
2.099999999999999,,,,,13.480687,-1.1272627,-2.1263933,1.5365324,-0.78636396,1.4331466,2.0036952,0.2694525,0.00865519,0.0022364138,0.9629719,-9.231021,10.820959,0.88483274,-1.1272627,-2.1263933,1.5365324,1
2.109999999999999,,,,,13.480687,-1.1272627,-2.1263933,1.5365324,-0.87866026,1.541353,2.012727,0.26209968,0.017390758,-0.006122447,0.9648645,-9.227983,10.819868,0.92149794,-1.1272627,-2.1263933,1.5365324,1
2.1199999999999988,,,,,13.480687,-1.1272627,-2.1263933,1.5365324,-0.9709177,1.6495346,2.022125,0.25469342,0.026122782,-0.01448006,0.9665603,-9.223249,10.816014,0.9580634,-1.1272627,-2.1263933,1.5365324,1
2.1299999999999986,,,,,15.035412,-0.9952644,-4.0742426,1.4824344,-1.0631193,1.757664,2.0318878,0.24723527,0.034849484,-0.022834722,0.9680591,-9.21678,10.809427,0.99445057,-1.1272627,-2.1263933,1.5365324,1
2.1399999999999983,,,,,15.035412,-0.9952644,-4.0742426,1.4824344,-1.1552397,1.8657075,2.0420902,0.23970757,0.053160317,-0.032940406,0.9688286,-9.206586,10.79861,1.0459579,-0.9952644,-4.0742426,1.4824344,1
2.149999999999998,,,,,15.035412,-0.9952644,-4.0742426,1.4824344,-1.247235,1.973622,2.0528042,0.2320613,0.071444854,-0.043029796,0.96911883,-9.19171,10.783638,1.096713,-0.9952644,-4.0742426,1.4824344,1
2.159999999999998,,,,,15.035412,-0.9952644,-4.0742426,1.4824344,-1.3390577,2.0813663,2.064021,0.22430024,0.089694045,-0.0530979,0.9689297,-9.172119,10.764606,1.1464548,-0.9952644,-4.0742426,1.4824344,1
