time-since-start [s],throttle_mpc,roll_mpc,pitch_mpc,yaw_mpc,throttle_nw,roll_nw,pitch_nw,yaw_nw,position_x [m],position_y [m],position_z [m],rotation_w [quaternion],rotation_x [quaternion],rotation_y [quaternion],rotation_z [quaternion],velocity_x [m/s],velocity_y [m/s],velocity_z [m/s],omega_x [rad/s],omega_y [rad/s],omega_z [rad/s],network_used
0.0,6.342846098924638,5.999999080209747,-5.999999872578259,-3.1213717089180686,12.5504675,0.42965987,-4.486305,-0.90907866,18.404099,-10.117969,2.1919658,0.009981953,-0.42930624,0.1681649,0.8873089,-10.513048,-2.8614645,-0.29049966,1.7673715,-0.15450773,-0.050796162,0
0.01,6.342846098924638,5.999999080209747,-5.999999872578259,-3.1213717089180686,11.66371,0.67673784,-6.2118163,-0.72913927,18.298729,-10.146482,2.1887546,0.04173317,-0.40458173,0.18760611,0.8940782,-10.559983,-2.840492,-0.35147583,5.999999,-6.0,-3.1213717,0
0.02,6.342846098924638,5.999999080209747,-5.999999872578259,-3.1213717089180686,11.66371,0.67673784,-6.2118163,-0.72913927,18.19291,-10.1747675,2.1849422,0.07339911,-0.37903056,0.20666401,0.8990208,-10.6035595,-2.81567,-0.41076958,5.999999,-6.0,-3.1213717,0
0.03,6.342846098924638,5.999999080209747,-5.999999872578259,-3.1213717089180686,11.66371,0.67673784,-6.2118163,-0.72913927,18.086672,-10.202785,2.1805446,0.10491509,-0.35270494,0.22529963,0.90212643,-10.643411,-2.7872798,-0.46853724,5.999999,-6.0,-3.1213717,0
0.04,6.342846098924638,5.999999080209747,-5.999999872578259,-3.1213717089180686,12.005936,-1.4886476,-4.0857096,-0.029495414,17.980055,-10.230501,2.1755762,0.13621671,-0.32565868,0.2434749,0.90338886,-10.679205,-2.755631,-0.5249475,5.999999,-6.0,-3.1213717,0
0.05,6.342846098924638,5.999999080209747,-5.999999872578259,-3.1213717089180686,12.005936,-1.4886476,-4.0857096,-0.029495414,17.8731,-10.257888,2.1700497,0.16724,-0.29794702,0.26115268,0.90280545,-10.71064,-2.72106,-0.58018017,5.999999,-6.0,-3.1213717,0
0.060000000000000005,6.342846098924638,5.999999080209747,-5.999999872578259,-3.1213717089180686,12.005936,-1.4886476,-4.0857096,-0.029495414,17.765856,-10.284914,2.163976,0.19792159,-0.2696266,0.2782969,0.9003774,-10.73745,-2.6839273,-0.6344247,5.999999,-6.0,-3.1213717,0
0.07,6.342846098924638,5.999999080209747,-5.999999872578259,-3.1213717089180686,12.005936,-1.4886476,-4.0857096,-0.029495414,17.65837,-10.311559,2.157364,0.22819877,-0.24075525,0.2948725,0.89610964,-10.759406,-2.6446142,-0.68787843,5.999999,-6.0,-3.1213717,0
0.08,13.462734225612133,5.99999785855199,-5.999999814258261,-1.2563152355916085,13.9376135,-1.9287282,-1.026006,0.3781752,17.550686,-10.337801,2.1502206,0.2580097,-0.211392,0.3108456,0.890011,-10.776323,-2.60352,-0.7407455,5.999999,-6.0,-3.1213717,0
0.09,13.462734225612133,5.99999785855199,-5.999999814258261,-1.2563152355916085,13.9376135,-1.9287282,-1.026006,0.3781752,17.442787,-10.363388,2.1428063,0.2790237,-0.17871955,0.3281865,0.8845897,-10.80122,-2.513378,-0.74205214,5.999998,-6.0,-1.2563152,0
0.09999999999999999,13.462734225612133,5.99999785855199,-5.999999814258261,-1.2563152355916085,13.9376135,-1.9287282,-1.026006,0.3781752,17.334698,-10.388062,2.1353805,0.29952455,-0.14571841,0.34492382,0.8775415,-10.814902,-2.4211023,-0.7431351,5.999998,-6.0,-1.2563152,0
0.10999999999999999,13.462734225612133,5.99999785855199,-5.999999814258261,-1.2563152355916085,13.9376135,-1.9287282,-1.026006,0.3781752,17.226528,-10.411805,2.1279426,0.31947452,-0.11244924,0.36102676,0.86887926,-10.817257,-2.3274589,-0.74459296,5.999998,-6.0,-1.2563152,0
0.11999999999999998,13.462734225612133,5.99999785855199,-5.999999814258261,-1.2563152355916085,13.9376135,-1.9287282,-1.026006,0.3781752,17.11839,-10.434608,2.1204855,0.3388369,-0.07897328,0.3764657,0.858619,-10.808251,-2.2332237,-0.74702173,5.999998,-6.0,-1.2563152,0
0.12999999999999998,18.40203881096082,3.339390964354902,-5.999999362130276,0.20354745879445799,12.934714,-3.0741394,0.35376385,0.15132016,17.010399,-10.45647,2.1129968,0.35757613,-0.045352064,0.39121228,0.8467796,-10.787937,-2.1391776,-0.75101024,5.999998,-6.0,-1.2563152,0
0.13999999999999999,18.40203881096082,3.339390964354902,-5.999999362130276,0.20354745879445799,12.934714,-3.0741394,0.35376385,0.15132016,16.90272,-10.477225,2.1056306,0.3689947,-0.013559587,0.39443833,0.8414735,-10.746064,-2.0127022,-0.7222175,3.339391,-5.9999995,0.20354746,0
0.15,18.40203881096082,3.339390964354902,-5.999999362130276,0.20354745879445799,12.934714,-3.0741394,0.35376385,0.15132016,16.795519,-10.4967375,2.0985506,0.379978,0.018248884,0.3971991,0.83517474,-10.692256,-1.8903333,-0.6938994,3.339391,-5.9999995,0.20354746,0
0.16,18.742242076188845,0.8689135160640307,-4.784479984964973,0.48293234344468183,13.428438,-3.8090847,0.8655457,-0.56545573,16.688913,-10.515048,2.0917487,0.39051303,0.050035823,0.39949128,0.8278907,-10.6267605,-1.7726303,-0.6666704,3.339391,-5.9999995,0.20354746,0
0.17,18.742242076188845,0.8689135160640307,-4.784479984964973,0.48293234344468183,13.428438,-3.8090847,0.8655457,-0.56545573,16.583023,-10.532198,2.0852258,0.39773607,0.07248503,0.39350662,0.82565415,-10.550081,-1.658087,-0.63780266,0.86891353,-4.78448,0.48293233,0
0.18000000000000002,18.742242076188845,0.8689135160640307,-4.784479984964973,0.48293234344468183,13.428438,-3.8090847,0.8655457,-0.56545573,16.477934,-10.54823,2.0789952,0.40472168,0.09489097,0.38728705,0.82292473,-10.46637,-1.5493045,-0.6083119,0.86891353,-4.78448,0.48293233,0
0.19000000000000003,18.742242076188845,0.8689135160640307,-4.784479984964973,0.48293234344468183,13.428438,-3.8090847,0.8655457,-0.56545573,16.373718,-10.563205,2.0730608,0.41146564,0.11724026,0.3808363,0.81970406,-10.375802,-1.4465182,-0.578532,0.86891353,-4.78448,0.48293233,0
0.20000000000000004,17.153763222182324,0.0666248089359138,-1.2830683096844326,0.17743345010397515,13.854657,-3.685047,3.8451407,-0.40691,16.270441,-10.577183,2.0674245,0.417964,0.13951957,0.3741582,0.815994,-10.278573,-1.3499491,-0.54879725,0.86891353,-4.78448,0.48293233,0
0.21000000000000005,17.153763222182324,0.0666248089359138,-1.2830683096844326,0.17743345010397515,13.854657,-3.685047,3.8451407,-0.40691,16.168121,-10.590261,2.0620303,0.4195852,0.14522265,0.37161702,0.8153279,-10.185335,-1.2658454,-0.5300298,0.066624805,-1.2830683,0.17743345,0
0.22000000000000006,17.153763222182324,0.0666248089359138,-1.2830683096844326,0.17743345010397515,13.854657,-3.685047,3.8451407,-0.40691,16.066738,-10.602507,2.0568242,0.42118874,0.15091962,0.36906022,0.8146276,-10.090696,-1.183441,-0.5111776,0.066624805,-1.2830683,0.17743345,0
0.23000000000000007,17.153763222182324,0.0666248089359138,-1.2830683096844326,0.17743345010397515,13.854657,-3.685047,3.8451407,-0.40691,15.966311,-10.613937,2.051807,0.42277452,0.15661024,0.36648786,0.813893,-9.994671,-1.1027482,-0.49226287,0.066624805,-1.2830683,0.17743345,0
0.24000000000000007,17.153763222182324,0.0666248089359138,-1.2830683096844326,0.17743345010397515,14.237249,-2.6711206,5.771893,-0.61668116,15.866851,-10.624569,2.046979,0.4243425,0.16229427,0.36390013,0.8131241,-9.897271,-1.0237783,-0.47330767,0.066624805,-1.2830683,0.17743345,0
0.25000000000000006,17.153763222182324,0.0666248089359138,-1.2830683096844326,0.17743345010397515,14.237249,-2.6711206,5.771893,-0.61668116,15.768371,-10.6344185,2.0423408,0.4258927,0.16797148,0.36129707,0.8123211,-9.798512,-0.946543,-0.45433426,0.066624805,-1.2830683,0.17743345,0
0.26000000000000006,17.153763222182324,0.0666248089359138,-1.2830683096844326,0.17743345010397515,14.237249,-2.6711206,5.771893,-0.61668116,15.670884,-10.643505,2.0378923,0.42742497,0.17364162,0.35867882,0.8114839,-9.698408,-0.8710533,-0.43536478,0.066624805,-1.2830683,0.17743345,0
0.2700000000000001,17.153763222182324,0.0666248089359138,-1.2830683096844326,0.17743345010397515,14.237249,-2.6711206,5.771893,-0.61668116,15.574407,-10.651845,2.0336335,0.42893925,0.17930447,0.35604548,0.8106126,-9.596973,-0.79732007,-0.4164214,0.066624805,-1.2830683,0.17743345,0
0.2800000000000001,15.800872423381167,-0.38192163847358107,0.9834158415169559,0.011634588841067644,15.359503,-2.2781093,6.2850723,-0.63768965,15.4789505,-10.659457,2.0295637,0.43043548,0.18495977,0.3533972,0.8097072,-9.494222,-0.72535384,-0.39752638,0.066624805,-1.2830683,0.17743345,0
0.2900000000000001,15.800872423381167,-0.38192163847358107,0.9834158415169559,0.011634588841067644,15.359503,-2.2781093,6.2850723,-0.63768965,15.384483,-10.666383,2.025637,0.42899787,0.18017441,0.35395175,0.8113053,-9.399279,-0.65968955,-0.38773444,-0.38192165,0.98341584,0.011634589,0
0.3000000000000001,15.800872423381167,-0.38192163847358107,0.9834158415169559,0.011634588841067644,15.359503,-2.2781093,6.2850723,-0.63768965,15.290959,-10.6726465,2.0218103,0.42754835,0.17538404,0.3544965,0.8128808,-9.305559,-0.5929746,-0.3775187,-0.38192165,0.98341584,0.011634589,0
0.3100000000000001,15.800872423381167,-0.38192163847358107,0.9834158415169559,0.011634588841067644,15.359503,-2.2781093,6.2850723,-0.63768965,15.198366,-10.678238,2.018088,0.42608693,0.17058879,0.35503137,0.8144337,-9.213074,-0.5252166,-0.36689118,-0.38192165,0.98341584,0.011634589,0
0.3200000000000001,14.326667824198807,-1.0474812940380651,4.628530947460365,-0.21460624223210145,15.859343,-2.1615553,5.37591,-0.5978876,15.106693,-10.6831455,2.0144742,0.42461368,0.1657888,0.35555637,0.8159639,-9.121831,-0.45642313,-0.3558638,-0.38192165,0.98341584,0.011634589,0
0.3300000000000001,14.326667824198807,-1.0474812940380651,4.628530947460365,-0.21460624223210145,15.859343,-2.1615553,5.37591,-0.5978876,15.01588,-10.68739,2.010922,0.41800985,0.14425507,0.36118662,0.8209766,-9.041607,-0.39168072,-0.35449433,-1.0474813,4.628531,-0.21460624,0
0.34000000000000014,14.326667824198807,-1.0474812940380651,4.628530947460365,-0.21460624223210145,15.859343,-2.1615553,5.37591,-0.5978876,14.925843,-10.690964,2.0073867,0.4111702,0.12263998,0.3666131,0.8255261,-8.966272,-0.3222636,-0.35245624,-1.0474813,4.628531,-0.21460624,0
0.35000000000000014,14.326667824198807,-1.0474812940380651,4.628530947460365,-0.21460624223210145,15.859343,-2.1615553,5.37591,-0.5978876,14.836535,-10.69382,2.0038743,0.40409863,0.1009557,0.37183273,0.82960993,-8.895991,-0.24831998,-0.34998545,-1.0474813,4.628531,-0.21460624,0
0.36000000000000015,13.781403773913903,-1.1093749924234753,4.556051876019515,-0.33146358793572395,15.87203,-2.5101948,5.47582,-0.7127617,14.747906,-10.695915,2.0003881,0.3967991,0.079214476,0.37684262,0.8332257,-8.830914,-0.17000833,-0.3473187,-1.0474813,4.628531,-0.21460624,0
0.37000000000000016,13.781403773913903,-1.1093749924234753,4.556051876019515,-0.33146358793572395,15.87203,-2.5101948,5.47582,-0.7127617,14.659888,-10.697222,1.9969091,0.38992584,0.05738796,0.38128677,0.8362325,-8.773449,-0.09067616,-0.3484985,-1.109375,4.5560517,-0.33146358,0
0.38000000000000017,13.781403773913903,-1.1093749924234753,4.556051876019515,-0.33146358793572395,15.87203,-2.5101948,5.47582,-0.7127617,14.572419,-10.697717,1.9934175,0.3828372,0.03552974,0.38552028,0.83877724,-8.721227,-0.0075737163,-0.34987074,-1.109375,4.5560517,-0.33146358,0
0.3900000000000002,13.781403773913903,-1.1093749924234753,4.556051876019515,-0.33146358793572395,15.87203,-2.5101948,5.47582,-0.7127617,14.485445,-10.697362,1.9899101,0.37553707,0.013651896,0.38954085,0.8408587,-8.674355,0.079128236,-0.35166326,-1.109375,4.5560517,-0.33146358,0
0.4000000000000002,13.51670244155481,-1.085398063719364,3.8771218517136767,-0.4550607829958772,15.181667,-3.162225,4.92427,-0.6120904,14.398912,-10.696122,1.9863819,0.36802948,-0.0082334895,0.3933462,0.8424756,-8.632924,0.169251,-0.35410303,-1.109375,4.5560517,-0.33146358,0
0.4100000000000002,13.51670244155481,-1.085398063719364,3.8771218517136767,-0.4550607829958772,15.181667,-3.162225,4.92427,-0.6120904,14.312765,-10.6939745,1.9828162,0.3622013,-0.027454663,0.3958089,0.84344035,-8.597448,0.26061514,-0.35913414,-1.0853981,3.877122,-0.45506078,0
0.4200000000000002,13.51670244155481,-1.085398063719364,3.8771218517136767,-0.4550607829958772,15.181667,-3.162225,4.92427,-0.6120904,14.226948,-10.690901,1.9791965,0.35622448,-0.04666457,0.39810923,0.84405893,-8.566751,0.35446155,-0.3649391,-1.0853981,3.877122,-0.45506078,0
0.4300000000000002,13.51670244155481,-1.085398063719364,3.8771218517136767,-0.4550607829958772,15.181667,-3.162225,4.92427,-0.6120904,14.141415,-10.686877,1.9755143,0.35010147,-0.065855324,0.40024614,0.844331,-8.540874,0.45065218,-0.3716852,-1.0853981,3.877122,-0.45506078,0
0.4400000000000002,13.51670244155481,-1.085398063719364,3.8771218517136767,-0.4550607829958772,13.852936,-3.0853329,4.106401,-0.50943285,14.056114,-10.681881,1.9717591,0.3438348,-0.085019045,0.4022188,0.84425664,-8.519848,0.5490451,-0.3795381,-1.0853981,3.877122,-0.45506078,0
0.45000000000000023,13.51670244155481,-1.085398063719364,3.8771218517136767,-0.4550607829958772,13.852936,-3.0853329,4.106401,-0.50943285,13.971001,-10.675891,1.9679191,0.33742696,-0.10414787,0.40402636,0.8438358,-8.503696,0.64949477,-0.3886617,-1.0853981,3.877122,-0.45506078,0
0.46000000000000024,13.51670244155481,-1.085398063719364,3.8771218517136767,-0.4550607829958772,13.852936,-3.0853329,4.106401,-0.50943285,13.886024,-10.668885,1.9639809,0.33088067,-0.12323396,0.40566808,0.84306866,-8.492435,0.75185233,-0.39921778,-1.0853981,3.877122,-0.45506078,0
0.47000000000000025,13.51670244155481,-1.085398063719364,3.8771218517136767,-0.4550607829958772,13.852936,-3.0853329,4.106401,-0.50943285,13.801135,-10.660847,1.9599293,0.32419857,-0.14226948,0.40714332,0.8419555,-8.486073,0.8559657,-0.41136584,-1.0853981,3.877122,-0.45506078,0
0.48000000000000026,13.333922217902014,-0.8114149017085811,1.7079682621668444,-0.48800476615986393,13.042418,-3.5349653,3.443596,-0.21826464,13.716285,-10.65176,1.9557476,0.31738338,-0.1612466,0.40845147,0.8404967,-8.484608,0.96167994,-0.42526272,-1.0853981,3.877122,-0.45506078,0
0.49000000000000027,13.333922217902014,-0.8114149017085811,1.7079682621668444,-0.48800476615986393,13.042418,-3.5349653,3.443596,-0.21826464,13.631429,-10.641618,1.9514134,0.3152768,-0.17070074,0.407339,0.8399624,-8.487085,1.0670303,-0.441668,-0.8114149,1.7079682,-0.48800477,0
0.5000000000000002,13.333922217902014,-0.8114149017085811,1.7079682621668444,-0.48800476615986393,13.042418,-3.5349653,3.443596,-0.21826464,13.546535,-10.630419,1.9469122,0.31314018,-0.18013863,0.4061877,0.839348,-8.49198,1.1727661,-0.45868263,-0.8114149,1.7079682,-0.48800477,0
0.5100000000000002,13.333922217902014,-0.8114149017085811,1.7079682621668444,-0.48800476615986393,13.042418,-3.5349653,3.443596,-0.21826464,13.46158,-10.61816,1.9422375,0.3109737,-0.18955936,0.4049977,0.8386535,-8.499285,1.2788568,-0.4763448,-0.8114149,1.7079682,-0.48800477,0
0.5200000000000002,13.368096810727609,-0.5700917579028477,0.31692657137394614,-0.48347184120670555,12.817219,-3.6484864,3.0462961,-0.10124689,13.376541,-10.60484,1.9373828,0.3087776,-0.19896199,0.40376908,0.83787906,-8.508994,1.3852719,-0.49469253,-0.8114149,1.7079682,-0.48800477,0
0.5300000000000002,13.368096810727609,-0.5700917579028477,0.31692657137394614,-0.48347184120670555,12.817219,-3.6484864,3.0462961,-0.10124689,13.291393,-10.590455,1.932343,0.30959356,-0.20214428,0.40138572,0.8379614,-8.520541,1.4920666,-0.5132183,-0.5700918,0.31692657,-0.48347184,0
0.5400000000000003,13.368096810727609,-0.5700917579028477,0.31692657137394614,-0.48347184120670555,12.817219,-3.6484864,3.0462961,-0.10124689,13.206127,-10.575002,1.9271189,0.31040442,-0.20532323,0.3989958,0.8380299,-8.532916,1.5986423,-0.5315747,-0.5700918,0.31692657,-0.48347184,0
0.5500000000000003,13.368096810727609,-0.5700917579028477,0.31692657137394614,-0.48347184120670555,12.817219,-3.6484864,3.0462961,-0.10124689,13.120732,-10.558483,1.921712,0.31121016,-0.20849882,0.39659926,0.83808464,-8.546118,1.7049967,-0.54976857,-0.5700918,0.31692657,-0.48347184,0
0.5600000000000003,13.34042334640188,-0.3490986439505714,-0.9462218727318539,-0.4258091156455591,13.022209,-3.1043732,1.2930478,-0.23334748,13.035201,-10.540903,1.916124,0.31201077,-0.21167098,0.3941962,0.8381255,-8.560147,1.8111277,-0.56780654,-0.5700918,0.31692657,-0.48347184,0
0.5700000000000003,13.34042334640188,-0.3490986439505714,-0.9462218727318539,-0.4258091156455591,13.022209,-3.1043732,1.2930478,-0.23334748,12.949527,-10.522264,1.9103564,0.315286,-0.20908643,0.39080057,0.8391382,-8.574449,1.9166421,-0.58554006,-0.34909865,-0.9462219,-0.42580912,0
0.5800000000000003,13.34042334640188,-0.3490986439505714,-0.9462218727318539,-0.4258091156455591,13.022209,-3.1043732,1.2930478,-0.23334748,12.863713,-10.502572,1.9044164,0.31855175,-0.20649561,0.3873932,0.84012574,-8.58817,2.0214655,-0.60227466,-0.34909865,-0.9462219,-0.42580912,0
0.5900000000000003,13.34042334640188,-0.3490986439505714,-0.9462218727318539,-0.4258091156455591,13.022209,-3.1043732,1.2930478,-0.23334748,12.777765,-10.481836,1.8983142,0.32180795,-0.20389861,0.38397425,0.8410881,-8.601316,2.1255853,-0.6180171,-0.34909865,-0.9462219,-0.42580912,0
0.6000000000000003,13.491769358986494,-0.25330395381071935,-0.5464283476499249,-0.35707255341173555,12.822453,-2.7095013,1.6961188,-0.30836707,12.691689,-10.460063,1.8920596,0.32505456,-0.2012955,0.38054377,0.8420252,-8.613891,2.2289891,-0.6327741,-0.34909865,-0.9462219,-0.42580912,0
0.6100000000000003,13.491769358986494,-0.25330395381071935,-0.5464283476499249,-0.35707255341173555,12.822453,-2.7095013,1.6961188,-0.30836707,12.605488,-10.437253,1.8856664,0.32734063,-0.20008484,0.37822753,0.84247166,-8.626143,2.3329341,-0.6457388,-0.25330395,-0.5464283,-0.35707256,0
0.6200000000000003,13.491769358986494,-0.25330395381071935,-0.5464283476499249,-0.35707255341173555,12.822453,-2.7095013,1.6961188,-0.30836707,12.519166,-10.413405,1.8791466,0.32962272,-0.19887172,0.37590665,0.8429078,-8.638116,2.436414,-0.65809894,-0.25330395,-0.5464283,-0.35707256,0
0.6300000000000003,13.491769358986494,-0.25330395381071935,-0.5464283476499249,-0.35707255341173555,12.822453,-2.7095013,1.6961188,-0.30836707,12.432726,-10.388526,1.8725063,0.33190075,-0.19765615,0.37358117,0.84333354,-8.64981,2.539424,-0.66985714,-0.25330395,-0.5464283,-0.35707256,0
0.6400000000000003,13.491769358986494,-0.25330395381071935,-0.5464283476499249,-0.35707255341173555,12.1801,-2.7602003,1.8131415,-0.116761744,12.34617,-10.362618,1.8657514,0.33417472,-0.1964382,0.3712511,0.843749,-8.661227,2.6419597,-0.681016,-0.25330395,-0.5464283,-0.35707256,0
0.6500000000000004,13.491769358986494,-0.25330395381071935,-0.5464283476499249,-0.35707255341173555,12.1801,-2.7602003,1.8131415,-0.116761744,12.259502,-10.335689,1.858888,0.3364446,-0.19521779,0.3689165,0.8441541,-8.672373,2.744017,-0.69157803,-0.25330395,-0.5464283,-0.35707256,0
0.6600000000000004,13.491769358986494,-0.25330395381071935,-0.5464283476499249,-0.35707255341173555,12.1801,-2.7602003,1.8131415,-0.116761744,12.172724,-10.30774,1.851922,0.3387103,-0.193995,0.3665774,0.8445488,-8.683247,2.8455904,-0.7015457,-0.25330395,-0.5464283,-0.35707256,0
0.6700000000000004,13.491769358986494,-0.25330395381071935,-0.5464283476499249,-0.35707255341173555,12.1801,-2.7602003,1.8131415,-0.116761744,12.085838,-10.278779,1.8448591,0.3409719,-0.19276983,0.36423373,0.8449333,-8.693851,2.946676,-0.71092176,-0.25330395,-0.5464283,-0.35707256,0
0.6800000000000004,13.594666126829951,-0.22808273652805047,-0.7435404021266303,-0.29754109618696906,12.6737995,-1.7927438,0.73601526,-0.15718323,11.998848,-10.248809,1.8377054,0.3432293,-0.19154231,0.36188564,0.8453073,-8.70419,3.0472693,-0.71970874,-0.25330395,-0.5464283,-0.35707256,0
0.6900000000000004,13.594666126829951,-0.22808273652805047,-0.7435404021266303,-0.29754109618696906,12.6737995,-1.7927438,0.73601526,-0.15718323,11.911755,-10.217831,1.8304703,0.34561083,-0.18932787,0.3593575,0.8459141,-8.714263,3.148091,-0.7271727,-0.22808273,-0.7435404,-0.29754108,0
0.7000000000000004,13.594666126829951,-0.22808273652805047,-0.7435404021266303,-0.29754109618696906,12.6737995,-1.7927438,0.73601526,-0.15718323,11.824564,-10.185849,1.8231643,0.34798637,-0.18711013,0.35682318,0.8465063,-8.723863,3.2483044,-0.7339132,-0.22808273,-0.7435404,-0.29754108,0
0.7100000000000004,13.594666126829951,-0.22808273652805047,-0.7435404021266303,-0.29754109618696906,12.6737995,-1.7927438,0.73601526,-0.15718323,11.73728,-10.152867,1.8157946,0.3503559,-0.18488914,0.35428265,0.8470838,-8.73299,3.347902,-0.739935,-0.22808273,-0.7435404,-0.29754108,0
0.7200000000000004,13.73903072803486,-0.1597052699614567,-0.5981450489194934,-0.23016069136936662,12.620726,-1.5337361,0.7965954,0.019982044,11.649906,-10.118893,1.8083681,0.35271934,-0.18266495,0.35173598,0.84764665,-8.741649,3.446877,-0.74524266,-0.22808273,-0.7435404,-0.29754108,0
0.7300000000000004,13.73903072803486,-0.1597052699614567,-0.5981450489194934,-0.23016069136936662,12.620726,-1.5337361,0.7965954,0.019982044,11.5624485,-10.083926,1.8008969,0.35459897,-0.18081531,0.34979215,0.8480633,-8.749953,3.5463197,-0.7489062,-0.15970527,-0.59814507,-0.2301607,0
0.7400000000000004,13.73903072803486,-0.1597052699614567,-0.5981450489194934,-0.23016069136936662,12.620726,-1.5337361,0.7965954,0.019982044,11.474909,-10.047968,1.793392,0.35647473,-0.1789637,0.3478445,0.8484707,-8.757855,3.6452622,-0.7520114,-0.15970527,-0.59814507,-0.2301607,0
0.7500000000000004,13.73903072803486,-0.1597052699614567,-0.5981450489194934,-0.23016069136936662,12.620726,-1.5337361,0.7965954,0.019982044,11.387292,-10.011023,1.7858586,0.3583466,-0.17711014,0.34589306,0.8488688,-8.765358,3.7436998,-0.75456136,-0.15970527,-0.59814507,-0.2301607,0
0.7600000000000005,13.991738588336894,-0.203515396687642,-0.4400562909959779,-0.17684857817299277,13.306014,-1.2030473,0.55084306,-0.058613833,11.2996025,-9.973096,1.7783027,0.3602146,-0.17525464,0.34393778,0.84925765,-8.772461,3.8416278,-0.7565591,-0.15970527,-0.59814507,-0.2301607,1
0.7700000000000005,13.991738588336894,-0.203515396687642,-0.4400562909959779,-0.17684857817299277,13.306014,-1.2030473,0.55084306,-0.058613833,11.211843,-9.934208,1.770714,0.35845417,-0.17985739,0.33976254,0.85071963,-8.779725,3.93599,-0.76112974,-1.2030473,0.55084306,-0.058613833,1
0.7800000000000005,13.991738588336894,-0.203515396687642,-0.4400562909959779,-0.17684857817299277,13.306014,-1.2030473,0.55084306,-0.058613833,11.1240015,-9.894379,1.7630813,0.356678,-0.18445224,0.3355724,0.8521443,-8.788659,4.029892,-0.7653821,-1.2030473,0.55084306,-0.058613833,1
0.7900000000000005,13.991738588336894,-0.203515396687642,-0.4400562909959779,-0.17684857817299277,13.306014,-1.2030473,0.55084306,-0.058613833,11.036063,-9.853613,1.7554075,0.35488617,-0.18903898,0.33136752,0.8535316,-8.799261,4.123318,-0.76933336,-1.2030473,0.55084306,-0.058613833,1
0.8000000000000005,14.224395831904758,0.27483809089615213,-1.236495735580553,-0.12617277051991635,12.632435,-1.9440489,0.4840993,-0.014319237,10.94801,-9.811914,1.7476954,0.35307878,-0.19361745,0.32714814,0.85488147,-8.811529,4.2162523,-0.77300066,-1.2030473,0.55084306,-0.058613833,0
0.8100000000000005,14.224395831904758,0.27483809089615213,-1.236495735580553,-0.12617277051991635,12.632435,-1.9440489,0.4840993,-0.014319237,10.859825,-9.769258,1.7399814,0.3558996,-0.18804947,0.32601124,0.8553889,-8.825204,4.3150268,-0.76966196,0.2748381,-1.2364957,-0.12617277,0
0.8200000000000005,14.224395831904758,0.27483809089615213,-1.236495735580553,-0.12617277051991635,12.632435,-1.9440489,0.4840993,-0.014319237,10.771511,-9.7256155,1.7323049,0.35870597,-0.18247387,0.32486114,0.8558616,-8.837403,4.4131565,-0.7655131,0.2748381,-1.2364957,-0.12617277,0
0.8300000000000005,14.224395831904758,0.27483809089615213,-1.236495735580553,-0.12617277051991635,12.632435,-1.9440489,0.4840993,-0.014319237,10.683082,-9.680996,1.7246739,0.36149782,-0.17689088,0.3236979,0.8562997,-8.848127,4.510625,-0.76056933,0.2748381,-1.2364957,-0.12617277,0
0.8400000000000005,14.224395831904758,0.27483809089615213,-1.236495735580553,-0.12617277051991635,13.498283,-1.0621107,-0.15435287,0.006383363,10.594554,-9.635406,1.7170962,0.364275,-0.17130071,0.32252154,0.8567031,-8.857376,4.6074142,-0.75484586,0.2748381,-1.2364957,-0.12617277,0
0.8500000000000005,14.224395831904758,0.27483809089615213,-1.236495735580553,-0.12617277051991635,13.498283,-1.0621107,-0.15435287,0.006383363,10.50594,-9.588849,1.7095796,0.36703748,-0.16570361,0.3213321,0.8570718,-8.865149,4.703508,-0.7483582,0.2748381,-1.2364957,-0.12617277,0
0.8600000000000005,14.224395831904758,0.27483809089615213,-1.236495735580553,-0.12617277051991635,13.498283,-1.0621107,-0.15435287,0.006383363,10.417256,-9.541337,1.7021316,0.36978504,-0.16009979,0.32012963,0.8574058,-8.871446,4.79889,-0.7411219,0.2748381,-1.2364957,-0.12617277,0
0.8700000000000006,14.224395831904758,0.27483809089615213,-1.236495735580553,-0.12617277051991635,13.498283,-1.0621107,-0.15435287,0.006383363,10.328517,-9.492875,1.6947597,0.37251765,-0.15448949,0.31891423,0.857705,-8.8762665,4.893543,-0.7331527,0.2748381,-1.2364957,-0.12617277,0
0.8800000000000006,14.516699796315176,0.014901337210886894,-0.4696481886474443,-0.10158182777481088,14.452873,-1.0191649,0.29300314,-0.04433089,10.239737,-9.443469,1.687471,0.37523514,-0.14887294,0.31768584,0.8579695,-8.879612,4.9874496,-0.72446644,0.2748381,-1.2364957,-0.12617277,0
0.8900000000000006,14.516699796315176,0.014901337210886894,-0.4696481886474443,-0.10158182777481088,14.452873,-1.0191649,0.29300314,-0.04433089,10.1509285,-9.393118,1.6802834,0.37642694,-0.1469912,0.3167921,0.8581024,-8.881907,5.0826664,-0.71301335,0.014901337,-0.46964818,-0.10158183,0
0.9000000000000006,14.516699796315176,0.014901337210886894,-0.4696481886474443,-0.10158182777481088,14.452873,-1.0191649,0.29300314,-0.04433089,10.062099,-9.341817,1.673212,0.37761652,-0.1451086,0.3158965,0.8582303,-8.883729,5.1775184,-0.7012348,0.014901337,-0.46964818,-0.10158183,0
0.9100000000000006,14.516699796315176,0.014901337210886894,-0.4696481886474443,-0.10158182777481088,14.452873,-1.0191649,0.29300314,-0.04433089,9.973254,-9.289569,1.6662599,0.37880397,-0.14322515,0.3149991,0.8583532,-8.885074,5.2720017,-0.6891329,0.014901337,-0.46964818,-0.10158183,0
0.9200000000000006,14.428049090775271,-0.17048375990003145,-0.5077315933073331,-0.050969979995712934,14.153894,-1.0725994,0.0152230915,-0.068996966,9.884398,-9.236378,1.6594304,0.3799892,-0.14134088,0.31409988,0.85847116,-8.885945,5.3661146,-0.6767097,0.014901337,-0.46964818,-0.10158183,1
0.9300000000000006,14.428049090775271,-0.17048375990003145,-0.5077315933073331,-0.050969979995712934,14.153894,-1.0725994,0.0152230915,-0.068996966,9.795535,-9.18226,1.6527132,0.379498,-0.14355041,0.30947152,0.8600013,-8.886934,5.4573593,-0.66661346,-1.0725994,0.0152230915,-0.068996966,1
0.9400000000000006,14.428049090775271,-0.17048375990003145,-0.5077315933073331,-0.050969979995712934,14.153894,-1.0725994,0.0152230915,-0.068996966,9.706656,-9.127233,1.6461002,0.37899584,-0.14575578,0.30483425,0.8615067,-8.889063,5.5478277,-0.65588325,-1.0725994,0.0152230915,-0.068996966,1
0.9500000000000006,14.428049090775271,-0.17048375990003145,-0.5077315933073331,-0.050969979995712934,14.153894,-1.0725994,0.0152230915,-0.068996966,9.61775,-9.071305,1.6395977,0.3784827,-0.14795697,0.30018815,0.8629873,-8.892332,5.6375093,-0.6445321,-1.0725994,0.0152230915,-0.068996966,1
0.9600000000000006,14.72344105891953,-0.06391009795842927,-0.13589437550716937,-0.02430120324374155,14.568174,-0.5679983,0.53510433,-0.031786975,9.528805,-9.014485,1.6332117,0.3779586,-0.15015388,0.2955334,0.8644428,-8.896743,5.7263947,-0.6325732,-1.0725994,0.0152230915,-0.068996966,1
0.9700000000000006,14.72344105891953,-0.06391009795842927,-0.13589437550716937,-0.02430120324374155,14.568174,-0.5679983,0.53510433,-0.031786975,9.43981,-8.956767,1.6269637,0.37687594,-0.15358593,0.2940635,0.86481375,-8.902442,5.817363,-0.6170269,-0.5679983,0.53510433,-0.031786975,1
0.9800000000000006,14.72344105891953,-0.06391009795842927,-0.13589437550716937,-0.02430120324374155,14.568174,-0.5679983,0.53510433,-0.031786975,9.350752,-8.898138,1.620871,0.37578756,-0.15701564,0.29258913,0.86517143,-8.909277,5.9083195,-0.6015346,-0.5679983,0.53510433,-0.031786975,1
0.9900000000000007,14.72344105891953,-0.06391009795842927,-0.13589437550716937,-0.02430120324374155,14.568174,-0.5679983,0.53510433,-0.031786975,9.26162,-8.8386,1.6149327,0.37469345,-0.16044296,0.2911103,0.86551595,-8.917248,5.99926,-0.5861033,-0.5679983,0.53510433,-0.031786975,1
1.0000000000000007,14.438392717465808,0.19065115115934475,-1.3157553540733715,0.02949641774205651,14.222385,-0.35100958,0.28110355,-0.018019732,9.172401,-8.778153,1.6091486,0.37359363,-0.16386783,0.28962702,0.8658473,-8.9263525,6.0901785,-0.57074016,-0.5679983,0.53510433,-0.031786975,0
1.0100000000000007,14.438392717465808,0.19065115115934475,-1.3157553540733715,0.02949641774205651,14.222385,-0.35100958,0.28110355,-0.018019732,9.083092,-8.716802,1.6035136,0.37551925,-0.1577692,0.2880124,0.8666852,-8.935527,6.179934,-0.5561184,0.19065115,-1.3157554,0.029496418,0
1.0200000000000007,14.438392717465808,0.19065115115934475,-1.3157553540733715,0.02949641774205651,14.222385,-0.35100958,0.28110355,-0.018019732,8.993696,-8.654557,1.598029,0.3774283,-0.15166359,0.28638503,0.8674848,-8.943228,6.2687798,-0.5406685,0.19065115,-1.3157554,0.029496418,0
1.0300000000000007,14.438392717465808,0.19065115115934475,-1.3157553540733715,0.02949641774205651,14.222385,-0.35100958,0.28110355,-0.018019732,8.904231,-8.591429,1.592703,0.37932065,-0.14555126,0.284745,0.8682461,-8.949453,6.3567004,-0.52441067,0.19065115,-1.3157554,0.029496418,0
1.0400000000000007,14.438392717465808,0.19065115115934475,-1.3157553540733715,0.02949641774205651,14.155189,-0.06243596,0.08155792,0.0053872503,8.814711,-8.527428,1.5875435,0.38119623,-0.1394325,0.28309238,0.8689689,-8.954203,6.443681,-0.50736547,0.19065115,-1.3157554,0.029496418,0
1.0500000000000007,14.438392717465808,0.19065115115934475,-1.3157553540733715,0.02949641774205651,14.155189,-0.06243596,0.08155792,0.0053872503,8.72515,-8.46256,1.5825584,0.38305494,-0.13330758,0.28142726,0.86965334,-8.957474,6.5297055,-0.48955354,0.19065115,-1.3157554,0.029496418,0
1.0600000000000007,14.438392717465808,0.19065115115934475,-1.3157553540733715,0.02949641774205651,14.155189,-0.06243596,0.08155792,0.0053872503,8.635565,-8.396837,1.5777551,0.38489673,-0.12717676,0.27974963,0.87029934,-8.959267,6.6147594,-0.47099558,0.19065115,-1.3157554,0.029496418,0
1.0700000000000007,14.438392717465808,0.19065115115934475,-1.3157553540733715,0.02949641774205651,14.155189,-0.06243596,0.08155792,0.0053872503,8.54597,-8.330269,1.5731411,0.3867215,-0.12104032,0.27805972,0.8709069,-8.959581,6.6988277,-0.45171243,0.19065115,-1.3157554,0.029496418,0
1.0800000000000007,14.724915496759968,-0.09950884151028938,-0.2101419434399817,0.027548044402495687,14.065239,-0.32335684,-0.50691384,0.22606844,8.456378,-8.262864,1.5687233,0.38852918,-0.11489854,0.27635747,0.8714759,-8.958416,6.7818966,-0.43172514,0.19065115,-1.3157554,0.029496418,1
1.0900000000000007,14.724915496759968,-0.09950884151028938,-0.2101419434399817,0.027548044402495687,14.065239,-0.32335684,-0.50691384,0.22606844,8.366804,-8.194644,1.5644934,0.3880568,-0.11300493,0.27409214,0.8726486,-8.956326,6.861946,-0.41419324,-0.32335684,-0.50691384,0.22606844,1
1.1000000000000008,14.724915496759968,-0.09950884151028938,-0.2101419434399817,0.027548044402495687,14.065239,-0.32335684,-0.50691384,0.22606844,8.277252,-8.125628,1.5604411,0.38758042,-0.11111015,0.27182406,0.8738123,-8.954092,6.941308,-0.39619085,-0.32335684,-0.50691384,0.22606844,1
1.1100000000000008,14.724915496759968,-0.09950884151028938,-0.2101419434399817,0.027548044402495687,14.065239,-0.32335684,-0.50691384,0.22606844,8.187723,-8.055821,1.5565711,0.38710004,-0.109214224,0.26955312,0.874967,-8.951713,7.019979,-0.37772232,-0.32335684,-0.50691384,0.22606844,1
1.1200000000000008,14.411251332141122,-0.2874052431567473,-0.23510004794963643,0.05686872748290786,14.01554,-0.6370268,-0.3785139,0.2973675,8.098218,-7.985232,1.5528883,0.38661566,-0.107317165,0.26727945,0.87611264,-8.949185,7.097957,-0.35879213,-0.32335684,-0.50691384,0.22606844,1
1.1300000000000008,14.411251332141122,-0.2874052431567473,-0.23510004794963643,0.05686872748290786,14.01554,-0.6370268,-0.3785139,0.2973675,8.0087385,-7.913867,1.549395,0.38547394,-0.10649223,0.26391467,0.8777349,-8.946686,7.1749163,-0.33978307,-0.6370268,-0.3785139,0.2973675,1
1.1400000000000008,14.411251332141122,-0.2874052431567473,-0.23510004794963643,0.05686872748290786,14.01554,-0.6370268,-0.3785139,0.2973675,7.919283,-7.841737,1.5460945,0.38432613,-0.1056656,0.26054567,0.8793432,-8.94448,7.251044,-0.32022586,-0.6370268,-0.3785139,0.2973675,1
1.1500000000000008,14.411251332141122,-0.2874052431567473,-0.23510004794963643,0.05686872748290786,14.01554,-0.6370268,-0.3785139,0.2973675,7.829848,-7.768849,1.5429925,0.38317215,-0.104837276,0.25717252,0.8809375,-8.942567,7.3263345,-0.3001265,-0.6370268,-0.3785139,0.2973675,1
1.1600000000000008,14.72631040627634,-0.3247411285627723,0.5020499321480134,0.027710977304026878,15.109775,0.21156278,0.55199003,0.15671843,7.740431,-7.6952124,1.5400939,0.38201207,-0.10400728,0.25379527,0.88251776,-8.94094,7.400784,-0.27949095,-0.6370268,-0.3785139,0.2973675,1
1.1700000000000008,14.72631040627634,-0.3247411285627723,0.5020499321480134,0.027710977304026878,15.109775,0.21156278,0.55199003,0.15671843,7.651029,-7.6208053,1.5374497,0.3807283,-0.10583953,0.2558635,0.88225746,-8.939507,7.48074,-0.24938996,0.21156278,0.55199003,0.15671843,1
1.1800000000000008,14.72631040627634,-0.3247411285627723,0.5020499321480134,0.027710977304026878,15.109775,0.21156278,0.55199003,0.15671843,7.56164,-7.545595,1.5351045,0.37944096,-0.107670784,0.25792933,0.88198894,-8.938415,7.5613966,-0.21972525,0.21156278,0.55199003,0.15671843,1
1.1900000000000008,14.72631040627634,-0.3247411285627723,0.5020499321480134,0.027710977304026878,15.109775,0.21156278,0.55199003,0.15671843,7.47226,-7.4695745,1.5330538,0.3781501,-0.109501034,0.25999266,0.88171214,-8.937665,7.6427503,-0.19050099,0.21156278,0.55199003,0.15671843,1
1.2000000000000008,14.057637242223379,-0.613476318969639,-0.5682130705974953,0.04914675990608274,14.547346,-0.5877646,0.063661315,0.16318554,7.3828855,-7.3927374,1.5312929,0.3768557,-0.11133026,0.2620536,0.88142705,-8.937261,7.724798,-0.16172135,0.21156278,0.55199003,0.15671843,1
1.2100000000000009,14.057637242223379,-0.613476318969639,-0.5682130705974953,0.04914675990608274,14.547346,-0.5877646,0.063661315,0.16318554,7.293513,-7.315093,1.529795,0.37572417,-0.112504,0.25967282,0.88246506,-8.937334,7.804044,-0.1378268,-0.5877646,0.063661315,0.16318554,1
1.2200000000000009,14.057637242223379,-0.613476318969639,-0.5682130705974953,0.04914675990608274,14.547346,-0.5877646,0.063661315,0.16318554,7.2041364,-7.2366586,1.5285375,0.3745891,-0.113676675,0.2572896,0.8834948,-8.938088,7.8828473,-0.11364867,-0.5877646,0.063661315,0.16318554,1
1.2300000000000009,14.057637242223379,-0.613476318969639,-0.5682130705974953,0.04914675990608274,14.547346,-0.5877646,0.063661315,0.16318554,7.1147485,-7.1574383,1.527523,0.3734505,-0.11484828,0.2549039,0.88451624,-8.939523,7.961205,-0.089190625,-0.5877646,0.063661315,0.16318554,1
1.2400000000000009,14.057637242223379,-0.613476318969639,-0.5682130705974953,0.04914675990608274,14.569154,-0.9068986,-0.004817577,0.15056247,7.0253434,-7.0774364,1.5267545,0.37230837,-0.11601881,0.25251585,0.88552934,-8.941636,8.039114,-0.06445636,-0.5877646,0.063661315,0.16318554,1
1.2500000000000009,14.057637242223379,-0.613476318969639,-0.5682130705974953,0.04914675990608274,14.569154,-0.9068986,-0.004817577,0.15056247,6.935913,-6.9966574,1.5262358,0.3711178,-0.11749438,0.24857615,0.88694805,-8.944531,8.11656,-0.039187975,-0.9068986,-0.004817577,0.15056247,1
1.260000000000001,14.057637242223379,-0.613476318969639,-0.5682130705974953,0.04914675990608274,14.569154,-0.9068986,-0.004817577,0.15056247,6.84645,-6.9151077,1.5259722,0.3699194,-0.118967466,0.24463119,0.8883481,-8.94837,8.193208,-0.013448278,-0.9068986,-0.004817577,0.15056247,1
1.270000000000001,14.057637242223379,-0.613476318969639,-0.5682130705974953,0.04914675990608274,14.569154,-0.9068986,-0.004817577,0.15056247,6.756943,-6.8327956,1.5259683,0.36871317,-0.12043804,0.24068107,0.8897293,-8.953149,8.26905,0.012753327,-0.9068986,-0.004817577,0.15056247,1
1.280000000000001,14.054354316174921,-0.6600353578857235,-0.19039672887973472,0.03331128267070582,15.134301,-0.8702911,-0.18392704,0.14862508,6.667384,-6.749729,1.5262288,0.36749917,-0.12190607,0.23672585,0.89109176,-8.958867,8.344081,0.03940739,-0.9068986,-0.004817577,0.15056247,0
1.290000000000001,14.054354316174921,-0.6600353578857235,-0.19039672887973472,0.03331128267070582,15.134301,-0.8702911,-0.18392704,0.14862508,6.5777645,-6.66593,1.5267359,0.36717165,-0.12223043,0.23345414,0.8920451,-8.965125,8.415692,0.062076036,-0.6600354,-0.19039673,0.03331128,0
1.300000000000001,14.054354316174921,-0.6600353578857235,-0.19039672887973472,0.03331128267070582,15.134301,-0.8702911,-0.18392704,0.14862508,6.48808,-6.581418,1.5274717,0.36683977,-0.12255334,0.23017967,0.89298767,-8.971856,8.4865675,0.08515271,-0.6600354,-0.19039673,0.03331128,0
1.310000000000001,14.054354316174921,-0.6600353578857235,-0.19039672887973472,0.03331128267070582,15.134301,-0.8702911,-0.18392704,0.14862508,6.398326,-6.4962015,1.5284404,0.36650354,-0.122874804,0.22690248,0.89391977,-8.97906,8.556704,0.10863178,-0.6600354,-0.19039673,0.03331128,0
1.320000000000001,13.25088265077574,-0.5642571193904098,-1.4174171722029694,0.07542460885650797,14.701478,-0.9133508,-0.46358484,0.095704734,6.3084974,-6.410287,1.5296457,0.36616302,-0.123194814,0.22362262,0.8948414,-8.986737,8.626097,0.1325076,-0.6600354,-0.19039673,0.03331128,0
1.330000000000001,13.25088265077574,-0.5642571193904098,-1.4174171722029694,0.07542460885650797,14.701478,-0.9133508,-0.46358484,0.095704734,6.2185936,-6.3237033,1.5310575,0.36705214,-0.11779818,0.21854298,0.8964573,-8.9939575,8.690482,0.1499961,-0.56425714,-1.4174172,0.07542461,0
1.340000000000001,13.25088265077574,-0.5642571193904098,-1.4174171722029694,0.07542460885650797,14.701478,-0.9133508,-0.46358484,0.095704734,6.128621,-6.2364826,1.5326488,0.3679198,-0.11239467,0.21345058,0.898021,-9.000389,8.753256,0.1684143,-0.56425714,-1.4174172,0.07542461,0
1.350000000000001,13.25088265077574,-0.5642571193904098,-1.4174171722029694,0.07542460885650797,14.701478,-0.9133508,-0.46358484,0.095704734,6.038588,-6.148643,1.534429,0.368766,-0.1069846,0.20834576,0.8995322,-9.006027,8.814403,0.18773484,-0.56425714,-1.4174172,0.07542461,0
1.360000000000001,13.284082146115114,-0.5731500405335926,-0.025512708751878353,0.06757987392745175,15.251852,-0.91691005,-0.9763807,0.47443694,5.9485025,-6.0602,1.5364066,0.36959076,-0.1015683,0.20322877,0.90099096,-9.010872,8.873908,0.2079302,-0.56425714,-1.4174172,0.07542461,0
1.370000000000001,13.284082146115114,-0.5731500405335926,-0.025512708751878353,0.06757987392745175,15.251852,-0.91691005,-0.9763807,0.47443694,5.858371,-5.9711685,1.5385914,0.36901963,-0.10244343,0.20063308,0.9017074,-9.015422,8.932338,0.229044,-0.57315004,-0.025512708,0.06757987,0
1.380000000000001,13.284082146115114,-0.5731500405335926,-0.025512708751878353,0.06757987392745175,15.251852,-0.91691005,-0.9763807,0.47443694,5.768192,-5.8815556,1.5409884,0.36844543,-0.10331769,0.19803572,0.9024164,-9.020486,8.990253,0.2503875,-0.57315004,-0.025512708,0.06757987,0
1.390000000000001,13.284082146115114,-0.5731500405335926,-0.025512708751878353,0.06757987392745175,15.251852,-0.91691005,-0.9763807,0.47443694,5.6779594,-5.7913656,1.5436,0.36786816,-0.1041911,0.1954367,0.90311784,-9.026064,9.047653,0.27195686,-0.57315004,-0.025512708,0.06757987,0
1.400000000000001,12.517130786661578,-0.5745905013359901,-1.4147053282609954,0.1106839129832914,14.756849,-0.7438084,-0.7904599,0.42990655,5.5876694,-5.7006044,1.5464282,0.36728778,-0.10506365,0.19283606,0.9038117,-9.032155,9.104534,0.29374835,-0.57315004,-0.025512708,0.06757987,0
1.410000000000001,12.517130786661578,-0.5745905013359901,-1.4147053282609954,0.1106839129832914,14.756849,-0.7438084,-0.7904599,0.42990655,5.4973187,-5.6092944,1.5494416,0.36783904,-0.09961597,0.18769397,0.90528566,-9.037916,9.157234,0.30903757,-0.5745905,-1.4147053,0.11068391,0
1.420000000000001,12.517130786661578,-0.5745905013359901,-1.4147053282609954,0.1106839129832914,14.756849,-0.7438084,-0.7904599,0.42990655,5.4069138,-5.517465,1.5526116,0.36836872,-0.09416245,0.1825409,0.9067066,-9.042927,9.208349,0.3250857,-0.5745905,-1.4147053,0.11068391,0
1.430000000000001,12.517130786661578,-0.5745905013359901,-1.4147053282609954,0.1106839129832914,14.756849,-0.7438084,-0.7904599,0.42990655,5.3164625,-5.4251328,1.5559459,0.3688768,-0.08870341,0.17737712,0.9080743,-9.047184,9.257866,0.3418659,-0.5745905,-1.4147053,0.11068391,0
1.440000000000001,12.517130786661578,-0.5745905013359901,-1.4147053282609954,0.1106839129832914,14.610855,-0.7707423,-0.96752036,0.4998724,5.225972,-5.332313,1.5594515,0.3693633,-0.08323918,0.17220294,0.9093889,-9.050685,9.305777,0.35935116,-0.5745905,-1.4147053,0.11068391,0
1.450000000000001,12.517130786661578,-0.5745905013359901,-1.4147053282609954,0.1106839129832914,14.610855,-0.7707423,-0.96752036,0.4998724,5.1354513,-5.2390223,1.5631353,0.36982813,-0.07777008,0.16701868,0.91065013,-9.053428,9.352069,0.37751415,-0.5745905,-1.4147053,0.11068391,0
1.460000000000001,12.517130786661578,-0.5745905013359901,-1.4147053282609954,0.1106839129832914,14.610855,-0.7707423,-0.96752036,0.4998724,5.0449066,-5.145277,1.5670041,0.3702713,-0.0722964,0.16182463,0.91185796,-9.055408,9.396733,0.39632756,-0.5745905,-1.4147053,0.11068391,0
1.470000000000001,12.517130786661578,-0.5745905013359901,-1.4147053282609954,0.1106839129832914,14.610855,-0.7707423,-0.96752036,0.4998724,4.954346,-5.051093,1.5710641,0.37069276,-0.066818506,0.15662111,0.9130124,-9.056624,9.43976,0.41576385,-0.5745905,-1.4147053,0.11068391,0
1.480000000000001,12.575375957356277,-0.525876731954224,1.0138493284728531,0.08863221700950702,13.782673,-0.9143511,-1.7823966,0.5524506,4.863777,-4.956487,1.5753213,0.37109253,-0.06133669,0.1514084,0.9141134,-9.057075,9.481141,0.43579537,-0.5745905,-1.4147053,0.11068391,0
1.490000000000001,12.575375957356277,-0.525876731954224,1.0138493284728531,0.08863221700950702,13.782673,-0.9143511,-1.7823966,0.5524506,4.7732053,-4.8614726,1.5797838,0.36975256,-0.066878155,0.1509107,0.91435003,-9.05756,9.521823,0.45668557,-0.52587676,1.0138494,0.08863222,0
1.500000000000001,12.575375957356277,-0.525876731954224,1.0138493284728531,0.08863221700950702,13.782673,-0.9143511,-1.7823966,0.5524506,4.682621,-4.7660494,1.5844545,0.36840045,-0.07241744,0.15040806,0.9145567,-9.059422,9.56289,0.47742924,-0.52587676,1.0138494,0.08863222,0
1.5100000000000011,12.575375957356277,-0.525876731954224,1.0138493284728531,0.08863221700950702,13.782673,-0.9143511,-1.7823966,0.5524506,4.592012,-4.6702137,1.589332,0.36703625,-0.07795435,0.14990048,0.91473335,-9.062658,9.604338,0.4980113,-0.52587676,1.0138494,0.08863222,0
1.5200000000000011,11.760947961793955,-0.48674038215247406,-0.3009123648681521,0.1148010473682872,14.0300865,-0.7239597,-1.880526,0.3630299,4.5013633,-4.5739617,1.5944144,0.36566,-0.083488695,0.14938799,0.91488,-9.06727,9.64616,0.51841664,-0.52587676,1.0138494,0.08863222,0
1.5300000000000011,11.760947961793955,-0.48674038215247406,-0.3009123648681521,0.1148010473682872,14.0300865,-0.7239597,-1.880526,0.3630299,4.410665,-4.4773045,1.5996618,0.36515486,-0.082916014,0.14665857,0.9155752,-9.072442,9.685255,0.5311172,-0.48674038,-0.30091235,0.11480105,0
1.5400000000000011,11.760947961793955,-0.48674038215247406,-0.3009123648681521,0.1148010473682872,14.0300865,-0.7239597,-1.880526,0.3630299,4.3199143,-4.380259,1.6050373,0.3646466,-0.08234262,0.1439279,0.91626257,-9.077756,9.723728,0.5440289,-0.48674038,-0.30091235,0.11480105,0
1.5500000000000012,11.760947961793955,-0.48674038215247406,-0.3009123648681521,0.1148010473682872,14.0300865,-0.7239597,-1.880526,0.3630299,4.22911,-4.282832,1.6105431,0.36413527,-0.08176852,0.14119601,0.9169421,-9.08321,9.761576,0.5571482,-0.48674038,-0.30091235,0.11480105,0
1.5600000000000012,11.555905994777174,-0.40147957689026564,0.11863740235835048,0.1079142297318619,12.653845,-0.91813135,-1.6153224,0.46818358,4.13825,-4.18503,1.6161811,0.36362082,-0.08119372,0.13846293,0.91761386,-9.088804,9.798798,0.57047164,-0.48674038,-0.30091235,0.11480105,0
1.5700000000000012,11.555905994777174,-0.40147957689026564,0.11863740235835048,0.1079142297318619,12.653845,-0.91813135,-1.6153224,0.46818358,4.0473332,-4.086861,1.6219435,0.36287975,-0.08239307,0.1368801,0.91803765,-9.094544,9.834898,0.581997,-0.40147957,0.118637405,0.10791423,0
1.5800000000000012,11.555905994777174,-0.40147957689026564,0.11863740235835048,0.1079142297318619,12.653845,-0.91813135,-1.6153224,0.46818358,3.9563572,-3.9883323,1.6278213,0.36213696,-0.083592035,0.13529663,0.91845715,-9.100703,9.870762,0.593577,-0.40147957,0.118637405,0.10791423,0
1.5900000000000012,11.555905994777174,-0.40147957689026564,0.11863740235835048,0.1079142297318619,12.653845,-0.91813135,-1.6153224,0.46818358,3.8653178,-3.8894465,1.6338154,0.3613925,-0.0847906,0.13371252,0.91887236,-9.10728,9.906389,0.60521,-0.40147957,0.118637405,0.10791423,0
1.6000000000000012,10.884393968147128,-0.374453945801749,-2.0178638775773465,0.10454517457161432,12.969256,-0.6397848,-2.526577,0.29666108,3.7742102,-3.7902055,1.639926,0.3606463,-0.085988775,0.13212779,0.9192833,-9.114275,9.941778,0.61689425,-0.40147957,0.118637405,0.10791423,0
1.6100000000000012,10.884393968147128,-0.374453945801749,-2.0178638775773465,0.10454517457161432,12.969256,-0.6397848,-2.526577,0.29666108,3.6830347,-3.6906235,1.6461223,0.36131877,-0.077315606,0.12680604,0.9205382,-9.120617,9.974334,0.62245977,-0.37445393,-2.017864,0.104545176,0
1.6200000000000012,10.884393968147128,-0.374453945801749,-2.0178638775773465,0.10454517457161432,12.969256,-0.6397848,-2.526577,0.29666108,3.5918024,-3.5907245,1.6523772,0.36195308,-0.06863428,0.1214709,0.92169595,-9.125642,10.005184,0.6286171,-0.37445393,-2.017864,0.104545176,0
1.6300000000000012,10.884393968147128,-0.374453945801749,-2.0178638775773465,0.10454517457161432,12.969256,-0.6397848,-2.526577,0.29666108,3.5005264,-3.4905255,1.6586967,0.36254925,-0.059945695,0.11612293,0.92275643,-9.129346,10.034319,0.635322,-0.37445393,-2.017864,0.104545176,0
1.6400000000000012,10.884393968147128,-0.374453945801749,-2.0178638775773465,0.10454517457161432,12.467412,-0.7110472,-3.1577306,0.41626352,3.40922,-3.390044,1.6650854,0.36310712,-0.05125079,0.11076271,0.9237194,-9.131724,10.061727,0.6425299,-0.37445393,-2.017864,0.104545176,0
1.6500000000000012,10.884393968147128,-0.374453945801749,-2.0178638775773465,0.10454517457161432,12.467412,-0.7110472,-3.1577306,0.41626352,3.3178966,-3.289297,1.6715486,0.36362663,-0.04255047,0.105390795,0.9245849,-9.132775,10.087398,0.65019625,-0.37445393,-2.017864,0.104545176,0
1.6600000000000013,10.884393968147128,-0.374453945801749,-2.0178638775773465,0.10454517457161432,12.467412,-0.7110472,-3.1577306,0.41626352,3.2265692,-3.1883023,1.6780906,0.36410776,-0.03384566,0.10000775,0.9253528,-9.132499,10.111321,0.65827626,-0.37445393,-2.017864,0.104545176,0
1.6700000000000013,10.884393968147128,-0.374453945801749,-2.0178638775773465,0.10454517457161432,12.467412,-0.7110472,-3.1577306,0.41626352,3.1352513,-3.087077,1.6847154,0.36455047,-0.02513728,0.09461415,0.926023,-9.13089,10.13349,0.66672474,-0.37445393,-2.017864,0.104545176,0
1.6800000000000013,10.716809800842583,-0.2912585289318218,-0.05862925762207317,0.1326629849846236,12.586146,-0.47995302,-4.2057853,0.6757609,3.043956,-2.9856386,1.6914264,0.36495468,-0.016426243,0.089210555,0.92659545,-9.127949,10.153894,0.6754966,-0.37445393,-2.017864,0.104545176,0
1.6900000000000013,10.716809800842583,-0.2912585289318218,-0.05862925762207317,0.1326629849846236,12.586146,-0.47995302,-4.2057853,0.6757609,2.952695,-2.884005,1.698218,0.36434183,-0.016626898,0.08776496,0.926971,-9.124295,10.172796,0.6828212,-0.29125854,-0.05862926,0.13266298,0
1.7000000000000013,10.716809800842583,-0.2912585289318218,-0.05862925762207317,0.1326629849846236,12.586146,-0.47995302,-4.2057853,0.6757609,2.8614695,-2.7821836,1.705083,0.36372802,-0.01682751,0.08631913,0.92734414,-9.120807,10.191432,0.6901989,-0.29125854,-0.05862926,0.13266298,0
1.7100000000000013,10.716809800842583,-0.2912585289318218,-0.05862925762207317,0.1326629849846236,12.586146,-0.47995302,-4.2057853,0.6757609,2.7702782,-2.6801772,1.7120222,0.36311325,-0.01702808,0.084873065,0.9277148,-9.117484,10.209802,0.6976287,-0.29125854,-0.05862926,0.13266298,0
1.7200000000000013,10.35175930963839,-0.2326423271360784,-0.4478972059594072,0.13149508989441622,11.754198,-1.3387189,-4.9719353,0.8432737,2.679119,-2.5779886,1.7190359,0.36249754,-0.017228602,0.08342678,0.92808306,-9.1143265,10.227902,0.7051098,-0.29125854,-0.05862926,0.13266298,0
1.7300000000000013,10.35175930963839,-0.2326423271360784,-0.4478972059594072,0.13149508989441622,11.754198,-1.3387189,-4.9719353,0.8432737,2.5879908,-2.4756236,1.7261066,0.36205292,-0.015516927,0.08154646,0.92845386,-9.111308,10.245044,0.7090536,-0.23264232,-0.4478972,0.13149509,0
1.7400000000000013,10.35175930963839,-0.2326423271360784,-0.4478972059594072,0.13149508989441622,11.754198,-1.3387189,-4.9719353,0.8432737,2.4968934,-2.3730896,1.7332171,0.36160582,-0.013805145,0.07966559,0.92881835,-9.108111,10.2617,0.7130722,-0.23264232,-0.4478972,0.13149509,0
1.7500000000000013,10.35175930963839,-0.2326423271360784,-0.4478972059594072,0.13149508989441622,11.754198,-1.3387189,-4.9719353,0.8432737,2.405829,-2.2703915,1.7403682,0.36115626,-0.01209327,0.077784166,0.9291765,-9.104734,10.27787,0.71716297,-0.23264232,-0.4478972,0.13149509,0
1.7600000000000013,10.267305565861134,-0.1796296451044113,1.309990941232025,0.1644313869957828,11.561056,-0.89167786,-3.3526828,0.6978045,2.3147993,-2.1675339,1.7475606,0.36070427,-0.010381312,0.07590222,0.92952836,-9.101177,10.293556,0.7213233,-0.23264232,-0.4478972,0.13149509,0
1.7700000000000014,10.267305565861134,-0.1796296451044113,1.309990941232025,0.1644313869957828,11.561056,-0.89167786,-3.3526828,0.6978045,2.2238045,-2.064521,1.7547907,0.35942557,-0.016730966,0.077436805,0.92980444,-9.097957,10.3091,0.72466123,-0.17962964,1.3099909,0.1644314,0
1.7800000000000014,10.267305565861134,-0.1796296451044113,1.309990941232025,0.1644313869957828,11.561056,-0.89167786,-3.3526828,0.6978045,2.1328363,-1.9613491,1.7620536,0.35813093,-0.023079878,0.078967944,0.9300393,-9.095857,10.325405,0.7279089,-0.17962964,1.3099909,0.1644314,0
1.7900000000000014,10.267305565861134,-0.1796296451044113,1.309990941232025,0.1644313869957828,11.561056,-0.89167786,-3.3526828,0.6978045,2.0418837,-1.8580104,1.7693485,0.35682037,-0.029427765,0.08049558,0.9302328,-9.094878,10.342466,0.731049,-0.17962964,1.3099909,0.1644314,0
1.8000000000000014,10.090175014508755,-0.16318109610149023,-0.21388587035926448,0.17217668127513763,12.248362,-0.58069944,-4.583107,0.49783105,1.9509351,-1.7544973,1.7766742,0.355494,-0.035774346,0.08201965,0.9303851,-9.095022,10.360279,0.7340641,-0.17962964,1.3099909,0.1644314,0
1.8100000000000014,10.090175014508755,-0.16318109610149023,-0.21388587035926448,0.17217668127513763,12.248362,-0.58069944,-4.583107,0.49783105,1.8599808,-1.6508049,1.7840208,0.35475108,-0.034998763,0.08091106,0.9307952,-9.095836,10.378146,0.7352679,-0.1631811,-0.21388587,0.17217667,0
1.8200000000000014,10.090175014508755,-0.16318109610149023,-0.21388587035926448,0.17217668127513763,12.248362,-0.58069944,-4.583107,0.49783105,1.7690184,-1.5469351,1.7913797,0.35400733,-0.03422309,0.07980227,0.9312029,-9.096599,10.395752,0.7365189,-0.1631811,-0.21388587,0.17217667,0
1.8300000000000014,10.090175014508755,-0.16318109610149023,-0.21388587035926448,0.17217668127513763,12.248362,-0.58069944,-4.583107,0.49783105,1.6780488,-1.4428906,1.7987514,0.35326263,-0.03344733,0.07869327,0.9316082,-9.097309,10.413095,0.7378165,-0.1631811,-0.21388587,0.17217667,0
1.8400000000000014,10.090175014508755,-0.16318109610149023,-0.21388587035926448,0.17217668127513763,12.020883,-0.6680317,-3.203496,1.102649,1.5870724,-1.3386742,1.8061364,0.35251704,-0.03267148,0.07758407,0.9320111,-9.097967,10.430176,0.7391599,-0.1631811,-0.21388587,0.17217667,0
1.8500000000000014,10.090175014508755,-0.16318109610149023,-0.21388587035926448,0.17217668127513763,12.020883,-0.6680317,-3.203496,1.102649,1.4960897,-1.234288,1.8135349,0.35177055,-0.031895548,0.076474674,0.9324117,-9.098574,10.446994,0.7405483,-0.1631811,-0.21388587,0.17217667,0
1.8600000000000014,10.090175014508755,-0.16318109610149023,-0.21388587035926448,0.17217668127513763,12.020883,-0.6680317,-3.203496,1.102649,1.4051013,-1.1297351,1.8209475,0.35102317,-0.031119535,0.07536508,0.9328098,-9.099127,10.46355,0.74198097,-0.1631811,-0.21388587,0.17217667,0
1.8700000000000014,10.090175014508755,-0.16318109610149023,-0.21388587035926448,0.17217668127513763,12.020883,-0.6680317,-3.203496,1.102649,1.3141074,-1.025018,1.8283747,0.3502749,-0.030343443,0.074255295,0.9332056,-9.099627,10.479843,0.7434573,-0.1631811,-0.21388587,0.17217667,0
1.8800000000000014,10.133818448441358,-0.20260006553608853,1.1351377722616713,0.22256502077526752,12.863743,-0.90486133,-3.605162,1.4384147,1.2231089,-0.9201392,1.8358167,0.34952572,-0.029567273,0.07314532,0.933599,-9.100071,10.495873,0.7449765,-0.1631811,-0.21388587,0.17217667,0
1.8900000000000015,10.133818448441358,-0.20260006553608853,1.1351377722616713,0.22256502077526752,12.863743,-0.90486133,-3.605162,1.4384147,1.1321051,-0.81510013,1.8432763,0.34803566,-0.03513822,0.074215025,0.9338781,-9.10086,10.51203,0.7469148,-0.20260006,1.1351378,0.22256503,0
1.9000000000000015,10.133818448441358,-0.20260006553608853,1.1351377722616713,0.22256502077526752,12.863743,-0.90486133,-3.605162,1.4384147,1.0410882,-0.70989656,1.8507547,0.3465336,-0.040707953,0.07528217,0.93412507,-9.102652,10.528775,0.74874324,-0.20260006,1.1351378,0.22256503,0
1.9100000000000015,10.133818448441358,-0.20260006553608853,1.1351377722616713,0.22256502077526752,12.863743,-0.90486133,-3.605162,1.4384147,0.95004845,-0.6045226,1.8582509,0.34501958,-0.046276283,0.07634671,0.9343398,-9.105448,10.546105,0.7504488,-0.20260006,1.1351378,0.22256503,0
1.9200000000000015,9.995038761730854,-0.22396623383231107,0.2871315914850524,0.26541408900903696,12.816392,-1.2193936,-4.721048,1.751747,0.85897577,-0.49897242,1.8657633,0.34349367,-0.05184302,0.07740862,0.93452233,-9.10925,10.564015,0.7520187,-0.20260006,1.1351378,0.22256503,0
1.9300000000000015,9.995038761730854,-0.22396623383231107,0.2871315914850524,0.26541408900903696,12.816392,-1.2193936,-4.721048,1.751747,0.767861,-0.39324212,1.873284,0.34208345,-0.053466473,0.076923855,0.9349881,-9.113755,10.582042,0.75212693,-0.22396624,0.28713158,0.2654141,0
1.9400000000000015,9.995038761730854,-0.22396623383231107,0.2871315914850524,0.26541408900903696,12.816392,-1.2193936,-4.721048,1.751747,0.67669934,-0.28733152,1.8808056,0.34067148,-0.055089653,0.0764387,0.93544906,-9.118624,10.60008,0.75221545,-0.22396624,0.28713158,0.2654141,0
1.9500000000000015,9.995038761730854,-0.22396623383231107,0.2871315914850524,0.26541408900903696,12.816392,-1.2193936,-4.721048,1.751747,0.58548725,-0.18124048,1.8883281,0.33925778,-0.056712553,0.075953156,0.9359053,-9.123857,10.61813,0.7522832,-0.22396624,0.28713158,0.2654141,0
1.9600000000000015,9.929806977894376,-0.37407756445896534,0.22803195660658643,0.3346684335371615,10.93054,-1.2707319,-1.7714187,0.86103743,0.49422097,-0.07496889,1.8958511,0.33784235,-0.058335163,0.07546723,0.9363567,-9.129453,10.636189,0.75232905,-0.22396624,0.28713158,0.2654141,0
1.9700000000000015,9.929806977894376,-0.37407756445896534,0.22803195660658643,0.3346684335371615,10.93054,-1.2707319,-1.7714187,0.86103743,0.40289706,0.031482592,1.9033715,0.33607906,-0.05990815,0.0741984,0.9369931,-9.13539,10.654084,0.7517206,-0.37407756,0.22803196,0.33466843,0
1.9800000000000015,9.929806977894376,-0.37407756445896534,0.22803195660658643,0.3346684335371615,10.93054,-1.2707319,-1.7714187,0.86103743,0.31151175,0.1381123,1.9108857,0.3343132,-0.061480682,0.07292901,0.9376224,-9.14174,10.671836,0.7511124,-0.37407756,0.22803196,0.33466843,0
1.9900000000000015,9.929806977894376,-0.37407756445896534,0.22803195660658643,0.3346684335371615,10.93054,-1.2707319,-1.7714187,0.86103743,0.22006086,0.24491881,1.9183937,0.33254483,-0.06305274,0.071659066,0.9382446,-9.1485,10.689443,0.7505027,-0.37407756,0.22803196,0.33466843,0
2.0000000000000013,,,,,12.430952,-1.3320514,-3.969778,1.3425595,0.12854032,0.35190067,1.9258957,0.33077395,-0.06462434,0.07038858,0.9388596,-9.15567,10.706904,0.7498901,-0.37407756,0.22803196,0.33466843,0
2.010000000000001,,,,,12.430952,-1.3320514,-3.969778,1.3425595,0.03694693,0.45905492,1.9333857,0.3288575,-0.06358412,0.0677804,0.9397953,-9.163012,10.723854,0.7481374,-0.4588702,-0.3529839,0.4026892,0
2.020000000000001,,,,,12.430952,-1.3320514,-3.969778,1.3425595,-0.054719955,0.56637585,1.9408587,0.326937,-0.06254311,0.06517137,0.94071937,-9.170367,10.740245,0.74648046,-0.4588702,-0.3529839,0.4026892,0
2.0300000000000007,,,,,12.430952,-1.3320514,-3.969778,1.3425595,-0.14646044,0.6738579,1.9483156,0.32501242,-0.061501317,0.06256154,0.9416317,-9.177734,10.756076,0.7449162,-0.4588702,-0.3529839,0.4026892,0
2.0400000000000005,,,,,12.430952,-1.3320514,-3.969778,1.3425595,-0.23827466,0.78149545,1.9557573,0.3230838,-0.06045876,0.059950933,0.9425323,-9.18511,10.771346,0.7434416,-0.4588702,-0.3529839,0.4026892,0
2.0500000000000003,,,,,12.388962,-1.3780736,-3.4402618,1.5117732,-0.33016267,0.8892829,1.9631847,0.32115114,-0.059415456,0.05733958,0.9434212,-9.1924925,10.786055,0.7420535,-0.4588702,-0.3529839,0.4026892,1
2.06,,,,,12.388962,-1.3780736,-3.4402618,1.5117732,-0.42213172,0.9972298,1.9707265,0.314533,-0.044955872,0.045753244,0.9470767,-9.200946,10.802727,0.7664182,-1.3780736,-3.4402618,1.5117732,1
2.07,,,,,12.388962,-1.3780736,-3.4402618,1.5117732,-0.51417345,1.105324,1.9785151,0.30778888,-0.030478282,0.03414859,0.9503529,-9.20703,10.815514,0.7913893,-1.3780736,-3.4402618,1.5117732,1
2.0799999999999996,,,,,12.388962,-1.3780736,-3.4402618,1.5117732,-0.606264,1.2135268,1.9865559,0.3009215,-0.015988484,0.022530254,0.95324844,-9.210679,10.824432,0.81679684,-1.3780736,-3.4402618,1.5117732,1
2.0899999999999994,,,,,12.762255,-1.2246573,-2.3549113,1.3962187,-0.69837856,1.3217996,1.9948522,0.29393363,-0.0014922852,0.010902896,0.9557622,-9.211829,10.82951,0.84247035,-1.3780736,-3.4402618,1.5117732,1
2.099999999999999,,,,,12.762255,-1.2246573,-2.3549113,1.3962187,-0.79049283,1.4301054,2.0034244,0.2873478,0.008037476,0.0015990918,0.95779103,-9.210768,10.831166,0.87197423,-1.2246573,-2.3549113,1.3962187,1
2.109999999999999,,,,,12.762255,-1.2246573,-2.3549113,1.3962187,-0.8825883,1.538413,2.0122917,0.28069738,0.01756543,-0.007705072,0.95960444,-9.208063,10.829861,0.90145797,-1.2246573,-2.3549113,1.3962187,1
2.1199999999999988,,,,,12.762255,-1.2246573,-2.3549113,1.3962187,-0.9746483,1.6466928,2.0214531,0.27398384,0.027089436,-0.017007504,0.9612021,-9.203675,10.825617,0.93083096,-1.2246573,-2.3549113,1.3962187,1
2.1299999999999986,,,,,14.58271,-1.1940219,-4.162241,1.63347,-1.0666559,1.7549155,2.0309074,0.2672087,0.03660735,-0.02630611,0.96258354,-9.197568,10.818462,0.96000284,-1.2246573,-2.3549113,1.3962187,1
2.1399999999999983,,,,,14.58271,-1.1940219,-4.162241,1.63347,-1.1585857,1.8630439,2.0407424,0.25894722,0.054818332,-0.03790468,0.96358925,-9.187726,10.806508,1.0068948,-1.1940219,-4.162241,1.63347,1
2.149999999999998,,,,,14.58271,-1.1940219,-4.162241,1.63347,-1.2503955,1.9710301,2.0510423,0.2505471,0.072999954,-0.049482957,0.964079,-9.173549,10.790037,1.0529827,-1.1940219,-4.162241,1.63347,1
2.159999999999998,,,,,14.58271,-1.1940219,-4.162241,1.63347,-1.3420416,2.0788295,2.0617983,0.24201284,0.091142505,-0.06103474,0.96405256,-9.154988,10.769151,1.0979971,-1.1940219,-4.162241,1.63347,1
2.1699999999999977,,,,,13.54241,-1.6897113,-2.4543831,1.8931971,-1.43348,2.1863987,2.0729978,0.23334898,0.10923624,-0.07255383,0.9635099,-9.132006,10.743962,1.1416707,-1.1940219,-4.162241,1.63347,1
