time-since-start [s],throttle_mpc,roll_mpc,pitch_mpc,yaw_mpc,throttle_nw,roll_nw,pitch_nw,yaw_nw,position_x [m],position_y [m],position_z [m],rotation_w [quaternion],rotation_x [quaternion],rotation_y [quaternion],rotation_z [quaternion],velocity_x [m/s],velocity_y [m/s],velocity_z [m/s],omega_x [rad/s],omega_y [rad/s],omega_z [rad/s],network_used
0.0,6.34284609892466,5.999999080209747,-5.999999872578259,-3.121371708918058,12.571036,0.43047646,-4.495538,-0.9142665,18.404099,-10.117969,2.1919658,0.009981953,-0.42930624,0.1681649,0.8873089,-10.513048,-2.8614645,-0.29049966,1.7673715,-0.15450773,-0.050796162,0
0.01,6.34284609892466,5.999999080209747,-5.999999872578259,-3.121371708918058,11.699575,0.6671577,-6.2004256,-0.7456221,18.298729,-10.146482,2.1887546,0.04173317,-0.40458173,0.18760611,0.8940782,-10.559983,-2.840492,-0.35147583,5.999999,-6.0,-3.1213717,0
0.02,6.34284609892466,5.999999080209747,-5.999999872578259,-3.121371708918058,11.699575,0.6671577,-6.2004256,-0.7456221,18.19291,-10.1747675,2.1849422,0.07339911,-0.37903056,0.20666401,0.8990208,-10.6035595,-2.81567,-0.41076958,5.999999,-6.0,-3.1213717,0
0.03,6.34284609892466,5.999999080209747,-5.999999872578259,-3.121371708918058,11.699575,0.6671577,-6.2004256,-0.7456221,18.086672,-10.202785,2.1805446,0.10491509,-0.35270494,0.22529963,0.90212643,-10.643411,-2.7872798,-0.46853724,5.999999,-6.0,-3.1213717,0
0.04,6.34284609892466,5.999999080209747,-5.999999872578259,-3.121371708918058,12.047107,-1.4915558,-4.0746226,-0.03634351,17.980055,-10.230501,2.1755762,0.13621671,-0.32565868,0.2434749,0.90338886,-10.679205,-2.755631,-0.5249475,5.999999,-6.0,-3.1213717,0
0.05,6.34284609892466,5.999999080209747,-5.999999872578259,-3.121371708918058,12.047107,-1.4915558,-4.0746226,-0.03634351,17.8731,-10.257888,2.1700497,0.16724,-0.29794702,0.26115268,0.90280545,-10.71064,-2.72106,-0.58018017,5.999999,-6.0,-3.1213717,0
0.060000000000000005,6.34284609892466,5.999999080209747,-5.999999872578259,-3.121371708918058,12.047107,-1.4915558,-4.0746226,-0.03634351,17.765856,-10.284914,2.163976,0.19792159,-0.2696266,0.2782969,0.9003774,-10.73745,-2.6839273,-0.6344247,5.999999,-6.0,-3.1213717,0
0.07,6.34284609892466,5.999999080209747,-5.999999872578259,-3.121371708918058,12.047107,-1.4915558,-4.0746226,-0.03634351,17.65837,-10.311559,2.157364,0.22819877,-0.24075525,0.2948725,0.89610964,-10.759406,-2.6446142,-0.68787843,5.999999,-6.0,-3.1213717,0
0.08,13.462734225612133,5.99999785855199,-5.999999814258261,-1.2563152355916034,13.877252,-2.0065877,-0.831395,0.40791935,17.550686,-10.337801,2.1502206,0.2580097,-0.211392,0.3108456,0.890011,-10.776323,-2.60352,-0.7407455,5.999999,-6.0,-3.1213717,0
0.09,13.462734225612133,5.99999785855199,-5.999999814258261,-1.2563152355916034,13.877252,-2.0065877,-0.831395,0.40791935,17.442787,-10.363388,2.1428063,0.2790237,-0.17871955,0.3281865,0.8845897,-10.80122,-2.513378,-0.74205214,5.999998,-6.0,-1.2563152,0
0.09999999999999999,13.462734225612133,5.99999785855199,-5.999999814258261,-1.2563152355916034,13.877252,-2.0065877,-0.831395,0.40791935,17.334698,-10.388062,2.1353805,0.29952455,-0.14571841,0.34492382,0.8775415,-10.814902,-2.4211023,-0.7431351,5.999998,-6.0,-1.2563152,0
0.10999999999999999,13.462734225612133,5.99999785855199,-5.999999814258261,-1.2563152355916034,13.877252,-2.0065877,-0.831395,0.40791935,17.226528,-10.411805,2.1279426,0.31947452,-0.11244924,0.36102676,0.86887926,-10.817257,-2.3274589,-0.74459296,5.999998,-6.0,-1.2563152,0
0.11999999999999998,13.462734225612133,5.99999785855199,-5.999999814258261,-1.2563152355916034,13.877252,-2.0065877,-0.831395,0.40791935,17.11839,-10.434608,2.1204855,0.3388369,-0.07897328,0.3764657,0.858619,-10.808251,-2.2332237,-0.74702173,5.999998,-6.0,-1.2563152,0
0.12999999999999998,18.40203881096083,3.3393909643549065,-5.999999362130276,0.2035474587944531,12.854773,-3.2168396,0.4452237,0.22287911,17.010399,-10.45647,2.1129968,0.35757613,-0.045352064,0.39121228,0.8467796,-10.787937,-2.1391776,-0.75101024,5.999998,-6.0,-1.2563152,0
0.13999999999999999,18.40203881096083,3.3393909643549065,-5.999999362130276,0.2035474587944531,12.854773,-3.2168396,0.4452237,0.22287911,16.90272,-10.477225,2.1056306,0.3689947,-0.013559587,0.39443833,0.8414735,-10.746064,-2.0127022,-0.7222175,3.339391,-5.9999995,0.20354746,0
0.15,18.40203881096083,3.3393909643549065,-5.999999362130276,0.2035474587944531,12.854773,-3.2168396,0.4452237,0.22287911,16.795519,-10.4967375,2.0985506,0.379978,0.018248884,0.3971991,0.83517474,-10.692256,-1.8903333,-0.6938994,3.339391,-5.9999995,0.20354746,0
0.16,18.74224207618884,0.8689135160640271,-4.784479984964973,0.48293234344467884,13.75481,-4.1180625,0.80960166,-0.44124037,16.688913,-10.515048,2.0917487,0.39051303,0.050035823,0.39949128,0.8278907,-10.6267605,-1.7726303,-0.6666704,3.339391,-5.9999995,0.20354746,0
0.17,18.74224207618884,0.8689135160640271,-4.784479984964973,0.48293234344467884,13.75481,-4.1180625,0.80960166,-0.44124037,16.583023,-10.532198,2.0852258,0.39773607,0.07248503,0.39350662,0.82565415,-10.550081,-1.658087,-0.63780266,0.86891353,-4.78448,0.48293233,0
0.18000000000000002,18.74224207618884,0.8689135160640271,-4.784479984964973,0.48293234344467884,13.75481,-4.1180625,0.80960166,-0.44124037,16.477934,-10.54823,2.0789952,0.40472168,0.09489097,0.38728705,0.82292473,-10.46637,-1.5493045,-0.6083119,0.86891353,-4.78448,0.48293233,0
0.19000000000000003,18.74224207618884,0.8689135160640271,-4.784479984964973,0.48293234344467884,13.75481,-4.1180625,0.80960166,-0.44124037,16.373718,-10.563205,2.0730608,0.41146564,0.11724026,0.3808363,0.81970406,-10.375802,-1.4465182,-0.578532,0.86891353,-4.78448,0.48293233,0
0.20000000000000004,17.15376322218233,0.06662480893592013,-1.2830683096844313,0.17743345010398598,13.72247,-3.5810134,3.4490292,-0.41003972,16.270441,-10.577183,2.0674245,0.417964,0.13951957,0.3741582,0.815994,-10.278573,-1.3499491,-0.54879725,0.86891353,-4.78448,0.48293233,0
0.21000000000000005,17.15376322218233,0.06662480893592013,-1.2830683096844313,0.17743345010398598,13.72247,-3.5810134,3.4490292,-0.41003972,16.168121,-10.590261,2.0620303,0.4195852,0.14522265,0.37161702,0.8153279,-10.185335,-1.2658454,-0.5300298,0.066624805,-1.2830683,0.17743345,0
0.22000000000000006,17.15376322218233,0.06662480893592013,-1.2830683096844313,0.17743345010398598,13.72247,-3.5810134,3.4490292,-0.41003972,16.066738,-10.602507,2.0568242,0.42118874,0.15091962,0.36906022,0.8146276,-10.090696,-1.183441,-0.5111776,0.066624805,-1.2830683,0.17743345,0
0.23000000000000007,17.15376322218233,0.06662480893592013,-1.2830683096844313,0.17743345010398598,13.72247,-3.5810134,3.4490292,-0.41003972,15.966311,-10.613937,2.051807,0.42277452,0.15661024,0.36648786,0.813893,-9.994671,-1.1027482,-0.49226287,0.066624805,-1.2830683,0.17743345,0
0.24000000000000007,17.15376322218233,0.06662480893592013,-1.2830683096844313,0.17743345010398598,14.191249,-2.656899,5.4481387,-0.5664411,15.866851,-10.624569,2.046979,0.4243425,0.16229427,0.36390013,0.8131241,-9.897271,-1.0237783,-0.47330767,0.066624805,-1.2830683,0.17743345,0
0.25000000000000006,17.15376322218233,0.06662480893592013,-1.2830683096844313,0.17743345010398598,14.191249,-2.656899,5.4481387,-0.5664411,15.768371,-10.6344185,2.0423408,0.4258927,0.16797148,0.36129707,0.8123211,-9.798512,-0.946543,-0.45433426,0.066624805,-1.2830683,0.17743345,0
0.26000000000000006,17.15376322218233,0.06662480893592013,-1.2830683096844313,0.17743345010398598,14.191249,-2.656899,5.4481387,-0.5664411,15.670884,-10.643505,2.0378923,0.42742497,0.17364162,0.35867882,0.8114839,-9.698408,-0.8710533,-0.43536478,0.066624805,-1.2830683,0.17743345,0
0.2700000000000001,17.15376322218233,0.06662480893592013,-1.2830683096844313,0.17743345010398598,14.191249,-2.656899,5.4481387,-0.5664411,15.574407,-10.651845,2.0336335,0.42893925,0.17930447,0.35604548,0.8106126,-9.596973,-0.79732007,-0.4164214,0.066624805,-1.2830683,0.17743345,0
0.2800000000000001,15.80087242338115,-0.3819216384736008,0.9834158415169896,0.011634588841062892,15.373121,-2.2185798,6.258908,-0.63695985,15.4789505,-10.659457,2.0295637,0.43043548,0.18495977,0.3533972,0.8097072,-9.494222,-0.72535384,-0.39752638,0.066624805,-1.2830683,0.17743345,0
0.2900000000000001,15.80087242338115,-0.3819216384736008,0.9834158415169896,0.011634588841062892,15.373121,-2.2185798,6.258908,-0.63695985,15.384483,-10.666383,2.025637,0.42899787,0.18017441,0.35395175,0.8113053,-9.399279,-0.65968955,-0.38773444,-0.38192165,0.98341584,0.011634589,0
0.3000000000000001,15.80087242338115,-0.3819216384736008,0.9834158415169896,0.011634588841062892,15.373121,-2.2185798,6.258908,-0.63695985,15.290959,-10.6726465,2.0218103,0.42754835,0.17538404,0.3544965,0.8128808,-9.305559,-0.5929746,-0.3775187,-0.38192165,0.98341584,0.011634589,0
0.3100000000000001,15.80087242338115,-0.3819216384736008,0.9834158415169896,0.011634588841062892,15.373121,-2.2185798,6.258908,-0.63695985,15.198366,-10.678238,2.018088,0.42608693,0.17058879,0.35503137,0.8144337,-9.213074,-0.5252166,-0.36689118,-0.38192165,0.98341584,0.011634589,0
0.3200000000000001,14.326667824198806,-1.047481294038074,4.6285309474603755,-0.21460624223210756,15.688366,-2.1904342,5.3780875,-0.5818897,15.106693,-10.6831455,2.0144742,0.42461368,0.1657888,0.35555637,0.8159639,-9.121831,-0.45642313,-0.3558638,-0.38192165,0.98341584,0.011634589,0
0.3300000000000001,14.326667824198806,-1.047481294038074,4.6285309474603755,-0.21460624223210756,15.688366,-2.1904342,5.3780875,-0.5818897,15.01588,-10.68739,2.010922,0.41800985,0.14425507,0.36118662,0.8209766,-9.041607,-0.39168072,-0.35449433,-1.0474813,4.628531,-0.21460624,0
0.34000000000000014,14.326667824198806,-1.047481294038074,4.6285309474603755,-0.21460624223210756,15.688366,-2.1904342,5.3780875,-0.5818897,14.925843,-10.690964,2.0073867,0.4111702,0.12263998,0.3666131,0.8255261,-8.966272,-0.3222636,-0.35245624,-1.0474813,4.628531,-0.21460624,0
0.35000000000000014,14.326667824198806,-1.047481294038074,4.6285309474603755,-0.21460624223210756,15.688366,-2.1904342,5.3780875,-0.5818897,14.836535,-10.69382,2.0038743,0.40409863,0.1009557,0.37183273,0.82960993,-8.895991,-0.24831998,-0.34998545,-1.0474813,4.628531,-0.21460624,0
0.36000000000000015,13.781403773913903,-1.1093749924234735,4.556051876019514,-0.3314635879357253,15.137801,-2.4604142,5.257665,-0.8199156,14.747906,-10.695915,2.0003881,0.3967991,0.079214476,0.37684262,0.8332257,-8.830914,-0.17000833,-0.3473187,-1.0474813,4.628531,-0.21460624,0
0.37000000000000016,13.781403773913903,-1.1093749924234735,4.556051876019514,-0.3314635879357253,15.137801,-2.4604142,5.257665,-0.8199156,14.659888,-10.697222,1.9969091,0.38992584,0.05738796,0.38128677,0.8362325,-8.773449,-0.09067616,-0.3484985,-1.109375,4.5560517,-0.33146358,0
0.38000000000000017,13.781403773913903,-1.1093749924234735,4.556051876019514,-0.3314635879357253,15.137801,-2.4604142,5.257665,-0.8199156,14.572419,-10.697717,1.9934175,0.3828372,0.03552974,0.38552028,0.83877724,-8.721227,-0.0075737163,-0.34987074,-1.109375,4.5560517,-0.33146358,0
0.3900000000000002,13.781403773913903,-1.1093749924234735,4.556051876019514,-0.3314635879357253,15.137801,-2.4604142,5.257665,-0.8199156,14.485445,-10.697362,1.9899101,0.37553707,0.013651896,0.38954085,0.8408587,-8.674355,0.079128236,-0.35166326,-1.109375,4.5560517,-0.33146358,0
0.4000000000000002,13.516702441554811,-1.0853980637193679,3.877121851713685,-0.4550607829958766,15.079351,-2.9173782,4.95853,-0.6998201,14.398912,-10.696122,1.9863819,0.36802948,-0.0082334895,0.3933462,0.8424756,-8.632924,0.169251,-0.35410303,-1.109375,4.5560517,-0.33146358,0
0.4100000000000002,13.516702441554811,-1.0853980637193679,3.877121851713685,-0.4550607829958766,15.079351,-2.9173782,4.95853,-0.6998201,14.312765,-10.6939745,1.9828162,0.3622013,-0.027454663,0.3958089,0.84344035,-8.597448,0.26061514,-0.35913414,-1.0853981,3.877122,-0.45506078,0
0.4200000000000002,13.516702441554811,-1.0853980637193679,3.877121851713685,-0.4550607829958766,15.079351,-2.9173782,4.95853,-0.6998201,14.226948,-10.690901,1.9791965,0.35622448,-0.04666457,0.39810923,0.84405893,-8.566751,0.35446155,-0.3649391,-1.0853981,3.877122,-0.45506078,0
0.4300000000000002,13.516702441554811,-1.0853980637193679,3.877121851713685,-0.4550607829958766,15.079351,-2.9173782,4.95853,-0.6998201,14.141415,-10.686877,1.9755143,0.35010147,-0.065855324,0.40024614,0.844331,-8.540874,0.45065218,-0.3716852,-1.0853981,3.877122,-0.45506078,0
0.4400000000000002,13.516702441554811,-1.0853980637193679,3.877121851713685,-0.4550607829958766,13.765617,-2.8787286,4.2089915,-0.57939607,14.056114,-10.681881,1.9717591,0.3438348,-0.085019045,0.4022188,0.84425664,-8.519848,0.5490451,-0.3795381,-1.0853981,3.877122,-0.45506078,0
0.45000000000000023,13.516702441554811,-1.0853980637193679,3.877121851713685,-0.4550607829958766,13.765617,-2.8787286,4.2089915,-0.57939607,13.971001,-10.675891,1.9679191,0.33742696,-0.10414787,0.40402636,0.8438358,-8.503696,0.64949477,-0.3886617,-1.0853981,3.877122,-0.45506078,0
0.46000000000000024,13.516702441554811,-1.0853980637193679,3.877121851713685,-0.4550607829958766,13.765617,-2.8787286,4.2089915,-0.57939607,13.886024,-10.668885,1.9639809,0.33088067,-0.12323396,0.40566808,0.84306866,-8.492435,0.75185233,-0.39921778,-1.0853981,3.877122,-0.45506078,0
0.47000000000000025,13.516702441554811,-1.0853980637193679,3.877121851713685,-0.4550607829958766,13.765617,-2.8787286,4.2089915,-0.57939607,13.801135,-10.660847,1.9599293,0.32419857,-0.14226948,0.40714332,0.8419555,-8.486073,0.8559657,-0.41136584,-1.0853981,3.877122,-0.45506078,0
0.48000000000000026,13.333922217902016,-0.8114149017085809,1.7079682621668424,-0.4880047661598588,13.122401,-3.3999503,3.6023283,-0.23942333,13.716285,-10.65176,1.9557476,0.31738338,-0.1612466,0.40845147,0.8404967,-8.484608,0.96167994,-0.42526272,-1.0853981,3.877122,-0.45506078,0
0.49000000000000027,13.333922217902016,-0.8114149017085809,1.7079682621668424,-0.4880047661598588,13.122401,-3.3999503,3.6023283,-0.23942333,13.631429,-10.641618,1.9514134,0.3152768,-0.17070074,0.407339,0.8399624,-8.487085,1.0670303,-0.441668,-0.8114149,1.7079682,-0.48800477,0
0.5000000000000002,13.333922217902016,-0.8114149017085809,1.7079682621668424,-0.4880047661598588,13.122401,-3.3999503,3.6023283,-0.23942333,13.546535,-10.630419,1.9469122,0.31314018,-0.18013863,0.4061877,0.839348,-8.49198,1.1727661,-0.45868263,-0.8114149,1.7079682,-0.48800477,0
0.5100000000000002,13.333922217902016,-0.8114149017085809,1.7079682621668424,-0.4880047661598588,13.122401,-3.3999503,3.6023283,-0.23942333,13.46158,-10.61816,1.9422375,0.3109737,-0.18955936,0.4049977,0.8386535,-8.499285,1.2788568,-0.4763448,-0.8114149,1.7079682,-0.48800477,0
0.5200000000000002,13.368096810727609,-0.5700917579028449,0.31692657137394853,-0.4834718412067011,12.907644,-3.4799888,3.1212525,-0.09711796,13.376541,-10.60484,1.9373828,0.3087776,-0.19896199,0.40376908,0.83787906,-8.508994,1.3852719,-0.49469253,-0.8114149,1.7079682,-0.48800477,0
0.5300000000000002,13.368096810727609,-0.5700917579028449,0.31692657137394853,-0.4834718412067011,12.907644,-3.4799888,3.1212525,-0.09711796,13.291393,-10.590455,1.932343,0.30959356,-0.20214428,0.40138572,0.8379614,-8.520541,1.4920666,-0.5132183,-0.5700918,0.31692657,-0.48347184,0
0.5400000000000003,13.368096810727609,-0.5700917579028449,0.31692657137394853,-0.4834718412067011,12.907644,-3.4799888,3.1212525,-0.09711796,13.206127,-10.575002,1.9271189,0.31040442,-0.20532323,0.3989958,0.8380299,-8.532916,1.5986423,-0.5315747,-0.5700918,0.31692657,-0.48347184,0
0.5500000000000003,13.368096810727609,-0.5700917579028449,0.31692657137394853,-0.4834718412067011,12.907644,-3.4799888,3.1212525,-0.09711796,13.120732,-10.558483,1.921712,0.31121016,-0.20849882,0.39659926,0.83808464,-8.546118,1.7049967,-0.54976857,-0.5700918,0.31692657,-0.48347184,0
0.5600000000000003,13.340423346401879,-0.34909864395057066,-0.9462218727318583,-0.4258091156455592,13.183786,-2.8668888,1.1477336,-0.27848274,13.035201,-10.540903,1.916124,0.31201077,-0.21167098,0.3941962,0.8381255,-8.560147,1.8111277,-0.56780654,-0.5700918,0.31692657,-0.48347184,0
0.5700000000000003,13.340423346401879,-0.34909864395057066,-0.9462218727318583,-0.4258091156455592,13.183786,-2.8668888,1.1477336,-0.27848274,12.949527,-10.522264,1.9103564,0.315286,-0.20908643,0.39080057,0.8391382,-8.574449,1.9166421,-0.58554006,-0.34909865,-0.9462219,-0.42580912,0
0.5800000000000003,13.340423346401879,-0.34909864395057066,-0.9462218727318583,-0.4258091156455592,13.183786,-2.8668888,1.1477336,-0.27848274,12.863713,-10.502572,1.9044164,0.31855175,-0.20649561,0.3873932,0.84012574,-8.58817,2.0214655,-0.60227466,-0.34909865,-0.9462219,-0.42580912,0
0.5900000000000003,13.340423346401879,-0.34909864395057066,-0.9462218727318583,-0.4258091156455592,13.183786,-2.8668888,1.1477336,-0.27848274,12.777765,-10.481836,1.8983142,0.32180795,-0.20389861,0.38397425,0.8410881,-8.601316,2.1255853,-0.6180171,-0.34909865,-0.9462219,-0.42580912,0
0.6000000000000003,13.491769358986492,-0.25330395381072324,-0.5464283476499193,-0.3570725534117395,12.891327,-3.2048378,1.8881431,-0.26885325,12.691689,-10.460063,1.8920596,0.32505456,-0.2012955,0.38054377,0.8420252,-8.613891,2.2289891,-0.6327741,-0.34909865,-0.9462219,-0.42580912,0
0.6100000000000003,13.491769358986492,-0.25330395381072324,-0.5464283476499193,-0.3570725534117395,12.891327,-3.2048378,1.8881431,-0.26885325,12.605488,-10.437253,1.8856664,0.32734063,-0.20008484,0.37822753,0.84247166,-8.626143,2.3329341,-0.6457388,-0.25330395,-0.5464283,-0.35707256,0
0.6200000000000003,13.491769358986492,-0.25330395381072324,-0.5464283476499193,-0.3570725534117395,12.891327,-3.2048378,1.8881431,-0.26885325,12.519166,-10.413405,1.8791466,0.32962272,-0.19887172,0.37590665,0.8429078,-8.638116,2.436414,-0.65809894,-0.25330395,-0.5464283,-0.35707256,0
0.6300000000000003,13.491769358986492,-0.25330395381072324,-0.5464283476499193,-0.3570725534117395,12.891327,-3.2048378,1.8881431,-0.26885325,12.432726,-10.388526,1.8725063,0.33190075,-0.19765615,0.37358117,0.84333354,-8.64981,2.539424,-0.66985714,-0.25330395,-0.5464283,-0.35707256,0
0.6400000000000003,13.491769358986492,-0.25330395381072324,-0.5464283476499193,-0.3570725534117395,12.218898,-3.288074,2.0086675,-0.06751019,12.34617,-10.362618,1.8657514,0.33417472,-0.1964382,0.3712511,0.843749,-8.661227,2.6419597,-0.681016,-0.25330395,-0.5464283,-0.35707256,0
0.6500000000000004,13.491769358986492,-0.25330395381072324,-0.5464283476499193,-0.3570725534117395,12.218898,-3.288074,2.0086675,-0.06751019,12.259502,-10.335689,1.858888,0.3364446,-0.19521779,0.3689165,0.8441541,-8.672373,2.744017,-0.69157803,-0.25330395,-0.5464283,-0.35707256,0
0.6600000000000004,13.491769358986492,-0.25330395381072324,-0.5464283476499193,-0.3570725534117395,12.218898,-3.288074,2.0086675,-0.06751019,12.172724,-10.30774,1.851922,0.3387103,-0.193995,0.3665774,0.8445488,-8.683247,2.8455904,-0.7015457,-0.25330395,-0.5464283,-0.35707256,0
0.6700000000000004,13.491769358986492,-0.25330395381072324,-0.5464283476499193,-0.3570725534117395,12.218898,-3.288074,2.0086675,-0.06751019,12.085838,-10.278779,1.8448591,0.3409719,-0.19276983,0.36423373,0.8449333,-8.693851,2.946676,-0.71092176,-0.25330395,-0.5464283,-0.35707256,0
0.6800000000000004,13.59466612682996,-0.22808273652804303,-0.7435404021266194,-0.29754109618696145,13.187095,-1.8637857,1.0033422,-0.19608575,11.998848,-10.248809,1.8377054,0.3432293,-0.19154231,0.36188564,0.8453073,-8.70419,3.0472693,-0.71970874,-0.25330395,-0.5464283,-0.35707256,0
0.6900000000000004,13.59466612682996,-0.22808273652804303,-0.7435404021266194,-0.29754109618696145,13.187095,-1.8637857,1.0033422,-0.19608575,11.911755,-10.217831,1.8304703,0.34561083,-0.18932787,0.3593575,0.8459141,-8.714263,3.148091,-0.7271727,-0.22808273,-0.7435404,-0.29754108,0
0.7000000000000004,13.59466612682996,-0.22808273652804303,-0.7435404021266194,-0.29754109618696145,13.187095,-1.8637857,1.0033422,-0.19608575,11.824564,-10.185849,1.8231643,0.34798637,-0.18711013,0.35682318,0.8465063,-8.723863,3.2483044,-0.7339132,-0.22808273,-0.7435404,-0.29754108,0
0.7100000000000004,13.59466612682996,-0.22808273652804303,-0.7435404021266194,-0.29754109618696145,13.187095,-1.8637857,1.0033422,-0.19608575,11.73728,-10.152867,1.8157946,0.3503559,-0.18488914,0.35428265,0.8470838,-8.73299,3.347902,-0.739935,-0.22808273,-0.7435404,-0.29754108,0
0.7200000000000004,13.739030728034857,-0.15970526996145235,-0.598145048919505,-0.23016069136936726,13.053866,-1.5406903,1.0746025,-0.0662871,11.649906,-10.118893,1.8083681,0.35271934,-0.18266495,0.35173598,0.84764665,-8.741649,3.446877,-0.74524266,-0.22808273,-0.7435404,-0.29754108,0
0.7300000000000004,13.739030728034857,-0.15970526996145235,-0.598145048919505,-0.23016069136936726,13.053866,-1.5406903,1.0746025,-0.0662871,11.5624485,-10.083926,1.8008969,0.35459897,-0.18081531,0.34979215,0.8480633,-8.749953,3.5463197,-0.7489062,-0.15970527,-0.59814507,-0.2301607,0
0.7400000000000004,13.739030728034857,-0.15970526996145235,-0.598145048919505,-0.23016069136936726,13.053866,-1.5406903,1.0746025,-0.0662871,11.474909,-10.047968,1.793392,0.35647473,-0.1789637,0.3478445,0.8484707,-8.757855,3.6452622,-0.7520114,-0.15970527,-0.59814507,-0.2301607,0
0.7500000000000004,13.739030728034857,-0.15970526996145235,-0.598145048919505,-0.23016069136936726,13.053866,-1.5406903,1.0746025,-0.0662871,11.387292,-10.011023,1.7858586,0.3583466,-0.17711014,0.34589306,0.8488688,-8.765358,3.7436998,-0.75456136,-0.15970527,-0.59814507,-0.2301607,0
0.7600000000000005,13.991738588336904,-0.20351539668763996,-0.4400562909959668,-0.17684857817299335,13.514424,-1.1237812,0.5813967,-0.044446047,11.2996025,-9.973096,1.7783027,0.3602146,-0.17525464,0.34393778,0.84925765,-8.772461,3.8416278,-0.7565591,-0.15970527,-0.59814507,-0.2301607,0
0.7700000000000005,13.991738588336904,-0.20351539668763996,-0.4400562909959668,-0.17684857817299335,13.514424,-1.1237812,0.5813967,-0.044446047,11.2118435,-9.934184,1.7707382,0.36154276,-0.17405614,0.3421249,0.8496719,-8.779363,3.9408636,-0.7562645,-0.2035154,-0.4400563,-0.17684858,0
0.7800000000000005,13.991738588336904,-0.20351539668763996,-0.4400562909959668,-0.17684857817299335,13.514424,-1.1237812,0.5813967,-0.044446047,11.124016,-9.894281,1.7631791,0.36286855,-0.17285646,0.34030977,0.85008055,-8.786056,4.0396514,-0.75550556,-0.2035154,-0.4400563,-0.17684858,0
0.7900000000000005,13.991738588336904,-0.20351539668763996,-0.4400562909959668,-0.17684857817299335,13.514424,-1.1237812,0.5813967,-0.044446047,11.036122,-9.853393,1.7556298,0.36419192,-0.17165564,0.33849236,0.8504835,-8.7925415,4.137988,-0.75428426,-0.2035154,-0.4400563,-0.17684858,0
0.8000000000000005,14.07623667647044,-0.17073542852437257,-0.6035928242535813,-0.12185430928664656,13.792921,-0.7499304,0.052768447,-0.067519724,10.948166,-9.8115225,1.7480949,0.36551282,-0.17045367,0.3366727,0.8508807,-8.7988205,4.235871,-0.7526028,-0.2035154,-0.4400563,-0.17684858,1
0.8100000000000005,14.07623667647044,-0.17073542852437257,-0.6035928242535813,-0.12185430928664656,13.792921,-0.7499304,0.052768447,-0.067519724,10.860146,-9.7686825,1.740572,0.36506954,-0.17216116,0.33351865,0.85196865,-8.805187,4.3318996,-0.75189805,-0.7499304,0.052768447,-0.067519724,1
0.8200000000000005,14.07623667647044,-0.17073542852437257,-0.6035928242535813,-0.12185430928664656,13.792921,-0.7499304,0.052768447,-0.067519724,10.772058,-9.724886,1.7330582,0.364621,-0.1738662,0.33035988,0.85304445,-8.812365,4.4274373,-0.7507737,-0.7499304,0.052768447,-0.067519724,1
0.8300000000000005,14.07623667647044,-0.17073542852437257,-0.6035928242535813,-0.12185430928664656,13.792921,-0.7499304,0.052768447,-0.067519724,10.683894,-9.680137,1.7255578,0.3641673,-0.17556876,0.32719642,0.85410815,-8.820354,4.522479,-0.749236,-0.7499304,0.052768447,-0.067519724,1
0.8400000000000005,14.07623667647044,-0.17073542852437257,-0.6035928242535813,-0.12185430928664656,13.799555,-0.7975935,-0.13873766,-0.03362828,10.595648,-9.63444,1.7180749,0.3637084,-0.17726882,0.32402828,0.8551597,-8.829155,4.617019,-0.74729085,-0.7499304,0.052768447,-0.067519724,1
0.8500000000000005,14.07623667647044,-0.17073542852437257,-0.6035928242535813,-0.12185430928664656,13.799555,-0.7975935,-0.13873766,-0.03362828,10.507309,-9.5878,1.7106138,0.36336705,-0.17817909,0.3203332,0.8565067,-8.838723,4.7110353,-0.74483216,-0.7975935,-0.13873766,-0.03362828,1
0.8600000000000005,14.07623667647044,-0.17073542852437257,-0.6035928242535813,-0.12185430928664656,13.799555,-0.7975935,-0.13873766,-0.03362828,10.418871,-9.540222,1.7031802,0.36301973,-0.17908643,0.3166329,0.85783964,-8.848973,4.804371,-0.7418082,-0.7975935,-0.13873766,-0.03362828,1
0.8700000000000006,14.07623667647044,-0.17073542852437257,-0.6035928242535813,-0.12185430928664656,13.799555,-0.7975935,-0.13873766,-0.03362828,10.330326,-9.4917145,1.6957796,0.36266646,-0.17999084,0.31292734,0.8591585,-8.859905,4.89702,-0.7382257,-0.7975935,-0.13873766,-0.03362828,1
0.8800000000000006,14.46167400793881,0.058029910964453174,-0.70446201135045,-0.09259011001445425,13.7663355,-1.0795976,-0.26374263,-0.006110724,10.24167,-9.442285,1.6884177,0.36230722,-0.18089229,0.30921665,0.86046326,-8.871518,4.988976,-0.7340916,-0.7975935,-0.13873766,-0.03362828,0
0.8900000000000006,14.46167400793881,0.058029910964453174,-0.70446201135045,-0.09259011001445425,13.7663355,-1.0795976,-0.26374263,-0.006110724,10.152892,-9.391915,1.6811242,0.36384493,-0.17789836,0.30810446,0.86083746,-8.883854,5.0847096,-0.7245029,0.058029912,-0.704462,-0.09259011,0
0.9000000000000006,14.46167400793881,0.058029910964453174,-0.70446201135045,-0.09259011001445425,13.7663355,-1.0795976,-0.26374263,-0.006110724,10.063995,-9.340591,1.6739292,0.365378,-0.17490217,0.30698833,0.8612008,-8.895445,5.179963,-0.7144067,0.058029912,-0.704462,-0.09259011,0
0.9100000000000006,14.46167400793881,0.058029910964453174,-0.70446201135045,-0.09259011001445425,13.7663355,-1.0795976,-0.26374263,-0.006110724,9.974985,-9.288319,1.6668378,0.3669064,-0.17190376,0.30586833,0.8615532,-8.906288,5.2747316,-0.7038082,0.058029912,-0.704462,-0.09259011,0
0.9200000000000006,14.44851093792839,0.271451537113322,-1.3349032186368728,-0.044019551174739206,13.897434,-0.7498294,-0.51875496,-0.011054333,9.885871,-9.2351,1.6598548,0.36843017,-0.16890317,0.30474442,0.8618946,-8.916386,5.3690085,-0.6927122,0.058029912,-0.704462,-0.09259011,0
0.9300000000000006,14.44851093792839,0.271451537113322,-1.3349032186368728,-0.044019551174739206,13.897434,-0.7498294,-0.51875496,-0.011054333,9.79666,-9.180942,1.652985,0.37087455,-0.1627136,0.3034109,0.8625073,-8.925415,5.462584,-0.6810954,0.27145153,-1.3349032,-0.04401955,0
0.9400000000000006,14.44851093792839,0.271451537113322,-1.3349032186368728,-0.044019551174739206,13.897434,-0.7498294,-0.51875496,-0.011054333,9.707368,-9.125852,1.6462356,0.3733017,-0.15651648,0.3020633,0.8630799,-8.9328575,5.5553303,-0.6686587,0.27145153,-1.3349032,-0.04401955,0
0.9500000000000006,14.44851093792839,0.271451537113322,-1.3349032186368728,-0.044019551174739206,13.897434,-0.7498294,-0.51875496,-0.011054333,9.618009,-9.069838,1.6396145,0.37571153,-0.15031207,0.30070165,0.8636123,-8.938713,5.6472297,-0.6554221,0.27145153,-1.3349032,-0.04401955,0
0.9600000000000006,14.725992749071622,0.03260310000353318,-0.46955537165950056,-0.02947557059665997,13.475795,-0.5477996,-0.13468935,0.10137099,9.528599,-9.012909,1.6331297,0.3781039,-0.14410067,0.29932603,0.8641046,-8.942982,5.738265,-0.64140576,0.27145153,-1.3349032,-0.04401955,0
0.9700000000000006,14.725992749071622,0.03260310000353318,-0.46955537165950056,-0.02947557059665997,13.475795,-0.5477996,-0.13468935,0.10137099,9.439152,-8.955066,1.6267992,0.37895644,-0.14205402,0.29855713,0.864336,-8.946135,5.830352,-0.6246337,0.0326031,-0.46955538,-0.02947557,0
0.9800000000000006,14.725992749071622,0.03260310000353318,-0.46955537165950056,-0.02947557059665997,13.475795,-0.5477996,-0.13468935,0.10137099,9.349676,-8.896304,1.6206381,0.37980688,-0.14000659,0.29778656,0.86456263,-8.948787,5.92207,-0.60755473,0.0326031,-0.46955538,-0.02947557,0
0.9900000000000007,14.725992749071622,0.03260310000353318,-0.46955537165950056,-0.02947557059665997,13.475795,-0.5477996,-0.13468935,0.10137099,9.260178,-8.836627,1.6146493,0.3806552,-0.13795838,0.29701433,0.8647845,-8.950938,6.0134172,-0.5901713,0.0326031,-0.46955538,-0.02947557,0
1.0000000000000007,14.409987324068805,-0.14135996120433456,-0.8059829995315054,0.01466461612266565,13.65305,0.11430505,0.18633708,-0.029750403,9.17066,-8.776037,1.6088357,0.3815014,-0.1359094,0.29624045,0.8650015,-8.95259,6.104393,-0.57248574,0.0326031,-0.46955538,-0.02947557,1
1.0100000000000007,14.409987324068805,-0.14135996120433456,-0.8059829995315054,0.01466461612266565,13.65305,0.11430505,0.18633708,-0.029750403,9.081127,-8.714573,1.6031578,0.3814315,-0.13654125,0.29706985,0.8646483,-8.953852,6.188609,-0.56313044,0.11430505,0.18633708,-0.029750403,1
1.0200000000000007,14.409987324068805,-0.14135996120433456,-0.8059829995315054,0.01466461612266565,13.65305,0.11430505,0.18633708,-0.029750403,8.991583,-8.652265,1.5975726,0.3813611,-0.13717294,0.2978989,0.86429405,-8.95517,6.273055,-0.55395675,0.11430505,0.18633708,-0.029750403,1
1.0300000000000007,14.409987324068805,-0.14135996120433456,-0.8059829995315054,0.01466461612266565,13.65305,0.11430505,0.18633708,-0.029750403,8.902023,-8.58911,1.5920781,0.38129023,-0.13780446,0.29872757,0.8639387,-8.956542,6.357732,-0.54496515,0.11430505,0.18633708,-0.029750403,1
1.0400000000000007,14.409987324068805,-0.14135996120433456,-0.8059829995315054,0.01466461612266565,13.66667,0.1453202,0.13452405,-0.011979874,8.812452,-8.525109,1.5866727,0.381219,-0.13843581,0.2995559,0.8635824,-8.95797,6.4426374,-0.5361561,0.11430505,0.18633708,-0.029750403,1
1.0500000000000007,14.409987324068805,-0.14135996120433456,-0.8059829995315054,0.01466461612266565,13.66667,0.1453202,0.13452405,-0.011979874,8.722866,-8.460257,1.581355,0.38116965,-0.13875756,0.30043137,0.86324835,-8.959425,6.5278506,-0.52741784,0.1453202,0.13452405,-0.011979874,1
1.0600000000000007,14.409987324068805,-0.14135996120433456,-0.8059829995315054,0.01466461612266565,13.66667,0.1453202,0.13452405,-0.011979874,8.633265,-8.394552,1.5761238,0.3811199,-0.13907917,0.30130652,0.8629135,-8.9608555,6.613274,-0.51884776,0.1453202,0.13452405,-0.011979874,1
1.0700000000000007,14.409987324068805,-0.14135996120433456,-0.8059829995315054,0.01466461612266565,13.66667,0.1453202,0.13452405,-0.011979874,8.543648,-8.3279915,1.5709773,0.38106978,-0.13940065,0.3021814,0.86257774,-8.962262,6.6989083,-0.51044625,0.1453202,0.13452405,-0.011979874,1
1.0800000000000007,14.936315549762218,-0.486741157119582,-0.7746352792643844,0.029836859980734206,14.420473,0.06984857,-0.07915278,-0.0031865202,8.45402,-8.260573,1.565914,0.3810193,-0.13972197,0.30305594,0.8622412,-8.963645,6.7847524,-0.5022136,0.1453202,0.13452405,-0.011979874,1
1.0900000000000007,14.936315549762218,-0.486741157119582,-0.7746352792643844,0.029836859980734206,14.420473,0.06984857,-0.07915278,-0.0031865202,8.364376,-8.192272,1.5609618,0.3812017,-0.13925247,0.303204,0.86218446,-8.965031,6.875465,-0.48822314,0.06984857,-0.07915278,-0.0031865202,1
1.1000000000000008,14.936315549762218,-0.486741157119582,-0.7746352792643844,0.029836859980734206,14.420473,0.06984857,-0.07915278,-0.0031865202,8.274719,-8.123064,1.5561496,0.38138402,-0.13878292,0.30335197,0.8621275,-8.966267,6.9661655,-0.47422084,0.06984857,-0.07915278,-0.0031865202,1
1.1100000000000008,14.936315549762218,-0.486741157119582,-0.7746352792643844,0.029836859980734206,14.420473,0.06984857,-0.07915278,-0.0031865202,8.185051,-8.052949,1.5514776,0.38156623,-0.13831335,0.30349988,0.86207026,-8.96735,7.0568533,-0.46020687,0.06984857,-0.07915278,-0.0031865202,1
1.1200000000000008,14.812173458335344,-0.8334765729789935,-1.831404151446039,0.07460044861137984,14.321984,-0.06912491,-0.29502273,0.054096166,8.095372,-7.9819274,1.5469457,0.38174832,-0.13784373,0.3036477,0.8620128,-8.968283,7.147528,-0.4461813,0.06984857,-0.07915278,-0.0031865202,0
1.1300000000000008,14.812173458335344,-0.8334765729789935,-1.831404151446039,0.07460044861137984,14.321984,-0.06912491,-0.29502273,0.054096166,8.005686,-7.909989,1.5425712,0.38361347,-0.13142101,0.29659584,0.8646391,-8.968804,7.2398267,-0.4284366,-0.83347654,-1.8314042,0.07460045,0
1.1400000000000008,14.812173458335344,-0.8334765729789935,-1.831404151446039,0.07460044861137984,14.321984,-0.06912491,-0.29502273,0.054096166,7.915999,-7.8371387,1.5383829,0.38543972,-0.12498498,0.2895139,0.8671778,-8.968421,7.3298883,-0.40894353,-0.83347654,-1.8314042,0.07460045,0
1.1500000000000008,14.812173458335344,-0.8334765729789935,-1.831404151446039,0.07460044861137984,14.321984,-0.06912491,-0.29502273,0.054096166,7.82632,-7.7633986,1.5343982,0.3872269,-0.11853627,0.28240263,0.8696286,-8.967132,7.4176764,-0.38775006,-0.83347654,-1.8314042,0.07460045,0
1.1600000000000008,15.036394685331995,-1.0207504728893373,-0.9466205975050466,0.10309056651622958,13.750622,-0.529878,-0.84077215,0.18564743,7.736659,-7.6887927,1.5306337,0.38897488,-0.11207556,0.2752627,0.8719912,-8.964932,7.503156,-0.36490488,-0.83347654,-1.8314042,0.07460045,0
1.1700000000000008,15.036394685331995,-1.0207504728893373,-0.9466205975050466,0.10309056651622958,13.750622,-0.529878,-0.84077215,0.18564743,7.6470237,-7.613336,1.5271144,0.38924676,-0.10978897,0.26902235,0.87410575,-8.962191,7.587804,-0.33876228,-1.0207505,-0.9466206,0.10309057,0
1.1800000000000008,15.036394685331995,-1.0207504728893373,-0.9466205975050466,0.10309056651622958,13.750622,-0.529878,-0.84077215,0.18564743,7.5574145,-7.5370417,1.5238625,0.3894997,-0.10749703,0.26276886,0.8761778,-8.959625,7.6707215,-0.31145468,-1.0207505,-0.9466206,0.10309057,0
1.1900000000000008,15.036394685331995,-1.0207504728893373,-0.9466205975050466,0.10309056651622958,13.750622,-0.529878,-0.84077215,0.18564743,7.4678307,-7.4599276,1.5208893,0.38973364,-0.10519986,0.2565026,0.8782071,-8.957237,7.7518926,-0.28300637,-1.0207505,-0.9466206,0.10309057,0
1.2000000000000008,14.41643364993025,-0.8430157719588244,-1.0584767150795802,0.15422457654840424,13.924506,-0.33819887,-0.46066374,0.20967811,7.3782697,-7.3820105,1.5182061,0.3899486,-0.10289756,0.25022385,0.88019365,-8.955022,7.831302,-0.25344178,-1.0207505,-0.9466206,0.10309057,1
1.2100000000000009,14.41643364993025,-0.8430157719588244,-1.0584767150795802,0.15422457654840424,13.924506,-0.33819887,-0.46066374,0.20967811,7.288729,-7.3033357,1.5157758,0.38942635,-0.10126678,0.24794398,0.88125855,-8.953039,7.9035587,-0.2325285,-0.33819887,-0.46066374,0.20967811,1
1.2200000000000009,14.41643364993025,-0.8430157719588244,-1.0584767150795802,0.15422457654840424,13.924506,-0.33819887,-0.46066374,0.20967811,7.199209,-7.223942,1.5135567,0.3889005,-0.09963507,0.24566182,0.8823152,-8.95097,7.9751368,-0.21120766,-0.33819887,-0.46066374,0.20967811,1
1.2300000000000009,14.41643364993025,-0.8430157719588244,-1.0584767150795802,0.15422457654840424,13.924506,-0.33819887,-0.46066374,0.20967811,7.10971,-7.143836,1.5115529,0.38837102,-0.098002434,0.24337739,0.8833638,-8.948812,8.046035,-0.18948331,-0.33819887,-0.46066374,0.20967811,1
1.2400000000000009,14.41643364993025,-0.8430157719588244,-1.0584767150795802,0.15422457654840424,13.808584,-0.4391831,-0.4478212,0.2716717,7.0202336,-7.0630236,1.5097684,0.38783798,-0.096368894,0.2410907,0.8844041,-8.946565,8.116251,-0.16735953,-0.33819887,-0.46066374,0.20967811,1
1.2500000000000009,14.41643364993025,-0.8430157719588244,-1.0584767150795802,0.15422457654840424,13.808584,-0.4391831,-0.4478212,0.2716717,6.93078,-6.981516,1.5082021,0.38696256,-0.09491223,0.23840971,0.88567096,-8.944287,8.185177,-0.14582853,-0.4391831,-0.4478212,0.2716717,1
1.260000000000001,14.41643364993025,-0.8430157719588244,-1.0584767150795802,0.15422457654840424,13.808584,-0.4391831,-0.4478212,0.2716717,6.841349,-6.8993225,1.5068532,0.38608265,-0.09345446,0.23572594,0.8869275,-8.942032,8.253352,-0.12386731,-0.4391831,-0.4478212,0.2716717,1
1.270000000000001,14.41643364993025,-0.8430157719588244,-1.0584767150795802,0.15422457654840424,13.808584,-0.4391831,-0.4478212,0.2716717,6.7519393,-6.816451,1.5057262,0.38519824,-0.09199559,0.23303941,0.8881736,-8.9397955,8.320773,-0.10148063,-0.4391831,-0.4478212,0.2716717,1
1.280000000000001,14.628501647353184,-1.0516194048947192,-0.22609630608191625,0.14549738011764402,14.153507,-0.7771888,-0.33361334,0.39945525,6.6625524,-6.732909,1.5048251,0.3843093,-0.09053565,0.23035017,0.8894094,-8.937577,8.387437,-0.07867321,-0.4391831,-0.4478212,0.2716717,1
1.290000000000001,14.628501647353184,-1.0516194048947192,-0.22609630608191625,0.14549738011764402,14.153507,-0.7771888,-0.33361334,0.39945525,6.5731874,-6.6486964,1.5041696,0.38256112,-0.0900844,0.22643125,0.8912134,-8.935489,8.454919,-0.052379128,-0.7771888,-0.33361334,0.39945525,1
1.300000000000001,14.628501647353184,-1.0516194048947192,-0.22609630608191625,0.14549738011764402,14.153507,-0.7771888,-0.33361334,0.39945525,6.483841,-6.5638137,1.5037794,0.38080457,-0.08963118,0.22250736,0.89299786,-8.933869,8.521434,-0.025558276,-0.7771888,-0.33361334,0.39945525,1
1.310000000000001,14.628501647353184,-1.0516194048947192,-0.22609630608191625,0.14549738011764402,14.153507,-0.7771888,-0.33361334,0.39945525,6.3945084,-6.478271,1.5036601,0.3790397,-0.08917599,0.2185786,0.8947629,-8.932715,8.586974,0.0017812364,-0.7771888,-0.33361334,0.39945525,1
1.320000000000001,14.061190072831183,-1.113567991342701,-0.9748426805824983,0.1476421128252367,14.098193,-1.0682365,-0.5154777,0.4837057,6.3051844,-6.3920774,1.5038167,0.37726656,-0.08871886,0.21464507,0.8965083,-8.932021,8.651536,0.029631266,-0.7771888,-0.33361334,0.39945525,1
1.330000000000001,14.061190072831183,-1.113567991342701,-0.9748426805824983,0.1476421128252367,14.098193,-1.0682365,-0.5154777,0.4837057,6.2158656,-6.305245,1.5042521,0.37516996,-0.08790232,0.2090945,0.8987774,-8.931828,8.714705,0.05756829,-1.0682365,-0.5154777,0.4837057,1
1.340000000000001,14.061190072831183,-1.113567991342701,-0.9748426805824983,0.1476421128252367,14.098193,-1.0682365,-0.5154777,0.4837057,6.126546,-6.217788,1.5049704,0.37305796,-0.08708217,0.20353535,0.90100974,-8.932194,8.776463,0.08620296,-1.0682365,-0.5154777,0.4837057,1
1.350000000000001,14.061190072831183,-1.113567991342701,-0.9748426805824983,0.1476421128252367,14.098193,-1.0682365,-0.5154777,0.4837057,6.0372195,-6.129721,1.5059786,0.37093067,-0.08625845,0.19796784,0.90320504,-8.933113,8.836795,0.11551862,-1.0682365,-0.5154777,0.4837057,1
1.360000000000001,13.980916973019239,-0.9891248333791816,0.30722938949830003,0.09996975620026177,14.160507,-1.0382162,-0.60296637,0.48479527,5.947881,-6.0410576,1.5072832,0.36878815,-0.085431196,0.19239222,0.9053633,-8.934579,8.895693,0.14549854,-1.0682365,-0.5154777,0.4837057,1
1.370000000000001,13.980916973019239,-0.9891248333791816,0.30722938949830003,0.09996975620026177,14.160507,-1.0382162,-0.60296637,0.48479527,5.8585258,-5.9518113,1.5088936,0.3667224,-0.084147945,0.18678366,0.90749454,-8.936547,8.953382,0.17670399,-1.0382162,-0.60296637,0.48479527,1
1.380000000000001,13.980916973019239,-0.9891248333791816,0.30722938949830003,0.09996975620026177,14.160507,-1.0382162,-0.60296637,0.48479527,5.7691483,-5.861995,1.5108196,0.36464128,-0.08286117,0.18116726,0.90958774,-8.93893,9.009558,0.2085667,-1.0382162,-0.60296637,0.48479527,1
1.390000000000001,13.980916973019239,-0.9891248333791816,0.30722938949830003,0.09996975620026177,14.160507,-1.0382162,-0.60296637,0.48479527,5.6797457,-5.7716255,1.5130674,0.36254486,-0.08157092,0.17554326,0.9116429,-8.941717,9.064211,0.24106884,-1.0382162,-0.60296637,0.48479527,1
1.400000000000001,13.005778712938715,-0.7627274948133627,-0.5496330227633965,0.06928368140902329,14.161703,-0.7525619,-0.9637753,0.44503897,5.590313,-5.680716,1.5156432,0.36043328,-0.080277264,0.16991192,0.9136597,-8.944901,9.117333,0.27419248,-1.0382162,-0.60296637,0.48479527,0
1.410000000000001,13.005778712938715,-0.7627274948133627,-0.5496330227633965,0.06928368140902329,14.161703,-0.7525619,-0.9637753,0.44503897,5.5008483,-5.589305,1.5184996,0.36027357,-0.07908119,0.16546296,0.914643,-8.94811,9.164818,0.2971294,-0.7627275,-0.549633,0.06928368,0
1.420000000000001,13.005778712938715,-0.7627274948133627,-0.5496330227633965,0.06928368140902329,14.161703,-0.7525619,-0.9637753,0.44503897,5.4113507,-5.4974236,1.5215875,0.36010584,-0.07788336,0.16101032,0.91560596,-8.951478,9.211169,0.32049996,-0.7627275,-0.549633,0.06928368,0
1.430000000000001,13.005778712938715,-0.7627274948133627,-0.5496330227633965,0.06928368140902329,14.161703,-0.7525619,-0.9637753,0.44503897,5.3218184,-5.4050846,1.5249112,0.35993013,-0.076683804,0.15655412,0.9165486,-8.955005,9.256385,0.34429356,-0.7627275,-0.549633,0.06928368,0
1.440000000000001,13.005778712938715,-0.7627274948133627,-0.5496330227633965,0.06928368140902329,13.793342,-0.5474187,-1.1381528,0.44090384,5.23225,-5.3122997,1.5284748,0.35974643,-0.07548254,0.15209442,0.9174709,-8.958689,9.30046,0.36849946,-0.7627275,-0.549633,0.06928368,1
1.450000000000001,13.005778712938715,-0.7627274948133627,-0.5496330227633965,0.06928368140902329,13.793342,-0.5474187,-1.1381528,0.44090384,5.142644,-5.219067,1.5323198,0.35837474,-0.07090914,0.14769901,0.91908926,-8.962461,9.345874,0.40058678,-0.5474187,-1.1381528,0.44090384,1
1.460000000000001,13.005778712938715,-0.7627274948133627,-0.5496330227633965,0.06928368140902329,13.793342,-0.5474187,-1.1381528,0.44090384,5.053003,-5.125388,1.5364883,0.35698703,-0.06633257,0.14329702,0.9206665,-8.965597,9.389759,0.43321428,-0.5474187,-1.1381528,0.44090384,1
1.470000000000001,13.005778712938715,-0.7627274948133627,-0.5496330227633965,0.06928368140902329,13.793342,-0.5474187,-1.1381528,0.44090384,4.963334,-5.031277,1.5409858,0.35558334,-0.06175303,0.1388886,0.9222026,-8.96809,9.432111,0.46636027,-0.5474187,-1.1381528,0.44090384,1
1.480000000000001,12.879149271957305,-0.5732696575008362,1.5508612619282187,0.04920633410116687,13.410002,-0.8751514,-1.3781574,0.52308124,4.8736434,-4.9367504,1.5458173,0.35416377,-0.057170726,0.13447395,0.9236974,-8.969931,9.472926,0.5000031,-0.5474187,-1.1381528,0.44090384,0
1.490000000000001,12.879149271957305,-0.5732696575008362,1.5508612619282187,0.04920633410116687,13.410002,-0.8751514,-1.3781574,0.52308124,4.7839355,-4.841834,1.550943,0.3527178,-0.065313384,0.13458207,0.9236951,-8.972008,9.510417,0.52509815,-0.57326967,1.5508612,0.049206335,0
1.500000000000001,12.879149271957305,-0.5732696575008362,1.5508612619282187,0.04920633410116687,13.410002,-0.8751514,-1.3781574,0.52308124,4.694197,-4.746539,1.5563183,0.3512477,-0.07345157,0.13468099,0.9236296,-8.976062,9.548648,0.5499163,-0.57326967,1.5508612,0.049206335,0
1.5100000000000011,12.879149271957305,-0.5732696575008362,1.5508612619282187,0.04920633410116687,13.410002,-0.8751514,-1.3781574,0.52308124,4.604408,-4.650858,1.5619403,0.34975356,-0.08158474,0.13477069,0.9235009,-8.982093,9.587607,0.5744243,-0.57326967,1.5508612,0.049206335,0
1.5200000000000011,11.755098450513575,-0.5031104483678432,0.22797401274892293,0.026512721745745878,13.705108,-0.37466964,-1.6510246,0.24651474,4.5145483,-4.5547843,1.5678055,0.34823555,-0.08971232,0.13485117,0.923309,-8.9901,9.627284,0.5985888,-0.57326967,1.5508612,0.049206335,0
1.5300000000000011,11.755098450513575,-0.5031104483678432,0.22797401274892293,0.026512721745745878,13.705108,-0.37466964,-1.6510246,0.24651474,4.424604,-4.4583282,1.5738579,0.34773242,-0.09162256,0.13293687,0.92358863,-8.998756,9.663804,0.6118872,-0.50311047,0.22797401,0.026512722,0
1.5400000000000011,11.755098450513575,-0.5031104483678432,0.22797401274892293,0.026512721745745878,13.705108,-0.37466964,-1.6510246,0.24651474,4.334571,-4.3615084,1.5800434,0.34722665,-0.093532085,0.13102154,0.92386115,-9.008005,9.700061,0.6252235,-0.50311047,0.22797401,0.026512722,0
1.5500000000000012,11.755098450513575,-0.5031104483678432,0.22797401274892293,0.026512721745745878,13.705108,-0.37466964,-1.6510246,0.24651474,4.244442,-4.264328,1.5863625,0.34671822,-0.095440894,0.12910521,0.9241266,-9.017847,9.736055,0.63859427,-0.50311047,0.22797401,0.026512722,0
1.5600000000000012,11.475220580571309,-0.32299863419990005,0.36201243092655205,0.029140429052639368,12.522496,-0.38231406,-1.570575,0.34361118,4.154212,-4.166789,1.5928154,0.34620714,-0.09734899,0.12718791,0.9243851,-9.028281,9.771786,0.65199614,-0.50311047,0.22797401,0.026512722,0
1.5700000000000012,11.475220580571309,-0.32299863419990005,0.36201243092655205,0.029140429052639368,12.522496,-0.38231406,-1.570575,0.34361118,4.063876,-4.0688972,1.5993892,0.345684,-0.09956248,0.1263355,0.92446196,-9.039036,9.806498,0.662742,-0.32299864,0.36201242,0.02914043,0
1.5800000000000012,11.475220580571309,-0.32299863419990005,0.36201243092655205,0.029140429052639368,12.522496,-0.38231406,-1.570575,0.34361118,3.9734297,-3.9706585,1.6060702,0.34515882,-0.10177538,0.12548235,0.9245334,-9.050344,9.841194,0.6734365,-0.32299864,0.36201242,0.02914043,0
1.5900000000000012,11.475220580571309,-0.32299863419990005,0.36201243092655205,0.029140429052639368,12.522496,-0.38231406,-1.570575,0.34361118,3.8828673,-3.872073,1.6128578,0.34463158,-0.10398768,0.12462847,0.9245994,-9.062207,9.875875,0.6840771,-0.32299864,0.36201242,0.02914043,0
1.6000000000000012,10.734227258153393,-0.27682022994781114,-2.0239142383518396,0.015638430430113166,12.612101,0.3006734,-4.066626,0.19661158,3.7921836,-3.773141,1.6197516,0.34410232,-0.10619937,0.123773836,0.9246599,-9.074623,9.910541,0.69466126,-0.32299864,0.36201242,0.02914043,0
1.6100000000000012,10.734227258153393,-0.27682022994781114,-2.0239142383518396,0.015638430430113166,12.612101,0.3006734,-4.066626,0.19661158,3.701379,-3.673875,1.6267165,0.34511763,-0.09730342,0.11901377,0.92588454,-9.08603,9.942376,0.69843537,-0.27682024,-2.0239143,0.01563843,0
1.6200000000000012,10.734227258153393,-0.27682022994781114,-2.0239142383518396,0.015638430430113166,12.612101,0.3006734,-4.066626,0.19661158,3.6104677,-3.5742986,1.6337222,0.3460969,-0.08839732,0.1142413,0.92701256,-9.096023,9.972657,0.70283026,-0.27682024,-2.0239143,0.01563843,0
1.6300000000000012,10.734227258153393,-0.27682022994781114,-2.0239142383518396,0.015638430430113166,12.612101,0.3006734,-4.066626,0.19661158,3.5194633,-3.4744272,1.6407748,0.3470401,-0.07948199,0.10945691,0.92804396,-9.104593,10.001372,0.70780313,-0.27682024,-2.0239143,0.01563843,0
1.6400000000000012,10.734227258153393,-0.27682022994781114,-2.0239142383518396,0.015638430430113166,11.839826,-0.061735783,-5.180257,0.72483474,3.4283805,-3.3742764,1.6478801,0.34794703,-0.07055837,0.10466109,0.9289785,-9.111739,10.028508,0.7133109,-0.27682024,-2.0239143,0.01563843,0
1.6500000000000012,10.734227258153393,-0.27682022994781114,-2.0239142383518396,0.015638430430113166,11.839826,-0.061735783,-5.180257,0.72483474,3.337233,-3.2738621,1.6550428,0.3488177,-0.061627388,0.09985436,0.9298161,-9.117456,10.054054,0.7193103,-0.27682024,-2.0239143,0.01563843,0
1.6600000000000013,10.734227258153393,-0.27682022994781114,-2.0239142383518396,0.015638430430113166,11.839826,-0.061735783,-5.180257,0.72483474,3.2460358,-3.1732006,1.6622679,0.349652,-0.052689984,0.09503721,0.9305567,-9.121744,10.078,0.72575784,-0.27682024,-2.0239143,0.01563843,0
1.6700000000000013,10.734227258153393,-0.27682022994781114,-2.0239142383518396,0.015638430430113166,11.839826,-0.061735783,-5.180257,0.72483474,3.154803,-3.0723076,1.6695595,0.35044977,-0.04374708,0.09021014,0.9312002,-9.124598,10.100335,0.7326099,-0.27682024,-2.0239143,0.01563843,0
1.6800000000000013,10.571148236263912,-0.16376660232234835,-0.13053402357502444,0.056328194010285944,11.968344,-0.44900438,-4.917399,0.6023887,3.0635488,-2.9711993,1.6769215,0.351211,-0.03479961,0.08537367,0.93174666,-9.126017,10.121052,0.7398226,-0.27682024,-2.0239143,0.01563843,0
1.6900000000000013,10.571148236263912,-0.16376660232234835,-0.13053402357502444,0.056328194010285944,11.968344,-0.44900438,-4.917399,0.6023887,2.972286,-2.8698921,1.6843488,0.35097563,-0.034455005,0.08439125,0.93193763,-9.126536,10.140372,0.74565226,-0.16376661,-0.13053402,0.056328192,0
1.7000000000000013,10.571148236263912,-0.16376660232234835,-0.13053402357502444,0.056328194010285944,11.968344,-0.44900438,-4.917399,0.6023887,2.881018,-2.7683926,1.6918347,0.3507398,-0.03411036,0.083408736,0.93212754,-9.127067,10.159475,0.751522,-0.16376661,-0.13053402,0.056328192,0
1.7100000000000013,10.571148236263912,-0.16376660232234835,-0.13053402357502444,0.056328194010285944,11.968344,-0.44900438,-4.917399,0.6023887,2.7897446,-2.6667032,1.6993794,0.3505036,-0.033765677,0.082426116,0.9323163,-9.127607,10.178361,0.75743145,-0.16376661,-0.13053402,0.056328192,0
1.7200000000000013,10.184405914975128,-0.11171935383187848,-0.6239001359229164,0.052378031012139184,11.424923,-1.1556424,-5.8242884,0.3568291,2.6984656,-2.5648263,1.7069834,0.35026696,-0.033420954,0.0814434,0.93250406,-9.1281595,10.197029,0.7633801,-0.16376661,-0.13053402,0.056328192,0
1.7300000000000013,10.184405914975128,-0.11171935383187848,-0.6239001359229164,0.052378031012139184,11.424923,-1.1556424,-5.8242884,0.3568291,2.6071818,-2.4627671,1.7146282,0.35025635,-0.030686174,0.079838194,0.9327408,-9.128546,10.214697,0.76557904,-0.111719355,-0.6239001,0.052378032,0
1.7400000000000013,10.184405914975128,-0.11171935383187848,-0.6239001359229164,0.052378031012139184,11.424923,-1.1556424,-5.8242884,0.3568291,2.515896,-2.3605337,1.7222953,0.35024223,-0.02795108,0.07823218,0.93296814,-9.128529,10.231869,0.767865,-0.111719355,-0.6239001,0.052378032,0
1.7500000000000013,10.184405914975128,-0.11171935383187848,-0.6239001359229164,0.052378031012139184,11.424923,-1.1556424,-5.8242884,0.3568291,2.4246128,-2.2581313,1.7299857,0.35022455,-0.025215706,0.07662537,0.93318605,-9.128107,10.248543,0.77023375,-0.111719355,-0.6239001,0.052378032,0
1.7600000000000013,10.114941129225668,-0.05670143492776029,1.1553412410676802,0.10133659905070054,10.687847,-0.8401144,-3.4095845,0.4803508,2.3333356,-2.1555648,1.7377002,0.35020334,-0.022480076,0.07501779,0.9333945,-9.127283,10.26472,0.77268124,-0.111719355,-0.6239001,0.052378032,0
1.7700000000000014,10.114941129225668,-0.05670143492776029,1.1553412410676802,0.10133659905070054,10.687847,-0.8401144,-3.4095845,0.4803508,2.242067,-2.0528378,1.745436,0.34928477,-0.027932886,0.0767863,0.93344754,-9.126558,10.280747,0.77444977,-0.056701437,1.1553413,0.1013366,0
1.7800000000000014,10.114941129225668,-0.05670143492776029,1.1553412410676802,0.10133659905070054,10.687847,-0.8401144,-3.4095845,0.4803508,2.1508012,-1.9499474,1.7531888,0.34835443,-0.033384755,0.07855224,0.9334691,-9.126752,10.297488,0.7761034,-0.056701437,1.1553413,0.1013366,0
1.7900000000000014,10.114941129225668,-0.05670143492776029,1.1553412410676802,0.10133659905070054,10.687847,-0.8401144,-3.4095845,0.4803508,2.0595288,-1.8468857,1.7609575,0.34741235,-0.038835496,0.080315515,0.9334592,-9.127865,10.31494,0.77762896,-0.056701437,1.1553413,0.1013366,0
1.8000000000000014,9.943570854183472,-0.062446534231442856,-0.36779845480116297,0.11467786038056263,11.88357,-0.36861572,-4.822818,0.4197585,1.9682405,-1.743646,1.7687409,0.34645855,-0.04428493,0.08207608,0.93341786,-9.129899,10.333101,0.77901334,-0.056701437,1.1553413,0.1013366,0
1.8100000000000014,9.943570854183472,-0.062446534231442856,-0.36779845480116297,0.11467786038056263,11.88357,-0.36861572,-4.822818,0.4197585,1.8769288,-1.6402239,1.7765291,0.3460598,-0.04262941,0.08117274,0.9337218,-9.132377,10.351283,0.77864116,-0.062446535,-0.36779845,0.11467786,0
1.8200000000000014,9.943570854183472,-0.062446534231442856,-0.36779845480116297,0.11467786038056263,11.88357,-0.36861572,-4.822818,0.4197585,1.7855936,-1.5366213,1.7843138,0.34565973,-0.04097373,0.08026909,0.9340222,-9.134618,10.3691845,0.7783264,-0.062446535,-0.36779845,0.11467786,0
1.8300000000000014,9.943570854183472,-0.062446534231442856,-0.36779845480116297,0.11467786038056263,11.88357,-0.36861572,-4.822818,0.4197585,1.6942372,-1.4328412,1.7920958,0.34525833,-0.039317895,0.079365134,0.934319,-9.136622,10.3868065,0.7780677,-0.062446535,-0.36779845,0.11467786,0
1.8400000000000014,9.943570854183472,-0.062446534231442856,-0.36779845480116297,0.11467786038056263,11.617283,-0.7819532,-3.1499038,0.879147,1.6028619,-1.3288862,1.7998754,0.3448556,-0.037661906,0.07846087,0.9346123,-9.138391,10.404147,0.77786356,-0.062446535,-0.36779845,0.11467786,0
1.8500000000000014,9.943570854183472,-0.062446534231442856,-0.36779845480116297,0.11467786038056263,11.617283,-0.7819532,-3.1499038,0.879147,1.5114702,-1.2247591,1.8076533,0.34445158,-0.03600578,0.07755631,0.934902,-9.13992,10.421208,0.77771264,-0.062446535,-0.36779845,0.11467786,0
1.8600000000000014,9.943570854183472,-0.062446534231442856,-0.36779845480116297,0.11467786038056263,11.617283,-0.7819532,-3.1499038,0.879147,1.4200642,-1.1204629,1.8154299,0.34404624,-0.034349516,0.076651454,0.9351882,-9.141212,10.43799,0.7776135,-0.062446535,-0.36779845,0.11467786,0
1.8700000000000014,9.943570854183472,-0.062446534231442856,-0.36779845480116297,0.11467786038056263,11.617283,-0.7819532,-3.1499038,0.879147,1.3286467,-1.0160003,1.8232058,0.34363958,-0.032693118,0.07574631,0.93547076,-9.142267,10.454491,0.7775648,-0.062446535,-0.36779845,0.11467786,0
1.8800000000000014,10.00346056983854,-0.11612492124420225,1.0537623086862915,0.1760496938450425,12.225865,-0.39753088,-3.391567,1.0645382,1.2372198,-0.911374,1.8309816,0.34323162,-0.031036599,0.07484088,0.93574977,-9.143084,10.470712,0.7775651,-0.062446535,-0.36779845,0.11467786,0
1.8900000000000015,10.00346056983854,-0.11612492124420225,1.0537623086862915,0.1760496938450425,12.225865,-0.39753088,-3.391567,1.0645382,1.1457847,-0.8065855,1.8387604,0.34199062,-0.03609983,0.076132216,0.9359183,-9.144085,10.487073,0.7781471,-0.11612492,1.0537623,0.1760497,0
1.9000000000000015,10.00346056983854,-0.11612492124420225,1.0537623086862915,0.1760496938450425,12.225865,-0.39753088,-3.391567,1.0645382,1.0543352,-0.70163053,1.8465443,0.34073976,-0.04116201,0.07742135,0.9360598,-9.145966,10.504018,0.778618,-0.11612492,1.0537623,0.1760497,0
1.9100000000000015,10.00346056983854,-0.11612492124420225,1.0537623086862915,0.1760496938450425,12.225865,-0.39753088,-3.391567,1.0645382,0.96286255,-0.59650326,1.8543323,0.33947906,-0.046223007,0.07870826,0.9361743,-9.148726,10.521539,0.77896696,-0.11612492,1.0537623,0.1760497,0
1.9200000000000015,9.880849355396599,-0.1642497481446384,0.23675209647839862,0.22494104008377191,12.599617,-0.9492624,-4.637993,1.2375026,0.87135774,-0.49119785,1.8621231,0.3382086,-0.051282667,0.07999289,0.9362617,-9.152369,10.539636,0.7791832,-0.11612492,1.0537623,0.1760497,0
1.9300000000000015,9.880849355396599,-0.1642497481446384,0.23675209647839862,0.22494104008377191,12.599617,-0.9492624,-4.637993,1.2375026,0.77981305,-0.38571033,1.8699096,0.3370182,-0.052578673,0.07968189,0.9366455,-9.156616,10.557872,0.7781012,-0.16424975,0.2367521,0.22494105,0
1.9400000000000015,9.880849355396599,-0.1642497481446384,0.23675209647839862,0.22494104008377191,12.599617,-0.9492624,-4.637993,1.2375026,0.68822443,-0.2800403,1.8776852,0.33582667,-0.0538745,0.07937062,0.9370262,-9.161148,10.576131,0.77700216,-0.16424975,0.2367521,0.22494105,0
1.9500000000000015,9.880849355396599,-0.1642497481446384,0.23675209647839862,0.22494104008377191,12.599617,-0.9492624,-4.637993,1.2375026,0.5965891,-0.17418759,1.8854495,0.33463404,-0.05517015,0.07905909,0.93740374,-9.165962,10.594411,0.77588534,-0.16424975,0.2367521,0.22494105,0
1.9600000000000015,9.831518304526618,-0.3370023571750438,0.21510633075870364,0.30295388782092286,10.739725,-0.83183193,-2.1676722,0.7028306,0.5049042,-0.06815198,1.8932029,0.3334403,-0.05646562,0.078747295,0.9377781,-9.171061,10.612713,0.7747502,-0.16424975,0.2367521,0.22494105,0
1.9700000000000015,9.831518304526618,-0.3370023571750438,0.21510633075870364,0.30295388782092286,10.739725,-0.83183193,-2.1676722,0.7028306,0.413167,0.038066126,1.9009422,0.3318389,-0.05791662,0.077611044,0.9383522,-9.176449,10.63089,0.77312005,-0.33700237,0.21510632,0.3029539,0
1.9800000000000015,9.831518304526618,-0.3370023571750438,0.21510633075870364,0.30295388782092286,10.739725,-0.83183193,-2.1676722,0.7028306,0.321374,0.14446539,1.9086653,0.3302354,-0.05936725,0.076474294,0.9389204,-9.182211,10.648942,0.7714917,-0.33700237,0.21510632,0.3029539,0
1.9900000000000015,9.831518304526618,-0.3370023571750438,0.21510633075870364,0.30295388782092286,10.739725,-0.83183193,-2.1676722,0.7028306,0.2295215,0.25104454,1.9163721,0.32862982,-0.06081751,0.07533707,0.9394826,-9.188345,10.666868,0.76986396,-0.33700237,0.21510632,0.3029539,0
2.0000000000000013,,,,,12.866051,-0.85745776,-4.319895,1.3558358,0.1376058,0.35780233,1.9240625,0.3270222,-0.062267385,0.07419936,0.94003904,-9.194851,10.684667,0.7682353,-0.33700237,0.21510632,0.3029539,0
2.010000000000001,,,,,12.866051,-0.85745776,-4.319895,1.3558358,0.045623988,0.46473604,1.9317316,0.32524848,-0.06110209,0.07165236,0.94092804,-9.201509,10.701989,0.7656024,-0.43792424,-0.37041986,0.37719998,0
2.020000000000001,,,,,12.866051,-0.85745776,-4.319895,1.3558358,-0.046424337,0.5718402,1.9393748,0.32347095,-0.059936073,0.069104515,0.941806,-9.208153,10.718762,0.7630687,-0.43792424,-0.37041986,0.37719998,0
2.0300000000000007,,,,,12.866051,-0.85745776,-4.319895,1.3558358,-0.138539,0.6791094,1.9469932,0.3216896,-0.05876935,0.06655585,0.94267285,-9.214777,10.734986,0.7606309,-0.43792424,-0.37041986,0.37719998,0
2.0400000000000005,,,,,12.866051,-0.85745776,-4.319895,1.3558358,-0.23071982,0.786538,1.9545877,0.31990445,-0.057601932,0.06400641,0.9435286,-9.22138,10.750661,0.7582862,-0.43792424,-0.37041986,0.37719998,0
2.0500000000000003,,,,,12.962054,-1.1214037,-3.8323035,1.5831066,-0.32296658,0.8941207,1.9621592,0.31811547,-0.05643384,0.061456215,0.9443732,-9.22796,10.765786,0.7560315,-0.43792424,-0.37041986,0.37719998,1
2.06,,,,,12.962054,-1.1214037,-3.8323035,1.5831066,-0.41528654,1.0018725,1.9698689,0.31142858,-0.03962371,0.05049889,0.94809914,-9.235556,10.783952,0.78603977,-1.1214037,-3.8323035,1.5831066,1
2.07,,,,,12.962054,-1.1214037,-3.8323035,1.5831066,-0.50766695,1.1097857,1.9778821,0.304598,-0.022795307,0.03951828,0.9513877,-9.240038,10.798037,0.8167067,-1.1214037,-3.8323035,1.5831066,1
2.0799999999999996,,,,,12.962054,-1.1214037,-3.8323035,1.5831066,-0.60007626,1.2178193,1.9862045,0.29762694,-0.005956389,0.02851944,0.95423746,-9.241335,10.808068,0.84782386,-1.1214037,-3.8323035,1.5831066,1
2.0899999999999994,,,,,13.596277,-0.76009154,-2.2495074,1.2493589,-0.69248235,1.3259332,1.9948393,0.2905186,0.010885274,0.017507447,0.9566471,-9.239378,10.814082,0.8791819,-1.1214037,-3.8323035,1.5831066,1
2.099999999999999,,,,,13.596277,-0.76009154,-2.2495074,1.2493589,-0.784853,1.4340895,2.00382,0.28475493,0.020649187,0.010534767,0.9583199,-9.234422,10.816819,0.91692376,-0.76009154,-2.2495074,1.2493589,1
2.109999999999999,,,,,13.596277,-0.76009154,-2.2495074,1.2493589,-0.87716407,1.5422608,2.0131776,0.27894005,0.030409385,0.0035601915,0.95982015,-9.227474,10.8170185,0.95460576,-0.76009154,-2.2495074,1.2493589,1
2.1199999999999988,,,,,13.596277,-0.76009154,-2.2495074,1.2493589,-0.9693956,1.6504214,2.0229115,0.27307495,0.04016411,-0.0034150253,0.9611477,-9.218506,10.814703,0.99214965,-0.76009154,-2.2495074,1.2493589,1
2.1299999999999986,,,,,15.330017,-0.5893667,-4.1635303,1.3678756,-1.0615271,1.7585464,2.0330198,0.26716068,0.049911607,-0.010389628,0.96230227,-9.207491,10.8099,1.0294774,-0.76009154,-2.2495074,1.2493589,1
2.1399999999999983,,,,,15.330017,-0.5893667,-4.1635303,1.3678756,-1.1535273,1.8666052,2.0435858,0.26044518,0.06907238,-0.019125143,0.9628246,-9.191749,10.801238,1.0836099,-0.5893667,-4.1635303,1.3678756,1
2.149999999999998,,,,,15.330017,-0.5893667,-4.1635303,1.3678756,-1.245345,1.9745574,2.0546892,0.25360236,0.08819939,-0.02785131,0.9628762,-9.171008,10.788599,1.1368632,-0.5893667,-4.1635303,1.3678756,1
2.159999999999998,,,,,15.330017,-0.5893667,-4.1635303,1.3678756,-1.3369302,2.0823638,2.0663195,0.24663559,0.107283294,-0.03656386,0.9624572,-9.145253,10.7720785,1.1889678,-0.5893667,-4.1635303,1.3678756,1
