t,px,py,pz,qx,qy,qz,qw,vx,vy,vz,wx,wy,wz,throttle_mpc,roll_mpc,pitch_mpc,yaw_mpc,throttle_nw,roll_nw,pitch_nw,yaw_nw,network_used
-2.0,17.107893,-10.418956,2.5647835999999997,-0.42851239999999996,0.28448647,0.85529804,0.062529005,-10.223792,-4.586938,-0.15919648,1.5559855,0.0016125233,-0.4509335,11.586461978868902,5.999999730361017,-5.999999917004621,-3.939365517118511,10.684046,-1.1114969,-2.3511732000000003,-0.86500317,0
-1.99,17.00506,-10.464360000000001,2.5631027000000004,-0.42793486,0.29023406,0.8532011,0.06843903,-10.342336999999999,-4.4939540000000004,-0.17737453,1.6795453000000002,-0.36515656,-0.57119,11.586461978868902,5.999999730361017,-5.999999917004621,-3.939365517118511,13.220671,-2.3853061,-5.043658,0.36289462,0
-1.98,16.901058,-10.508833000000001,2.5612277999999997,-0.42593175,0.2961442,0.8515621999999999,0.0756487,-10.457173,-4.4004664,-0.19795081,1.8192241999999998,-0.71018595,-0.6887134,11.586461978868902,5.999999730361017,-5.999999917004621,-3.939365517118511,13.220671,-2.3853061,-5.043658,0.36289462,0
-1.97,16.795929,-10.552368,2.5591369,-0.42257136,0.30227134,0.8502846,0.084153034,-10.567912,-4.306309,-0.22053356,1.9718769,-1.0362307,-0.8035809,11.586461978868902,5.999999730361017,-5.999999917004621,-3.939365517118511,13.220671,-2.3853061,-5.043658,0.36289462,0
-1.96,16.689716,-10.594957,2.5568116,-0.41790643,0.3086541,0.84927136,0.0939419,-10.674187,-4.211335,-0.24478738,2.1348562,-1.345624,-0.9158666,11.586461978868902,5.999999730361017,-5.999999917004621,-3.939365517118511,8.322080999999999,-2.3748891,-4.929942,0.72527796,0
-1.95,16.582462,-10.636592,2.5542367,-0.41197667,0.3153172,0.8484252,0.10500028,-10.775649000000001,-4.115424,-0.27042654,2.3059354,-1.6403425999999999,-1.0256418999999999,11.586461978868902,5.999999730361017,-5.999999917004621,-3.939365517118511,8.322080999999999,-2.3748891,-4.929942,0.72527796,0
-1.94,16.474218,-10.677261999999999,2.5513992,-0.40481073,0.32227340000000004,0.84764796,0.11730833,-10.871961,-4.0184865,-0.29720932,2.4832422999999997,-1.9220618999999999,-1.1329751000000001,11.586461978868902,5.999999730361017,-5.999999917004621,-3.939365517118511,8.322080999999999,-2.3748891,-4.929942,0.72527796,0
-1.93,16.36504,-10.716958,2.5482895,-0.39642835,0.3295248,0.84684044,0.13084148,-10.962799,-3.92047,-0.32493326,2.6652036,-2.1922040000000003,-1.237932,11.586461978868902,5.999999730361017,-5.999999917004621,-3.939365517118511,8.322080999999999,-2.3748891,-4.929942,0.72527796,0
-1.92,16.254982000000002,-10.755668,2.5448985,-0.38684186,0.33706412,0.84590226,0.14557034,-11.04785,-3.821362,-0.35343128,2.8504977000000005,-2.451975,-1.3405756000000002,13.854376605789476,5.999999855283063,-5.999999950551941,-3.631153898142632,13.267009,-1.7089192,-6.3933279999999995,0.36151059999999996,0
-1.91,16.144068,-10.793338,2.5412493,-0.37578740000000005,0.34506333,0.8447415999999999,0.16163847,-11.133693,-3.7124205000000003,-0.37653200000000003,3.1422057,-2.8067627,-1.4351575,13.854376605789476,5.999999855283063,-5.999999950551941,-3.631153898142632,13.267009,-1.7089192,-6.3933279999999995,0.36151059999999996,0
-1.9,16.032331,-10.829913000000001,2.5373652,-0.3630157,0.35365084,0.8432393,0.17916015,-11.212207000000001,-3.6026175000000005,-0.40038,3.4260578,-3.1439058999999996,-1.5284655,13.854376605789476,5.999999855283063,-5.999999950551941,-3.631153898142632,13.267009,-1.7089192,-6.3933279999999995,0.36151059999999996,0
-1.89,15.91985,-10.865387,2.5332396,-0.34855264,0.36274368,0.84125066,0.19805442,-11.282962,-3.4919964999999995,-0.4248418,3.7021403,-3.4650128,-1.62046,13.854376605789476,5.999999855283063,-5.999999950551941,-3.631153898142632,13.267009,-1.7089192,-6.3933279999999995,0.36151059999999996,0
-1.8800000000000001,15.806701,-10.899752000000001,2.5288668,-0.33241948,0.37225464,0.83862823,0.21823522,-11.345557000000001,-3.3806913,-0.4498287,3.9705845999999996,-3.7715,-1.7111087,13.854376605789476,5.999999855283063,-5.999999950551941,-3.631153898142632,13.267009,-1.7089192,-6.3933279999999995,0.36151059999999996,0
-1.87,15.692967999999999,-10.933000999999999,2.5242417,-0.31463507,0.3820923,0.8352226999999999,0.23961073,-11.399624000000001,-3.2689242000000003,-0.47529449999999995,4.231555999999999,-4.0646186,-1.8003856,18.16641602644032,5.999999899096787,-5.999999963123969,-3.2243863431555524,12.925144,-0.8350774,-5.9382167,0.18310413,0
-1.8599999999999999,15.578671,-10.964969,2.519463,-0.2951253,0.39221504,0.8308884,0.26209342,-11.457984,-3.1243602999999998,-0.48018655,4.5067916,-4.3669677,-1.8702618000000002,18.16641602644032,5.999999899096787,-5.999999963123969,-3.2243863431555524,12.925144,-0.8350774,-5.9382167,0.18310413,0
-1.85,15.463845000000001,-10.995476,2.5146432,-0.27394709999999994,0.40250537,0.82549006,0.28549728,-11.505542,-2.9768186,-0.48362407,4.7391467,-4.6221255999999995,-1.936709,18.16641602644032,5.999999899096787,-5.999999963123969,-3.2243863431555524,12.925144,-0.8350774,-5.9382167,0.18310413,0
-1.84,15.348601,-11.024496000000001,2.5097954,-0.25130093,0.41277659999999994,0.8189108,0.3095942,-11.541478999999999,-2.8268932999999996,-0.48569775,4.935306,-4.837455,-1.9998957,20.68742264049427,4.647422249084077,-5.9999951958493725,-1.4900017365779137,14.544966,-0.31971124,-5.690066000000001,-0.23658600000000002,0
-1.83,15.233039999999999,-11.051903,2.5050008,-0.22745363,0.4224853,0.8113562,0.33387459999999997,-11.56842,-2.6543047000000004,-0.47303566,4.890257,-5.018614,-1.9748751,20.68742264049427,4.647422249084077,-5.9999951958493725,-1.4900017365779137,14.544966,-0.31971124,-5.690066000000001,-0.23658600000000002,0
-1.82,15.117281,-11.077579,2.5003395,-0.20264648,0.43121645,0.80304515,0.35791814,-11.580983,-2.480952,-0.45901367,4.85227,-5.171536,-1.9510821,20.68742264049427,4.647422249084077,-5.9999951958493725,-1.4900017365779137,14.544966,-0.31971124,-5.690066000000001,-0.23658600000000002,0
-1.81,15.001470000000001,-11.101522000000001,2.495825,-0.17701289,0.43899658,0.7939082,0.38165215,-11.578968,-2.3080003,-0.44369575,4.8202386,-5.300622,-1.9284568,20.68742264049427,4.647422249084077,-5.9999951958493725,-1.4900017365779137,14.544966,-0.31971124,-5.690066000000001,-0.23658600000000002,0
-1.8,14.885753,-11.123744,2.4914696,-0.15067206,0.44584915,0.78389114,0.4050077,-11.562288,-2.1366193,-0.42720932,4.793227,-5.4095874,-1.9069417000000002,19.64538899226097,3.4226519653181238,-4.6314953430344685,-1.0882251174644877,14.294239000000001,-1.4908055,-4.698353,1.0421697,0
-1.79,14.7702675,-11.144307000000001,2.4872549999999998,-0.12434135,0.45165434,0.773129,0.42757356,-11.532608,-1.9764535,-0.41556057,4.5797763,-5.2878585,-1.8667668999999998,19.64538899226097,3.4226519653181238,-4.6314953430344685,-1.0882251174644877,14.294239000000001,-1.4908055,-4.698353,1.0421697,0
-1.7799999999999998,14.655145999999998,-11.163283999999999,2.4831607000000004,-0.09861073,0.45637116,0.76180947,0.4490519,-11.4896145,-1.8198341,-0.40319976,4.399577,-5.185169999999999,-1.8285636000000003,19.64538899226097,3.4226519653181238,-4.6314953430344685,-1.0882251174644877,14.294239000000001,-1.4908055,-4.698353,1.0421697,0
-1.77,14.540517999999999,-11.180717999999999,2.4791927000000005,-0.073404014,0.4601202999999999,0.74995947,0.46953368,-11.433966999999999,-1.6676043999999999,-0.39034995,4.24745,-5.098543,-1.7922349999999998,19.64538899226097,3.4226519653181238,-4.6314953430344685,-1.0882251174644877,14.294239000000001,-1.4908055,-4.698353,1.0421697,0
-1.7599999999999998,14.426507,-11.196653999999999,2.4753547,-0.048655786,0.46300045,0.73759836,0.4890927,-11.366305,-1.520525,-0.37722626,4.1190214,-5.0254650000000005,-1.7576889999999998,19.64538899226097,3.4226519653181238,-4.6314953430344685,-1.0882251174644877,14.307293,-1.4563846999999999,-2.4767034,0.6618994,0
-1.75,14.313229999999999,-11.211148,2.4716485,-0.024310788,0.46509236,0.7247404000000001,0.50778866,-11.28726,-1.3792862,-0.36403826,4.0106,-4.9638157,-1.7248383000000003,19.64538899226097,3.4226519653181238,-4.6314953430344685,-1.0882251174644877,14.307293,-1.4563846999999999,-2.4767034,0.6618994,0
-1.7399999999999998,14.200797,-11.224262,2.4680736,-0.00032308558,0.46646202,0.7113963000000001,0.5256692,-11.197449,-1.2445182,-0.3509919,3.919068,-4.911808000000001,-1.6935995,19.64538899226097,3.4226519653181238,-4.6314953430344685,-1.0882251174644877,14.307293,-1.4563846999999999,-2.4767034,0.6618994,0
-1.73,14.089315,-11.236064,2.4646272999999996,0.023344822,0.46716359999999996,0.6975748,0.54277277,-11.097485,-1.116798,-0.33829063,3.841795,-4.867934,-1.6638936000000002,19.64538899226097,3.4226519653181238,-4.6314953430344685,-1.0882251174644877,14.307293,-1.4563846999999999,-2.4767034,0.6618994,0
-1.72,13.978881,-11.246625,2.4613056,0.04672288,0.46724156,0.6832833,0.55912966,-10.987974000000001,-0.99665564,-0.32613626,3.7765589999999998,-4.830921,-1.6356453000000002,18.609487623008164,1.9196953503901808,-2.7844458342386877,-0.7010484118042691,14.063308,-1.3752936000000002,-0.36896673,0.5931371,0
-1.71,13.869554999999998,-11.256053999999999,2.458073,0.06901695599999999,0.46674892,0.6688894000000001,0.5744291,-10.875831,-0.89043254,-0.3204958,3.4874578,-4.511362,-1.5897843,18.609487623008164,1.9196953503901808,-2.7844458342386877,-0.7010484118042691,14.063308,-1.3752936000000002,-0.36896673,0.5931371,0
-1.7,13.761389999999999,-11.264459,2.4548926,0.089608304,0.46578425,0.65475714,0.5884796,-10.756207,-0.79183304,-0.31568137,3.243366,-4.2417050000000005,-1.5461736000000001,18.609487623008164,1.9196953503901808,-2.7844458342386877,-0.7010484118042691,14.063308,-1.3752936000000002,-0.36896673,0.5931371,0
-1.69,13.654454000000001,-11.271915,2.451756,0.10875685,0.46443343,0.64087605,0.60145754,-10.630021000000001,-0.700753,-0.31177396,3.0372779999999997,-4.0141563,-1.5047030000000001,18.609487623008164,1.9196953503901808,-2.7844458342386877,-0.7010484118042691,14.063308,-1.3752936000000002,-0.36896673,0.5931371,0
-1.68,13.548810000000001,-11.2785,2.4486537,0.12668343,0.46276054,0.6272267,0.6135066,-10.49806,-0.61707705,-0.3088315,2.8632782000000003,-3.8221394999999996,-1.4652673999999999,17.39590031339612,-0.2814731517643302,-0.6461278527464532,1.0221850489918936,15.313009,-2.3190603,1.4145406,0.9329850000000001,0
-1.67,13.444467000000001,-11.284307499999999,2.4455432999999998,0.14259945,0.46077487,0.6144483000000001,0.62434363,-10.370002000000001,-0.5455978,-0.31339654,2.3735955,-3.3261837999999995,-1.3432075,17.39590031339612,-0.2814731517643302,-0.6461278527464532,1.0221850489918936,15.313009,-2.3190603,1.4145406,0.9329850000000001,0
-1.66,13.341423,-11.289433,2.4423833,0.15591545,0.4585275,0.60311645,0.6337927,-10.238147,-0.48025882,-0.31874374,1.9601264999999999,-2.9077189999999997,-1.2271371000000002,17.39590031339612,-0.2814731517643302,-0.6461278527464532,1.0221850489918936,15.313009,-2.3190603,1.4145406,0.9329850000000001,0
-1.65,13.239713,-11.293932,2.4391662999999997,0.16707058,0.45610365,0.5931046999999999,0.642093,-10.103319,-0.42036232,-0.32468596,1.6110176,-2.5546287999999997,-1.1167623,17.39590031339612,-0.2814731517643302,-0.6461278527464532,1.0221850489918936,15.313009,-2.3190603,1.4145406,0.9329850000000001,0
-1.64,13.139363000000001,-11.297856,2.4358877999999997,0.17643322,0.4535599,0.58428663,0.6494331999999999,-9.96617,-0.36528188,-0.33104607,1.3162568000000001,-2.2566938,-1.0118035,18.312356823254774,-3.007553857922132,2.658982392812531,2.200688203519101,17.353151,-4.335972,3.3533133999999998,1.2166871000000001,0
-1.63,13.040431,-11.301239,2.4325686,0.18290004,0.45114106,0.57737446,0.65548277,-9.819956,-0.31166318,-0.33281544,0.6426236999999999,-1.4895831,-0.8541655999999999,18.312356823254774,-3.007553857922132,2.658982392812531,2.200688203519101,17.353151,-4.335972,3.3533133999999998,1.2166871000000001,0
-1.6199999999999999,12.942967,-11.304101,2.429232,0.18562864,0.44906288,0.57295674,0.66000366,-9.672723,-0.26107767,-0.33449328,0.07382643,-0.84229,-0.7042630999999999,18.312356823254774,-3.007553857922132,2.658982392812531,2.200688203519101,17.353151,-4.335972,3.3533133999999998,1.2166871000000001,0
-1.6099999999999999,12.846978,-11.306466,2.4258804,0.18524626,0.44729844,0.5707293000000001,0.6632313,-9.525223,-0.21213004,-0.33573200000000003,-0.4064324,-0.2960836,-0.5617164000000001,18.312356823254774,-3.007553857922132,2.658982392812531,2.200688203519101,17.353151,-4.335972,3.3533133999999998,1.2166871000000001,0
-1.5999999999999999,12.752461,-11.308345,2.4225202,0.1822726,0.44580242,0.5704069,0.66533643,-9.378059,-0.16362591,-0.3362383,-0.81191933,0.1648356,-0.42616445,20.61082725065089,-4.791693652190348,5.1098032959207265,2.422898750614054,18.33182,-5.269346,4.7562356,0.18983182,0
-1.5899999999999999,12.659505000000001,-11.309706,2.4192212000000004,0.1761155,0.44476056,0.5722401,0.6661174,-9.213413000000001,-0.108290635,-0.32338920000000004,-1.4324301000000002,0.9360453000000001,-0.28636009,20.61082725065089,-4.791693652190348,5.1098032959207265,2.422898750614054,18.33182,-5.269346,4.7562356,0.18983182,0
-1.5799999999999998,12.568186,-11.310502,2.4160573,0.16631676,0.4442928,0.57637703,0.665381,-9.050541,-0.050583645999999996,-0.30914128,-1.9563183000000002,1.5868711000000002,-0.15341595,20.61082725065089,-4.791693652190348,5.1098032959207265,2.422898750614054,18.33182,-5.269346,4.7562356,0.18983182,0
-1.5699999999999998,12.478484,-11.310703,2.4130437000000002,0.15345082,0.44424853,0.5824216,0.6632351,-8.890259,0.01104809,-0.29327166,-2.3986118,2.1361187000000004,-0.026995448,20.61082725065089,-4.791693652190348,5.1098032959207265,2.422898750614054,18.33182,-5.269346,4.7562356,0.18983182,0
-1.5599999999999998,12.390369,-11.310263,2.4101977000000003,0.13799883,0.44448555,0.5900166,0.65974927,-8.733346000000001,0.07787661,-0.27566084,-2.772005,2.5996537,0.093221575,20.61082725065089,-4.791693652190348,5.1098032959207265,2.422898750614054,18.595175,-5.246506,5.6670117,-0.87368095,0
-1.5499999999999998,12.303804,-11.309124,2.4075365,0.120367035,0.44487464,0.5988434,0.6549693,-8.580574,0.1509218,-0.25628653,-3.0872192000000003,2.9908624,0.2075395,20.61082725065089,-4.791693652190348,5.1098032959207265,2.422898750614054,18.595175,-5.246506,5.6670117,-0.87368095,0
-1.5399999999999998,12.218741,-11.30722,2.4050777,0.100900926,0.44530147,0.60862046,0.6489272,-8.432711999999999,0.23097646,-0.23521468,-3.3533096,3.3210375,0.3162478,20.61082725065089,-4.791693652190348,5.1098032959207265,2.422898750614054,18.595175,-5.246506,5.6670117,-0.87368095,0
-1.5299999999999998,12.13513,-11.304478999999999,2.4028375,0.07989651,0.445667,0.6191002,0.641648,-8.290531,0.31862813,-0.21258916,-3.5779237999999998,3.599708,0.41962174,20.61082725065089,-4.791693652190348,5.1098032959207265,2.422898750614054,18.595175,-5.246506,5.6670117,-0.87368095,0
-1.5199999999999998,12.052908,-11.300819,2.4008307,0.057609065999999994,0.44588682,0.63006586,0.63315314,-8.154802,0.41427806,-0.18862136,-3.7675197,3.8349142,0.5179231,20.46554823905296,-5.091564239298463,5.547608618113222,2.237195000835673,19.273203,-4.497566,6.2446504,-0.6536503,0
-1.5099999999999998,11.972002999999999,-11.296166,2.3990647999999997,0.034063004,0.44592386,0.6413729,0.62340367,-8.027205,0.5174414,-0.16444904,-3.9743180000000002,4.101719999999999,0.6022883000000001,20.46554823905296,-5.091564239298463,5.547608618113222,2.237195000835673,19.273203,-4.497566,6.2446504,-0.6536503,0
-1.4999999999999998,11.892336,-11.290441,2.3975444,0.009292847,0.44573509999999994,0.65287465,0.6123628000000001,-7.907610000000001,0.6289672,-0.13953839,-4.148866,4.3269205,0.68251365,20.46554823905296,-5.091564239298463,5.547608618113222,2.237195000835673,19.273203,-4.497566,6.2446504,-0.6536503,0
-1.4899999999999998,11.813821,-11.283558,2.3962752999999997,-0.01647878,0.44524813,0.6643904,0.60005635,-7.796841000000001,0.7488918999999999,-0.11426863,-4.296188,4.517008000000001,0.7588023,20.46554823905296,-5.091564239298463,5.547608618113222,2.237195000835673,19.273203,-4.497566,6.2446504,-0.6536503,0
-1.4799999999999998,11.736365,-11.2754345,2.3952587000000003,-0.043055605,0.44440353,0.67576265,0.5865119000000001,-7.6956940000000005,0.87709147,-0.08906038,-4.4205265,4.6774592,0.83134747,19.021049711015827,-4.469301856048772,4.7968949274651465,1.9410534710411471,18.689232,-3.6308366999999997,6.050286,0.041772212999999996,0
-1.4699999999999998,11.659838,-11.266035,2.3944487999999997,-0.069931485,0.44315010000000005,0.68674374,0.57193553,-7.611301400000001,1.0036625,-0.07302923,-4.42831,4.695924,0.8858011,19.021049711015827,-4.469301856048772,4.7968949274651465,1.9410534710411471,18.689232,-3.6308366999999997,6.050286,0.041772212999999996,0
-1.4599999999999997,11.584104,-11.255336999999999,2.3937953,-0.09669425,0.44146907,0.6971579999999999,0.55653,-7.5369964000000005,1.1371601,-0.057880192999999996,-4.434870200000001,4.711517,0.93758255,19.021049711015827,-4.469301856048772,4.7968949274651465,1.9410534710411471,18.689232,-3.6308366999999997,6.050286,0.041772212999999996,0
-1.4499999999999997,11.509061,-11.243271,2.393287,-0.12330899999999999,0.43935964,0.7069743,0.54031926,-7.4731526,1.2769978000000002,-0.044008877,-4.4403996,4.7246857,0.9868232,19.021049711015827,-4.469301856048772,4.7968949274651465,1.9410534710411471,18.689232,-3.6308366999999997,6.050286,0.041772212999999996,0
-1.4399999999999997,11.434604,-11.229776,2.3929093,-0.14974223,0.43682215,0.71616405,0.5233281,-7.420101,1.4225518,-0.03180133,-4.445059,4.7358080000000005,1.0336477,16.33507140342191,-3.2349443791922003,3.1640952091182135,1.5840204012398236,18.91725,-3.072053,3.7139297,0.033363935,0
-1.4299999999999997,11.360591000000001,-11.214908,2.3925674,-0.17525832,0.43387622,0.7245784000000001,0.50598586,-7.3840027,1.5518713,-0.03690492,-4.256256,4.490752,1.0606546000000001,16.33507140342191,-3.2349443791922003,3.1640952091182135,1.5840204012398236,18.91725,-3.072053,3.7139297,0.033363935,0
-1.4199999999999997,11.286892,-11.198727,2.3921650000000003,-0.19928853,0.43058320000000005,0.7321643,0.48868927,-7.3572216,1.6847796000000002,-0.04393422599999999,-4.0969120000000006,4.283901999999999,1.0863364,16.33507140342191,-3.2349443791922003,3.1640952091182135,1.5840204012398236,18.91725,-3.072053,3.7139297,0.033363935,0
-1.4099999999999997,11.213414,-11.181202,2.3916817000000004,-0.22202906,0.4269946,0.73901916,0.47141179999999994,-7.339509,1.8205692,-0.05301846599999999,-3.9624305,4.1093006,1.1107578000000002,16.33507140342191,-3.2349443791922003,3.1640952091182135,1.5840204012398236,18.91725,-3.072053,3.7139297,0.033363935,0
-1.3999999999999997,11.14007,-11.162308,2.3910967999999997,-0.24364582,0.42314884,0.7452181999999999,0.45412695,-7.3306309999999995,1.9586067999999999,-0.064264596,-3.848933,3.9619199999999997,1.1339808999999998,14.440134105817668,-1.59352554979801,1.311319526991451,1.2427045784740576,17.507986,-3.2938172999999997,2.8882685,-0.19584945,0
-1.3899999999999997,11.0667715,-11.142106,2.3903394000000002,-0.26345256,0.41923046,0.7507221,0.43732664,-7.3303375,2.082102,-0.08755799,-3.4969108,3.5488079,1.1393158,14.440134105817668,-1.59352554979801,1.311319526991451,1.2427045784740576,17.507986,-3.2938172999999997,2.8882685,-0.19584945,0
-1.3799999999999997,10.99344,-11.120664,2.3893394,-0.2809409,0.41542697,0.75556546,0.42144185,-7.3370194,2.2065556,-0.11275643,-3.199831,3.2000822999999996,1.1443893,14.440134105817668,-1.59352554979801,1.311319526991451,1.2427045784740576,17.507986,-3.2938172999999997,2.8882685,-0.19584945,0
-1.3699999999999997,10.920009,-11.097974,2.3880784999999998,-0.29647735,0.41175848,0.759888,0.40635726,-7.350052000000001,2.3315425,-0.13974321,-2.9491188999999998,2.905708,1.1492136,14.440134105817668,-1.59352554979801,1.311319526991451,1.2427045784740576,17.507986,-3.2938172999999997,2.8882685,-0.19584945,0
-1.3599999999999997,10.846418,-11.074033,2.3865392000000005,-0.31036909999999995,0.4082314,0.7637939,0.39196529999999996,-7.3688946,2.4567294,-0.16840088,-2.7375371,2.6572144,1.1538012,14.440134105817668,-1.59352554979801,1.311319526991451,1.2427045784740576,16.042776,-2.7762492,2.0910006,-0.3721232,0
-1.3499999999999996,10.772614,-11.0488405,2.3847053,-0.32287347,0.4048432,0.76736116,0.3781683,-7.3930836,2.5818539,-0.19861674,-2.5589787999999998,2.4474497000000004,1.1581638,14.440134105817668,-1.59352554979801,1.311319526991451,1.2427045784740576,16.042776,-2.7762492,2.0910006,-0.3721232,0
-1.3399999999999996,10.698541,-11.022397,2.3825617,-0.33420575,0.4015858,0.7706481,0.36487886,-7.422219999999999,2.7067049,-0.23028582,-2.4082897,2.2703778999999997,1.1623123,14.440134105817668,-1.59352554979801,1.311319526991451,1.2427045784740576,16.042776,-2.7762492,2.0910006,-0.3721232,0
-1.3299999999999996,10.624153,-10.994708000000001,2.3800947999999997,-0.34454609999999997,0.39844778,0.7736984,0.3520198,-7.455962700000001,2.831111,-0.26331228,-2.28112,2.1209035,1.1662571000000002,14.440134105817668,-1.59352554979801,1.311319526991451,1.2427045784740576,16.042776,-2.7762492,2.0910006,-0.3721232,0
-1.3199999999999996,10.549406,-10.965777000000001,2.3772914000000003,-0.35404536,0.39541617,0.7765446,0.33952352,-7.494017599999999,2.9549305,-0.29760978,-2.1737987999999997,1.9947251,1.1700084,14.620296477437766,-0.08492998169455586,-0.3706239196133625,0.8548861858387858,15.585785000000001,-2.1588938,1.4138443,-0.37977552,0
-1.3099999999999996,10.474256,-10.935604,2.3741426,-0.36212596,0.39270756,0.7792034000000001,0.32785267,-7.5366035,3.0795882000000003,-0.33229873,-1.8477433999999997,1.6261173,1.1545453,14.620296477437766,-0.08492998169455586,-0.3706239196133625,0.8548861858387858,15.585785000000001,-2.1588938,1.4138443,-0.37977552,0
-1.2999999999999996,10.398663,-10.904188000000001,2.3706419999999997,-0.36835536,0.39051017,0.7817166,0.31738790000000006,-7.5826697,3.2034996,-0.36796290000000004,-1.5725869,1.3149486000000001,1.1398408000000002,14.620296477437766,-0.08492998169455586,-0.3706239196133625,0.8548861858387858,15.585785000000001,-2.1588938,1.4138443,-0.37977552,0
-1.2899999999999996,10.322594,-10.871537,2.3667808,-0.37304077,0.38876656,0.7841311,0.30796003,-7.631627000000001,3.3266757000000005,-0.40437368,-1.340383,1.0522691000000002,1.1258581,14.620296477437766,-0.08492998169455586,-0.3706239196133625,0.8548861858387858,15.585785000000001,-2.1588938,1.4138443,-0.37977552,0
-1.2799999999999996,10.246023,-10.837657,2.3625526000000003,-0.37643677,0.38742152,0.7864774,0.29942122,-7.682980000000001,3.4491484,-0.44133338,-1.1444258999999999,0.8305234,1.1125613,14.8932134095839,1.1813493705055125,-1.9078445438144045,0.5253298448294035,14.834807999999999,-1.5745115,0.51340735,-0.5377983000000001,0
-1.2699999999999996,10.168923,-10.802546000000001,2.3579583,-0.3781373,0.38662615,0.7888006,0.29210567,-7.737261999999999,3.5732470000000003,-0.47751787,-0.78140545,0.40375426,1.0837457,14.8932134095839,1.1813493705055125,-1.9078445438144045,0.5253298448294035,14.834807999999999,-1.5745115,0.51340735,-0.5377983000000001,0
-1.2599999999999996,10.091273,-10.766193,2.3530016,-0.37783656,0.38650113,0.7911395999999999,0.2862765,-7.792845699999999,3.6968105,-0.51378614,-0.47505966,0.043486662,1.0563441999999998,14.8932134095839,1.1813493705055125,-1.9078445438144045,0.5253298448294035,14.834807999999999,-1.5745115,0.51340735,-0.5377983000000001,0
-1.2499999999999996,10.013063,-10.728609,2.347683,-0.3758597,0.38695207,0.79349446,0.28171593,-7.849075999999999,3.8199853999999998,-0.5498628000000001,-0.21653846,-0.2606408,1.0302870000000002,14.8932134095839,1.1813493705055125,-1.9078445438144045,0.5253298448294035,14.834807999999999,-1.5745115,0.51340735,-0.5377983000000001,0
-1.2399999999999995,9.934292,-10.689795,2.3420055,-0.3724755,0.38789272,0.7958553,0.27823603,-7.905397,3.9429078,-0.58552223,0.0016254633999999999,-0.5173749,1.0055085,15.557645998163993,2.0253112056672107,-3.1218335505148733,0.19985234977818284,13.663647000000001,-0.7028768,-0.7776947,-0.71980906,0
-1.2299999999999995,9.854944999999999,-10.649725,2.3359885,-0.36744153,0.38936475,0.79824436,0.27602088,-7.9637975999999995,4.071183,-0.61775273,0.3174607,-0.9233398000000002,0.9659747999999999,15.557645998163993,2.0253112056672107,-3.1218335505148733,0.19985234977818284,13.663647000000001,-0.7028768,-0.7776947,-0.71980906,0
-1.2199999999999995,9.77502,-10.608372,2.3296535,-0.36057335,0.39139104,0.80066264,0.27520734,-8.021103,4.199483,-0.64907736,0.5839839,-1.26604,0.9283809000000001,15.557645998163993,2.0253112056672107,-3.1218335505148733,0.19985234977818284,13.663647000000001,-0.7028768,-0.7776947,-0.71980906,0
-1.2099999999999995,9.69453,-10.565735,2.323011,-0.352152,0.39387107,0.8030628000000001,0.27558023,-8.076674,4.327945,-0.67925954,0.80889714,-1.5553327,0.8926318000000001,15.557645998163993,2.0253112056672107,-3.1218335505148733,0.19985234977818284,13.663647000000001,-0.7028768,-0.7776947,-0.71980906,0
-1.1999999999999995,9.613494000000001,-10.5218115,2.316073,-0.34241155,0.39671540000000005,0.8053986,0.27695498,-8.129957000000001,4.4566717,-0.7081223000000001,0.9986985,-1.7995394,0.8586370000000001,16.542713876807785,2.2624579718231987,-3.743031669674585,-0.13282697144023334,15.057321,-0.55653644,-1.4719783000000002,-1.009072,0
-1.1899999999999995,9.531922999999999,-10.476558,2.3088759999999997,-0.33133692,0.39983845,0.8076606,0.27933717,-8.183653999999999,4.593899700000001,-0.73105377,1.1958841999999998,-2.1025531,0.8099856,16.542713876807785,2.2624579718231987,-3.743031669674585,-0.13282697144023334,15.057321,-0.55653644,-1.4719783000000002,-1.009072,0
-1.1799999999999995,9.449833,-10.429931,2.3014581,-0.3189243,0.40316093,0.80982447,0.28272343,-8.233836,4.731512,-0.7522814999999999,1.3622798999999999,-2.3583379,0.76372147,16.542713876807785,2.2624579718231987,-3.743031669674585,-0.13282697144023334,15.057321,-0.55653644,-1.4719783000000002,-1.009072,0
-1.1699999999999995,9.367261,-10.381926,2.2938366,-0.30536994,0.406618,0.81183,0.28695437,-8.279989,4.869502,-0.77168524,1.5026962,-2.5742529999999997,0.7197275,16.542713876807785,2.2624579718231987,-3.743031669674585,-0.13282697144023334,15.057321,-0.55653644,-1.4719783000000002,-1.009072,0
-1.1599999999999995,9.284248,-10.33254,2.2860305,-0.29083967,0.41015336,0.8136244,0.29189327,-8.321661,5.0078254,-0.789198,1.6211913999999998,-2.7565122000000004,0.6778924,16.542713876807785,2.2624579718231987,-3.743031669674585,-0.13282697144023334,15.228172,-0.43522838,-1.410092,-1.2140792999999999,0
-1.1499999999999995,9.200845,-10.281768,2.278059,-0.27547443,0.4137187,0.8151626999999999,0.29742270000000004,-8.358457000000001,5.146403,-0.8047984,1.7211893,-2.9103596,0.63811016,16.542713876807785,2.2624579718231987,-3.743031669674585,-0.13282697144023334,15.228172,-0.43522838,-1.410092,-1.2140792999999999,0
-1.1399999999999995,9.117099000000001,-10.229611,2.2699409,-0.25939453,0.41727272,0.81640726,0.30344188,-8.390035000000001,5.2851253,-0.81850374,1.805579,-3.0402236,0.60028005,16.542713876807785,2.2624579718231987,-3.743031669674585,-0.13282697144023334,15.228172,-0.43522838,-1.410092,-1.2140792999999999,0
-1.1299999999999994,9.033064999999999,-10.176066,2.2616954,-0.24270293,0.42078048,0.81732684,0.30986416,-8.416097,5.423858,-0.83036405,1.876798,-3.149842,0.56430626,16.542713876807785,2.2624579718231987,-3.743031669674585,-0.13282697144023334,15.228172,-0.43522838,-1.410092,-1.2140792999999999,0
-1.1199999999999994,8.948797,-10.121135,2.25334,-0.22548822,0.42421252,0.8178959,0.31661502,-8.436388,5.5624447,-0.8404573000000001,1.9369034,-3.2423707999999998,0.5300978,16.632499891356172,1.8708404862961037,-3.807145865481429,-0.32499042850183874,13.748345,-0.3154643,-1.3847933000000001,-1.0615871000000001,0
-1.1099999999999994,8.864357,-10.0648155,2.2448945,-0.20786601,0.42740282,0.81815916,0.32362634,-8.450777,5.701455,-0.84839034,1.9265403000000003,-3.3305035000000003,0.48813838,16.632499891356172,1.8708404862961037,-3.807145865481429,-0.32499042850183874,13.748345,-0.3154643,-1.3847933000000001,-1.0615871000000001,0
-1.0999999999999994,8.779803,-10.007109,2.2363777000000002,-0.18993692,0.43021983,0.81815356,0.33084667,-8.459016,5.839908599999999,-0.8547103000000001,1.9177891,-3.4048884,0.44823789999999997,16.632499891356172,1.8708404862961037,-3.807145865481429,-0.32499042850183874,13.748345,-0.3154643,-1.3847933000000001,-1.0615871000000001,0
-1.0899999999999994,8.695198,-9.94802,2.2278056,-0.17175151,0.43268746,0.8178496999999999,0.33823776,-8.461003,5.9775624,-0.85949326,1.9104002,-3.4676697,0.4102954000000001,16.632499891356172,1.8708404862961037,-3.807145865481429,-0.32499042850183874,13.748345,-0.3154643,-1.3847933000000001,-1.0615871000000001,0
-1.0799999999999994,8.610603999999999,-9.887561,2.2191927000000002,-0.15335351,0.43482652,0.81722385,0.34576526,-8.456662,6.114174,-0.8628355,1.9041622999999999,-3.5206574999999996,0.3742147,16.917502324597677,0.9540454904928268,-3.3539820021267426,-0.4432211991453884,14.056065,-0.5971960999999999,-1.3311687,-0.8149541,0
-1.0699999999999994,8.526087,-9.825728999999999,2.2105618,-0.13506368,0.43641840000000004,0.8163887,0.35327896,-8.445782000000001,6.251815000000001,-0.86319417,1.7558945,-3.4947470000000003,0.33410287,16.917502324597677,0.9540454904928268,-3.3539820021267426,-0.4432211991453884,14.056065,-0.5971960999999999,-1.3311687,-0.8149541,0
-1.0599999999999994,8.44171,-9.762528999999999,2.2019333999999997,-0.11714518,0.43730092,0.81545115,0.3606716,-8.428589,6.3878746,-0.8622542999999999,1.6307558000000002,-3.4728625,0.29595938,16.917502324597677,0.9540454904928268,-3.3539820021267426,-0.4432211991453884,14.056065,-0.5971960999999999,-1.3311687,-0.8149541,0
-1.0499999999999994,8.357536,-9.697977,2.193321,-0.09955415,0.43756658,0.8143843000000001,0.36797062,-8.40528,6.5220985,-0.86006695,1.5251377000000002,-3.4543797999999994,0.25968757,16.917502324597677,0.9540454904928268,-3.3539820021267426,-0.4432211991453884,14.056065,-0.5971960999999999,-1.3311687,-0.8149541,0
-1.0399999999999994,8.273624,-9.632093,2.184736,-0.08225271,0.4372934,0.8131646,0.37519600000000003,-8.376033999999999,6.6542520000000005,-0.85669243,1.4359963,-3.43877,0.22519565,16.77051211473109,-0.2542041481745854,-2.5798994132910638,-0.3944382696713109,13.820629,-1.3844726,-0.40216878,-0.81011885,0
-1.0299999999999994,8.190033,-9.564906,2.1761863,-0.065640315,0.43627435,0.8119661,0.38218683,-8.341353,6.78299,-0.85307807,1.1723251000000001,-3.3048917999999996,0.19479002,16.77051211473109,-0.2542041481745854,-2.5798994132910638,-0.3944382696713109,13.820629,-1.3844726,-0.40216878,-0.81011885,0
-1.0199999999999994,8.106815,-9.496443,2.1676784,-0.05003551,0.43436104,0.8109483000000001,0.388831,-8.3014,6.909273,-0.84832495,0.9497838,-3.1918759999999997,0.16587642,16.77051211473109,-0.2542041481745854,-2.5798994132910638,-0.3944382696713109,13.820629,-1.3844726,-0.40216878,-0.81011885,0
-1.0099999999999993,8.024021000000001,-9.426729,2.1592238,-0.035297338,0.4316916,0.81006813,0.39520365,-8.256611,7.0329432,-0.84239453,0.76195663,-3.0964725,0.13838163,16.77051211473109,-0.2542041481745854,-2.5798994132910638,-0.3944382696713109,13.820629,-1.3844726,-0.40216878,-0.81011885,0
-0.9999999999999991,7.9416975999999995,-9.355794,2.1508347999999997,-0.021304756,0.42838064,0.8092855999999999,0.40136373,-8.207358000000001,7.153865299999999,-0.8352573,0.60342824,-3.0159380000000002,0.112236015,16.504812444289037,-1.5033691757190946,-1.5013843095012704,-0.2271054462999842,14.860754,-1.7160261000000003,-0.42820528,-0.42211547,0
-0.9899999999999991,7.859884,-9.283672,2.1425147,-0.008496058,0.424296,0.8087829000000001,0.4071497,-8.154858,7.270061999999999,-0.82856685,0.27482685,-2.7797716,0.09558442,16.504812444289037,-1.5033691757190946,-1.5013843095012704,-0.2271054462999842,14.860754,-1.7160261000000003,-0.42820528,-0.42211547,0
-0.9799999999999991,7.778612599999999,-9.210402499999999,2.1342682999999996,0.0027861872,0.41934679999999996,0.8087199,0.41244692,-8.098903,7.3834114,-0.8205530999999999,-0.0025209860000000002,-2.5804252999999995,0.07974994,16.504812444289037,-1.5033691757190946,-1.5013843095012704,-0.2271054462999842,14.860754,-1.7160261000000003,-0.42820528,-0.42211547,0
-0.9699999999999993,7.697916,-9.136013,2.126109,0.012768103000000001,0.41367397,0.80902696,0.41735598,-8.040068,7.4939100000000005,-0.81109774,-0.23660995,-2.4121592,0.06469246,16.504812444289037,-1.5033691757190946,-1.5013843095012704,-0.2271054462999842,14.860754,-1.7160261000000003,-0.42820528,-0.42211547,0
-0.9599999999999993,7.6178193,-9.0605345,2.1180515,0.021642382999999998,0.4073928,0.8096392,0.42195600000000005,-7.9788380000000005,7.6015559999999995,-0.8000976,-0.43418756,-2.2701287,0.05037385,16.504812444289037,-1.5033691757190946,-1.5013843095012704,-0.2271054462999842,15.359129999999999,-2.7546206,0.20076619,0.04164168,0
-0.9499999999999993,7.5383453,-8.983992,2.1101122,0.029573046000000002,0.40059829999999996,0.8104978,0.42630917,-7.915624,7.706352000000001,-0.7874658,-0.600949,-2.1502435,0.036757864,16.504812444289037,-1.5033691757190946,-1.5013843095012704,-0.2271054462999842,15.359129999999999,-2.7546206,0.20076619,0.04164168,0
-0.9399999999999993,7.4595118000000005,-8.906416,2.1023077999999997,0.036699586,0.39336902,0.81155044,0.43046436,-7.850775200000001,7.808299000000001,-0.7731319999999999,-0.74170077,-2.0490515,0.023810022,16.504812444289037,-1.5033691757190946,-1.5013843095012704,-0.2271054462999842,15.359129999999999,-2.7546206,0.20076619,0.04164168,0
-0.9299999999999993,7.381334299999999,-8.827835,2.0946555,0.043140582999999996,0.38577017,0.8127512,0.43446,-7.7845892999999995,7.9073934999999995,-0.75704116,-0.8604997,-1.963638,0.011497526000000001,16.504812444289037,-1.5033691757190946,-1.5013843095012704,-0.2271054462999842,15.359129999999999,-2.7546206,0.20076619,0.04164168,0
-0.9199999999999993,7.3038240000000005,-8.748277999999999,2.087173,0.048996806,0.37785608,0.8140601,0.43832636,-7.7173214,8.003631,-0.7391525999999999,-0.9607697000000001,-1.891543,-0.00021080207000000002,16.401619445838598,-2.3752905328857685,-0.5099029856879655,-0.012231836765818314,15.364215,-3.289819,1.30807,0.14866534,0
-0.9099999999999993,7.2269883,-8.667775,2.079875,0.053887375,0.3695614,0.81560653,0.44193462,-7.649652499999999,8.096430999999999,-0.7201659,-1.1813642,-1.6760767,-0.00080068747,16.401619445838598,-2.3752905328857685,-0.5099029856879655,-0.012231836765818314,15.364215,-3.289819,1.30807,0.14866534,0
-0.8999999999999992,7.150832,-8.586358,2.0727759999999997,0.05751458,0.3608382,0.81749403,0.44518656,-7.581580000000001,8.186474,-0.6992755999999999,-1.3675568,-1.4942118999999998,-0.0013616227999999999,16.401619445838598,-2.3752905328857685,-0.5099029856879655,-0.012231836765818314,15.364215,-3.289819,1.30807,0.14866534,0
-0.8899999999999992,7.075357,-8.504055000000001,2.065896,0.060069874,0.35175025,0.8196535,0.44814205,-7.5135307000000005,8.273850999999999,-0.67640066,-1.5247126,-1.3407089,-0.0018950272,16.401619445838598,-2.3752905328857685,-0.5099029856879655,-0.012231836765818314,15.364215,-3.289819,1.30807,0.14866534,0
-0.8799999999999992,7.0005608,-8.420891000000001,2.059255,0.061715465,0.34235004,0.82202387,0.4508482,-7.4458675,8.358634,-0.6514802,-1.6573598000000003,-1.2111444,-0.002402255,16.32366359769462,-2.996642604577035,0.4871215144800356,0.20527414908988575,15.467069,-4.1298322999999995,1.9776808999999997,0.5469056999999999,0
-0.8699999999999992,6.926436,-8.336893,2.0528703,0.06215734,0.33265495,0.8246735000000001,0.45320025,-7.379248,8.440501,-0.6250616999999999,-1.8662136000000003,-0.94631284,0.007788486,16.32366359769462,-2.996642604577035,0.4871215144800356,0.20527414908988575,15.467069,-4.1298322999999995,1.9776808999999997,0.5469056999999999,0
-0.8599999999999992,6.852972,-8.252089,2.0467608,0.061169114000000004,0.32268003,0.82765055,0.45511565,-7.3138146,8.520006,-0.5965019,-2.0425,-0.72278327,0.01747916,16.32366359769462,-2.996642604577035,0.4871215144800356,0.20527414908988575,15.467069,-4.1298322999999995,1.9776808999999997,0.5469056999999999,0
-0.8499999999999992,6.780154700000001,-8.166501,2.0409477,0.05896907,0.31246108,0.83087647,0.45665592,-7.2500224,8.597298,-0.5657545999999999,-2.191297,-0.534114,0.026694307,16.32366359769462,-2.996642604577035,0.4871215144800356,0.20527414908988575,15.467069,-4.1298322999999995,1.9776808999999997,0.5469056999999999,0
-0.8399999999999992,6.707965400000001,-8.080150999999999,2.0354533,0.055742074,0.30202737,0.8342824000000001,0.4578697,-7.1882606,8.672495,-0.53279704,-2.3168907,-0.37486840000000005,0.03545727,16.140024890091258,-3.2571499484948347,1.1840703953398668,0.4204871054595549,16.322960000000002,-5.0858099999999995,2.4476058,1.3029851000000001,0
-0.8299999999999992,6.636378999999999,-7.9930625,2.0302918,0.05137196,0.2914422,0.8378665999999999,0.45869547,-7.129552,8.744875,-0.4991273,-2.4635274,-0.13178636,0.054350805,16.140024890091258,-3.2571499484948347,1.1840703953398668,0.4204871054595549,16.322960000000002,-5.0858099999999995,2.4476058,1.3029851000000001,0
-0.8199999999999992,6.565365299999999,-7.905259599999999,2.0254781000000004,0.045774817,0.28075564,0.8416197,0.45908263,-7.0736027,8.815435,-0.46328800000000003,-2.5873003,0.073386185,0.07231721,16.140024890091258,-3.2571499484948347,1.1840703953398668,0.4204871054595549,16.322960000000002,-5.0858099999999995,2.4476058,1.3029851000000001,0
-0.8099999999999992,6.494896,-7.816758999999999,2.0210334999999997,0.039139099999999996,0.26997215,0.84547514,0.45908000000000004,-7.020792999999999,8.8843155,-0.42531672,-2.6917737,0.24656194,0.08940199,16.140024890091258,-3.2571499484948347,1.1840703953398668,0.4204871054595549,16.322960000000002,-5.0858099999999995,2.4476058,1.3029851000000001,0
-0.7999999999999992,6.4249377,-7.7275777,2.016979,0.03162475,0.25909555,0.8493755,0.45872664,-6.971451299999999,8.951619,-0.3852712,-2.7799566,0.39273125,0.10564843,16.04260881189522,-3.1352988570368554,1.5990524486752715,0.5771447316040921,16.696655,-4.7606583,3.2035012000000003,2.0280252,0
-0.7899999999999991,6.3554525,-7.6377335,2.0133307,0.023253722,0.24824636,0.8532726999999999,0.45799375,-6.9261417000000005,9.017035,-0.34407753,-2.8353937,0.5808098,0.12878489999999998,16.04260881189522,-3.1352988570368554,1.5990524486752715,0.5771447316040921,16.696655,-4.7606583,3.2035012000000003,2.0280252,0
-0.7799999999999991,6.2864013,-7.5472417,2.0101037,0.014050987,0.23752114,0.85712606,0.45685947,-6.88484,9.081091,-0.30101913,-2.8821874,0.73955894,0.15078604,16.04260881189522,-3.1352988570368554,1.5990524486752715,0.5771447316040921,16.696655,-4.7606583,3.2035012000000003,2.0280252,0
-0.7699999999999991,6.217741999999999,-7.456115700000001,2.007316,0.0041465154,0.2268909,0.8609,0.45536128,-6.847788,9.143898,-0.25623077,-2.9216849999999996,0.8735528,0.17170759,16.04260881189522,-3.1352988570368554,1.5990524486752715,0.5771447316040921,16.696655,-4.7606583,3.2035012000000003,2.0280252,0
-0.7599999999999991,6.149430799999999,-7.364367999999999,2.0049843999999997,-0.006349014,0.21633165,0.86456364,0.4535299,-6.815196,9.205535000000001,-0.20985544,-2.9550235000000002,0.98665196,0.1916025,16.04260881189522,-3.1352988570368554,1.5990524486752715,0.5771447316040921,17.015333,-4.497062000000001,3.2633028,2.7915611,0
-0.7499999999999991,6.081422,-7.272010000000001,2.003124,-0.017341249,0.20582372,0.8680908000000002,0.4513906,-6.787242999999999,9.266055999999999,-0.16204327,-2.9831626,1.0821152,0.21052116,16.04260881189522,-3.1352988570368554,1.5990524486752715,0.5771447316040921,17.015333,-4.497062000000001,3.2633028,2.7915611,0
-0.7399999999999989,6.0136695,-7.179051400000001,2.0017483,-0.028749652,0.19535127,0.8714594999999999,0.44896440000000004,-6.764083,9.325492,-0.11295114,-3.0069127,1.1626928,0.22851148,16.04260881189522,-3.1352988570368554,1.5990524486752715,0.5771447316040921,17.015333,-4.497062000000001,3.2633028,2.7915611,0
-0.7299999999999989,5.9461236,-7.085503999999999,2.000869,-0.040505394,0.1849016,0.8746508,0.44626895,-6.745845299999999,9.383853,-0.062741436,-3.026958,1.2307061000000001,0.24561903,16.04260881189522,-3.1352988570368554,1.5990524486752715,0.5771447316040921,17.015333,-4.497062000000001,3.2633028,2.7915611,0
-0.7199999999999989,5.878735,-6.991378299999999,2.0004966,-0.05254957,0.17446469,0.8776492,0.44331914,-6.7326393,9.441136,-0.011581451000000001,-3.0438764,1.2881145,0.26188707,15.239444851918824,-2.685114324225406,1.4443693706264311,0.6396774403971273,16.1128,-3.4161012000000004,2.8443918,2.323847,0
-0.7099999999999989,5.811451,-6.896699400000001,2.0006022,-0.06469643,0.16416451,0.8804193000000001,0.44014259999999994,-6.7249465,9.494515,0.032844067000000005,-2.987948,1.3124558000000002,0.28042537,15.239444851918824,-2.685114324225406,1.4443693706264311,0.6396774403971273,16.1128,-3.4161012000000004,2.8443918,2.323847,0
-0.6999999999999991,5.7442193,-6.8014917,2.0011554,-0.076796405,0.15410188,0.8829435,0.43676654,-6.722092999999999,9.546857000000001,0.07783235599999999,-2.9407400000000004,1.3330022,0.29805398,15.239444851918824,-2.685114324225406,1.4443693706264311,0.6396774403971273,16.1128,-3.4161012000000004,2.8443918,2.323847,0
-0.6899999999999991,5.6769924000000005,-6.705765700000001,2.00216,-0.08885153,0.14423831,0.8852323000000001,0.43320173,-6.724039599999999,9.59816,0.12321206,-2.9008933999999997,1.3503457,0.31481752,15.239444851918824,-2.685114324225406,1.4443693706264311,0.6396774403971273,16.1128,-3.4161012000000004,2.8443918,2.323847,0
-0.679999999999999,5.609721700000001,-6.609532400000001,2.0036201,-0.100863084,0.1345415,0.8872941999999999,0.42945728,-6.7307477,9.648411999999999,0.16881995,-2.86726,1.3649857,0.33075848,14.460955653022035,-2.140356116141973,0.7403795964683272,0.6676761298133341,16.697474,-2.7982313999999997,2.2114757999999997,2.420276,0
-0.669999999999999,5.5423636,-6.512814,2.0054998,-0.11248818,0.12505819999999998,0.88914096,0.42559907,-6.741573299999999,9.695078,0.20715822,-2.7538927,1.2675735000000001,0.34729114,14.460955653022035,-2.140356116141973,0.7403795964683272,0.6676761298133341,16.697474,-2.7982313999999997,2.2114757999999997,2.420276,0
-0.659999999999999,5.4748755,-6.4156346,2.007763,-0.12345664,0.11582764,0.8907995999999999,0.42168456,-6.7566776,9.740673,0.24545266,-2.6582055,1.1853523000000001,0.36301252,14.460955653022035,-2.140356116141973,0.7403795964683272,0.6676761298133341,16.697474,-2.7982313999999997,2.2114757999999997,2.420276,0
-0.649999999999999,5.407216,-6.318004599999999,2.0104083999999998,-0.13386713,0.106814094,0.89229417,0.41770905,-6.775858,9.78514,0.28360757,-2.5774417,1.1159531,0.37796247,14.460955653022035,-2.140356116141973,0.7403795964683272,0.6676761298133341,16.697474,-2.7982313999999997,2.2114757999999997,2.420276,0
-0.639999999999999,5.3393455,-6.219936,2.0134343999999995,-0.14380291,0.09798689,0.8936427,0.41366827,-6.798938000000001,9.828429,0.32153732,-2.5092738,1.0573761000000002,0.39217883,13.441184696739205,-1.5520337907878619,-0.4237921802018968,0.6020896755063149,16.838639999999998,-3.059584,-1.8862932000000001,2.7292612000000003,0
-0.629999999999999,5.271234,-6.121455,2.0167902,-0.15282185,0.08933742,0.89490426,0.40964629999999996,-6.8238444000000005,9.867516499999999,0.3496014,-2.3599392999999997,0.82641107,0.40247926,13.441184696739205,-1.5520337907878619,-0.4237921802018968,0.6020896755063149,16.838639999999998,-3.059584,-1.8862932000000001,2.7292612000000003,0
-0.619999999999999,5.2028574999999995,-6.02259,2.020425,-0.16057959,0.08086055,0.8961427,0.4057133,-6.851897200000001,9.905348,0.37738829999999995,-2.2339,0.6314614000000001,0.41227420000000004,13.441184696739205,-1.5520337907878619,-0.4237921802018968,0.6020896755063149,16.838639999999998,-3.059584,-1.8862932000000001,2.7292612000000003,0
-0.6099999999999992,5.1341863,-5.923353,2.0243368000000004,-0.16727224,0.07253563,0.8973724000000001,0.40184656,-6.882777000000001,9.941813,0.4049167,-2.1275222,0.46691075,0.42158848,13.441184696739205,-1.5520337907878619,-0.4237921802018968,0.6020896755063149,16.838639999999998,-3.059584,-1.8862932000000001,2.7292612000000003,0
-0.5999999999999992,5.065193,-5.823759,2.0285225,-0.17306508,0.06434414,0.89860034,0.3980263,-6.916213000000001,9.976822,0.4322054,-2.0377389999999997,0.32801896,0.43044573,12.423048119185136,-1.0640053207764577,-1.669022663773059,0.4775903798259297,17.670126,-2.7235525000000003,-2.4926429,2.7688835,0
-0.5899999999999992,4.9958673,-5.723835,2.0329325000000003,-0.17757314,0.056245065999999996,0.89989954,0.39431491,-6.9492392999999995,10.0077505,0.4498009,-1.8857985000000002,0.016621105,0.43275914,12.423048119185136,-1.0640053207764577,-1.669022663773059,0.4775903798259297,17.670126,-2.7235525000000003,-2.4926429,2.7688835,0
-0.5799999999999992,4.9262023,-5.623609,2.0375178,-0.18049924,0.048206594000000005,0.9013329999999999,0.39076102,-6.9840393,10.037113,0.46728432,-1.7575659,-0.24622038,0.43495902,12.423048119185136,-1.0640053207764577,-1.669022663773059,0.4775903798259297,17.670126,-2.7235525000000003,-2.4926429,2.7688835,0
-0.5699999999999992,4.8561819999999996,-5.523098,2.0422778000000004,-0.18208945,0.040225036,0.9028845,0.3873296,-7.020267,10.064776,0.48474863,-1.6493419999999999,-0.46807730000000003,0.437051,12.423048119185136,-1.0640053207764577,-1.669022663773059,0.4775903798259297,17.670126,-2.7235525000000003,-2.4926429,2.7688835,0
-0.5599999999999992,4.7857933,-5.42232,2.047213,-0.18255073,0.032296214,0.9045344999999999,0.38399044,-7.057626700000001,10.090629,0.502272,-1.5580051000000001,-0.65534014,0.43904027,12.423048119185136,-1.0640053207764577,-1.669022663773059,0.4775903798259297,17.598167,-2.5532234000000003,-3.6554116999999997,2.7006037,0
-0.5499999999999992,4.7150264,-5.321292400000001,2.052324,-0.18205728,0.024415832000000002,0.90626276,0.3807178,-7.095865700000001,10.114576,0.5199180999999999,-1.4809201,-0.813403,0.44093192,12.423048119185136,-1.0640053207764577,-1.669022663773059,0.4775903798259297,17.598167,-2.5532234000000003,-3.6554116999999997,2.7006037,0
-0.5399999999999991,4.6438737,-5.220035,2.0576122,-0.18075581,0.016579697,0.90804887,0.37749025,-7.134767999999999,10.136541000000001,0.5377364,-1.4158629999999999,-0.94681937,0.44273078,12.423048119185136,-1.0640053207764577,-1.669022663773059,0.4775903798259297,17.598167,-2.5532234000000003,-3.6554116999999997,2.7006037,0
-0.5299999999999991,4.5723294999999995,-5.1185684,2.0630794,-0.17876996,0.008783851,0.9098738000000001,0.37428987,-7.174144999999999,10.156458,0.5557638,-1.3609573999999998,-1.0594323,0.44444135,12.423048119185136,-1.0640053207764577,-1.669022663773059,0.4775903798259297,17.598167,-2.5532234000000003,-3.6554116999999997,2.7006037,0
-0.5199999999999991,4.50039,-5.016913400000001,2.0687279999999997,-0.17620404,0.0010246423,0.91172004,0.371102,-7.213837,10.1742735,0.57402545,-1.314619,-1.1544856000000001,0.446068,11.647687030094195,-0.7084628562691355,-2.594623623897506,0.3599484301686832,15.874208,-1.6640881999999997,-4.19917,2.1205822999999997,0
-0.5099999999999991,4.4280643,-4.9150953,2.0745242,-0.17275526,-0.0067109517,0.9136306000000001,0.36795208,-7.2511964,10.188955,0.5852655,-1.2200278,-1.3790436000000001,0.44184205,11.647687030094195,-0.7084628562691355,-2.594623623897506,0.3599484301686832,15.874208,-1.6640881999999997,-4.19917,2.1205822999999997,0
-0.4999999999999991,4.3553657999999995,-4.8131413,2.0804343000000003,-0.16818705,-0.014432182,0.9156329,0.36485645,-7.288467,10.20153,0.5967979,-1.1401992,-1.5685868,0.43782353,11.647687030094195,-0.7084628562691355,-2.594623623897506,0.3599484301686832,15.874208,-1.6640881999999997,-4.19917,2.1205822999999997,0
-0.4899999999999989,4.282296,-4.711072,2.0864613000000003,-0.16266972,-0.022137275,0.9176895,0.3617921,-7.3254113,10.211912,0.6086696,-1.0728288000000001,-1.7285747999999999,0.43400216,11.647687030094195,-0.7084628562691355,-2.594623623897506,0.3599484301686832,15.874208,-1.6640881999999997,-4.19917,2.1205822999999997,0
-0.47999999999999887,4.20886,-4.60891,2.0926087,-0.15634695,-0.029824961,0.9197666999999999,0.35874003,-7.361822999999999,10.220031,0.62090856,-1.0159723,-1.8636162,0.43036833,10.367085462219077,-0.4983167366166506,-3.5426584716699248,0.2215111935430992,13.963871,-0.80444956,-3.9312595999999997,1.2467641,0
-0.46999999999999886,4.1350822,-4.5066824,2.0988197,-0.14895999999999998,-0.037555087,0.92188764,0.35570043,-7.3935813999999995,10.225183,0.62135845,-0.93518484,-2.125433,0.42011964,10.367085462219077,-0.4983167366166506,-3.5426584716699248,0.2215111935430992,13.963871,-0.80444956,-3.9312595999999997,1.2467641,0
-0.45999999999999885,4.0609913,-4.4044137,2.105037,-0.14030811,-0.04537335,0.9240559000000002,0.3526678,-7.424451400000001,10.228158,0.6221793000000001,-0.86700976,-2.3464243,0.41037387,10.367085462219077,-0.4983167366166506,-3.5426584716699248,0.2215111935430992,13.963871,-0.80444956,-3.9312595999999997,1.2467641,0
-0.44999999999999885,3.9865968,-4.302126400000001,2.1112642000000004,-0.13058172,-0.05325982,0.92621607,0.3496207,-7.454194,10.228858,0.6233867,-0.8094776,-2.5329563999999998,0.4011063,10.367085462219077,-0.4983167366166506,-3.5426584716699248,0.2215111935430992,13.963871,-0.80444956,-3.9312595999999997,1.2467641,0
-0.43999999999999884,3.9119116999999997,-4.199844000000001,2.1175057999999995,-0.119942196,-0.061197527,0.9283193999999999,0.34654137,-7.4826007,10.227200999999999,0.6249728,-0.76092654,-2.6904017999999996,0.3922935,9.536771290019713,-0.413827951675257,-4.0760241742629,0.10217416321668693,11.260054,-0.6951052,-4.6214094,0.56151944,0
-0.4299999999999988,3.8369608,-4.097589,2.1237247000000004,-0.108315416,-0.06921583,0.9303437,0.34341900000000003,-7.507327,10.223446000000001,0.6188996,-0.70676833,-2.9064683999999996,0.37805727,9.536771290019713,-0.413827951675257,-4.0760241742629,0.10217416321668693,11.260054,-0.6951052,-4.6214094,0.56151944,0
-0.4199999999999988,3.7617705000000004,-3.9953828000000002,2.1298845,-0.09564917,-0.07733557,0.932258,0.3402417,-7.530448,10.217379,0.6131194000000001,-0.66106665,-3.0888430000000002,0.36451963,9.536771290019713,-0.413827951675257,-4.0760241742629,0.10217416321668693,11.260054,-0.6951052,-4.6214094,0.56151944,0
-0.4099999999999988,3.6863582000000004,-3.8932492999999995,2.135988,-0.08210019,-0.085531615,0.9340111999999999,0.33699554,-7.5517735,10.208932,0.6075835999999999,-0.6225004,-3.242779,0.35164624,9.536771290019713,-0.413827951675257,-4.0760241742629,0.10217416321668693,11.260054,-0.6951052,-4.6214094,0.56151944,0
-0.3999999999999988,3.6107419999999997,-3.7912126000000006,2.1420372000000003,-0.06780219999999999,-0.093782246,0.93555945,0.33366945,-7.571137400000001,10.198052,0.6022244000000001,-0.58995533,-3.3727110000000002,0.33940458,9.142210473895505,-0.5061269001326021,-4.055036862582438,0.0607239111936948,11.463362,-1.4078401000000003,-4.3883790000000005,0.43984327,0
-0.3899999999999988,3.5349462,-3.6892940000000003,2.1480137999999998,-0.052889198,-0.10210073,0.93686014,0.33025807,-7.587681,10.185253,0.5931171,-0.57688963,-3.479111,0.32572964,9.142210473895505,-0.5061269001326021,-4.055036862582438,0.0607239111936948,11.463362,-1.4078401000000003,-4.3883790000000005,0.43984327,0
-0.3799999999999988,3.4589953,-3.5875157999999994,2.1538997,-0.037474535,-0.11049612,0.93787736,0.32675904,-7.6020894,10.1700535,0.5840032,-0.56586546,-3.5689193999999995,0.31272575,9.142210473895505,-0.5061269001326021,-4.055036862582438,0.0607239111936948,11.463362,-1.4078401000000003,-4.3883790000000005,0.43984327,0
-0.3699999999999988,3.3829116999999997,-3.4859016000000005,2.1596937,-0.021636613,-0.118945025,0.9385868,0.32316843,-7.614266000000001,10.152435,0.57477635,-0.5565631999999999,-3.6447230000000004,0.30035996,9.142210473895505,-0.5061269001326021,-4.055036862582438,0.0607239111936948,11.463362,-1.4078401000000003,-4.3883790000000005,0.43984327,0
-0.35999999999999877,3.3067178999999998,-3.3844757000000003,2.1653943,-0.0054430827,-0.1274271,0.93896854,0.31948350000000003,-7.6241270000000005,10.132391,0.5653223,-0.5487135000000001,-3.7087052000000003,0.28860095,9.142210473895505,-0.5061269001326021,-4.055036862582438,0.0607239111936948,10.065432000000001,-1.5764456,-4.2228330000000005,0.15068789999999999,0
-0.34999999999999876,3.230437,-3.2832623,2.1709987999999996,0.0110475095,-0.13592462,0.93900657,0.31570232,-7.6315990000000005,10.109924000000001,0.55552006,-0.54208934,-3.7627102999999997,0.27741894,9.142210473895505,-0.5061269001326021,-4.055036862582438,0.0607239111936948,10.065432000000001,-1.5764456,-4.2228330000000005,0.15068789999999999,0
-0.33999999999999875,3.1540939999999997,-3.1822855,2.176503,0.027784342000000004,-0.14442201,0.938688,0.31182367,-7.6366205,10.085049,0.545244,-0.53649896,-3.8082937999999995,0.26678568,9.142210473895505,-0.5061269001326021,-4.055036862582438,0.0607239111936948,10.065432000000001,-1.5764456,-4.2228330000000005,0.15068789999999999,0
-0.32999999999999874,3.0777132999999997,-3.0815697,2.1819015,0.044723146,-0.15290558,0.9380025,0.30784696,-7.6391406,10.057786,0.5343644000000001,-0.53178114,-3.846769,0.25667417,9.142210473895505,-0.5061269001326021,-4.055036862582438,0.0607239111936948,10.065432000000001,-1.5764456,-4.2228330000000005,0.15068789999999999,0
-0.31999999999999873,3.0013201,-2.981138,2.1871874,0.061825223,-0.1613632,0.93694234,0.30377203,-7.6391177,10.028164,0.5227491,-0.5277991999999999,-3.8792443,0.24705882,8.879186614161894,-0.556552080477087,-3.2499582442375883,0.08501181647567142,10.435273,-0.7241359,-3.7136626000000006,0.18901715,0
-0.3099999999999987,2.9249396,-2.8810097999999997,2.192341,0.078748554,-0.1697065,0.9355245000000001,0.29965165,-7.636603999999999,9.997148,0.507804,-0.53231865,-3.7811055000000002,0.23910713,8.879186614161894,-0.556552080477087,-3.2499582442375883,0.08501181647567142,10.435273,-0.7241359,-3.7136626000000006,0.18901715,0
-0.2999999999999987,2.8485966,-2.7812026000000003,2.1973403,0.09522113,-0.17786874,0.9337843000000001,0.2955359,-7.631645,9.963965,0.49190786,-0.5361291,-3.6982712999999996,0.23154563,8.879186614161894,-0.556552080477087,-3.2499582442375883,0.08501181647567142,10.435273,-0.7241359,-3.7136626000000006,0.18901715,0
-0.2899999999999987,2.7723153,-2.6817377000000002,2.2021754000000002,0.111305945,-0.18586884,0.93173873,0.29142028,-7.6243076,9.928707000000001,0.4749634,-0.5393416999999999,-3.6283553,0.22435515,8.879186614161894,-0.556552080477087,-3.2499582442375883,0.08501181647567142,10.435273,-0.7241359,-3.7136626000000006,0.18901715,0
-0.2799999999999987,2.6961188,-2.5826354,2.2068355,0.12705573,-0.19372226,0.92940104,0.28730017,-7.6146474,9.8914585,0.45687842,-0.5420503000000001,-3.5693424,0.21751752,8.608450774862844,-0.567987721683368,-2.0847223849113634,0.16728680022460105,9.505344000000001,-0.83713305,-2.7454426,0.28095564,1
-0.2699999999999989,2.6200345,-2.4839287,2.2113364,0.14229055,-0.2014918,0.9267950999999999,0.2832037,-7.601886299999999,9.849536,0.44312277,-0.5880794,-3.4408634,0.22063044,8.608450774862844,-0.567987721683368,-2.0847223849113634,0.16728680022460105,9.505344000000001,-0.83713305,-2.7454426,0.28095564,1
-0.2599999999999989,2.5440892999999996,-2.3856514,2.215693,0.15687105,-0.20923060000000002,0.92395097,0.27915543,-7.5868199999999995,9.80565,0.4279767,-0.62692815,-3.3324196,0.22359058,8.608450774862844,-0.567987721683368,-2.0847223849113634,0.16728680022460105,9.505344000000001,-0.83713305,-2.7454426,0.28095564,1
-0.2499999999999989,2.4683057999999996,-2.2878220000000002,2.219891,0.17089245,-0.21693704,0.92088455,0.27514538,-7.5695667,9.759878,0.41137257,-0.65971696,-3.240887,0.22640549999999998,8.608450774862844,-0.567987721683368,-2.0847223849113634,0.16728680022460105,9.505344000000001,-0.83713305,-2.7454426,0.28095564,1
-0.23999999999999888,2.3927054,-2.1904597000000003,2.2239156,0.18443465,-0.22460917,0.91760767,0.27116397,-7.55023,9.712291,0.3932474,-0.68739074,-3.1636279,0.2290823,8.355810647419997,-0.4562948748171681,-0.5847809125157803,0.268659106715351,8.834585,-0.7507125,-1.3322351000000001,0.49808118,1
-0.22999999999999865,2.3173008,-2.0935650000000003,2.2277231,0.19705072,-0.23206706,0.91425663,0.26730114,-7.530423,9.666447,0.3680206,-0.69728357,-2.8780305,0.24228217,8.355810647419997,-0.4562948748171681,-0.5847809125157803,0.268659106715351,8.834585,-0.7507125,-1.3322351000000001,0.49808118,1
-0.21999999999999864,2.2421026,-1.997136,2.2312713,0.20839496,-0.23917657,0.9109679,0.26363376,-7.5089635999999995,9.619114,0.3413595,-0.7056321,-2.6369717,0.25483429999999996,8.355810647419997,-0.4562948748171681,-0.5847809125157803,0.268659106715351,8.834585,-0.7507125,-1.3322351000000001,0.49808118,1
-0.20999999999999863,2.1671262000000002,-1.9011874,2.2345457000000004,0.21866499,-0.24599628,0.907745,0.26013379999999997,-7.4860387,9.570413,0.31331092,-0.7126771,-2.4335053,0.26677048,8.355810647419997,-0.4562948748171681,-0.5847809125157803,0.268659106715351,8.834585,-0.7507125,-1.3322351000000001,0.49808118,1
-0.19999999999999862,2.092386,-1.8057323,2.2375326,0.22802703,-0.2525745,0.9045856,0.2567757,-7.461806,9.520446000000002,0.28391856,-0.7186216999999999,-2.2617693,0.27812096,8.332049599765186,-0.15312985828543385,1.1751500048563102,0.3435938928103523,8.355006,-0.76557565,0.21405421,0.7111066999999999,1
-0.18999999999999884,2.0178873999999998,-1.7107688,2.240201,0.23605445,-0.2588054,0.90163594,0.25367263,-7.4377937,9.472085,0.24957559,-0.72598785,-1.8756773000000002,0.2993677,8.332049599765186,-0.15312985828543385,1.1751500048563102,0.3435938928103523,8.355006,-0.76557565,0.21405421,0.7111066999999999,1
-0.17999999999999883,1.9436333,-1.6162940000000001,2.2425203,0.24242039999999998,-0.2646136,0.89902824,0.2509169,-7.4129086,9.422734,0.21413057,-0.7322044,-1.5497959,0.31957182,8.332049599765186,-0.15312985828543385,1.1751500048563102,0.3435938928103523,8.355006,-0.76557565,0.21405421,0.7111066999999999,1
-0.16999999999999882,1.8696315,-1.5223171999999998,2.2444804,0.2473868,-0.2700748,0.8967318000000001,0.24845661,-7.387371000000001,9.372503,0.17771572,-0.73744977,-1.2747349,0.33878458,8.332049599765186,-0.15312985828543385,1.1751500048563102,0.3435938928103523,8.355006,-0.76557565,0.21405421,0.7111066999999999,1
-0.1599999999999988,1.7958875,-1.4288466,2.2460717999999997,0.251173,-0.27525085,0.8947130999999999,0.24624544,-7.3613644,9.321477999999999,0.14044787,-0.74187475,-1.0425688,0.3570545,8.332049599765186,-0.15312985828543385,1.1751500048563102,0.3435938928103523,8.71692,-0.5409963000000001,1.4178143,0.93807757,1
-0.1499999999999988,1.7224109,-1.335901,2.2472997,0.25354686,-0.28000113,0.8930935999999999,0.24432849999999998,-7.3339133,9.267496000000001,0.10504375,-0.7106244,-0.6588794,0.3855655,8.332049599765186,-0.15312985828543385,1.1751500048563102,0.3435938928103523,8.71692,-0.5409963000000001,1.4178143,0.93807757,1
-0.1399999999999988,1.6492095000000002,-1.2434987,2.2481704,0.2543335,-0.28421906,0.89197063,0.24273801,-7.306358,9.21288,0.06904216,-0.68424606,-0.33502567,0.4126774,8.332049599765186,-0.15312985828543385,1.1751500048563102,0.3435938928103523,8.71692,-0.5409963000000001,1.4178143,0.93807757,1
-0.12999999999999878,1.5762835,-1.1516452,2.248679,0.25377837,-0.28799522,0.8912757,0.24141724,-7.2789016,9.157737,0.032616936,-0.6619786,-0.061676376,0.43845895,8.332049599765186,-0.15312985828543385,1.1751500048563102,0.3435938928103523,8.71692,-0.5409963000000001,1.4178143,0.93807757,1
-0.11999999999999877,1.5036306000000002,-1.0603455,2.2488217,0.25208694,-0.29140368,0.8909451999999999,0.24031648,-7.251715700000001,9.102153,-0.004084341,-0.64317983,0.16904442,0.46297538,8.830189113495988,0.2468865991842467,2.735256955012872,0.3620955187443725,9.740112,-0.50937176,3.0268068,1.2375866000000002,1
-0.10999999999999877,1.4312633999999997,-0.9696364,2.2486327,0.24885,-0.29434872,0.8910949,0.23954453,-7.221824000000001,9.039639999999999,-0.03373196,-0.6224614,0.6147016,0.50098574,8.830189113495988,0.2468865991842467,2.735256955012872,0.3620955187443725,9.740112,-0.50937176,3.0268068,1.2375866000000002,1
