time-since-start [s],throttle_mpc,roll_mpc,pitch_mpc,yaw_mpc,throttle_nw,roll_nw,pitch_nw,yaw_nw,position_x [m],position_y [m],position_z [m],rotation_w [quaternion],rotation_x [quaternion],rotation_y [quaternion],rotation_z [quaternion],velocity_x [m/s],velocity_y [m/s],velocity_z [m/s],omega_x [rad/s],omega_y [rad/s],omega_z [rad/s],network_used
0.0,9.091379983327755,5.999999669757665,-5.999999911071018,-2.6209262178269044,15.59093,2.0932455,-3.8110528,-0.5146818,18.782959,-10.042866,1.8603085,0.08041497,0.45546415,-0.26172617,-0.847104,-11.390628,-5.104471,0.28176248,2.0980647,-0.90402716,-0.46407473,0
0.01,9.091379983327755,5.999999669757665,-5.999999911071018,-2.6209262178269044,16.195295,2.1162577,-5.701268,-0.9404632,18.668528,-10.093668,1.8629253,0.07182546,0.452285,-0.27034664,-0.8468719,-11.495187,-5.0556645,0.24127644,2.310227,-1.3027481,-0.5344723,0
0.02,9.091379983327755,5.999999669757665,-5.999999911071018,-2.6209262178269044,16.195295,2.1162577,-5.701268,-0.9404632,18.553068,-10.143973,1.865128,0.061927285,0.44756836,-0.27979523,-0.8470904,-11.595918,-5.0050535,0.19902104,2.5222535,-1.672283,-0.60436404,0
0.03,9.091379983327755,5.999999669757665,-5.999999911071018,-2.6209262178269044,16.195295,2.1162577,-5.701268,-0.9404632,18.436623,-10.193762,1.8669004,0.0507481,0.44139832,-0.29002723,-0.84762985,-11.69259,-4.952397,0.15523523,2.7329755,-2.0159893,-0.6736681,0
0.04,9.091379983327755,5.999999669757665,-5.999999911071018,-2.6209262178269044,16.214458,3.359479,-5.767092,-0.5706863,18.319231,-10.243013,1.8682282,0.03831745,0.43384185,-0.30099282,-0.84836096,-11.784974,-4.8975086,0.11010912,2.9414809,-2.3367758,-0.7423132,0
0.05,9.091379983327755,5.999999669757665,-5.999999911071018,-2.6209262178269044,16.214458,3.359479,-5.767092,-0.5706863,18.20094,-10.291704,1.8690985,0.024667075,0.42495206,-0.3126377,-0.8491554,-11.872845,-4.840257,0.06379017,3.147068,-2.6371665,-0.810238,0
0.060000000000000005,9.091379983327755,5.999999669757665,-5.999999911071018,-2.6209262178269044,16.214458,3.359479,-5.767092,-0.5706863,18.081789,-10.339809,1.8695003,0.009831205,0.41477084,-0.3249036,-0.84988594,-11.955977,-4.7805634,0.016388644,3.349208,-2.9193547,-0.87738955,0
0.07,9.091379983327755,5.999999669757665,-5.999999911071018,-2.6209262178269044,16.214458,3.359479,-5.767092,-0.5706863,17.961834,-10.387307,1.8694228,-0.006153153,0.4033314,-0.33772874,-0.8504265,-12.034147,-4.718401,-0.032017794,3.547511,-3.1852486,-0.9437226,0
0.08,13.788194816609717,5.999999801169845,-5.999999942214587,-2.4233149487519094,17.450579,2.8136096,-3.4709227,-0.4315193,17.841124,-10.43417,1.8688565,-0.023245916,0.39066017,-0.35104793,-0.85065246,-12.10713,-4.653795,-0.08137989,3.7417004,-3.436512,-1.009199,0
0.09,13.788194816609717,5.999999801169845,-5.999999942214587,-2.4233149487519094,17.450579,2.8136096,-3.4709227,-0.4315193,17.719608,-10.480274,1.8678648,-0.0417008,0.37643525,-0.3651056,-0.85044426,-12.1951885,-4.566472,-0.11716463,4.084243,-3.8274825,-1.0777413,0
0.09999999999999999,13.788194816609717,5.999999801169845,-5.999999942214587,-2.4233149487519094,17.450579,2.8136096,-3.4709227,-0.4315193,17.597242,-10.525484,1.866513,-0.061685015,0.36040133,-0.3800348,-0.8496349,-12.277043,-4.474564,-0.15314284,4.3825874,-4.1666827,-1.143769,0
0.10999999999999999,13.788194816609717,5.999999801169845,-5.999999942214587,-2.4233149487519094,17.450579,2.8136096,-3.4709227,-0.4315193,17.474087,-10.569749,1.8648024,-0.0829713,0.34273982,-0.39555863,-0.84804404,-12.352501,-4.377442,-0.18895987,4.6344275,-4.4529643,-1.2065567,0
0.11999999999999998,13.788194816609717,5.999999801169845,-5.999999942214587,-2.4233149487519094,17.450579,2.8136096,-3.4709227,-0.4315193,17.350216,-10.613015,1.862734,-0.10534593,0.3236217,-0.41142857,-0.8455163,-12.420808,-4.2752056,-0.22471601,4.8470154,-4.694579,-1.2662632,0
0.12999999999999998,20.999984108831654,5.999999729639647,-5.999999923512673,-1.2766870275181692,18.556067,3.055548,-5.338008,-0.2668256,17.225698,-10.655235,1.8603078,-0.12861587,0.30320066,-0.42743003,-0.841921,-12.48126,-4.1680965,-0.260546,5.026474,-4.8984923,-1.3230401,0
0.13999999999999999,20.999984108831654,5.999999729639647,-5.999999923512673,-1.2766870275181692,18.556067,3.055548,-5.338008,-0.2668256,17.100481,-10.696072,1.8576847,-0.15248664,0.28155586,-0.44342032,-0.83716935,-12.560382,-3.9981086,-0.2641666,5.1781545,-5.070395,-1.3207656,0
0.15,20.999984108831654,5.999999729639647,-5.999999923512673,-1.2766870275181692,18.556067,3.055548,-5.338008,-0.2668256,16.974539,-10.735177,1.8550224,-0.1766881,0.25875694,-0.45927653,-0.83119863,-12.625661,-3.8219972,-0.26843187,5.3062034,-5.215469,-1.3186027,0
0.16,20.999999739033537,5.695750207355379,-5.99999980571468,-1.7861551685050896,18.962694,1.8141688,-4.8944707,-0.09642204,16.848017,-10.772493,1.8523129,-0.20108737,0.23492606,-0.47485235,-0.82394713,-12.676315,-3.6406438,-0.27365765,5.414303,-5.3379016,-1.3165458,0
0.17,20.999999739033537,5.695750207355379,-5.99999980571468,-1.7861551685050896,18.962694,1.8141688,-4.8944707,-0.09642204,16.721064,-10.807974,1.8495449,-0.22558774,0.21023361,-0.48990738,-0.8154157,-12.711691,-3.4550605,-0.2801753,5.458024,-5.441275,-1.3395897,0
0.18000000000000002,20.999999739033537,5.695750207355379,-5.99999980571468,-1.7861551685050896,18.962694,1.8141688,-4.8944707,-0.09642204,16.593836,-10.841583,1.8467039,-0.2501097,0.18484192,-0.5042467,-0.805614,-12.731297,-3.2663894,-0.2882846,5.494942,-5.528518,-1.3615029,0
0.19000000000000003,20.999999739033537,5.695750207355379,-5.99999980571468,-1.7861551685050896,18.962694,1.8141688,-4.8944707,-0.09642204,16.466494,-10.873296,1.8437726,-0.27455994,0.15884931,-0.517814,-0.794514,-12.734782,-3.0758526,-0.29827932,5.526117,-5.6021485,-1.3823407,0
0.20000000000000004,20.999999787631793,3.0563270492223436,-5.999999382954021,0.12140764384818781,18.554861,-0.07703352,-4.021465,-0.233323,16.339195,-10.903099,1.8407307,-0.29885086,0.13234766,-0.53056026,-0.7820986,-12.721927,-2.8847222,-0.3104583,5.552442,-5.6642885,-1.402156,0
0.21000000000000005,20.999999787631793,3.0563270492223436,-5.999999382954021,0.12140764384818781,18.554861,-0.07703352,-4.021465,-0.233323,16.21211,-10.930994,1.8375549,-0.32259184,0.10562436,-0.5416627,-0.7690121,-12.692703,-2.694327,-0.3250448,5.163406,-5.716035,-1.3273944,0
0.22000000000000006,20.999999787631793,3.0563270492223436,-5.999999382954021,0.12140764384818781,18.554861,-0.07703352,-4.021465,-0.233323,16.085396,-10.956994,1.8342221,-0.3454981,0.07893447,-0.5505224,-0.7558608,-12.647549,-2.5061016,-0.34182942,4.8350368,-5.75981,-1.2563012,0
0.23000000000000007,20.999999787631793,3.0563270492223436,-5.999999382954021,0.12140764384818781,18.554861,-0.07703352,-4.021465,-0.233323,15.959211,-10.981129,1.8307118,-0.3676306,0.052307054,-0.5573973,-0.74257654,-12.587074,-2.3213978,-0.36050507,4.5578732,-5.796839,-1.1886967,0
0.24000000000000007,20.999999787631793,3.0563270492223436,-5.999999382954021,0.12140764384818781,19.098124,-2.5969512,-1.5983883,0.09103628,15.833705,-11.003439,1.8270063,-0.38903275,0.025763875,-0.5625021,-0.7290961,-12.51192,-2.14144,-0.38083214,4.323928,-5.8281593,-1.1244096,0
0.25000000000000006,20.999999787631793,3.0563270492223436,-5.999999382954021,0.12140764384818781,19.098124,-2.5969512,-1.5983883,0.09103628,15.709021,-11.023979,1.8230902,-0.40973422,-0.00067778304,-0.5660154,-0.71536285,-12.42275,-1.9673448,-0.40263176,4.12646,-5.854648,-1.0632769,0
0.26000000000000006,20.999999787631793,3.0563270492223436,-5.999999382954021,0.12140764384818781,19.098124,-2.5969512,-1.5983883,0.09103628,15.585296,-11.042811,1.8189492,-0.42975417,-0.027003087,-0.56808645,-0.7013274,-12.320255,-1.8001348,-0.42577907,3.959781,-5.8770494,-1.0051441,0
0.2700000000000001,20.999999787631793,3.0563270492223436,-5.999999382954021,0.12140764384818781,19.098124,-2.5969512,-1.5983883,0.09103628,15.462659,-11.060009,1.8145704,-0.44910353,-0.05319827,-0.5688399,-0.68694776,-12.205148,-1.6407483,-0.45019686,3.8190877,-5.895993,-0.94986385,0
0.2800000000000001,20.999999716335086,0.20772206942520108,-3.3705224442052857,0.5375664575558269,18.494356,-3.279073,0.68726486,0.09434269,15.341233,-11.075656,1.8099412,-0.46778703,-0.0792497,-0.5683805,-0.6721894,-12.078167,-1.4900478,-0.47584942,3.7003284,-5.9120126,-0.89729625,0
0.2900000000000001,20.999999716335086,0.20772206942520108,-3.3705224442052857,0.5375664575558269,18.494356,-3.279073,0.68726486,0.09434269,15.221133,-11.089843,1.8050492,-0.48528832,-0.103933424,-0.5665496,-0.6578106,-11.9401865,-1.3487406,-0.50268793,3.1561444,-5.5152044,-0.82688713,0
0.3000000000000001,20.999999716335086,0.20772206942520108,-3.3705224442052857,0.5375664575558269,18.494356,-3.279073,0.68726486,0.09434269,15.102463,-11.102663,1.7998843,-0.50128824,-0.12629068,-0.5633357,-0.644526,-11.792662,-1.2169485,-0.5304033,2.6967468,-5.180376,-0.75993294,0
0.3100000000000001,20.999999716335086,0.20772206942520108,-3.3705224442052857,0.5375664575558269,18.494356,-3.279073,0.68726486,0.09434269,14.985308,-11.114213,1.7944393,-0.5160395,-0.1466711,-0.5589986,-0.63222736,-11.637036,-1.0945306,-0.5586225,2.3089285,-4.8978415,-0.6962643,0
0.3200000000000001,20.99999944131457,-2.894170963955468,1.6224406999177396,0.7275896392756931,18.803198,-5.0391526,3.4161346,0.23220131,14.869745,-11.124584,1.7887112,-0.5297429,-0.16537406,-0.5537394,-0.6208031,-11.474524,-0.9812989,-0.58701813,1.9815389,-4.6594296,-0.6357199,0
0.3300000000000001,20.99999944131457,-2.894170963955468,1.6224406999177396,0.7275896392756931,18.803198,-5.0391526,3.4161346,0.23220131,14.755837,-11.133868,1.7826993,-0.54167205,-0.18077767,-0.54803175,-0.61120546,-11.306272,-0.8768669,-0.6152778,1.221743,-3.6794055,-0.56882185,0
0.34000000000000014,20.99999944131457,-2.894170963955468,1.6224406999177396,0.7275896392756931,18.803198,-5.0391526,3.4161346,0.23220131,14.643634,-11.142146,1.7764075,-0.55134773,-0.19164103,-0.54235154,-0.6042717,-11.133898,-0.7797981,-0.64294523,0.580295,-2.8523223,-0.5052065,0
0.35000000000000014,20.99999944131457,-2.894170963955468,1.6224406999177396,0.7275896392756931,18.803198,-5.0391526,3.4161346,0.23220131,14.533168,-11.149484,1.769844,-0.55921257,-0.1987041,-0.5368022,-0.5997012,-10.958873,-0.6884181,-0.66953576,0.038770214,-2.1543047,-0.44471288,0
0.36000000000000015,20.999999265385213,-5.394455567842775,5.999995634237952,1.2669905111348343,19.52765,-6.265865,4.649629,0.5197568,14.424461,-11.15593,1.763022,-0.56560063,-0.2025823,-0.5314269,-0.5971949,-10.7823305,-0.6012428,-0.69461435,-0.4183896,-1.5652059,-0.38718766,0
0.37000000000000016,20.999999265385213,-5.394455567842775,5.999995634237952,1.2669905111348343,19.52765,-6.265865,4.649629,0.5197568,14.317524,-11.161518,1.7559583,-0.5700026,-0.20221037,-0.5266175,-0.59739596,-10.605254,-0.51681423,-0.7177796,-1.194083,-0.38528225,-0.30601665,0
0.38000000000000017,20.999999265385213,-5.394455567842775,5.999995634237952,1.2669905111348343,19.52765,-6.265865,4.649629,0.5197568,14.212355,-11.166266,1.7486746,-0.57200164,-0.19676083,-0.52266216,-0.60076904,-10.4289465,-0.43292594,-0.7385652,-1.8489583,0.6105374,-0.22882876,0
0.3900000000000002,20.999999265385213,-5.394455567842775,5.999995634237952,1.2669905111348343,19.52765,-6.265865,4.649629,0.5197568,14.108938,-11.170171,1.7411968,-0.571915,-0.18701379,-0.5193897,-0.6067729,-10.254692,-0.3473915,-0.7565557,-2.4018185,1.4509892,-0.15542847,0
0.4000000000000002,20.999999319124388,-5.999999073764896,5.999999523955587,1.1736656525446303,18.588432,-7.8259273,5.5909452,1.149977,14.007249,-11.1732025,1.7335541,-0.56996447,-0.17361593,-0.5166141,-0.6149046,-10.083654,-0.25840333,-0.7714463,-2.8685431,2.160322,-0.08562996,0
0.4100000000000002,20.999999319124388,-5.999999073764896,5.999999523955587,1.1736656525446303,18.588432,-7.8259273,5.5909452,1.149977,13.90725,-11.175322,1.7257792,-0.5663544,-0.1569645,-0.514003,-0.6248244,-9.916949,-0.16449806,-0.78302693,-3.3569684,2.7590106,-0.02383597,0
0.4200000000000002,20.999999319124388,-5.999999073764896,5.999999523955587,1.1736656525446303,18.588432,-7.8259273,5.5909452,1.149977,13.808892,-11.176472,1.7179058,-0.5612265,-0.13740185,-0.51125824,-0.6362077,-9.755737,-0.06450981,-0.7910953,-3.7692633,3.2643037,0.03492579,0
0.4300000000000002,20.999999319124388,-5.999999073764896,5.999999523955587,1.1736656525446303,18.588432,-7.8259273,5.5909452,1.149977,13.712112,-11.176588,1.7099696,-0.554641,-0.115358464,-0.50825524,-0.64864635,-9.601196,0.04243368,-0.7955436,-4.117288,3.6907766,0.090804055,0
0.4400000000000002,20.999999319124388,-5.999999073764896,5.999999523955587,1.1736656525446303,18.691534,-7.310842,5.5000515,1.1829135,13.616841,-11.175596,1.7020072,-0.54664385,-0.09120626,-0.50488305,-0.6617815,-9.454491,0.15692645,-0.7963929,-4.4110565,4.050729,0.14394039,0
0.45000000000000023,20.999999319124388,-5.999999073764896,5.999999523955587,1.1736656525446303,18.691534,-7.310842,5.5000515,1.1829135,13.522993,-11.173422,1.6940536,-0.53727365,-0.06526983,-0.50104636,-0.6752992,-9.316771,0.27930787,-0.7937806,-4.6590223,4.35454,0.1944693,0
0.46000000000000024,20.999999319124388,-5.999999073764896,5.999999523955587,1.1736656525446303,18.691534,-7.310842,5.5000515,1.1829135,13.430472,-11.169983,1.6861426,-0.52656615,-0.037834942,-0.4966657,-0.68892634,-9.189157,0.40968475,-0.78794885,-4.8683233,4.61097,0.24251875,0
0.47000000000000025,20.999999319124388,-5.999999073764896,5.999999523955587,1.1736656525446303,18.691534,-7.310842,5.5000515,1.1829135,13.339172,-11.165201,1.6783047,-0.51455665,-0.009155179,-0.49167627,-0.7024256,-9.072724,0.547952,-0.77923226,-5.0449853,4.82741,0.28821036,0
0.48000000000000026,20.999999589537452,-5.999993485512712,5.999999152231928,0.8966579963341553,19.6592,-6.6895037,5.7249885,1.0209315,13.248976,-11.1589985,1.6705664,-0.5012817,0.020542927,-0.48602715,-0.71559197,-8.968494,0.6938124,-0.76804554,-5.1940947,5.0101,0.3316599,0
0.49000000000000027,20.999999589537452,-5.999993485512712,5.999999152231928,0.8966579963341553,19.6592,-6.6895037,5.7249885,1.0209315,13.159757,-11.151301,1.6629506,-0.48680446,0.05107241,-0.47967893,-0.72823125,-8.877413,0.8467959,-0.75487214,-5.3199005,5.164351,0.35938454,0
0.5000000000000002,20.999999589537452,-5.999993485512712,5.999999152231928,0.8966579963341553,19.6592,-6.6895037,5.7249885,1.0209315,13.071379,-11.142041,1.655474,-0.47118938,0.082264625,-0.47260186,-0.7401758,-8.800338,1.0062785,-0.7402534,-5.4260826,5.294552,0.38574874,0
0.5100000000000002,20.999999589537452,-5.999993485512712,5.999999152231928,0.8966579963341553,19.6592,-6.6895037,5.7249885,1.0209315,12.983699,-11.131157,1.6481483,-0.45447817,0.11395063,-0.4647762,-0.75129724,-8.738031,1.1715012,-0.72477835,-5.5156994,5.4044533,0.4108192,0
0.5200000000000002,20.99999963277662,-4.36804003152465,4.911697369369984,1.0408388124376495,20.146662,-5.6039534,5.9680405,0.51280135,12.8965645,-11.118595,1.6409792,-0.43671462,0.14597636,-0.45619044,-0.7614862,-8.691146,1.3415874,-0.7090735,-5.591335,5.4972215,0.43465945,0
0.5300000000000002,20.99999963277662,-4.36804003152465,4.911697369369984,1.0408388124376495,20.146662,-5.6039534,5.9680405,0.51280135,12.809821,-11.104312,1.6339655,-0.418239,0.17758174,-0.44716424,-0.77044445,-8.66014,1.5155538,-0.6937998,-5.4006414,5.4058585,0.46440488,0
0.5400000000000003,20.99999963277662,-4.36804003152465,4.911697369369984,1.0408388124376495,20.146662,-5.6039534,5.9680405,0.51280135,12.723308,-11.088274,1.6270994,-0.39938116,0.20817143,-0.43800747,-0.7780157,-8.644939,1.6923329,-0.67965746,-5.239683,5.328746,0.49269065,0
0.5500000000000003,20.99999963277662,-4.36804003152465,4.911697369369984,1.0408388124376495,20.146662,-5.6039534,5.9680405,0.51280135,12.636869,-11.070458,1.6203661,-0.38016436,0.23783703,-0.42869857,-0.78429955,-8.645269,1.8708844,-0.66730285,-5.103822,5.263661,0.5195885,0
0.5600000000000003,20.999999435749167,-1.9284124843131125,1.3321489873601073,0.5159420007337506,19.070324,-3.8471587,4.302281,0.20720491,12.550351,-11.050853,1.6137449,-0.3606073,0.26665267,-0.41921747,-0.78937644,-8.660822,2.0502174,-0.65733105,-4.9891458,5.208728,0.5451664,0
0.5700000000000003,20.999999435749167,-1.9284124843131125,1.3321489873601073,0.5159420007337506,19.070324,-3.8471587,4.302281,0.20720491,12.463602,-11.029454,1.6072093,-0.3416565,0.29323736,-0.40980995,-0.7933084,-8.691111,2.2293768,-0.6502266,-4.511607,4.6043515,0.5437323,0
0.5800000000000003,20.999999435749167,-1.9284124843131125,1.3321489873601073,0.5159420007337506,19.070324,-3.8471587,4.302281,0.20720491,12.376482,-11.0062685,1.6007302,-0.3241332,0.3165609,-0.40075946,-0.79631555,-8.734779,2.4074883,-0.6460716,-4.1085753,4.0941997,0.54236865,0
0.5900000000000003,20.999999435749167,-1.9284124843131125,1.3321489873601073,0.5159420007337506,19.070324,-3.8471587,4.302281,0.20720491,12.288864,-10.98131,1.5942782,-0.3078646,0.33714777,-0.39207894,-0.7986392,-8.790346,2.5838952,-0.6447625,-3.7684252,3.6635826,0.5410719,0
0.6000000000000003,20.999998889387538,0.48627011725445013,-2.4955955110082995,0.3541076547001473,18.535522,-1.9142808,1.4439871,0.22795916,12.200637,-10.954598,1.5878255,-0.2926884,0.3554371,-0.38375974,-0.80045366,-8.8565445,2.7581294,-0.646159,-3.4813454,3.3001008,0.5398388,0
0.6100000000000003,20.999998889387538,0.48627011725445013,-2.4955955110082995,0.3541076547001473,18.535522,-1.9142808,1.4439871,0.22795916,12.1117,-10.926156,1.5813463,-0.27941197,0.37030765,-0.37611628,-0.80208313,-8.932142,2.9298809,-0.6500267,-2.862266,2.3965,0.5307249,0
0.6200000000000003,20.999998889387538,0.48627011725445013,-2.4955955110082995,0.3541076547001473,18.535522,-1.9142808,1.4439871,0.22795916,12.021969,-10.896009,1.574819,-0.26868635,0.38093033,-0.36944,-0.80387396,-9.015259,3.099113,-0.6556701,-2.3397906,1.6337745,0.52205825,0
0.6300000000000003,20.999998889387538,0.48627011725445013,-2.4955955110082995,0.3541076547001473,18.535522,-1.9142808,1.4439871,0.22795916,11.931376,-10.864182,1.5682297,-0.2601479,0.38801992,-0.36365548,-0.80592674,-9.104053,3.2659776,-0.66228557,-1.8988439,0.989962,0.5138168,0
0.6400000000000003,20.999998889387538,0.48627011725445013,-2.4955955110082995,0.3541076547001473,19.04513,-0.091089435,-2.287009,0.15876184,11.839873,-10.830697,1.5615726,-0.2534731,0.39216095,-0.35867304,-0.80827874,-9.197007,3.4307044,-0.66915387,-1.5267024,0.44652376,0.5059798,0
0.6500000000000004,20.999998889387538,0.48627011725445013,-2.4955955110082995,0.3541076547001473,19.04513,-0.091089435,-2.287009,0.15876184,11.747425,-10.795574,1.554848,-0.24837881,0.3938328,-0.35439897,-0.81092834,-9.292864,3.5935493,-0.6756456,-1.2126291,-0.012188815,0.49852732,0
0.6600000000000004,20.999998889387538,0.48627011725445013,-2.4955955110082995,0.3541076547001473,19.04513,-0.091089435,-2.287009,0.15876184,11.654009,-10.758832,1.5480627,-0.24461976,0.39342993,-0.35074165,-0.81385136,-9.390576,3.754766,-0.6812197,-0.9475629,-0.39938447,0.4914406,0
0.6700000000000004,20.999998889387538,0.48627011725445013,-2.4955955110082995,0.3541076547001473,19.04513,-0.091089435,-2.287009,0.15876184,11.55961,-10.720485,1.5412282,-0.24198516,0.39127824,-0.3476152,-0.81701154,-9.489263,3.9145877,-0.6854179,-0.723856,-0.7262128,0.48470163,0
0.6800000000000004,20.999997745653058,1.9492112295485884,-5.18808499804062,0.41748451924073177,20.02901,0.54959285,-3.2160504,-0.51027584,11.464223,-10.680545,1.5343602,-0.24029484,0.38764793,-0.34494117,-0.8203675,-9.588179,4.0732207,-0.68785745,-0.5350545,-1.0020852,0.4782934,0
0.6900000000000004,20.999997745653058,1.9492112295485884,-5.18808499804062,0.41748451924073177,20.02901,0.54959285,-3.2160504,-0.51027584,11.367848,-10.639025,1.5274782,-0.23998503,0.38173398,-0.34287342,-0.8240898,-9.686593,4.23086,-0.68816364,-0.1474347,-1.6547685,0.4753095,0
0.7000000000000004,20.999997745653058,1.9492112295485884,-5.18808499804062,0.41748451924073177,20.02901,0.54959285,-3.2160504,-0.51027584,11.270496,-10.595932,1.5206064,-0.24137923,0.37289408,-0.34152237,-0.8282804,-9.783326,4.38779,-0.6856934,0.17970243,-2.205686,0.472472,0
0.7100000000000004,20.999997745653058,1.9492112295485884,-5.18808499804062,0.41748451924073177,20.02901,0.54959285,-3.2160504,-0.51027584,11.172191,-10.551271,1.513776,-0.24418068,0.36154908,-0.3407566,-0.8327922,-9.877162,4.544261,-0.6798233,0.45579463,-2.6707056,0.4697738,0
0.7200000000000004,20.999988232879648,2.7077358480245217,-5.9999979552644165,0.2896767144869319,18.535643,1.136081,-4.473019,-0.6698193,11.072967,-10.505048,1.5070232,-0.24813522,0.34804913,-0.3404567,-0.83748424,-9.967034,4.7004323,-0.6700775,0.6888072,-3.0632193,0.46720797,0
0.7300000000000004,20.999988232879648,2.7077358480245217,-5.9999979552644165,0.2896767144869319,18.535643,1.136081,-4.473019,-0.6698193,10.972868,-10.457264,1.500389,-0.25325269,0.33234382,-0.34068292,-0.8422267,-10.05196,4.8563895,-0.6561027,1.0037775,-3.5211182,0.45849648,0
0.7400000000000004,20.999988232879648,2.7077358480245217,-5.9999979552644165,0.2896767144869319,18.535643,1.136081,-4.473019,-0.6698193,10.871949,-10.407921,1.4939166,-0.2595192,0.31439972,-0.34146583,-0.84687877,-10.130847,5.0122013,-0.6376085,1.2696034,-3.9076257,0.45021245,0
0.7500000000000004,20.999988232879648,2.7077358480245217,-5.9999979552644165,0.2896767144869319,18.535643,1.136081,-4.473019,-0.6698193,10.770276,-10.357021,1.4876528,-0.2667011,0.29451305,-0.34266445,-0.85130113,-10.202643,5.1678543,-0.6144202,1.4939532,-4.233872,0.4423349,0
0.7600000000000005,20.795245300598545,2.691322334297369,-5.99999651532341,0.21210875228669734,18.474277,1.3618033,-4.9614305,-0.4652555,10.667923,-10.304565,1.4816445,-0.2745986,0.27293783,-0.34415588,-0.8553696,-10.266417,5.323233,-0.58649254,1.6832993,-4.509252,0.43484393,0
0.7700000000000005,20.795245300598545,2.691322334297369,-5.99999651532341,0.21210875228669734,18.474277,1.3618033,-4.9614305,-0.4652555,10.564979,-10.2505665,1.4759326,-0.28304762,0.24989916,-0.3458256,-0.8589755,-10.320805,5.4766216,-0.55517083,1.8405322,-4.741702,0.42391425,0
0.7800000000000005,20.795245300598545,2.691322334297369,-5.99999651532341,0.21210875228669734,18.474277,1.3618033,-4.9614305,-0.4652555,10.461538,-10.195036,1.4705564,-0.291909,0.22559382,-0.34757575,-0.86202526,-10.365712,5.629253,-0.51939726,1.9732335,-4.9379096,0.4135209,0
0.7900000000000005,20.795245300598545,2.691322334297369,-5.99999651532341,0.21210875228669734,18.474277,1.3618033,-4.9614305,-0.4652555,10.357699,-10.137985,1.465559,-0.30105826,0.20019017,-0.34933025,-0.8644397,-10.4005165,5.7807827,-0.4794327,2.0852308,-5.1035247,0.40363753,0
0.8000000000000005,19.915281816118583,2.0105296587714863,-4.888256925909971,0.030549734039873565,17.972778,0.7221786,-3.6912472,-0.58120775,10.253565,-10.079427,1.460981,-0.31038883,0.17383741,-0.35102454,-0.866153,-10.424686,5.9308143,-0.43561685,2.179755,-5.2433176,0.39423916,0
0.8100000000000005,19.915281816118583,2.0105296587714863,-4.888256925909971,0.030549734039873565,17.972778,0.7221786,-3.6912472,-0.58120775,10.149247,-10.019408,1.456828,-0.3196306,0.14714888,-0.35250682,-0.86713463,-10.43727,6.0726476,-0.39451614,2.15329,-5.187978,0.37639284,0
0.8200000000000005,19.915281816118583,2.0105296587714863,-4.888256925909971,0.030549734039873565,17.972778,0.7221786,-3.6912472,-0.58120775,10.044855,-9.957982,1.4531004,-0.3285868,0.1206339,-0.35367265,-0.86740637,-10.43925,6.2122226,-0.3506057,2.1309583,-5.141266,0.35942224,0
0.8300000000000005,19.915281816118583,2.0105296587714863,-4.888256925909971,0.030549734039873565,17.972778,0.7221786,-3.6912472,-0.58120775,9.940497,-9.895174,1.4498239,-0.33727077,0.09427439,-0.35453492,-0.8669866,-10.430709,6.349149,-0.30437845,2.1121147,-5.1018357,0.34328437,0
0.8400000000000005,19.915281816118583,2.0105296587714863,-4.888256925909971,0.030549734039873565,18.713442,-0.69840455,-3.5180576,-0.36108595,9.836277,-9.831012,1.4470191,-0.34569237,0.06805701,-0.35510442,-0.8658902,-10.411746,6.4830523,-0.25631824,2.0962143,-5.068553,0.32793838,0
0.8500000000000005,19.915281816118583,2.0105296587714863,-4.888256925909971,0.030549734039873565,18.713442,-0.69840455,-3.5180576,-0.36108595,9.732298,-9.765526,1.4447021,-0.35385838,0.041972596,-0.35539028,-0.8641298,-10.38248,6.6135697,-0.20690136,2.0827978,-5.040458,0.31334543,0
0.8600000000000005,19.915281816118583,2.0105296587714863,-4.888256925909971,0.030549734039873565,18.713442,-0.69840455,-3.5180576,-0.36108595,9.628663,-9.698753,1.4428841,-0.3617733,0.016015604,-0.35540035,-0.86171585,-10.343046,6.7403526,-0.15659726,2.0714774,-5.0167437,0.29946855,0
0.8700000000000006,19.915281816118583,2.0105296587714863,-4.888256925909971,0.030549734039873565,18.713442,-0.69840455,-3.5180576,-0.36108595,9.525472,-9.6307335,1.4415716,-0.3694397,-0.009816382,-0.35514137,-0.8586574,-10.293604,6.8630657,-0.105869316,2.0619256,-4.9967256,0.2862726,0
0.8800000000000006,18.958689965175296,0.9633964571797191,-2.208413504927967,-0.20992657577929044,17.281864,-1.071306,-2.1908553,-0.2019511,9.422824,-9.561508,1.4407666,-0.37685835,-0.035523064,-0.3546191,-0.8549627,-10.23433,6.9813857,-0.055174887,2.0538666,-4.979828,0.27372417,0
0.8900000000000006,18.958689965175296,0.9633964571797191,-2.208413504927967,-0.20992657577929044,17.281864,-1.071306,-2.1908553,-0.2019511,9.320802,-9.49115,1.4404306,-0.38370043,-0.060017932,-0.35389578,-0.8508405,-10.168819,7.089593,-0.012082854,1.8836608,-4.547687,0.2499913,0
0.9000000000000006,18.958689965175296,0.9633964571797191,-2.208413504927967,-0.20992657577929044,17.281864,-1.071306,-2.1908553,-0.2019511,9.219476,-9.419732,1.4405218,-0.38975003,-0.082444094,-0.35305974,-0.8465498,-10.094985,7.193411,0.030199219,1.7400249,-4.182928,0.227423,0
0.9100000000000006,18.958689965175296,0.9633964571797191,-2.208413504927967,-0.20992657577929044,17.281864,-1.071306,-2.1908553,-0.2019511,9.118927,-9.347298,1.4410307,-0.3951533,-0.1031113,-0.3521447,-0.8421495,-10.013649,7.292989,0.07140593,1.6188099,-3.8750443,0.20596214,0
0.9200000000000006,17.63517571428585,-0.29669514458181556,0.948473583064297,-0.32545282654386415,16.086058,-1.4691994,0.9247944,-0.42433992,9.019226,-9.273887,1.4419456,-0.400028,-0.12228316,-0.35117406,-0.837676,-9.925508,7.3884745,0.111335985,1.5165155,-3.6151686,0.18555437,0
0.9300000000000006,17.63517571428585,-0.29669514458181556,0.948473583064297,-0.32545282654386415,16.086058,-1.4691994,0.9247944,-0.42433992,8.920405,-9.1995735,1.4432049,-0.404109,-0.13892166,-0.35025674,-0.83349675,-9.83783,7.4736753,0.14031963,1.2336123,-2.9035258,0.16047911,0
0.9400000000000006,17.63517571428585,-0.29669514458181556,0.948473583064297,-0.32545282654386415,16.086058,-1.4691994,0.9247944,-0.42433992,8.822485,-9.124425,1.4447477,-0.4072229,-0.152228,-0.34950513,-0.8299652,-9.745491,7.555776,0.16804063,0.9948625,-2.3028493,0.13663428,0
0.9500000000000006,17.63517571428585,-0.29669514458181556,0.948473583064297,-0.32545282654386415,16.086058,-1.4691994,0.9247944,-0.42433992,8.725508,-9.048468,1.4465619,-0.40956882,-0.1627288,-0.34892833,-0.82705605,-9.649501,7.635369,0.19463794,0.79337263,-1.7958369,0.113959536,0
0.9600000000000006,16.70282564390725,-1.5049313597001388,3.8711591253663227,-0.26531443686304823,14.510949,-2.3357663,4.3336153,-0.2328994,8.629505,-8.971725,1.4486371,-0.4113024,-0.1708665,-0.34852344,-0.824722,-9.550681,7.7129784,0.22027312,0.62332577,-1.3678849,0.09239745,0
0.9700000000000006,16.70282564390725,-1.5049313597001388,3.8711591253663227,-0.26531443686304823,14.510949,-2.3357663,4.3336153,-0.2328994,8.534475,-8.894234,1.450932,-0.412218,-0.17585278,-0.34836406,-0.8232828,-9.455116,7.7850976,0.23863856,0.29136926,-0.5508823,0.074844435,0
0.9800000000000006,16.70282564390725,-1.5049313597001388,3.8711591253663227,-0.26531443686304823,14.510949,-2.3357663,4.3336153,-0.2328994,8.440407,-8.816025,1.4534084,-0.4121574,-0.17708331,-0.3485067,-0.8229889,-9.3585825,7.856573,0.2566027,0.011204593,0.13871856,0.058152735,0
0.9900000000000007,16.70282564390725,-1.5049313597001388,3.8711591253663227,-0.26531443686304823,14.510949,-2.3357663,4.3336153,-0.2328994,8.347304,-8.737101,1.4560639,-0.41128513,-0.17514318,-0.34890944,-0.82366955,-9.2620535,7.928148,0.27451012,-0.225251,0.7207838,0.042280115,0
1.0000000000000007,15.986570393840863,-2.243415240588091,4.746207396610833,-0.22605602418374443,14.585099,-3.178102,5.567336,-0.14835297,8.255163,-8.657458,1.4588994,-0.40972647,-0.1705207,-0.3495256,-0.82515377,-9.166352,8.000448,0.29265243,-0.4248184,1.2120817,0.02718636,0
1.0100000000000007,15.986570393840863,-2.243415240588091,4.746207396610833,-0.22605602418374443,14.585099,-3.178102,5.567336,-0.14835297,8.163952,-8.577103,1.4618937,-0.40750045,-0.16321571,-0.35020572,-0.8274419,-9.07625,8.070851,0.306273,-0.70842326,1.7632271,0.014759695,0
1.0200000000000007,15.986570393840863,-2.243415240588091,4.746207396610833,-0.22605602418374443,14.585099,-3.178102,5.567336,-0.14835297,8.07363,-8.496035,1.4650275,-0.4046127,-0.15324551,-0.35081765,-0.83050066,-8.98841,8.142935,0.32061917,-0.947792,2.2284262,0.0029428126,0
1.0300000000000007,15.986570393840863,-2.243415240588091,4.746207396610833,-0.22605602418374443,14.585099,-3.178102,5.567336,-0.14835297,7.9841733,-8.414237,1.4683093,-0.40113172,-0.14101018,-0.35133848,-0.83412874,-8.903562,8.217098,0.3359041,-1.1498253,2.6210809,-0.008294228,0
1.0400000000000007,15.986570393840863,-2.243415240588091,4.746207396610833,-0.22605602418374443,14.949212,-3.8464513,5.8725853,-0.15948492,7.895547,-8.331686,1.4717492,-0.39711115,-0.12684767,-0.35174462,-0.8381457,-8.822354,8.293649,0.35226157,-1.3203478,2.9525032,-0.018979857,0
1.0500000000000007,15.986570393840863,-2.243415240588091,4.746207396610833,-0.22605602418374443,14.949212,-3.8464513,5.8725853,-0.15948492,7.8077116,-8.248356,1.4753582,-0.39259407,-0.111044735,-0.35201374,-0.84239256,-8.745369,8.372811,0.36975306,-1.4642749,3.2322414,-0.029141132,0
1.0600000000000007,15.986570393840863,-2.243415240588091,4.746207396610833,-0.22605602418374443,14.949212,-3.8464513,5.8725853,-0.15948492,7.7206235,-8.164221,1.479148,-0.3876162,-0.09384585,-0.35212535,-0.84673154,-8.673131,8.454737,0.38837543,-1.5857551,3.468356,-0.038803797,0
1.0700000000000007,15.986570393840863,-2.243415240588091,4.746207396610833,-0.22605602418374443,14.949212,-3.8464513,5.8725853,-0.15948492,7.634232,-8.079251,1.4831294,-0.38220775,-0.07546033,-0.3520615,-0.8510438,-8.606111,8.539513,0.40806866,-1.6882899,3.6676486,-0.04799232,0
1.0800000000000007,15.478676743485071,-2.4666971920474685,4.030404177842958,-0.27601476257706387,15.863343,-3.916926,4.678902,0.028531108,7.5484824,-7.99342,1.4873127,-0.37639496,-0.056068107,-0.3518069,-0.85522807,-8.544732,8.627169,0.42872345,-1.7748343,3.835862,-0.056729957,0
1.0900000000000007,15.478676743485071,-2.4666971920474685,4.030404177842958,-0.27601476257706387,15.863343,-3.916926,4.678902,0.028531108,7.463308,-7.906712,1.4916878,-0.3703126,-0.036034375,-0.3511663,-0.85921615,-8.491126,8.714793,0.44639722,-1.8827015,3.8662179,-0.06749032,0
1.1000000000000008,15.478676743485071,-2.4666971920474685,4.030404177842958,-0.27601476257706387,15.863343,-3.916926,4.678902,0.028531108,7.378639,-7.8191147,1.496243,-0.3640733,-0.015661849,-0.34999076,-0.8629669,-8.443597,8.805007,0.4647352,-1.9737482,3.8918397,-0.077722676,0
1.1100000000000008,15.478676743485071,-2.4666971920474685,4.030404177842958,-0.27601476257706387,15.863343,-3.916926,4.678902,0.028531108,7.2944145,-7.730603,1.5009843,-0.35766935,0.004989772,-0.34833097,-0.86643714,-8.402353,8.897602,0.48359832,-2.0505974,3.9134657,-0.08745293,0
1.1200000000000008,14.531898102281966,-2.2919580222115528,1.10934105639664,-0.4149305194755731,14.715595,-3.2722652,2.5026464,-0.114969805,7.2105703,-7.6411552,1.5059161,-0.35109574,0.025868107,-0.3462303,-0.8695902,-8.367572,8.992365,0.5028244,-2.1154633,3.9317186,-0.096705705,0
1.1300000000000008,14.531898102281966,-2.2919580222115528,1.10934105639664,-0.4149305194755731,14.715595,-3.2722652,2.5026464,-0.114969805,7.127032,-7.5507793,1.5110054,-0.34477612,0.04589145,-0.34338376,-0.87241673,-8.341069,9.083122,0.5150651,-2.1429796,3.4915938,-0.112321086,0
1.1400000000000008,14.531898102281966,-2.2919580222115528,1.10934105639664,-0.4149305194755731,14.715595,-3.2722652,2.5026464,-0.114969805,7.0437293,-7.4594884,1.516218,-0.33906698,0.06419954,-0.3395801,-0.8749842,-8.320437,9.175206,0.5274639,-2.1662092,3.1201055,-0.12717023,0
1.1500000000000008,14.531898102281966,-2.2919580222115528,1.10934105639664,-0.4149305194755731,14.715595,-3.2722652,2.5026464,-0.114969805,6.960605,-7.367272,1.5215553,-0.33387184,0.081050396,-0.3349755,-0.877355,-8.30531,9.268143,0.54004014,-2.1858196,2.8065495,-0.14129071,0
1.1600000000000008,13.852666058407156,-1.8751533712105612,-1.8006311257165006,-0.4843376376103838,14.792205,-2.6466773,-0.8671669,-0.31505764,6.877606,-7.2741237,1.5270194,-0.32910696,0.096663535,-0.32969794,-0.87957036,-8.295374,9.361542,0.5528161,-2.2023737,2.5418913,-0.1547183,1
1.1700000000000008,13.852666058407156,-1.8751533712105612,-1.8006311257165006,-0.4843376376103838,14.792205,-2.6466773,-0.8671669,-0.31505764,6.7946815,-7.1800323,1.5326223,-0.324936,0.11057203,-0.3234713,-0.8817918,-8.29023,9.456717,0.56782776,-2.2717056,2.0102692,-0.1625862,1
1.1800000000000008,13.852666058407156,-1.8751533712105612,-1.8006311257165006,-0.4843376376103838,14.792205,-2.6466773,-0.8671669,-0.31505764,6.711786,-7.084991,1.5383773,-0.32147953,0.12241489,-0.31608906,-0.8841681,-8.289592,9.551508,0.5832783,-2.330222,1.5615523,-0.17006801,1
1.1900000000000008,13.852666058407156,-1.8751533712105612,-1.8006311257165006,-0.4843376376103838,14.792205,-2.6466773,-0.8671669,-0.31505764,6.6288757,-6.989005,1.5442901,-0.31861126,0.13250679,-0.3077378,-0.88669395,-8.293002,9.645446,0.5993868,-2.3796093,1.1828114,-0.17718269,1
1.2000000000000008,12.920551219063348,-1.4141298548993286,-4.975093647560482,-0.3820327948519117,14.698884,-2.5461862,-2.8250914,-0.5041763,6.545913,-6.892086,1.550368,-0.31622347,0.1411136,-0.29857045,-0.88935107,-8.300072,9.738141,0.61634076,-2.4212914,0.86313415,-0.18394828,0
1.2100000000000009,12.920551219063348,-1.4141298548993286,-4.975093647560482,-0.3820327948519117,14.698884,-2.5461862,-2.8250914,-0.5041763,6.462869,-6.794306,1.5565469,-0.31479067,0.14684403,-0.28863397,-0.89220744,-8.309064,9.817705,0.61964107,-2.264334,-0.047338605,-0.19366834,0
1.2200000000000009,12.920551219063348,-1.4141298548993286,-4.975093647560482,-0.3820327948519117,14.698884,-2.5461862,-2.8250914,-0.5041763,6.379725,-6.695739,1.5627648,-0.3146739,0.14860508,-0.27797756,-0.8953353,-8.320034,9.895443,0.62415636,-2.1318467,-0.815823,-0.20291142,0
1.2300000000000009,12.920551219063348,-1.4141298548993286,-4.975093647560482,-0.3820327948519117,14.698884,-2.5461862,-2.8250914,-0.5041763,6.296465,-6.596405,1.5690353,-0.3156295,0.14700244,-0.2667105,-0.89868456,-8.332097,9.970942,0.6302086,-2.0200133,-1.4644622,-0.21170096,0
1.2400000000000009,12.920551219063348,-1.4141298548993286,-4.975093647560482,-0.3820327948519117,14.418467,-1.8563359,-5.09249,-0.8337487,6.213082,-6.496329,1.5753752,-0.31744596,0.14254466,-0.25491557,-0.9021792,-8.344506,10.043843,0.63805515,-1.9256123,-2.0119457,-0.2200592,0
1.2500000000000009,12.920551219063348,-1.4141298548993286,-4.975093647560482,-0.3820327948519117,14.418467,-1.8563359,-5.09249,-0.8337487,6.129576,-6.3955383,1.5818033,-0.31994167,0.13565987,-0.24265738,-0.9057325,-8.35663,10.113822,0.6478856,-1.8459258,-2.474049,-0.2280073,0
1.260000000000001,12.920551219063348,-1.4141298548993286,-4.975093647560482,-0.3820327948519117,14.418467,-1.8563359,-5.09249,-0.8337487,6.045953,-6.2940636,1.5883402,-0.322962,0.12670983,-0.22998787,-0.90925574,-8.367936,10.180579,0.65982324,-1.7786593,-2.864087,-0.23556538,0
1.270000000000001,12.920551219063348,-1.4141298548993286,-4.975093647560482,-0.3820327948519117,14.418467,-1.8563359,-5.09249,-0.8337487,5.9622216,-6.1919384,1.5950071,-0.32637605,0.11600122,-0.21695016,-0.9126638,-8.3779745,10.243838,0.67392826,-1.7218765,-3.1932979,-0.24275258,0
1.280000000000001,12.646371618859956,-1.0719186226352917,-5.999859158731731,-0.12969785498833505,14.073399,-1.6190484,-4.85408,-0.7781248,5.8783984,-6.0892,1.6018261,-0.3300737,0.103794925,-0.2035811,-0.91587824,-8.386362,10.303339,0.69020295,-1.6739429,-3.471168,-0.2495871,0
1.290000000000001,12.646371618859956,-1.0719186226352917,-5.999859158731731,-0.12969785498833505,14.073399,-1.6190484,-4.85408,-0.7781248,5.7945023,-5.9858923,1.6088061,-0.33402783,0.08988558,-0.18990491,-0.9188484,-8.392621,10.357651,0.7061301,-1.5801069,-3.8655374,-0.24370411,0
1.300000000000001,12.646371618859956,-1.0719186226352917,-5.999859158731731,-0.12969785498833505,14.073399,-1.6190484,-4.85408,-0.7781248,5.710554,-5.8820615,1.6159556,-0.33819357,0.07412095,-0.17593928,-0.9215079,-8.396513,10.407758,0.7240685,-1.5008928,-4.1984015,-0.23810981,0
1.310000000000001,12.646371618859956,-1.0719186226352917,-5.999859158731731,-0.12969785498833505,14.073399,-1.6190484,-4.85408,-0.7781248,5.626581,-5.777752,1.6232941,-0.3424628,0.056780886,-0.16170634,-0.92376745,-8.397652,10.4533825,0.74389887,-1.4340227,-4.479353,-0.23279001,0
1.320000000000001,12.141196266012262,-0.9362183833622135,-5.865659399709834,0.1736988178001503,14.524552,-1.4877207,-5.1310253,-0.43739715,5.542612,-5.6730094,1.6308395,-0.34674543,0.038106415,-0.14722717,-0.9255484,-8.395712,10.4942665,0.7654439,-1.377573,-4.716488,-0.22773126,0
1.330000000000001,12.141196266012262,-0.9362183833622135,-5.865659399709834,0.1736988178001503,14.524552,-1.4877207,-5.1310253,-0.43739715,5.458678,-5.56789,1.6385839,-0.35092643,0.018331457,-0.13259274,-0.92678684,-8.390641,10.528741,0.78363585,-1.3087078,-4.895728,-0.20803297,0
1.340000000000001,12.141196266012262,-0.9362183833622135,-5.865659399709834,0.1736988178001503,14.524552,-1.4877207,-5.1310253,-0.43739715,5.3748116,-5.4624505,1.6465162,-0.3549085,-0.0023430209,-0.117879294,-0.9274369,-8.382162,10.558258,0.8029866,-1.2505772,-5.0470114,-0.18930128,0
1.350000000000001,12.141196266012262,-0.9362183833622135,-5.865659399709834,0.1736988178001503,14.524552,-1.4877207,-5.1310253,-0.43739715,5.2910476,-5.3567414,1.6546465,-0.35864758,-0.023766737,-0.1030871,-0.9274591,-8.370119,10.582664,0.8231955,-1.2015089,-5.174699,-0.17148876,0
1.360000000000001,11.649149050678583,-0.9286347653957778,-4.9839769437582815,0.5505249212945625,14.311047,-1.3770918,-4.6076837,-0.16280104,5.2074223,-5.2508154,1.662982,-0.3621085,-0.045808125,-0.0882189,-0.9268208,-8.354393,10.601824,0.84393644,-1.1600907,-5.282471,-0.1545503,0
1.370000000000001,11.649149050678583,-0.9286347653957778,-4.9839769437582815,0.5505249212945625,14.311047,-1.3770918,-4.6076837,-0.16280104,5.123969,-5.144727,1.6715019,-0.36519286,-0.06803015,-0.07340872,-0.92553645,-8.33571,10.615079,0.86004007,-1.1238725,-5.2359505,-0.11995205,0
1.380000000000001,11.649149050678583,-0.9286347653957778,-4.9839769437582815,0.5505249212945625,14.311047,-1.3770918,-4.6076837,-0.16280104,5.040721,-5.0385323,1.6801821,-0.36783203,-0.09007858,-0.058766678,-0.9236517,-8.313473,10.623199,0.8759877,-1.0933107,-5.196681,-0.08705155,0
1.390000000000001,11.649149050678583,-0.9286347653957778,-4.9839769437582815,0.5505249212945625,14.311047,-1.3770918,-4.6076837,-0.16280104,4.957712,-4.9322815,1.6890198,-0.37004033,-0.11195781,-0.04426498,-0.9211823,-8.287762,10.62622,0.89145315,-1.0675225,-5.1635327,-0.055765484,0
1.400000000000001,10.99844736518808,-0.9922874417796987,-3.0073333457629956,0.8668747474425909,13.683827,-1.5750644,-2.7082477,0.4085491,4.874978,-4.8260255,1.6980084,-0.37183082,-0.13366944,-0.029881096,-0.9181405,-8.258658,10.624176,0.9061191,-1.0457624,-5.1355524,-0.026014643,0
1.410000000000001,10.99844736518808,-0.9922874417796987,-3.0073333457629956,0.8668747474425909,13.683827,-1.5750644,-2.7082477,0.4085491,4.7925415,-4.7198133,1.7071071,-0.37316823,-0.15448079,-0.01586309,-0.9146748,-8.228089,10.617535,0.9134493,-1.0372797,-4.8036876,0.017799702,0
1.420000000000001,10.99844736518808,-0.9922874417796987,-3.0073333457629956,0.8668747474425909,13.683827,-1.5750644,-2.7082477,0.4085491,4.7104254,-4.613691,1.716273,-0.3740535,-0.17382051,-0.0024075273,-0.9109694,-8.194693,10.606403,0.91953707,-1.0301433,-4.523575,0.059464067,0
1.430000000000001,10.99844736518808,-0.9922874417796987,-3.0073333457629956,0.8668747474425909,13.683827,-1.5750644,-2.7082477,0.4085491,4.6286564,-4.5077004,1.725493,-0.37454265,-0.19190563,0.010572992,-0.9070715,-8.158749,10.591029,0.92422956,-1.0241377,-4.287144,0.099083945,0
1.440000000000001,10.99844736518808,-0.9922874417796987,-3.0073333457629956,0.8668747474425909,11.972116,-1.709122,-1.3945616,0.7900977,4.547259,-4.401884,1.7347523,-0.37468,-0.20891926,0.023153195,-0.90301275,-8.1205,10.571631,0.9273993,-1.0190829,-4.087583,0.13675965,0
1.450000000000001,10.99844736518808,-0.9922874417796987,-3.0073333457629956,0.8668747474425909,11.972116,-1.709122,-1.3945616,0.7900977,4.4662538,-4.2962813,1.7440354,-0.37450087,-0.22501554,0.035396647,-0.8988129,-8.0801525,10.548408,0.92893696,-1.0148274,-3.919142,0.17258662,0
1.460000000000001,10.99844736518808,-0.9922874417796987,-3.0073333457629956,0.8668747474425909,11.972116,-1.709122,-1.3945616,0.7900977,4.385662,-4.190929,1.7533251,-0.37403357,-0.24032411,0.047357164,-0.8944836,-8.037887,10.521526,0.92874587,-1.0112442,-3.7769678,0.20665553,0
1.470000000000001,10.99844736518808,-0.9922874417796987,-3.0073333457629956,0.8668747474425909,11.972116,-1.709122,-1.3945616,0.7900977,4.3055024,-4.0858626,1.762604,-0.3733009,-0.2549538,0.059080128,-0.8900309,-7.99386,10.491145,0.92673826,-1.0082265,-3.6569648,0.23905268,0
1.480000000000001,10.614399887212532,-1.0356314207955974,-1.7321099640692703,1.2270052506764157,11.346034,-1.5886995,0.06890644,1.194036,4.225791,-3.9811172,1.7718533,-0.3723216,-0.26899588,0.07060362,-0.8854567,-7.948207,10.457404,0.9228324,-1.005685,-3.5556748,0.26986012,0
1.490000000000001,10.614399887212532,-1.0356314207955974,-1.7321099640692703,1.2270052506764157,11.346034,-1.5886995,0.06890644,1.194036,4.1465354,-3.876719,1.7810376,-0.3711164,-0.28206757,0.08179761,-0.88092005,-7.9027104,10.421733,0.91374415,-1.0103043,-3.2713223,0.3168275,0
1.500000000000001,10.614399887212532,-1.0356314207955974,-1.7321099640692703,1.2270052506764157,11.346034,-1.5886995,0.06890644,1.194036,4.067741,-3.7726924,1.7901217,-0.36971194,-0.2938767,0.09256528,-0.87657386,-7.8559723,10.38316,0.90278304,-1.0142149,-3.0313132,0.3614902,0
1.5100000000000011,10.614399887212532,-1.0356314207955974,-1.7321099640692703,1.2270052506764157,11.346034,-1.5886995,0.06890644,1.194036,3.989419,-3.669065,1.7990869,-0.36812773,-0.30461502,0.10298058,-0.8724031,-7.808184,10.341886,0.88999695,-1.0175238,-2.8287323,0.40396124,0
1.5200000000000011,10.111111764618549,-1.1895466854866776,0.5869702136653747,1.4735614808546227,10.654412,-1.4804025,2.135219,1.3829902,3.9115798,-3.5658634,1.8079154,-0.36637828,-0.3144432,0.11310546,-0.86838937,-7.759506,10.298086,0.87542987,-1.0203224,-2.6577423,0.44434825,0
1.5300000000000011,10.111111764618549,-1.1895466854866776,0.5869702136653747,1.4735614808546227,10.654412,-1.4804025,2.135219,1.3829902,3.8342195,-3.4631004,1.8165702,-0.3645782,-0.32266742,0.12271645,-0.8648177,-7.712439,10.254119,0.85526896,-1.0467874,-2.1517735,0.49485207,0
1.5400000000000011,10.111111764618549,-1.1895466854866776,0.5869702136653747,1.4735614808546227,10.654412,-1.4804025,2.135219,1.3829902,3.7573323,-3.3607874,1.825016,-0.3628342,-0.32875538,0.13164508,-0.86194044,-7.664939,10.208169,0.8336886,-1.0691334,-1.7247086,0.5428776,0
1.5500000000000012,10.111111764618549,-1.1895466854866776,0.5869702136653747,1.4735614808546227,10.654412,-1.4804025,2.135219,1.3829902,3.6809216,-3.2589426,1.8332399,-0.36113966,-0.33304518,0.1400118,-0.8596839,-7.617267,10.160487,0.81093466,-1.0879979,-1.3642426,0.5885466,0
1.5600000000000012,9.887360021394677,-1.3887302194140478,3.10925503816129,1.6289536544599768,10.643148,-1.994636,0.4003019,2.2819717,3.6049871,-3.1575823,1.8412313,-0.35948336,-0.3358184,0.14791642,-0.85797375,-7.56964,10.111281,0.7872236,-1.1039205,-1.0599893,0.6319745,0
1.5700000000000012,9.887360021394677,-1.3887302194140478,3.10925503816129,1.6289536544599768,10.643148,-1.994636,0.4003019,2.2819717,3.5295281,-3.0567217,1.8489822,-0.3580311,-0.33644548,0.15522914,-0.857043,-7.5224047,10.060891,0.7625531,-1.1683737,-0.42965207,0.6791041,0
1.5800000000000012,9.887360021394677,-1.3887302194140478,3.10925503816129,1.6289536544599768,10.643148,-1.994636,0.4003019,2.2819717,3.4545336,-2.9563649,1.8564761,-0.35689715,-0.33439755,0.16175632,-0.85711044,-7.476607,10.010375,0.73614717,-1.2036458,0.12152539,0.72565156,0
1.5900000000000012,9.887360021394677,-1.3887302194140478,3.10925503816129,1.6289536544599768,10.643148,-1.994636,0.4003019,2.2819717,3.3799925,-2.8565168,1.8637052,-0.3560135,-0.33006325,0.16758157,-0.8580383,-7.4317203,9.959096,0.70968235,-1.2327459,0.5874108,0.76997685,0
1.6000000000000012,9.730874517074058,-1.6616630960569847,5.409218214117063,1.6436524284464458,9.8828745,-1.6990197,3.6415884,2.3466668,3.305895,-2.757185,1.8706707,-0.35532516,-0.32378587,0.17281954,-0.8596749,-7.3879867,9.907239,0.6835128,-1.257295,0.9806442,0.81212705,0
1.6100000000000012,9.730874517074058,-1.6616630960569847,5.409218214117063,1.6436524284464458,9.8828745,-1.6990197,3.6415884,2.3466668,3.2322276,-2.6583729,1.8773763,-0.3549808,-0.31503752,0.1773731,-0.86213666,-7.3459435,9.855347,0.65743434,-1.3299346,1.6620294,0.8520878,0
1.6200000000000012,9.730874517074058,-1.6616630960569847,5.409218214117063,1.6436524284464458,9.8828745,-1.6990197,3.6415884,2.3466668,3.158969,-2.5600772,1.8838207,-0.35507473,-0.30337405,0.1810983,-0.8655001,-7.3060656,9.8038225,0.63160855,-1.3820477,2.246338,0.89093006,0
1.6300000000000012,9.730874517074058,-1.6616630960569847,5.409218214117063,1.6436524284464458,9.8828745,-1.6990197,3.6415884,2.3466668,3.0860987,-2.462296,1.8900129,-0.35549492,-0.28920645,0.1840988,-0.8695352,-7.2683454,9.75245,0.6070371,-1.426005,2.7395277,0.92786634,0
1.6400000000000012,9.730874517074058,-1.6616630960569847,5.409218214117063,1.6436524284464458,8.943617,-1.1426438,4.965035,1.9062811,3.0135932,-2.3650267,1.8959665,-0.35614195,-0.27288648,0.18647279,-0.87402785,-7.2331324,9.701468,0.5839651,-1.4630787,3.1558087,0.96299016,1
1.6500000000000012,9.730874517074058,-1.6616630960569847,5.409218214117063,1.6436524284464458,8.943617,-1.1426438,4.965035,1.9062811,2.9414127,-2.2682443,1.9016669,-0.3568107,-0.2549362,0.18819052,-0.8787941,-7.2033553,9.655173,0.55634964,-1.4133872,3.437945,1.0092777,1
1.6600000000000013,9.730874517074058,-1.6616630960569847,5.409218214117063,1.6436524284464458,8.943617,-1.1426438,4.965035,1.9062811,2.8695164,-2.1719208,1.907099,-0.35733455,-0.23579039,0.18923219,-0.8836895,-7.176362,9.609633,0.53032875,-1.3714266,3.676082,1.053294,1
1.6700000000000013,9.730874517074058,-1.6616630960569847,5.409218214117063,1.6436524284464458,8.943617,-1.1426438,4.965035,1.9062811,2.7978752,-2.0760481,1.9122789,-0.35768306,-0.21560812,0.18968454,-0.88859266,-7.1523156,9.565027,0.5059169,-1.3359913,3.8770812,1.0951502,1
1.6800000000000013,9.748200993833839,-1.8590663290626046,5.999855207597833,1.4990414384571606,8.60259,-0.6327066,4.8169847,1.3804497,2.7264593,-1.9806163,1.9172226,-0.35782933,-0.19452716,0.18962005,-0.89339954,-7.1313653,9.521519,0.48308864,-1.3060646,4.0467343,1.1349525,0
1.6900000000000013,9.748200993833839,-1.8590663290626046,5.999855207597833,1.4990414384571606,8.60259,-0.6327066,4.8169847,1.3804497,2.6552448,-1.8856325,1.9219803,-0.35792497,-0.1722028,0.18919718,-0.89802086,-7.112076,9.475453,0.4686979,-1.3925804,4.351243,1.1528184,0
1.7000000000000013,9.748200993833839,-1.8590663290626046,5.999855207597833,1.4990414384571606,8.60259,-0.6327066,4.8169847,1.3804497,2.5842044,-1.7911019,1.926602,-0.35807768,-0.14836675,0.18854037,-0.90234214,-7.0966096,9.430904,0.45590565,-1.4655725,4.608272,1.1698077,0
1.7100000000000013,9.748200993833839,-1.8590663290626046,5.999855207597833,1.4990414384571606,8.60259,-0.6327066,4.8169847,1.3804497,2.5132985,-1.6970087,1.9311035,-0.3582072,-0.12323681,0.18765883,-0.9062481,-7.0852532,9.388028,0.44460177,-1.5271534,4.825226,1.1859633,0
1.7200000000000013,9.837605591888542,-2.018986384896837,5.379521908546099,1.226129398342355,9.399009,-0.89889246,4.535316,1.1777515,2.4424844,-1.6033351,1.9354987,-0.35824597,-0.09700352,0.1865595,-0.9096411,-7.078254,9.346968,0.43462577,-1.5791065,5.0083523,1.2013261,0
1.7300000000000013,9.837605591888542,-2.018986384896837,5.379521908546099,1.226129398342355,9.399009,-0.89889246,4.535316,1.1777515,2.371718,-1.5100644,1.939804,-0.35812896,-0.07004432,0.18539248,-0.912397,-7.075796,9.307491,0.4265885,-1.6477548,5.0661807,1.2025433,0
1.7400000000000013,9.837605591888542,-2.018986384896837,5.379521908546099,1.226129398342355,9.399009,-0.89889246,4.535316,1.1777515,2.300952,-1.4171783,1.9440335,-0.3578113,-0.04267615,0.18428048,-0.9144352,-7.07808,9.270042,0.41941732,-1.7056903,5.1149993,1.2037007,0
1.7500000000000013,9.837605591888542,-2.018986384896837,5.379521908546099,1.226129398342355,9.399009,-0.89889246,4.535316,1.1777515,2.2301395,-1.3246564,1.9481943,-0.35726848,-0.014973811,0.18319145,-0.9157385,-7.0852017,9.234668,0.41282424,-1.7545846,5.156212,1.2048012,0
1.7600000000000013,9.740670826566824,-1.9865110355964004,2.9423543022530816,0.8789041293620871,9.600987,-1.6137673,2.285644,0.94743204,2.1592312,-1.2324775,1.952291,-0.35648122,0.012995012,0.18209821,-0.9162934,-7.097229,9.201409,0.4065109,-1.795849,5.1910033,1.2058477,1
1.7700000000000014,9.740670826566824,-1.9865110355964004,2.9423543022530816,0.8789041293620871,9.600987,-1.6137673,2.285644,0.94743204,2.08818,-1.1406169,1.9563135,-0.3552524,0.03997064,0.181274,-0.9161544,-7.1137514,9.171022,0.39796275,-1.7670584,4.7379513,1.1931672,1
1.7800000000000014,9.740670826566824,-1.9865110355964004,2.9423543022530816,0.8789041293620871,9.600987,-1.6137673,2.285644,0.94743204,2.0169406,-1.0490505,1.9602492,-0.353467,0.06495239,0.18094859,-0.9154786,-7.1347876,9.142537,0.38909405,-1.7428215,4.355548,1.181109,1
1.7900000000000014,9.740670826566824,-1.9865110355964004,2.9423543022530816,0.8789041293620871,9.600987,-1.6137673,2.285644,0.94743204,1.9454699,-0.9577604,1.9640934,-0.35121676,0.088236116,0.1810406,-0.9143777,-7.16001,9.115737,0.3796621,-1.7224171,4.032776,1.1696424,1
1.8000000000000014,9.664933960835828,-1.7502824634795928,-0.5073703946436835,0.5182238945894219,10.130093,-1.5349979,-0.11301437,1.0787207,1.8737271,-0.8667307,1.9678397,-0.3485757,0.11007396,0.18147984,-0.91293204,-7.1891336,9.090434,0.36947212,-1.705239,3.7603369,1.1587385,1
1.8100000000000014,9.664933960835828,-1.7502824634795928,-0.5073703946436835,0.5182238945894219,10.130093,-1.5349979,-0.11301437,1.0787207,1.8016658,-0.77595395,1.9715037,-0.3454223,0.12979738,0.18251063,-0.9113326,-7.2236853,9.065114,0.36316407,-1.6782262,3.1563144,1.154812,1
1.8200000000000014,9.664933960835828,-1.7502824634795928,-0.5073703946436835,0.5182238945894219,10.130093,-1.5349979,-0.11301437,1.0787207,1.7292416,-0.6854249,1.9750994,-0.34167236,0.1468965,0.18432581,-0.90978384,-7.261618,9.04083,0.35579592,-1.6555,2.6464853,1.1510782,1
1.8300000000000014,9.664933960835828,-1.7502824634795928,-0.5073703946436835,0.5182238945894219,10.130093,-1.5349979,-0.11301437,1.0787207,1.6564231,-0.59513503,1.9786159,-0.33742678,0.16178219,0.18679877,-0.9083376,-7.3024974,9.01723,0.34732336,-1.6363802,2.2161608,1.1475277,1
1.8400000000000014,9.664933960835828,-1.7502824634795928,-0.5073703946436835,0.5182238945894219,11.749395,-1.5614066,-1.6604756,1.110023,1.5831826,-0.505079,1.9820421,-0.3327658,0.17480086,0.18982099,-0.9070176,-7.3459554,8.994016,0.33773205,-1.6202945,1.8529426,1.1441512,0
1.8500000000000014,9.664933960835828,-1.7502824634795928,-0.5073703946436835,0.5182238945894219,11.749395,-1.5614066,-1.6604756,1.110023,1.5095066,-0.41524893,1.9853466,-0.32777143,0.18611635,0.19344282,-0.90581876,-7.3895783,8.971983,0.32301253,-1.6402618,1.4848709,1.1134367,0
1.8600000000000014,9.664933960835828,-1.7502824634795928,-0.5073703946436835,0.5182238945894219,11.749395,-1.5614066,-1.6604756,1.110023,1.4353846,-0.32563975,1.9884987,-0.3225177,0.19587073,0.19770113,-0.90472776,-7.435091,8.949815,0.3072406,-1.6571717,1.1742011,1.0842295,0
1.8700000000000014,9.664933960835828,-1.7502824634795928,-0.5073703946436835,0.5182238945894219,11.749395,-1.5614066,-1.6604756,1.110023,1.3607991,-0.23625392,1.9914877,-0.31705227,0.2043031,0.20249254,-0.9037344,-7.4822564,8.927283,0.29043362,-1.6714906,0.9119811,1.0564554,0
1.8800000000000014,9.5901602977812,-1.4237798269476991,-4.384804089866333,0.16816461509377584,11.397488,-0.53295016,-3.1718326,0.8461946,1.2857347,-0.14709602,1.9943038,-0.31141397,0.21161461,0.20772973,-0.9028233,-7.53087,8.904195,0.27261114,-1.6836137,0.6906546,1.0300441,0
1.8900000000000015,9.5901602977812,-1.4237798269476991,-4.384804089866333,0.16816461509377584,11.397488,-0.53295016,-3.1718326,0.8461946,1.2101628,-0.05817961,1.9969602,-0.30536267,0.21673776,0.21380965,-0.90225536,-7.583414,8.87906,0.2581075,-1.7045393,-0.038897425,0.99331594,0
1.9000000000000015,9.5901602977812,-1.4237798269476991,-4.384804089866333,0.16816461509377584,11.397488,-0.53295016,-3.1718326,0.8461946,1.1340692,0.030483799,1.9994539,-0.29871163,0.21869844,0.22096997,-0.90228355,-7.635143,8.853528,0.24013166,-1.6894107,-0.68752813,0.9554497,0
1.9100000000000015,9.5901602977812,-1.4237798269476991,-4.384804089866333,0.16816461509377584,11.397488,-0.53295016,-3.1718326,0.8461946,1.0574639,0.11888806,2.0017526,-0.29155716,0.2177898,0.22893158,-0.90285844,-7.685839,8.827107,0.21938276,-1.6504543,-1.261256,0.9170775,0
1.9200000000000015,9.50171035956333,-0.9494214315795653,-5.999993001413884,-0.1588166624124499,9.775268,-0.4396548,-5.55894,0.7842154,0.98035324,0.20701967,2.003839,-0.28397006,0.2143601,0.23750505,-0.90388227,-7.7362313,8.798899,0.1978446,-1.614855,-1.7483118,0.8803282,1
1.9300000000000015,9.50171035956333,-0.9494214315795653,-5.999993001413884,-0.1588166624124499,9.775268,-0.4396548,-5.55894,0.7842154,0.9027364,0.29485586,2.0057154,-0.27590424,0.2082641,0.24632648,-0.90544313,-7.786999,8.767982,0.17734545,-1.4312501,-2.3424678,0.87561196,1
1.9400000000000015,9.50171035956333,-0.9494214315795653,-5.999993001413884,-0.1588166624124499,9.775268,-0.4396548,-5.55894,0.7842154,0.82461715,0.38237116,2.007385,-0.26730523,0.19941144,0.25509137,-0.9075861,-7.836652,8.734695,0.15658641,-1.2763339,-2.843983,0.8711271,1
1.9500000000000015,9.50171035956333,-0.9494214315795653,-5.999993001413884,-0.1588166624124499,9.775268,-0.4396548,-5.55894,0.7842154,0.746009,0.4695411,2.0088468,-0.25821036,0.18821687,0.2637642,-0.91012716,-7.8846846,8.69889,0.13572368,-1.1456232,-3.2673016,0.8668623,1
1.9600000000000015,9.355855915014745,-0.4179824009485696,-5.99999698259743,-0.3708622705636871,8.05241,0.037405442,-5.7609544,0.8695329,0.66693056,0.55634,2.0100996,-0.2486525,0.17502958,0.27231306,-0.9128983,-7.930648,8.660463,0.11486025,-1.0353358,-3.6246164,0.8628068,0
1.9700000000000015,9.355855915014745,-0.4179824009485696,-5.99999698259743,-0.3708622705636871,8.05241,0.037405442,-5.7609544,0.8695329,0.5874071,0.6427435,2.0111394,-0.23874669,0.16003846,0.2808223,-0.9157115,-7.973468,8.619997,0.092855446,-0.966669,-3.9673276,0.8047621,0
1.9800000000000015,9.355855915014745,-0.4179824009485696,-5.99999698259743,-0.3708622705636871,8.05241,0.037405442,-5.7609544,0.8695329,0.507474,0.7287341,2.0119505,-0.22860222,0.14330906,0.28930265,-0.9184272,-8.012572,8.577816,0.06919649,-0.88629144,-4.2790513,0.74755305,0
1.9900000000000015,9.355855915014745,-0.4179824009485696,-5.99999698259743,-0.3708622705636871,8.05241,0.037405442,-5.7609544,0.8695329,0.4271668,0.8142914,2.0125222,-0.218239,0.12500292,0.29765534,-0.9209497,-8.048361,8.53325,0.045156587,-0.81329036,-4.547367,0.692672,0
2.0000000000000013,,,,,8.364059,0.5681504,-6.2817698,0.07232503,0.34651858,0.89939016,2.0128536,-0.20767844,0.10533934,0.3058398,-0.9231665,-8.080725,8.4861,0.021091595,-0.75170225,-4.7738504,0.6404841,0
2.010000000000001,,,,,8.364059,0.5681504,-6.2817698,0.07232503,0.2655617,0.983999,2.0129523,-0.19699566,0.08446932,0.31363764,-0.92503524,-8.110002,8.435339,-0.0014467356,-0.61872923,-4.9634304,0.57704175,0
2.020000000000001,,,,,8.364059,0.5681504,-6.2817698,0.07232503,0.18433265,1.0680888,2.0128236,-0.18625197,0.062513515,0.32086417,-0.92652553,-8.135146,8.382235,-0.02430904,-0.50495356,-5.12502,0.51656735,0
2.0300000000000007,,,,,8.364059,0.5681504,-6.2817698,0.07232503,0.10287367,1.151636,2.012465,-0.17545155,0.03963519,0.3275482,-0.92755544,-8.155954,8.326874,-0.047474362,-0.40893108,-5.261424,0.4590605,0
2.0400000000000005,,,,,8.364059,0.5681504,-6.2817698,0.07232503,0.021229217,1.2346191,2.0118728,-0.16460066,0.015977826,0.3337144,-0.9280555,-8.172209,8.269443,-0.071074046,-0.3278893,-5.376568,0.40437552,0
2.0500000000000003,,,,,8.9202385,1.3045481,-6.5453763,-0.4088615,-0.060554225,1.3170183,2.0110414,-0.15370679,-0.008333007,0.33938298,-0.92796826,-8.183727,8.210137,-0.09526184,-0.25948873,-5.473764,0.35237393,1
2.06,,,,,8.9202385,1.3045481,-6.5453763,-0.4088615,-0.14242607,1.3988359,2.0099406,-0.14274238,-0.033248015,0.34412828,-0.92741364,-8.189918,8.153183,-0.12500142,-0.01569442,-5.5557733,0.3150199,1
2.07,,,,,8.9202385,1.3045481,-6.5453763,-0.4088615,-0.22433636,1.4800775,2.0085387,-0.13167016,-0.05871012,0.34761518,-0.92648846,-8.191389,8.09498,-0.15553413,0.19008066,-5.625012,0.27949882,1
2.0799999999999996,,,,,8.9202385,1.3045481,-6.5453763,-0.4088615,-0.30623722,1.5607324,2.0068269,-0.12048836,-0.08460573,0.34998122,-0.92511547,-8.18802,8.035841,-0.18695389,0.36376676,-5.6834674,0.24572077,1
2.0899999999999994,,,,,9.599789,1.2672889,-5.4251776,-0.46743697,-0.38807976,1.6407923,2.004796,-0.10920001,-0.11083543,0.35134253,-0.9232282,-8.17972,7.9760695,-0.21937694,0.51036906,-5.7328176,0.21360023,1
2.099999999999999,,,,,9.599789,1.2672889,-5.4251776,-0.46743697,-0.4698097,1.7202296,2.0024602,-0.09790157,-0.13710095,0.35178778,-0.92079586,-8.16543,7.911381,-0.24801862,0.62827975,-5.6848383,0.18018155,1
2.109999999999999,,,,,9.599789,1.2672889,-5.4251776,-0.46743697,-0.5513701,1.7990197,1.9998312,-0.08667666,-0.16316165,0.35140157,-0.91781443,-8.14582,7.846638,-0.27802268,0.72781104,-5.6443477,0.14840272,1
2.1199999999999988,,,,,9.599789,1.2672889,-5.4251776,-0.46743697,-0.632708,1.8771633,1.9968946,-0.075514786,-0.18901351,0.350269,-0.914267,-8.12096,7.7821336,-0.30953103,0.8118285,-5.6101766,0.11818328,1
2.1299999999999986,,,,,10.284513,1.2586013,-0.6388615,-0.85111505,-0.71377146,1.9546641,1.9936348,-0.06440922,-0.21465069,0.3484618,-0.9101385,-8.09094,7.7181435,-0.34269053,0.8827505,-5.5813375,0.089446716,1
2.1399999999999983,,,,,10.284513,1.2586013,-0.6388615,-0.85111505,-0.79449177,2.0314958,1.9900677,-0.054013837,-0.2384274,0.34585923,-0.9058794,-8.052477,7.6486683,-0.37135682,0.9683965,-4.837798,0.045752466,1
2.149999999999998,,,,,10.284513,1.2586013,-0.6388615,-0.85111505,-0.8748081,2.1076474,1.9861957,-0.044917516,-0.258986,0.3425133,-0.9019947,-8.010154,7.5818753,-0.4034153,1.0153509,-4.1848407,0.0019147759,1
2.159999999999998,,,,,10.284513,1.2586013,-0.6388615,-0.85111505,-0.954681,2.1831377,1.981994,-0.036971834,-0.27678972,0.33862844,-0.898528,-7.963839,7.516399,-0.43714514,1.053185,-3.6318758,-0.03994363,1
2.1699999999999977,,,,,10.524691,1.7085104,4.469186,-1.0994936,-1.0340729,2.2579794,1.9774482,-0.030009558,-0.29228398,0.33431393,-0.8954914,-7.9140253,7.452196,-0.47221616,1.0851487,-3.1651456,-0.079748034,1
2.1799999999999975,,,,,10.524691,1.7085104,4.469186,-1.0994936,-1.1129134,2.3321402,1.9725909,-0.024305558,-0.30433175,0.32914788,-0.8935627,-7.853886,7.3805504,-0.49973705,1.3062469,-2.098505,-0.11868155,1
2.1899999999999973,,,,,10.524691,1.7085104,4.469186,-1.0994936,-1.1911488,2.4056032,1.9674441,-0.020142687,-0.31194818,0.3229241,-0.89331055,-7.79316,7.3126225,-0.5300029,1.455528,-1.1608349,-0.15904738,1
