time-since-start [s],throttle_mpc,roll_mpc,pitch_mpc,yaw_mpc,throttle_nw,roll_nw,pitch_nw,yaw_nw,position_x [m],position_y [m],position_z [m],rotation_w [quaternion],rotation_x [quaternion],rotation_y [quaternion],rotation_z [quaternion],velocity_x [m/s],velocity_y [m/s],velocity_z [m/s],omega_x [rad/s],omega_y [rad/s],omega_z [rad/s],network_used
0.0,10.71666854547148,5.999999751669474,-5.999999906458813,-3.1782501515781125,10.558752,-0.4390383,-1.4881531,-0.28272703,16.53893,-10.474135,1.6953297,-0.1829532,0.36969206,-0.22754997,-0.8820867,-10.438031,-1.9447523,-0.1489834,1.1956745,0.0007719337,0.13728422,0
0.01,10.71666854547148,5.999999751669474,-5.999999906458813,-3.1782501515781125,11.885717,-1.2570258,-4.0834103,0.2519687,16.434084,-10.493141,1.6938589,-0.18515314,0.3676423,-0.2331695,-0.88101614,-10.53047,-1.8565414,-0.14554797,1.3614501,-0.35166377,0.026773632,0
0.02,10.71666854547148,5.999999751669474,-5.999999906458813,-3.1782501515781125,11.885717,-1.2570258,-4.0834103,0.2519687,16.328331,-10.511266,1.6924106,-0.18853828,0.36403528,-0.23901094,-0.8802303,-10.619603,-1.768471,-0.14444494,1.5365735,-0.6844084,-0.08146563,0
0.03,10.71666854547148,5.999999751669474,-5.999999906458813,-3.1782501515781125,11.885717,-1.2570258,-4.0834103,0.2519687,16.221703,-10.52851,1.690963,-0.19309379,0.358936,-0.24512209,-0.8796561,-10.705026,-1.6804506,-0.14533256,1.7188332,-0.99977505,-0.18747711,0
0.04,10.71666854547148,5.999999751669474,-5.999999906458813,-3.1782501515781125,8.995396,-1.2324877,-4.4422975,0.32805952,16.11424,-10.544874,1.689498,-0.19880016,0.35239804,-0.25153726,-0.8792173,-10.78636,-1.5923969,-0.14792255,1.9063832,-1.2997366,-0.29130426,0
0.05,10.71666854547148,5.999999751669474,-5.999999906458813,-3.1782501515781125,8.995396,-1.2324877,-4.4422975,0.32805952,16.00599,-10.560358,1.6879996,-0.20563349,0.34446505,-0.25827917,-0.8788347,-10.863254,-1.504242,-0.15197621,2.0976856,-1.5859783,-0.39299008,0
0.060000000000000005,10.71666854547148,5.999999751669474,-5.999999906458813,-3.1782501515781125,8.995396,-1.2324877,-4.4422975,0.32805952,15.896992,-10.57496,1.6864542,-0.2135657,0.33517253,-0.2653605,-0.8784263,-10.935373,-1.415938,-0.15730086,2.29146,-1.859941,-0.49257728,0
0.07,10.71666854547148,5.999999751669474,-5.999999906458813,-3.1782501515781125,8.995396,-1.2324877,-4.4422975,0.32805952,15.787298,-10.588677,1.6848497,-0.22256476,0.32454926,-0.27278504,-0.87790716,-11.002407,-1.3274634,-0.16374665,2.4866436,-2.1228588,-0.590108,0
0.08,12.032701744625303,5.999999838183109,-5.999999934262548,-3.0473636846414953,11.541126,-0.7067523,-5.0893908,0.05003425,15.676962,-10.60151,1.6831757,-0.23259467,0.31261864,-0.28054872,-0.8771897,-11.06406,-1.2388252,-0.17120378,2.6823559,-2.3757892,-0.6856237,0
0.09,12.032701744625303,5.999999838183109,-5.999999934262548,-3.0473636846414953,11.541126,-0.7067523,-5.0893908,0.05003425,15.56602,-10.613429,1.6814485,-0.24369203,0.29924616,-0.28872845,-0.876186,-11.123287,-1.1449153,-0.17439902,2.9316583,-2.6734793,-0.77754974,0
0.09999999999999999,12.032701744625303,5.999999838183109,-5.999999934262548,-3.0473636846414953,11.541126,-0.7067523,-5.0893908,0.05003425,15.454518,-10.62441,1.6796838,-0.25587815,0.2843069,-0.29737923,-0.87479234,-11.17609,-1.0510571,-0.17866449,3.175626,-2.958338,-0.8679663,0
0.10999999999999999,12.032701744625303,5.999999838183109,-5.999999934262548,-3.0473636846414953,11.541126,-0.7067523,-5.0893908,0.05003425,15.342522,-10.634452,1.6778715,-0.2690884,0.26783323,-0.30645517,-0.872893,-11.222147,-0.95733404,-0.18397072,3.4141903,-3.2314615,-0.9568668,0
0.11999999999999998,12.032701744625303,5.999999838183109,-5.999999934262548,-3.0473636846414953,11.541126,-0.7067523,-5.0893908,0.05003425,15.230099,-10.643558,1.6760007,-0.28325397,0.24985525,-0.3159057,-0.87036955,-11.261168,-0.86388224,-0.19033259,3.647333,-3.493815,-1.0442485,0
0.12999999999999998,15.535155347481007,5.999999881152642,-5.999999951833449,-3.0508851326919175,10.761148,-0.31078044,-5.3302875,0.03204831,15.117322,-10.651731,1.6740608,-0.29830202,0.23040204,-0.32567608,-0.867102,-11.292897,-0.7708893,-0.19780655,3.8750737,-3.7462492,-1.1301119,0
0.13999999999999999,15.535155347481007,5.999999881152642,-5.999999951833449,-3.0508851326919175,10.761148,-0.31078044,-5.3302875,0.03204831,15.004241,-10.658885,1.6721295,-0.31430313,0.2092305,-0.33583403,-0.86293197,-11.32191,-0.66023797,-0.18870586,4.191469,-4.083716,-1.2230375,0
0.15,15.535155347481007,5.999999881152642,-5.999999951833449,-3.0508851326919175,10.761148,-0.31078044,-5.3302875,0.03204831,14.890916,-10.664934,1.6702862,-0.33127332,0.186167,-0.34639373,-0.85767776,-11.3417635,-0.54935557,-0.17985612,4.473015,-4.3830442,-1.3127306,0
0.16,19.304801100940132,5.9999995054394635,-5.9999999024089234,-3.9985192460300314,12.503246,0.29056016,-4.8356795,-0.17887655,14.777439,-10.669869,1.668534,-0.34899783,0.16145585,-0.35717297,-0.8512109,-11.352021,-0.43765548,-0.17051189,4.710675,-4.635672,-1.3980224,0
0.17,19.304801100940132,5.9999995054394635,-5.9999999024089234,-3.9985192460300314,12.503246,0.29056016,-4.8356795,-0.17887655,14.663909,-10.67355,1.6670071,-0.36736935,0.13538158,-0.36798486,-0.8433853,-11.352108,-0.29849562,-0.13486257,4.9111476,-4.8490286,-1.5256295,0
0.18000000000000002,19.304801100940132,5.9999995054394635,-5.9999999024089234,-3.9985192460300314,12.503246,0.29056016,-4.8356795,-0.17887655,14.550444,-10.67584,1.6658359,-0.38629308,0.10820174,-0.3786709,-0.83407336,-11.338958,-0.1597533,-0.09943021,5.080378,-5.0290914,-1.6469748,0
0.19000000000000003,19.304801100940132,5.9999995054394635,-5.9999999024089234,-3.9985192460300314,12.503246,0.29056016,-4.8356795,-0.17887655,14.437178,-10.676749,1.6650159,-0.4055888,0.08010973,-0.3891135,-0.8232076,-11.312154,-0.022295337,-0.06471772,5.223241,-5.18105,-1.7623657,0
0.20000000000000004,19.058469178561907,3.8506851087266245,-5.999999319878047,-1.6908553760422904,12.577392,-0.5832002,-4.0172505,0.5873906,14.324249,-10.676294,1.6645372,-0.42509237,0.051280826,-0.39921248,-0.810738,-11.271439,0.11293743,-0.031265862,5.3438497,-5.309285,-1.8720944,0
0.21000000000000005,19.058469178561907,3.8506851087266245,-5.999999319878047,-1.6908553760422904,12.577392,-0.5832002,-4.0172505,0.5873906,14.211795,-10.674511,1.6643761,-0.44439444,0.022132797,-0.4082094,-0.79711276,-11.217465,0.24324414,-0.0012503653,5.110892,-5.416688,-1.8632009,0
0.22000000000000006,19.058469178561907,3.8506851087266245,-5.999999319878047,-1.6908553760422904,12.577392,-0.5832002,-4.0172505,0.5873906,14.099948,-10.671445,1.6645054,-0.463184,-0.006984195,-0.41553205,-0.78278023,-11.150114,0.36922053,0.02674716,4.9142833,-5.50739,-1.8547437,0
0.23000000000000007,19.058469178561907,3.8506851087266245,-5.999999319878047,-1.6908553760422904,12.577392,-0.5832002,-4.0172505,0.5873906,13.988837,-10.667146,1.6649036,-0.48144934,-0.036016773,-0.4213514,-0.76770586,-11.069962,0.48977488,0.05253985,4.7483525,-5.583987,-1.8467016,0
0.24000000000000007,19.058469178561907,3.8506851087266245,-5.999999319878047,-1.6908553760422904,12.164957,-1.4892545,-2.4338417,0.87104017,13.878591,-10.661672,1.6655478,-0.49917197,-0.06491816,-0.42581183,-0.75186247,-10.977634,0.6039062,0.075919114,4.608312,-5.648673,-1.8390542,0
0.25000000000000006,19.058469178561907,3.8506851087266245,-5.999999319878047,-1.6908553760422904,12.164957,-1.4892545,-2.4338417,0.87104017,13.769325,-10.655093,1.6664128,-0.51632917,-0.093646444,-0.4290352,-0.7352301,-10.873807,0.71069795,0.09665916,4.490123,-5.7032995,-1.831782,0
0.26000000000000006,19.058469178561907,3.8506851087266245,-5.999999319878047,-1.6908553760422904,12.164957,-1.4892545,-2.4338417,0.87104017,13.661153,-10.647488,1.667471,-0.532895,-0.12216327,-0.43112463,-0.71779555,-10.759197,0.8093133,0.114521585,4.3903737,-5.749431,-1.8248667,0
0.2700000000000001,19.058469178561907,3.8506851087266245,-5.999999319878047,-1.6908553760422904,12.164957,-1.4892545,-2.4338417,0.87104017,13.554176,-10.63894,1.6686925,-0.5488423,-0.15043287,-0.43216753,-0.6995522,-10.634567,0.8989921,0.1292598,4.3061876,-5.7883883,-1.8182906,0
0.2800000000000001,17.01405234109634,1.8703391000905856,-4.3202649942742175,-0.7796625836515579,13.1307125,-1.4973428,-0.35700014,0.59313,13.448493,-10.629541,1.6700447,-0.564143,-0.17842133,-0.43223828,-0.6804987,-10.500714,0.97904897,0.14062326,4.235137,-5.821287,-1.8120372,0
0.2900000000000001,17.01405234109634,1.8703391000905856,-4.3202649942742175,-0.7796625836515579,13.1307125,-1.4973428,-0.35700014,0.59313,13.344115,-10.619432,1.6714356,-0.57856476,-0.20524539,-0.4312395,-0.661188,-10.373787,1.0414308,0.13704443,3.8668098,-5.586641,-1.7613784,0
0.3000000000000001,17.01405234109634,1.8703391000905856,-4.3202649942742175,-0.7796625836515579,13.1307125,-1.4973428,-0.35700014,0.59313,13.241039,-10.608745,1.6727747,-0.5919905,-0.23022977,-0.42916042,-0.6421548,-10.240498,1.094589,0.13030005,3.5558581,-5.388681,-1.7132053,0
0.3100000000000001,17.01405234109634,1.8703391000905856,-4.3202649942742175,-0.7796625836515579,13.1307125,-1.4973428,-0.35700014,0.59313,13.139323,-10.597572,1.674031,-0.60454154,-0.25362694,-0.42616698,-0.6233655,-10.1019,1.1385428,0.12050475,3.293345,-5.2216706,-1.6673962,0
0.3200000000000001,14.70090705050459,-0.013171857202342964,-2.0932710242822328,-0.21853880871355044,13.270613,-2.0996125,1.4838684,0.8147028,13.039017,-10.586006,1.6751747,-0.61631256,-0.27565128,-0.4223912,-0.60478157,-9.958927,1.1733452,0.107768424,3.0717254,-5.080769,-1.6238348,0
0.3300000000000001,14.70090705050459,-0.013171857202342964,-2.0932710242822328,-0.21853880871355044,13.270613,-2.0996125,1.4838684,0.8147028,12.940058,-10.574155,1.6761204,-0.62718666,-0.29551893,-0.41803047,-0.58698875,-9.8323555,1.195638,0.08100425,2.5913386,-4.6142445,-1.5548766,0
0.34000000000000014,14.70090705050459,-0.013171857202342964,-2.0932710242822328,-0.21853880871355044,13.270613,-2.0996125,1.4838684,0.8147028,12.842377,-10.562118,1.6767876,-0.6371385,-0.3126559,-0.41329718,-0.5705139,-9.703547,1.2106582,0.052115154,2.1857464,-4.2205944,-1.489302,0
0.35000000000000014,14.70090705050459,-0.013171857202342964,-2.0932710242822328,-0.21853880871355044,13.270613,-2.0996125,1.4838684,0.8147028,12.745993,-10.549964,1.6771567,-0.6463447,-0.32750854,-0.40829372,-0.5552231,-9.573193,1.2189959,0.021441437,1.8433069,-3.8884315,-1.4269452,0
0.36000000000000015,13.535808043422993,-2.4000382195384407,0.46093444358261965,1.7352069708085085,14.611216,-3.4924579,2.586772,0.68952006,12.650916,-10.537759,1.6772114,-0.65493983,-0.34044993,-0.40309152,-0.540985,-9.441836,1.2211775,-0.0107091,1.5541904,-3.6081479,-1.3676482,0
0.37000000000000016,13.535808043422993,-2.4000382195384407,0.46093444358261965,1.7352069708085085,14.611216,-3.4924579,2.586772,0.68952006,12.557164,-10.52556,1.6769421,-0.66289276,-0.35069692,-0.39775294,-0.5285616,-9.309027,1.2177284,-0.043567367,0.9123281,-2.998941,-1.2271675,0
0.38000000000000017,13.535808043422993,-2.4000382195384407,0.46093444358261965,1.7352069708085085,14.611216,-3.4924579,2.586772,0.68952006,12.464725,-10.513421,1.6763326,-0.6702013,-0.35768124,-0.39236072,-0.5186013,-9.179425,1.2097309,-0.078616165,0.37347478,-2.4818377,-1.0901661,0
0.3900000000000002,13.535808043422993,-2.4000382195384407,0.46093444358261965,1.7352069708085085,14.611216,-3.4924579,2.586772,0.68952006,12.373563,-10.501379,1.6753644,-0.6769787,-0.36196896,-0.38696647,-0.51081806,-9.05331,1.1982996,-0.11522375,-0.079005614,-2.0430417,-0.9565577,0
0.4000000000000002,14.212665924055427,-4.8573471907022485,3.376912808084087,2.080581907024814,15.638114,-4.249736,3.7680607,0.040612426,12.283646,-10.489464,1.6740246,-0.68329805,-0.364026,-0.3815933,-0.50495076,-8.930687,1.1843361,-0.15281276,-0.4572423,-1.668999,-0.8264149,0
0.4100000000000002,14.212665924055427,-4.8573471907022485,3.376912808084087,2.080581907024814,15.638114,-4.249736,3.7680607,0.040612426,12.194993,-10.477705,1.6723336,-0.6891666,-0.36297232,-0.37644604,-0.50158614,-8.800545,1.1672063,-0.18535222,-1.1895287,-0.92838,-0.68804395,0
0.4200000000000002,14.212665924055427,-4.8573471907022485,3.376912808084087,2.080581907024814,15.638114,-4.249736,3.7680607,0.040612426,12.107626,-10.466123,1.67032,-0.6945457,-0.35812744,-0.3717421,-0.5011572,-8.673203,1.1492547,-0.21719447,-1.7873967,-0.28304785,-0.5545453,0
0.4300000000000002,14.212665924055427,-4.8573471907022485,3.376912808084087,2.080581907024814,15.638114,-4.249736,3.7680607,0.040612426,12.021519,-10.454719,1.6679941,-0.69937444,-0.3501063,-0.36751568,-0.50322264,-8.548752,1.1316292,-0.24773084,-2.2717485,0.2819296,-0.42577028,0
0.4400000000000002,14.212665924055427,-4.8573471907022485,3.376912808084087,2.080581907024814,17.11981,-4.7185483,4.3977613,-0.6473996,11.936645,-10.443486,1.6653738,-0.70359915,-0.33940756,-0.36374116,-0.50738835,-8.426136,1.1151379,-0.27588478,-2.6748965,0.76448965,-0.30278283,0
0.45000000000000023,14.212665924055427,-4.8573471907022485,3.376912808084087,2.080581907024814,17.11981,-4.7185483,4.3977613,-0.6473996,11.852989,-10.432409,1.6624866,-0.7072035,-0.32642975,-0.36031207,-0.5133048,-8.305034,1.1005524,-0.30104494,-3.0152557,1.1717342,-0.18583046,0
0.46000000000000024,14.212665924055427,-4.8573471907022485,3.376912808084087,2.080581907024814,17.11981,-4.7185483,4.3977613,-0.6473996,11.770537,-10.421466,1.659364,-0.71016574,-0.3115036,-0.3571231,-0.52066594,-8.185655,1.0885906,-0.32296368,-3.3025956,1.5154272,-0.074616954,0
0.47000000000000025,14.212665924055427,-4.8573471907022485,3.376912808084087,2.080581907024814,17.11981,-4.7185483,4.3977613,-0.6473996,11.68927,-10.410627,1.656039,-0.71245867,-0.29490712,-0.3540818,-0.5292054,-8.068236,1.0798615,-0.34147534,-3.5451674,1.8054931,0.031139271,0
0.48000000000000026,15.468242741316402,-5.983300412632796,4.777490485580735,2.133570100457954,17.350657,-4.732485,5.570004,-0.271009,11.609166,-10.399857,1.6525465,-0.71405405,-0.2768762,-0.35110858,-0.538692,-7.9530454,1.0748783,-0.35648727,-3.7499394,2.0503058,0.131706,0
0.49000000000000027,15.468242741316402,-5.983300412632796,4.777490485580735,2.133570100457954,17.350657,-4.732485,5.570004,-0.271009,11.530251,-10.389115,1.6489595,-0.7148398,-0.25698632,-0.34828675,-0.54923433,-7.830436,1.0740423,-0.36030442,-4.098424,2.4753177,0.22993803,0
0.5000000000000002,15.468242741316402,-5.983300412632796,4.777490485580735,2.133570100457954,17.350657,-4.732485,5.570004,-0.271009,11.452546,-10.378358,1.6453539,-0.7146839,-0.23489724,-0.3456592,-0.5608653,-7.711023,1.0784755,-0.36020625,-4.392594,2.8340297,0.32334974,0
0.5100000000000002,15.468242741316402,-5.983300412632796,4.777490485580735,2.133570100457954,17.350657,-4.732485,5.570004,-0.271009,11.376018,-10.367526,1.641769,-0.7135311,-0.2109133,-0.34310845,-0.5732935,-7.5953116,1.088823,-0.35620272,-4.640908,3.1367912,0.4121778,0
0.5200000000000002,16.62627374321252,-5.999987440201261,5.195613990623951,2.1769107960869176,19.310322,-4.5289497,5.5328,0.470825,11.300625,-10.356559,1.6382432,-0.71133155,-0.18529943,-0.34053522,-0.5862654,-7.4838457,1.1055977,-0.34840378,-4.8505073,3.3923347,0.49664703,0
0.5300000000000002,16.62627374321252,-5.999987440201261,5.195613990623951,2.1769107960869176,19.310322,-4.5289497,5.5328,0.470825,11.226364,-10.345381,1.6348542,-0.70798254,-0.15818639,-0.33797002,-0.5995948,-7.3692117,1.1309696,-0.32881474,-5.0300555,3.673227,0.579098,0
0.5400000000000003,16.62627374321252,-5.999987440201261,5.195613990623951,2.1769107960869176,19.310322,-4.5289497,5.5328,0.470825,11.15322,-10.333911,1.631679,-0.7033951,-0.1296962,-0.33543077,-0.613107,-7.260384,1.1640587,-0.3056865,-5.1816044,3.9103208,0.6575031,0
0.5500000000000003,16.62627374321252,-5.999987440201261,5.195613990623951,2.1769107960869176,19.310322,-4.5289497,5.5328,0.470825,11.081134,-10.322071,1.6287512,-0.6975506,-0.10003827,-0.33282527,-0.6266121,-7.1580057,1.2051344,-0.2794264,-5.3095155,4.110449,0.7320609,0
0.5600000000000003,16.97561420797613,-5.3270177232825935,4.634888130539067,1.9397277413964924,19.053656,-3.826613,4.260737,1.0902201,11.010036,-10.309781,1.6260996,-0.69043624,-0.06940084,-0.33007783,-0.63994515,-7.0627227,1.2543391,-0.25050953,-5.417472,4.279378,0.8029601,0
0.5700000000000003,16.97561420797613,-5.3270177232825935,4.634888130539067,1.9397277413964924,19.053656,-3.826613,4.260737,1.0902201,10.939863,-10.296952,1.6237619,-0.68212837,-0.03827486,-0.32715094,-0.6528461,-6.973311,1.3128825,-0.21675897,-5.403552,4.3346305,0.85874164,0
0.5800000000000003,16.97561420797613,-5.3270177232825935,4.634888130539067,1.9397277413964924,19.053656,-3.826613,4.260737,1.0902201,10.870542,-10.283496,1.6217699,-0.6727266,-0.007069173,-0.3240303,-0.66512644,-6.8922706,1.3795222,-0.18145004,-5.391794,4.3812757,0.91178596,0
0.5900000000000003,16.97561420797613,-5.3270177232825935,4.634888130539067,1.9397277413964924,19.053656,-3.826613,4.260737,1.0902201,10.801987,-10.269335,1.620136,-0.6622572,0.024167553,-0.32069045,-0.6767487,-6.82003,1.453944,-0.14520364,-5.381861,4.420655,0.96222734,0
0.6000000000000003,16.24882560818456,-3.996948742200744,3.429918579465856,1.6810300209513425,19.269197,-3.214502,3.247046,1.4626441,10.734109,-10.254393,1.6188668,-0.6507461,0.055387735,-0.31711116,-0.68767875,-6.7569833,1.5357788,-0.10863953,-5.3734684,4.4539013,1.0101936,0
0.6100000000000003,16.24882560818456,-3.996948742200744,3.429918579465856,1.6810300209513425,19.269197,-3.214502,3.247046,1.4626441,10.666803,-10.238615,1.6179334,-0.6384389,0.08587874,-0.31333634,-0.6977398,-6.7057357,1.620772,-0.078121856,-5.158788,4.294242,1.0431117,0
0.6200000000000003,16.24882560818456,-3.996948742200744,3.429918579465856,1.6810300209513425,19.269197,-3.214502,3.247046,1.4626441,10.599963,-10.221956,1.6173016,-0.6255962,0.115077846,-0.30943283,-0.7068505,-6.6636033,1.7117928,-0.048419304,-4.9775934,4.1594725,1.0744145,0
0.6300000000000003,16.24882560818456,-3.996948742200744,3.429918579465856,1.6810300209513425,19.269197,-3.214502,3.247046,1.4626441,10.533501,-10.20436,1.6169608,-0.61225575,0.14314593,-0.30541286,-0.71510494,-6.6305013,1.8081838,-0.020000707,-4.8246613,4.045712,1.1041813,0
0.6400000000000003,16.24882560818456,-3.996948742200744,3.429918579465856,1.6810300209513425,19.52381,-2.6730735,2.5523958,1.044857,10.467324,-10.185776,1.6168958,-0.5984453,0.17021866,-0.30128354,-0.7225766,-6.6063366,1.9093333,0.006716095,-4.695584,3.9496853,1.1324874,0
0.6500000000000004,16.24882560818456,-3.996948742200744,3.429918579465856,1.6810300209513425,19.52381,-2.6730735,2.5523958,1.044857,10.401344,-10.166159,1.617088,-0.58418584,0.19640969,-0.29704854,-0.7293231,-6.5910144,2.0146673,0.03135463,-4.5866404,3.8686278,1.1594046,0
0.6600000000000004,16.24882560818456,-3.996948742200744,3.429918579465856,1.6810300209513425,19.52381,-2.6730735,2.5523958,1.044857,10.335473,-10.14547,1.6175146,-0.56949365,0.22181365,-0.2927091,-0.735389,-6.5844355,2.1236417,0.05357244,-4.4946904,3.8002057,1.185001,0
0.6700000000000004,16.24882560818456,-3.996948742200744,3.429918579465856,1.6810300209513425,19.52381,-2.6730735,2.5523958,1.044857,10.269626,-10.123675,1.61815,-0.55438185,0.2465088,-0.28826493,-0.7408086,-6.586497,2.2357368,0.07305548,-4.4170823,3.7424495,1.2093412,0
0.6800000000000004,15.189825281067876,-2.364130076655859,1.8724856957544642,1.3867400150919504,18.880503,-2.7183352,1.645234,1.278339,10.203714,-10.100746,1.6189653,-0.53886133,0.27055943,-0.28371477,-0.7456084,-6.597091,2.3504524,0.089513965,-4.35158,3.6936963,1.2324871,0
0.6900000000000004,15.189825281067876,-2.364130076655859,1.8724856957544642,1.3867400150919504,18.880503,-2.7183352,1.645234,1.278339,10.13766,-10.076697,1.6198925,-0.523336,0.29321867,-0.27920768,-0.7497902,-6.614811,2.4596741,0.09545301,-4.0414276,3.409908,1.2400564,0
0.7000000000000004,15.189825281067876,-2.364130076655859,1.8724856957544642,1.3867400150919504,18.880503,-2.7183352,1.645234,1.278339,10.071392,-10.051548,1.6208636,-0.50817746,0.31392536,-0.2748904,-0.7534201,-6.639881,2.5703638,0.098286726,-3.7796757,3.1703413,1.2472543,0
0.7100000000000004,15.189825281067876,-2.364130076655859,1.8724856957544642,1.3867400150919504,18.880503,-2.7183352,1.645234,1.278339,10.004839,-10.025286,1.6218476,-0.4933426,0.33297655,-0.27075204,-0.75659305,-6.671783,2.6820595,0.09803989,-3.5587711,2.9681046,1.2540988,0
0.7200000000000004,14.035661124084895,-0.642060037281483,0.10448852698959282,1.036261944562422,17.892525,-1.6644619,1.1210505,1.0360233,9.937934,-9.997904,1.6228139,-0.47878718,0.3506212,-0.26677766,-0.7593795,-6.7100663,2.7943745,0.094750606,-3.37234,2.7973814,1.2606075,0
0.7300000000000004,14.035661124084895,-0.642060037281483,0.10448852698959282,1.036261944562422,17.892525,-1.6644619,1.1210505,1.0360233,9.870633,-9.9694395,1.6236974,-0.46494073,0.36621982,-0.2631276,-0.7618904,-6.750922,2.8984191,0.08151947,-2.9461927,2.3777971,1.2495989,0
0.7400000000000004,14.035661124084895,-0.642060037281483,0.10448852698959282,1.036261944562422,17.892525,-1.6644619,1.1210505,1.0360233,9.802898,-9.939935,1.6244359,-0.45217356,0.37930372,-0.25994742,-0.7642611,-6.796603,3.0024478,0.06581606,-2.5865622,2.023586,1.2391304,0
0.7500000000000004,14.035661124084895,-0.642060037281483,0.10448852698959282,1.036261944562422,17.892525,-1.6644619,1.1210505,1.0360233,9.734686,-9.90939,1.6250062,-0.44035533,0.39028963,-0.25719383,-0.7665589,-6.846454,3.1062505,0.04795533,-2.2830656,1.7245635,1.2291756,0
0.7600000000000005,13.271135666588753,0.9070586367326341,-1.5499380299256715,0.6869690203731817,17.187046,-0.9946326,0.27787778,1.012139,9.6659565,-9.8778105,1.6253885,-0.42936495,0.39952338,-0.25482222,-0.7688254,-6.8999257,3.209682,0.028223641,-2.0269403,1.4721311,1.2197093,0
0.7700000000000005,13.271135666588753,0.9070586367326341,-1.5499380299256715,0.6869690203731817,17.187046,-0.9946326,0.27787778,1.012139,9.596691,-9.845226,1.6255442,-0.41954613,0.40653232,-0.2529691,-0.77118045,-6.953429,3.307036,0.0027269851,-1.5689934,1.0012319,1.1935675,0
0.7800000000000005,13.271135666588753,0.9070586367326341,-1.5499380299256715,0.6869690203731817,17.187046,-0.9946326,0.27787778,1.012139,9.526879,-9.811671,1.6254392,-0.41117695,0.41096807,-0.25174713,-0.7737327,-7.009226,3.403899,-0.023845248,-1.1825355,0.6036979,1.1687086,0
0.7900000000000005,13.271135666588753,0.9070586367326341,-1.5499380299256715,0.6869690203731817,17.187046,-0.9946326,0.27787778,1.012139,9.456501,-9.77715,1.625065,-0.40405917,0.41325527,-0.251078,-0.77647686,-7.0666847,3.5002666,-0.05106608,-0.85640466,0.26810116,1.1450695,0
0.8000000000000005,13.233994613294762,1.8821141528604501,-2.6699196331781985,0.35836412099894666,16.566439,-0.18220678,-0.7809007,0.7521965,9.385542,-9.741668,1.6244168,-0.39801642,0.41374403,-0.25088814,-0.77939355,-7.125278,3.5961587,-0.07857022,-0.5811821,-0.015207231,1.1225904,0
0.8100000000000005,13.233994613294762,1.8821141528604501,-2.6699196331781985,0.35836412099894666,16.566439,-0.18220678,-0.7809007,0.7521965,9.313994,-9.705231,1.6234927,-0.39319927,0.4122297,-0.25122073,-0.7825277,-7.1843643,3.6913435,-0.10622568,-0.19673994,-0.428922,1.0850897,0
0.8200000000000005,13.233994613294762,1.8821141528604501,-2.6699196331781985,0.35836412099894666,16.566439,-0.18220678,-0.7809007,0.7521965,9.241855,-9.667843,1.6222938,-0.38971788,0.40856168,-0.2521037,-0.7859017,-7.2435455,3.786142,-0.13344106,0.12768537,-0.7781778,1.0494289,0
0.8300000000000005,13.233994613294762,1.8821141528604501,-2.6699196331781985,0.35836412099894666,16.566439,-0.18220678,-0.7809007,0.7521965,9.169126,-9.629509,1.6208266,-0.38737077,0.40307537,-0.25345078,-0.7894538,-7.3022833,3.880611,-0.15985218,0.40146574,-1.0730156,1.0155182,0
0.8400000000000005,13.233994613294762,1.8821141528604501,-2.6699196331781985,0.35836412099894666,16.272503,0.18815419,-1.0939088,0.37575498,9.095812,-9.590232,1.6191006,-0.38598278,0.39604867,-0.2551847,-0.79312295,-7.3601136,3.9747984,-0.18516481,0.6325091,-1.3219122,0.98327136,0
0.8500000000000005,13.233994613294762,1.8821141528604501,-2.6699196331781985,0.35836412099894666,16.272503,0.18815419,-1.0939088,0.37575498,9.021927,-9.550014,1.6171279,-0.38540253,0.38771302,-0.25723717,-0.796852,-7.416634,4.0687423,-0.20914626,0.82748854,-1.5320246,0.952607,0
0.8600000000000005,13.233994613294762,1.8821141528604501,-2.6699196331781985,0.35836412099894666,16.272503,0.18815419,-1.0939088,0.37575498,8.947485,-9.508857,1.6149229,-0.3854999,0.37826195,-0.25954828,-0.80058914,-7.4714923,4.1624665,-0.23161744,0.9920345,-1.7093954,0.92344725,0
0.8700000000000006,13.233994613294762,1.8821141528604501,-2.6699196331781985,0.35836412099894666,16.272503,0.18815419,-1.0939088,0.37575498,8.872503,-9.466764,1.6125013,-0.38616347,0.36785796,-0.262066,-0.8042887,-7.5243793,4.255983,-0.25244543,1.1308986,-1.8591254,0.8957185,0
0.8800000000000006,13.20880088658126,2.2184792085566314,-3.2286482648550843,0.11473387533730413,15.629548,0.1719816,-1.0864013,0.006998148,8.797005,-9.423738,1.6098801,-0.3872979,0.356638,-0.26474535,-0.8079109,-7.5750213,4.3492904,-0.27153724,1.24809,-1.9855212,0.8693504,0
0.8900000000000006,13.20880088658126,2.2184792085566314,-3.2286482648550843,0.11473387533730413,15.629548,0.1719816,-1.0864013,0.006998148,8.721012,-9.379779,1.6070762,-0.38895246,0.34449217,-0.26755884,-0.8114518,-7.6230736,4.4421973,-0.2889788,1.3994789,-2.1793342,0.8323211,0
0.9000000000000006,13.20880088658126,2.2184792085566314,-3.2286482648550843,0.11473387533730413,15.629548,0.1719816,-1.0864013,0.006998148,8.644552,-9.334893,1.604107,-0.39116016,0.33133683,-0.27047884,-0.8148935,-7.668335,4.5348463,-0.30453303,1.5272367,-2.3429399,0.7971089,0
0.9100000000000006,13.20880088658126,2.2184792085566314,-3.2286482648550843,0.11473387533730413,15.629548,0.1719816,-1.0864013,0.006998148,8.5676565,-9.289083,1.6009922,-0.39382353,0.317315,-0.27346924,-0.81818664,-7.710517,4.6271887,-0.31813592,1.6350532,-2.481045,0.76362455,0
0.9200000000000006,13.415772568838365,2.013436162906793,-3.267071377987074,-0.0709636292088547,15.29661,-0.11292275,-1.1786532,-0.022486959,8.490355,-9.242351,1.5977511,-0.39685908,0.30254835,-0.27649903,-0.82128936,-7.7493634,4.719162,-0.32976148,1.7260422,-2.597624,0.73178333,0
0.9300000000000006,13.415772568838365,2.013436162906793,-3.267071377987074,-0.0709636292088547,15.29661,-0.11292275,-1.1786532,-0.022486959,8.412679,-9.194694,1.5944107,-0.4001943,0.28716716,-0.2794615,-0.8241853,-7.7852054,4.8121257,-0.33802864,1.7708416,-2.7020483,0.6923923,0
0.9400000000000006,13.415772568838365,2.013436162906793,-3.267071377987074,-0.0709636292088547,15.29661,-0.11292275,-1.1786532,-0.022486959,8.334664,-9.14611,1.5909975,-0.40377212,0.2712831,-0.28227013,-0.82686013,-7.8172545,4.904537,-0.3443152,1.8086458,-2.7901902,0.6549342,0
0.9500000000000006,13.415772568838365,2.013436162906793,-3.267071377987074,-0.0709636292088547,15.29661,-0.11292275,-1.1786532,-0.022486959,8.256349,-9.096606,1.5875311,-0.40754676,0.25496736,-0.28492832,-0.8292851,-7.8453593,4.996285,-0.34866494,1.8405482,-2.8645887,0.6193142,0
0.9600000000000006,13.890785665650906,1.4233298498156202,-2.86167425563567,-0.20838146070425825,15.074705,-0.32301024,-0.734141,-0.04565457,8.177771,-9.046188,1.5840306,-0.41147843,0.23828131,-0.28743914,-0.83143663,-7.869386,5.087256,-0.35114276,1.8674707,-2.9273863,0.58544207,0
0.9700000000000006,13.890785665650906,1.4233298498156202,-2.86167425563567,-0.20838146070425825,15.074705,-0.32301024,-0.734141,-0.04565457,8.09897,-8.994848,1.5805316,-0.41544616,0.22151588,-0.28967294,-0.8333219,-7.889939,5.180523,-0.34838432,1.7981292,-2.9172108,0.5464889,0
0.9800000000000006,13.890785665650906,1.4233298498156202,-2.86167425563567,-0.20838146070425825,15.074705,-0.32301024,-0.734141,-0.04565457,8.019986,-8.942581,1.5770689,-0.4193627,0.20491019,-0.2915311,-0.83495927,-7.906179,5.2727375,-0.34388608,1.7396063,-2.908613,0.50944716,0
0.9900000000000007,13.890785665650906,1.4233298498156202,-2.86167425563567,-0.20838146070425825,15.074705,-0.32301024,-0.734141,-0.04565457,7.940861,-8.889398,1.5736595,-0.42324,0.18844283,-0.29305843,-0.836346,-7.918153,5.363776,-0.33776402,1.6902142,-2.9013479,0.47422308,0
1.0000000000000007,14.262768640128684,0.5994286405130627,-2.002512282551046,-0.2782226361316676,14.331606,-0.9424608,-0.28503922,-0.04498503,7.8616376,-8.835311,1.5703188,-0.42708656,0.17209567,-0.29429322,-0.8374797,-7.9259,5.453525,-0.33013383,1.6485286,-2.8952098,0.4407275,0
1.0100000000000007,14.262768640128684,0.5994286405130627,-2.002512282551046,-0.2782226361316676,14.331606,-0.9424608,-0.28503922,-0.04498503,7.782357,-8.780321,1.5670757,-0.430761,0.1562861,-0.29513928,-0.83839905,-7.929581,5.5442457,-0.3182465,1.4848183,-2.7560756,0.4054484,0
1.0200000000000007,14.262768640128684,0.5994286405130627,-2.002512282551046,-0.2782226361316676,14.331606,-0.9424608,-0.28503922,-0.04498503,7.70306,-8.724431,1.5639582,-0.4341652,0.14134903,-0.29552907,-0.8391568,-7.9292192,5.633461,-0.3050734,1.3466532,-2.638624,0.3719005,0
1.0300000000000007,14.262768640128684,0.5994286405130627,-2.002512282551046,-0.2782226361316676,14.331606,-0.9424608,-0.28503922,-0.04498503,7.623786,-8.667657,1.5609782,-0.43735996,0.12715787,-0.29553092,-0.83976734,-7.925071,5.7211156,-0.2907426,1.230047,-2.5394766,0.33999878,0
1.0400000000000007,14.262768640128684,0.5994286405130627,-2.002512282551046,-0.2782226361316676,14.48889,-1.3237128,0.2689955,-0.083168894,7.544571,-8.610014,1.5581468,-0.44039366,0.11360442,-0.29520226,-0.84024024,-7.9173546,5.807165,-0.2753639,1.1316354,-2.4557815,0.3096625,0
1.0500000000000007,14.262768640128684,0.5994286405130627,-2.002512282551046,-0.2782226361316676,14.48889,-1.3237128,0.2689955,-0.083168894,7.4654503,-8.551518,1.5554742,-0.44330475,0.10059631,-0.2945912,-0.8405819,-7.9062586,5.891568,-0.25903296,1.0485789,-2.3851311,0.2808148,0
1.0600000000000007,14.262768640128684,0.5994286405130627,-2.002512282551046,-0.2782226361316676,14.48889,-1.3237128,0.2689955,-0.083168894,7.386457,-8.492188,1.5529691,-0.44612354,0.08805481,-0.29373822,-0.8407965,-7.8919425,5.974291,-0.24183486,0.9784816,-2.3254921,0.25338268,0
1.0700000000000007,14.262768640128684,0.5994286405130627,-2.002512282551046,-0.2782226361316676,14.48889,-1.3237128,0.2689955,-0.083168894,7.3076224,-8.43204,1.5506401,-0.4488739,0.07591288,-0.2926775,-0.8408864,-7.874545,6.0552998,-0.22384647,0.9193215,-2.275149,0.22729665,0
1.0800000000000007,14.388386915328752,-0.13336804072311356,-1.1132707964003101,-0.29512132222959525,15.536578,-1.5714684,0.48749468,0.17878923,7.2289762,-8.371089,1.5484946,-0.4515745,0.064113475,-0.29143775,-0.8408535,-7.8541846,6.1345654,-0.20513836,0.8693919,-2.232653,0.20249067,0
1.0900000000000007,14.388386915328752,-0.13336804072311356,-1.1132707964003101,-0.29512132222959525,15.536578,-1.5714684,0.48749468,0.17878923,7.1505494,-8.309351,1.5465448,-0.45412174,0.053040788,-0.2899584,-0.84076446,-7.8307877,6.2127504,-0.18474188,0.7129562,-2.0581179,0.17807272,0
1.1000000000000008,14.388386915328752,-0.13336804072311356,-1.1132707964003101,-0.29512132222959525,15.536578,-1.5714684,0.48749468,0.17878923,7.07237,-8.24684,1.5448018,-0.4564434,0.04299792,-0.2881975,-0.8406863,-7.804809,6.289189,-0.16374461,0.58092636,-1.9107935,0.15485296,0
1.1100000000000008,14.388386915328752,-0.13336804072311356,-1.1132707964003101,-0.29512132222959525,15.536578,-1.5714684,0.48749468,0.17878923,6.9944615,-8.183573,1.5432717,-0.45859265,0.03383018,-0.28620142,-0.84061754,-7.776538,6.363928,-0.14219183,0.46949416,-1.7864385,0.13277258,0
1.1200000000000008,14.440852170696717,-0.7655065725529235,-0.1208057857472976,-0.2704127032392048,15.525182,-2.1341546,0.97918963,0.4587206,6.9168463,-8.119567,1.5419596,-0.46061173,0.025406195,-0.28400853,-0.84055424,-7.7462187,6.4370103,-0.12011794,0.3754461,-1.6814718,0.111775704,0
1.1300000000000008,14.440852170696717,-0.7655065725529235,-0.1208057857472976,-0.2704127032392048,15.525182,-2.1341546,0.97918963,0.4587206,6.839544,-8.054837,1.5408732,-0.4624144,0.018064156,-0.2816218,-0.8405574,-7.713968,6.5087466,-0.09710982,0.19747962,-1.4381021,0.093021594,0
1.1400000000000008,14.440852170696717,-0.7655065725529235,-0.1208057857472976,-0.2704127032392048,15.525182,-2.1341546,0.97918963,0.4587206,6.7625713,-7.9893975,1.5400192,-0.4639389,0.012066337,-0.27904782,-0.84068334,-7.680252,6.578989,-0.07362539,0.047275584,-1.2326802,0.07518778,0
1.1500000000000008,14.440852170696717,-0.7655065725529235,-0.1208057857472976,-0.2704127032392048,15.525182,-2.1341546,0.97918963,0.4587206,6.685942,-7.9232626,1.5394022,-0.46524632,0.0072071734,-0.2763195,-0.84091765,-7.645425,6.6478662,-0.04967412,-0.079497576,-1.0592893,0.05822906,0
1.1600000000000008,14.167749110536832,-1.2090512621773364,0.6415006973806923,-0.2185383864852309,15.208574,-2.097136,1.7749189,0.6295553,6.6096654,-7.856445,1.5390272,-0.46638522,0.0033126047,-0.27346334,-0.84124464,-7.609782,6.7154913,-0.025258198,-0.18649563,-0.9129355,0.042102512,0
1.1700000000000008,14.167749110536832,-1.2090512621773364,0.6415006973806923,-0.2185383864852309,15.208574,-2.097136,1.7749189,0.6295553,6.533745,-7.788963,1.5388871,-0.46730557,0.0005730828,-0.270494,-0.8417001,-7.5742803,6.780713,-0.0027014622,-0.34597495,-0.6705235,0.029312782,0
1.1800000000000008,14.167749110536832,-1.2090512621773364,0.6415006973806923,-0.2185383864852309,15.208574,-2.097136,1.7749189,0.6295553,6.4581804,-7.720834,1.5389748,-0.46796936,-0.0008682754,-0.26742432,-0.84231174,-7.53858,6.8449616,0.02031851,-0.48057896,-0.46591288,0.017150663,0
1.1900000000000008,14.167749110536832,-1.2090512621773364,0.6415006973806923,-0.2185383864852309,15.208574,-2.097136,1.7749189,0.6295553,6.3829727,-7.6520667,1.5392951,-0.46842644,-0.0012112906,-0.26427048,-0.8430523,-7.503004,6.9083853,0.043809,-0.594188,-0.29320914,0.005585339,0
1.2000000000000008,14.11970780079134,-1.3718047218193212,1.1850575223237092,-0.14674536716883432,14.6470375,-2.4142253,1.901828,1.1515757,6.308119,-7.5826683,1.5398526,-0.46871644,-0.00062489806,-0.26104534,-0.8438962,-7.467825,6.97111,0.06777667,-0.6900773,-0.14743717,-0.0054124855,0
1.2100000000000009,14.11970780079134,-1.3718047218193212,1.1850575223237092,-0.14674536716883432,14.6470375,-2.4142253,1.901828,1.1515757,6.233613,-7.512647,1.5406501,-0.46880686,0.000959927,-0.25780597,-0.84484094,-7.4334006,7.0330396,0.09180887,-0.7963913,0.060368393,-0.01234773,0
1.2200000000000009,14.11970780079134,-1.3718047218193212,1.1850575223237092,-0.14674536716883432,14.6470375,-2.4142253,1.901828,1.1515757,6.1594477,-7.442009,1.5416903,-0.46867138,0.003590236,-0.25459743,-0.8458815,-7.399879,7.0945344,0.11631065,-0.88612413,0.23576733,-0.018942652,0
1.2300000000000009,14.11970780079134,-1.3718047218193212,1.1850575223237092,-0.14674536716883432,14.6470375,-2.4142253,1.901828,1.1515757,6.085612,-7.3707576,1.5429778,-0.46834624,0.0071045337,-0.25141233,-0.8469913,-7.367507,7.155735,0.1412674,-0.96186227,0.3838135,-0.02521398,0
1.2400000000000009,14.11970780079134,-1.3718047218193212,1.1850575223237092,-0.14674536716883432,14.804398,-2.4122527,1.6582886,1.6154243,6.0120935,-7.2988944,1.544517,-0.4678607,0.011366254,-0.24824415,-0.84814686,-7.336495,7.2167587,0.16666156,-1.0257883,0.50877213,-0.031177565,0
1.2500000000000009,14.11970780079134,-1.3718047218193212,1.1850575223237092,-0.14674536716883432,14.804398,-2.4122527,1.6582886,1.6154243,5.938877,-7.2264223,1.5463123,-0.4672384,0.016259875,-0.24508706,-0.84932756,-7.3070216,7.2777,0.19247212,-1.0797449,0.61424357,-0.036848504,0
1.260000000000001,14.11970780079134,-1.3718047218193212,1.1850575223237092,-0.14674536716883432,14.804398,-2.4122527,1.6582886,1.6154243,5.8659472,-7.1533403,1.5483679,-0.46649864,0.021687638,-0.24193595,-0.85051554,-7.279239,7.338638,0.21867463,-1.1252868,0.70326674,-0.04224117,0
1.270000000000001,14.11970780079134,-1.3718047218193212,1.1850575223237092,-0.14674536716883432,14.804398,-2.4122527,1.6582886,1.6154243,5.793286,-7.0796494,1.5506871,-0.4656571,0.027566792,-0.2387865,-0.85169566,-7.253278,7.3996334,0.24524157,-1.1637264,0.77840674,-0.047369216,0
1.280000000000001,13.993185675193743,-1.3196067279721542,1.2996070944781615,-0.07170534333379522,14.483279,-2.318526,1.7961563,1.6491578,5.720875,-7.0053477,1.5532737,-0.46472657,0.033827256,-0.23563506,-0.8528552,-7.229248,7.460737,0.2721424,-1.1961716,0.84182847,-0.052245636,0
1.290000000000001,13.993185675193743,-1.3196067279721542,1.2996070944781615,-0.07170534333379522,14.483279,-2.318526,1.7961563,1.6491578,5.648693,-6.930437,1.5561252,-0.46369973,0.040436886,-0.23251791,-0.85398114,-7.2074423,7.5214415,0.29822013,-1.2154182,0.91322035,-0.053200535,0
1.300000000000001,13.993185675193743,-1.3196067279721542,1.2996070944781615,-0.07170534333379522,14.483279,-2.318526,1.7961563,1.6491578,5.576719,-6.8549185,1.5592389,-0.46257013,0.04736674,-0.22946382,-0.85506284,-7.1877294,7.5823417,0.32455146,-1.2316637,0.9734785,-0.05410857,0
1.310000000000001,13.993185675193743,-1.3196067279721542,1.2996070944781615,-0.07170534333379522,14.483279,-2.318526,1.7961563,1.6491578,5.504931,-6.7787895,1.5626171,-0.46134865,0.05456624,-0.2264597,-0.8560939,-7.170181,7.64348,0.35108995,-1.245376,1.0243392,-0.05497205,0
1.320000000000001,14.038840879578467,-1.1074976720240004,1.1879423953991812,0.006055808004852781,14.480338,-2.1671443,1.3564572,1.8754809,5.433307,-6.7020483,1.5662615,-0.46004432,0.061992522,-0.22349457,-0.8570689,-7.1548586,7.7048883,0.3777888,-1.2569501,1.0672681,-0.055793155,0
1.330000000000001,14.038840879578467,-1.1074976720240004,1.1879423953991812,0.006055808004852781,14.480338,-2.1671443,1.3564572,1.8754809,5.361826,-6.6246905,1.5701754,-0.45867214,0.06952977,-0.22061218,-0.8579723,-7.1417665,7.7667933,0.405008,-1.2336446,1.0860839,-0.0527582,0
1.340000000000001,14.038840879578467,-1.1074976720240004,1.1879423953991812,0.006055808004852781,14.480338,-2.1671443,1.3564572,1.8754809,5.290464,-6.5467114,1.5743618,-0.45724458,0.077084124,-0.21784757,-0.85879487,-7.1309605,7.8290143,0.4322886,-1.2139735,1.1019657,-0.04987219,0
1.350000000000001,14.038840879578467,-1.1074976720240004,1.1879423953991812,0.006055808004852781,14.480338,-2.1671443,1.3564572,1.8754809,5.219198,-6.4681096,1.5788211,-0.4557652,0.08465158,-0.21518049,-0.85954076,-7.1224327,7.8915663,0.4595801,-1.1973702,1.115371,-0.047127787,0
1.360000000000001,13.826704043959294,-0.7963636296954585,0.7455220600494001,0.07614931964252385,17.11392,-2.1392586,0.11158107,2.635105,5.1480074,-6.38888,1.5835532,-0.4542369,0.09222869,-0.21259387,-0.8602136,-7.116177,7.9544597,0.48683468,-1.1833562,1.126686,-0.044518057,0
1.370000000000001,13.826704043959294,-0.7963636296954585,0.7455220600494001,0.07614931964252385,17.11392,-2.1392586,0.11158107,2.635105,5.076867,-6.309024,1.5885481,-0.45270455,0.09960185,-0.21010119,-0.86081153,-7.112236,8.016741,0.5121157,-1.1230108,1.0672375,-0.038596872,0
1.380000000000001,13.826704043959294,-0.7963636296954585,0.7455220600494001,0.07614931964252385,17.11392,-2.1392586,0.11158107,2.635105,5.0057554,-6.2285433,1.5937952,-0.45120516,0.1066019,-0.20771387,-0.8613396,-7.110426,8.079335,0.53728795,-1.0720752,1.0170609,-0.03296624,0
1.390000000000001,13.826704043959294,-0.7963636296954585,0.7455220600494001,0.07614931964252385,17.11392,-2.1392586,0.11158107,2.635105,4.9346514,-6.147436,1.5992934,-0.4497303,0.1132859,-0.20541574,-0.8618088,-7.110648,8.142214,0.5623289,-1.0290824,0.97471005,-0.027611913,0
1.400000000000001,13.395977505426275,-0.5070878944962488,0.13697088339322788,0.14171616977530646,17.107862,-2.3823369,-1.7081397,2.8541124,4.863536,-6.0656986,1.6050411,-0.4482727,0.11970201,-0.20319305,-0.86222774,-7.1128182,8.20535,0.58721894,-0.992794,0.93896437,-0.022520324,0
1.410000000000001,13.395977505426275,-0.5070878944962488,0.13697088339322788,0.14171616977530646,17.107862,-2.3823369,-1.7081397,2.8541124,4.79239,-5.9833384,1.6110181,-0.44688305,0.12562753,-0.20102601,-0.862614,-7.1167245,8.266741,0.60811836,-0.91705453,0.81388813,-0.014461195,0
1.420000000000001,13.395977505426275,-0.5070878944962488,0.13697088339322788,0.14171616977530646,17.107862,-2.3823369,-1.7081397,2.8541124,4.7211967,-5.9003634,1.6172031,-0.445602,0.13088843,-0.19889969,-0.8629873,-7.1222835,8.328289,0.62887096,-0.85312504,0.70831835,-0.006797535,0
1.430000000000001,13.395977505426275,-0.5070878944962488,0.13697088339322788,0.14171616977530646,17.107862,-2.3823369,-1.7081397,2.8541124,4.6499395,-5.8167725,1.6235951,-0.44440997,0.13558775,-0.19680949,-0.8633555,-7.1293397,8.389929,0.6494974,-0.7991641,0.61921287,0.0004900788,0
1.440000000000001,13.395977505426275,-0.5070878944962488,0.13697088339322788,0.14171616977530646,17.254293,-2.2021697,-2.8552563,2.8235734,4.578605,-5.732565,1.6301929,-0.44329014,0.13981242,-0.19475117,-0.8637241,-7.137763,8.451602,0.6700168,-0.75361764,0.54400396,0.007420077,0
1.450000000000001,13.395977505426275,-0.5070878944962488,0.13697088339322788,0.14171616977530646,17.254293,-2.2021697,-2.8552563,2.8235734,4.50718,-5.6477404,1.6369952,-0.4422282,0.14363581,-0.19272093,-0.86409646,-7.147442,8.513263,0.69044673,-0.7151733,0.48052463,0.014010012,0
1.460000000000001,13.395977505426275,-0.5070878944962488,0.13697088339322788,0.14171616977530646,17.254293,-2.2021697,-2.8552563,2.8235734,4.4356523,-5.5622997,1.6440015,-0.44121194,0.14711982,-0.19071542,-0.8644747,-7.1582837,8.574873,0.7108026,-0.6827238,0.4269451,0.020276582,0
1.470000000000001,13.395977505426275,-0.5070878944962488,0.13697088339322788,0.14171616977530646,17.254293,-2.2021697,-2.8552563,2.8235734,4.364011,-5.4762435,1.651211,-0.440231,0.1503167,-0.18873155,-0.8648602,-7.170209,8.636399,0.73109776,-0.6553345,0.3817215,0.026235657,0
1.480000000000001,12.730008737252037,-0.3018145560351448,-0.5446203049791385,0.20334861874001173,17.256935,-1.7168704,-3.6101735,2.6182048,4.292245,-5.3895726,1.6586233,-0.43927678,0.15327054,-0.1867667,-0.8652534,-7.183151,8.697815,0.75134397,-0.63221616,0.3435508,0.03190232,0
1.490000000000001,12.730008737252037,-0.3018145560351448,-0.5446203049791385,0.20334861874001173,17.256935,-1.7168704,-3.6101735,2.6182048,4.220348,-5.3023033,1.6662085,-0.43839908,0.15574515,-0.18477115,-0.865685,-7.1963496,8.756041,0.76567525,-0.5806886,0.205039,0.04031524,0
1.500000000000001,12.730008737252037,-0.3018145560351448,-0.5446203049791385,0.20334861874001173,17.256935,-1.7168704,-3.6101735,2.6182048,4.1483145,-5.2144527,1.673937,-0.4376363,0.15755521,-0.18270606,-0.86618155,-7.21032,8.814056,0.78002185,-0.53719574,0.08812839,0.04831534,0
1.5100000000000011,12.730008737252037,-0.3018145560351448,-0.5446203049791385,0.20334861874001173,17.256935,-1.7168704,-3.6101735,2.6182048,4.076139,-5.1260233,1.6818092,-0.43696618,0.1588036,-0.18058367,-0.8667368,-7.224929,8.871784,0.79443544,-0.50048506,-0.010549808,0.05592286,0
1.5200000000000011,11.717118132256848,-0.17530467105508238,-1.2049983409841782,0.27186714067571605,17.02492,-1.5910106,-4.46811,2.6233113,4.003814,-5.0370183,1.689826,-0.43636993,0.15957707,-0.17841402,-0.86734426,-7.240063,8.929159,0.8089602,-0.46949905,-0.093838885,0.063157074,0
1.5300000000000011,11.717118132256848,-0.17530467105508238,-1.2049983409841782,0.27186714067571605,17.02492,-1.5910106,-4.46811,2.6233113,3.9313424,-4.947464,1.6979442,-0.4358793,0.15969595,-0.17613536,-0.86803454,-7.25438,8.981585,0.81466603,-0.42361075,-0.26712447,0.07339854,0
1.5400000000000011,11.717118132256848,-0.17530467105508238,-1.2049983409841782,0.27186714067571605,17.02492,-1.5910106,-4.46811,2.6233113,3.8587258,-4.8573875,1.7061203,-0.4355166,0.1590211,-0.1736993,-0.86883104,-7.2689433,9.033528,0.8205795,-0.38487798,-0.4133859,0.083137445,0
1.5500000000000012,11.717118132256848,-0.17530467105508238,-1.2049983409841782,0.27186714067571605,17.02492,-1.5910106,-4.46811,2.6233113,3.785963,-4.766795,1.7143568,-0.4352543,0.15767458,-0.17113115,-0.8697171,-7.283613,9.084892,0.82676554,-0.35218534,-0.5368379,0.09239846,0
1.5600000000000012,10.800856857635898,-0.21475104033415518,-1.8295213087012194,0.3555038173878234,13.882035,-1.3272475,-4.47658,2.3915231,3.7130537,-4.675692,1.7226567,-0.43506905,0.15575936,-0.16845192,-0.8706774,-7.2982736,9.1355915,0.83327717,-0.32459116,-0.64103746,0.10120503,0
1.5700000000000012,10.800856857635898,-0.21475104033415518,-1.8295213087012194,0.3555038173878234,13.882035,-1.3272475,-4.47658,2.3915231,3.6400037,-4.5841055,1.7309825,-0.4349714,0.15314966,-0.16555819,-0.8717436,-7.3116803,9.181641,0.83195305,-0.30744293,-0.8263822,0.113683544,0
1.5800000000000012,10.800856857635898,-0.21475104033415518,-1.8295213087012194,0.3555038173878234,13.882035,-1.3272475,-4.47658,2.3915231,3.5668206,-4.492062,1.739297,-0.43496534,0.14974935,-0.16236843,-0.8729365,-7.32486,9.226887,0.8310377,-0.29296866,-0.98282254,0.12554973,0
1.5900000000000012,10.800856857635898,-0.21475104033415518,-1.8295213087012194,0.3555038173878234,13.882035,-1.3272475,-4.47658,2.3915231,3.4935074,-4.399571,1.7476046,-0.43502405,0.14567856,-0.15892813,-0.87422824,-7.337697,9.271214,0.8305907,-0.2807518,-1.1148658,0.13683367,0
1.6000000000000012,10.115179144859267,-0.3878526526976855,-2.22923843093781,0.4736049584383666,14.381916,-1.82423,-5.291992,2.556642,3.420068,-4.306641,1.7559103,-0.43512484,0.14103875,-0.15527542,-0.87559426,-7.3500943,9.31452,0.83065706,-0.27044052,-1.2263169,0.14756389,0
1.6100000000000012,10.115179144859267,-0.3878526526976855,-2.22923843093781,0.4736049584383666,14.381916,-1.82423,-5.291992,2.556642,3.346511,-4.213298,1.7641882,-0.4352507,0.13580333,-0.151314,-0.8770517,-7.361212,9.3540325,0.82500553,-0.2887215,-1.3827268,0.1635628,0
1.6200000000000012,10.115179144859267,-0.3878526526976855,-2.22923843093781,0.4736049584383666,14.381916,-1.82423,-5.291992,2.556642,3.2728455,-4.119565,1.7724123,-0.43538365,0.12995486,-0.14696866,-0.8786094,-7.3717575,9.392383,0.81990826,-0.3041519,-1.5147444,0.17877667,0
1.6300000000000012,10.115179144859267,-0.3878526526976855,-2.22923843093781,0.4736049584383666,14.381916,-1.82423,-5.291992,2.556642,3.1990778,-4.0254545,1.7805883,-0.43550518,0.123585045,-0.14229734,-0.8802357,-7.38166,9.429457,0.81539744,-0.31717673,-1.626174,0.193244,0
1.6400000000000012,10.115179144859267,-0.3878526526976855,-2.22923843093781,0.4736049584383666,13.7673855,-1.7547812,-5.09703,2.3741076,3.1252148,-3.9309804,1.7887223,-0.43559992,0.116771586,-0.1373489,-0.88190347,-7.390857,9.465154,0.8114918,-0.3281715,-1.7202258,0.20700139,0
1.6500000000000012,10.115179144859267,-0.3878526526976855,-2.22923843093781,0.4736049584383666,13.7673855,-1.7547812,-5.09703,2.3741076,3.0512633,-3.8361566,1.7968203,-0.43565527,0.10958037,-0.1321646,-0.8835896,-7.3992944,9.499388,0.80819845,-0.33745274,-1.79961,0.2200837,0
1.6600000000000013,10.115179144859267,-0.3878526526976855,-2.22923843093781,0.4736049584383666,13.7673855,-1.7547812,-5.09703,2.3741076,2.9772315,-3.740998,1.8048885,-0.43566084,0.1020674,-0.12677926,-0.8852742,-7.4069247,9.532083,0.80551463,-0.34528783,-1.8666142,0.23252405,0
1.6700000000000013,10.115179144859267,-0.3878526526976855,-2.22923843093781,0.4736049584383666,13.7673855,-1.7547812,-5.09703,2.3741076,2.9031274,-3.6455204,1.8129327,-0.43560836,0.094280295,-0.12122236,-0.88694036,-7.4137063,9.563172,0.80342925,-0.35190237,-1.9231689,0.24435395,0
1.6800000000000013,9.741295540488018,-0.6238582469003994,-2.2755789296718754,0.5964929434607636,13.037042,-1.893291,-4.9600377,2.367558,2.82896,-3.54974,1.8209591,-0.43549114,0.08625959,-0.11551885,-0.88857394,-7.419603,9.5926,0.8019242,-0.35748672,-1.9709039,0.25560337,0
1.6900000000000013,9.741295540488018,-0.6238582469003994,-2.2755789296718754,0.5964929434607636,13.037042,-1.893291,-4.9600377,2.367558,2.754739,-3.453679,1.8289553,-0.43528458,0.07806273,-0.10959907,-0.8901815,-7.424402,9.619289,0.79738516,-0.39899737,-2.018429,0.27233094,0
1.7000000000000013,9.741295540488018,-0.6238582469003994,-2.2755789296718754,0.5964929434607636,13.037042,-1.893291,-4.9600377,2.367558,2.6804748,-3.35736,1.8369086,-0.4349676,0.069737054,-0.10340876,-0.8917668,-7.4283123,9.644264,0.79335904,-0.4340359,-2.0585418,0.28823763,0
1.7100000000000013,9.741295540488018,-0.6238582469003994,-2.2755789296718754,0.5964929434607636,13.037042,-1.893291,-4.9600377,2.367558,2.606176,-3.2607996,1.8448241,-0.4345403,0.061301086,-0.09698823,-0.89331496,-7.43133,9.667467,0.78981847,-0.46361157,-2.0923986,0.30336377,0
1.7200000000000013,9.48422563421536,-0.8885430077338946,-1.900646515694413,0.7342963215187446,13.645924,-2.0060093,-4.815487,2.5013354,2.5318513,-3.1640165,1.8527064,-0.434003,0.052770793,-0.09037169,-0.89481336,-7.433451,9.688845,0.7867311,-0.48857653,-2.120975,0.31774768,0
1.7300000000000013,9.48422563421536,-0.8885430077338946,-1.900646515694413,0.7342963215187446,13.645924,-2.0060093,-4.815487,2.5013354,2.4575102,-3.0670314,1.8605474,-0.43332288,0.044338815,-0.08355929,-0.89626145,-7.434645,9.707842,0.7815418,-0.55093026,-2.086635,0.33818784,0
1.7400000000000013,9.48422563421536,-0.8885430077338946,-1.900646515694413,0.7342963215187446,13.645924,-2.0060093,-4.815487,2.5013354,2.3831613,-2.9698656,1.8683383,-0.4324757,0.036159065,-0.07655275,-0.89766276,-7.435014,9.724998,0.77671665,-0.60356086,-2.0576494,0.35762498,0
1.7500000000000013,9.48422563421536,-0.8885430077338946,-1.900646515694413,0.7342963215187446,13.645924,-2.0060093,-4.815487,2.5013354,2.3088126,-2.8725379,1.8760828,-0.43147326,0.028192159,-0.069380954,-0.8990127,-7.434607,9.740303,0.77221346,-0.6479848,-2.0331829,0.37610835,0
1.7600000000000013,9.294249801253775,-1.1636938861707453,-1.5185484840791785,0.9129085316500343,15.140404,-2.5436232,-4.864542,3.7240286,2.2344718,-2.7750661,1.8837837,-0.43032548,0.02040503,-0.062068425,-0.90030694,-7.433467,9.753739,0.76799047,-0.6854816,-2.0125308,0.39368474,0
1.7700000000000014,9.294249801253775,-1.1636938861707453,-1.5185484840791785,0.9129085316500343,15.140404,-2.5436232,-4.864542,3.7240286,2.1601455,-2.6774707,1.8914341,-0.4290101,0.012953675,-0.054602977,-0.9015556,-7.431672,9.76507,0.7621206,-0.760046,-1.9355264,0.4191632,0
1.7800000000000014,9.294249801253775,-1.1636938861707453,-1.5185484840791785,0.9129085316500343,15.140404,-2.5436232,-4.864542,3.7240286,2.0858402,-2.5797708,1.8990268,-0.4275105,0.0059605422,-0.046975758,-0.90277016,-7.4292765,9.774569,0.75644386,-0.8229828,-1.870529,0.4433914,0
1.7900000000000014,9.294249801253775,-1.1636938861707453,-1.5185484840791785,0.9129085316500343,15.140404,-2.5436232,-4.864542,3.7240286,2.0115616,-2.4819853,1.9065634,-0.42584154,-0.00064513565,-0.0392106,-0.90394837,-7.4263587,9.782243,0.7509215,-0.87610495,-1.8156663,0.46643075,0
1.8000000000000014,9.242121244215554,-1.3537817451560725,-0.9556003241825369,1.0563926051716113,14.704596,-2.4307165,-3.9301505,2.9750283,1.9373145,-2.3841321,1.9140456,-0.42401558,-0.0069229845,-0.03132778,-0.90508735,-7.4229846,9.7881,0.74551636,-0.9209431,-1.7693578,0.48833954,0
1.8100000000000014,9.242121244215554,-1.3537817451560725,-0.9556003241825369,1.0563926051716113,14.704596,-2.4307165,-3.9301505,2.9750283,1.863103,-2.2862294,1.9214715,-0.42202145,-0.012687546,-0.023370903,-0.90619665,-7.419236,9.79213,0.7396721,-0.98845446,-1.642492,0.51621413,0
1.8200000000000014,9.242121244215554,-1.3537817451560725,-0.9556003241825369,1.0563926051716113,14.704596,-2.4307165,-3.9301505,2.9750283,1.7889308,-2.1882951,1.9288392,-0.41985258,-0.01779418,-0.015374908,-0.9072885,-7.4151945,9.794405,0.7338756,-1.0454364,-1.535409,0.54272085,0
1.8300000000000014,9.242121244215554,-1.3537817451560725,-0.9556003241825369,1.0563926051716113,14.704596,-2.4307165,-3.9301505,2.9750283,1.7147999,-2.090347,1.936149,-0.41752404,-0.022344207,-0.0073442115,-0.90836227,-7.410958,9.794966,0.72809666,-1.0935308,-1.445023,0.5679268,0
1.8400000000000014,9.242121244215554,-1.3537817451560725,-0.9556003241825369,1.0563926051716113,14.4646,-2.3065455,-3.4776094,2.8678424,1.640712,-1.9924018,1.943401,-0.4150479,-0.026423108,0.0007172171,-0.9094163,-7.406609,9.793851,0.7223076,-1.1341237,-1.3687304,0.591896,0
1.8500000000000014,9.242121244215554,-1.3537817451560725,-0.9556003241825369,1.0563926051716113,14.4646,-2.3065455,-3.4776094,2.8678424,1.566668,-1.8944758,1.950595,-0.41243413,-0.03010297,0.008805785,-0.9104482,-7.4022145,9.791091,0.71648186,-1.1683847,-1.3043334,0.614689,0
1.8600000000000014,9.242121244215554,-1.3537817451560725,-0.9556003241825369,1.0563926051716113,14.4646,-2.3065455,-3.4776094,2.8678424,1.4926679,-1.7965857,1.9577305,-0.4096909,-0.033444583,0.01691822,-0.911455,-7.397832,9.786711,0.71059406,-1.1973013,-1.249977,0.6363635,0
1.8700000000000014,9.242121244215554,-1.3537817451560725,-0.9556003241825369,1.0563926051716113,14.4646,-2.3065455,-3.4776094,2.8678424,1.4187113,-1.6987473,1.9648067,-0.40682504,-0.03649919,0.02505152,-0.9124337,-7.3935065,9.78073,0.704619,-1.2217071,-1.2040957,0.65697443,0
1.8800000000000014,9.226474374889452,-1.3793541518953236,-0.391601016709756,1.1610445706078092,13.208399,-1.8398753,-2.6959896,2.0928686,1.3447975,-1.6009765,1.9718224,-0.4038425,-0.039309967,0.03320292,-0.91338116,-7.389275,9.773171,0.69853216,-1.2423056,-1.1653676,0.676574,0
1.8900000000000015,9.226474374889452,-1.3793541518953236,-0.391601016709756,1.1610445706078092,13.208399,-1.8398753,-2.6959896,2.0928686,1.2709254,-1.5032891,1.9787759,-0.40074536,-0.041702494,0.041288923,-0.914309,-7.3851814,9.764069,0.69215447,-1.2637151,-1.0447282,0.7003471,0
1.9000000000000015,9.226474374889452,-1.3793541518953236,-0.391601016709756,1.1610445706078092,13.208399,-1.8398753,-2.6959896,2.0928686,1.1970932,-1.4057003,1.985665,-0.39753717,-0.043540105,0.049244076,-0.91522956,-7.381284,9.753466,0.6856242,-1.2817816,-0.9429006,0.7229537,0
1.9100000000000015,9.226474374889452,-1.3793541518953236,-0.391601016709756,1.1610445706078092,13.208399,-1.8398753,-2.6959896,2.0928686,1.1232988,-1.3082248,1.9924878,-0.3942243,-0.044907257,0.05709006,-0.9161402,-7.3776526,9.741424,0.67892665,-1.2970263,-0.8569511,0.7444509,0
1.9200000000000015,9.236707172581069,-1.3399641923904666,0.2449884757396872,1.2474051452497104,13.013435,-1.6439486,-2.4147155,2.0622237,1.0495391,-1.2108766,1.9992427,-0.39081168,-0.04587526,0.06484485,-0.91703784,-7.374342,9.727992,0.6720474,-1.3098898,-0.7844037,0.76489335,0
1.9300000000000015,9.236707172581069,-1.3399641923904666,0.2449884757396872,1.2474051452497104,13.013435,-1.6439486,-2.4147155,2.0622237,0.9758107,-1.1136696,2.0059283,-0.38731033,-0.04627603,0.07241018,-0.91793656,-7.3714037,9.7132015,0.6650744,-1.3146499,-0.62389326,0.78857034,0
1.9400000000000015,9.236707172581069,-1.3399641923904666,0.2449884757396872,1.2474051452497104,13.013435,-1.6439486,-2.4147155,2.0622237,0.90210944,-1.016617,2.0125434,-0.3837307,-0.04597909,0.07970995,-0.9188495,-7.368923,9.697154,0.65790236,-1.3186595,-0.4884131,0.8110855,0
1.9500000000000015,9.236707172581069,-1.3399641923904666,0.2449884757396872,1.2474051452497104,13.013435,-1.6439486,-2.4147155,2.0622237,0.8284303,-0.9197306,2.019086,-0.38007528,-0.04509071,0.08678723,-0.91977125,-7.366984,9.679937,0.6505294,-1.3220371,-0.37405968,0.83249587,0
1.9600000000000015,9.30725915202382,-1.1811657639836666,0.619810841501713,1.26470722233834,13.007666,-1.620526,-2.4919367,2.5239124,0.7547676,-0.82302195,2.0255535,-0.3763455,-0.043700673,0.09367793,-0.92069554,-7.3656545,9.661624,0.64295226,-1.3248813,-0.2775386,0.85285556,0
1.9700000000000015,9.30725915202382,-1.1811657639836666,0.619810841501713,1.26470722233834,13.007666,-1.620526,-2.4919367,2.5239124,0.681115,-0.7265024,2.0319479,-0.3725521,-0.0417703,0.10029725,-0.92163014,-7.36499,9.64213,0.6358573,-1.3025448,-0.13760212,0.8730653,0
1.9800000000000015,9.30725915202382,-1.1811657639836666,0.619810841501713,1.26470722233834,13.007666,-1.620526,-2.4919367,2.5239124,0.60746527,-0.6301826,2.0382702,-0.3687049,-0.039272554,0.106579885,-0.9225815,-7.365068,9.621684,0.6285558,-1.2836825,-0.01948941,0.8922833,0
1.9900000000000015,9.30725915202382,-1.1811657639836666,0.619810841501713,1.26470722233834,13.007666,-1.620526,-2.4919367,2.5239124,0.53381085,-0.5340717,2.0445185,-0.36480302,-0.03629321,0.11257924,-0.9235415,-7.3659477,9.600373,0.6210508,-1.2677537,0.08020327,0.91055834,0
2.0000000000000013,,,,,14.03632,-1.4986049,-3.3941739,3.0072703,0.4601434,-0.4381779,2.0506907,-0.36084545,-0.03290487,0.11833994,-0.9245025,-7.36768,9.578265,0.61334264,-1.2543019,0.16434845,0.9279365,0
2.010000000000001,,,,,14.03632,-1.4986049,-3.3941739,3.0072703,0.386454,-0.34251052,2.0567913,-0.3568431,-0.029091394,0.123803005,-0.9254679,-7.3703475,9.555101,0.60671526,-1.218793,0.27752185,0.9440429,0
2.020000000000001,,,,,14.03632,-1.4986049,-3.3941739,3.0072703,0.3127331,-0.24707814,2.0628242,-0.35280576,-0.024842966,0.12892376,-0.92643994,-7.373971,9.531275,0.59988457,-1.1888132,0.37304366,0.95935893,0
2.0300000000000007,,,,,14.03632,-1.4986049,-3.3941739,3.0072703,0.23897105,-0.15188701,2.068788,-0.3487305,-0.02022501,0.13375556,-0.9274097,-7.378594,9.506861,0.59285337,-1.1635009,0.45366707,0.9739234,0
2.0400000000000005,,,,,14.03632,-1.4986049,-3.3941739,3.0072703,0.16515765,-0.056942724,2.0746803,-0.3446147,-0.015292998,0.13834305,-0.9283692,-7.384252,9.481922,0.5856211,-1.1421293,0.521716,0.98777324,0
2.0500000000000003,,,,,13.874007,-1.351542,-3.3146055,2.9360054,0.09128236,0.037749782,2.0804996,-0.34045598,-0.010093988,0.14272359,-0.9293112,-7.3909764,9.456509,0.57818466,-1.1240845,0.57915133,1.0009435,1
2.06,,,,,13.874007,-1.351542,-3.3146055,2.9360054,0.017314462,0.13211802,2.0864813,-0.33584896,-0.0060766772,0.14744134,-0.9302855,-7.4027824,9.417145,0.61762846,-1.1094841,0.021577477,1.0914265,1
2.07,,,,,13.874007,-1.351542,-3.3146055,2.9360054,-0.056776118,0.22609197,2.0928404,-0.33041334,-0.004451448,0.15305811,-0.93133336,-7.415413,9.377581,0.65366936,-1.1297299,-0.48165968,1.1803836,1
2.0799999999999996,,,,,13.874007,-1.351542,-3.3146055,2.9360054,-0.13099502,0.31966615,2.0995471,-0.32418242,-0.004918429,0.15958999,-0.9324238,-7.4284077,9.336986,0.6875986,-1.1639314,-0.9235477,1.2665324,1
2.0899999999999994,,,,,11.752903,-0.67002475,-2.6293902,2.261255,-0.20534436,0.4128251,2.1065903,-0.31720552,-0.0071620154,0.16691458,-0.93352574,-7.441431,9.294477,0.72092116,-1.1928133,-1.2965194,1.348454,1
2.099999999999999,,,,,11.752903,-0.67002475,-2.6293902,2.261255,-0.27981257,0.505582,2.1138632,-0.3096546,-0.010740902,0.17454894,-0.9346297,-7.452129,9.256583,0.73355633,-1.1110587,-1.5043406,1.3932453,1
2.109999999999999,,,,,11.752903,-0.67002475,-2.6293902,2.261255,-0.3543848,0.59795,2.1212592,-0.30168676,-0.015290129,0.18210667,-0.9357295,-7.462196,9.216703,0.74555135,-1.0420741,-1.6797581,1.4358388,1
2.1199999999999988,,,,,11.752903,-0.67002475,-2.6293902,2.261255,-0.42905346,0.68990916,2.128772,-0.29332805,-0.020650037,0.18958713,-0.93679786,-7.471379,9.174804,0.75687116,-0.98386675,-1.8278247,1.4763422,1
2.1299999999999986,,,,,10.667631,-0.63876903,-1.9368012,1.9793069,-0.50380856,0.7814391,2.1363945,-0.28460228,-0.02668574,0.19699006,-0.9378089,-7.4794574,9.130868,0.7674771,-0.93475425,-1.9528049,1.514858,1
2.1399999999999983,,,,,10.667631,-0.63876903,-1.9368012,1.9793069,-0.5786349,0.8725406,2.1440694,-0.27561983,-0.033033647,0.20422542,-0.93874145,-7.485623,9.089148,0.7673611,-0.88856894,-1.9502771,1.5376486,1
2.149999999999998,,,,,10.667631,-0.63876903,-1.9368012,1.9793069,-0.6535167,0.9632159,2.1517396,-0.2664805,-0.039400823,0.21122628,-0.9395851,-7.4905396,9.045645,0.76653796,-0.8495874,-1.9481485,1.5593208,1
2.159999999999998,,,,,10.667631,-0.63876903,-1.9368012,1.9793069,-0.72844124,1.0534476,2.1593976,-0.25719061,-0.045777474,0.21802355,-0.94033194,-7.4941545,9.000431,0.76498866,-0.81668603,-1.9463567,1.5799297,1
2.1699999999999977,,,,,11.15103,-0.77580225,-2.0226967,2.4305217,-0.80339515,1.1432188,2.1670365,-0.2477564,-0.052155484,0.22464308,-0.9409746,-7.496421,8.953572,0.7626935,-0.7889166,-1.9448482,1.5995272,1
2.1799999999999975,,,,,11.15103,-0.77580225,-2.0226967,2.4305217,-0.87836504,1.2325026,2.1746702,-0.23812656,-0.058534455,0.23116943,-0.9415048,-7.497336,8.902935,0.7639374,-0.7868068,-1.9570074,1.6403043,1
