time-since-start [s],throttle_mpc,roll_mpc,pitch_mpc,yaw_mpc,throttle_nw,roll_nw,pitch_nw,yaw_nw,position_x [m],position_y [m],position_z [m],rotation_w [quaternion],rotation_x [quaternion],rotation_y [quaternion],rotation_z [quaternion],velocity_x [m/s],velocity_y [m/s],velocity_z [m/s],omega_x [rad/s],omega_y [rad/s],omega_z [rad/s],network_used,gaze_2d_norm_x,gaze_2d_norm_y,gaze_2d_x,gaze_2d_y,gaze_3d_x,gaze_3d_y,gaze_3d_z,angle_rad,angle_deg,high_level_label
0.0,10.631879561940108,5.9999995491553335,-5.999999909896813,-2.7157840686942203,11.743578,-0.69677544,-6.015794,-1.012014,20.15574,-8.777501,2.0057964,-0.109633654,-0.453784,0.273556,0.8409683,-9.820533,-6.597431,0.22611356,1.7295816,-0.4094239,-0.36768043,0,0.05131391525268555,-0.28400235493977866,0.5256569576263428,0.35799882253011067,-0.9792751473770752,-0.001794471678540105,-0.20252645654581145,0.5897154317194908,33.7882053512621,1
0.01,10.631879561940108,5.9999995491553335,-5.999999909896813,-2.7157840686942203,14.805456,1.4265786,-4.323484,-1.4174879,20.057102,-8.843274,2.007801,-0.07629625,-0.43511438,0.29563338,0.8470273,-9.906476,-6.556119,0.17496444,5.9999995,-6.0,-2.715784,0,0.05131391525268555,-0.28400235493977866,0.5256569576263428,0.35799882253011067,-0.9792751473770752,-0.001794471678540105,-0.20252645654581145,0.5897154317194908,33.7882053512621,1
0.02,10.631879561940108,5.9999995491553335,-5.999999909896813,-2.7157840686942203,14.805456,1.4265786,-4.323484,-1.4174879,19.957628,-8.908595,2.0092983,-0.042807467,-0.4155815,0.31712422,0.8514057,-9.987802,-6.5071063,0.12462623,5.9999995,-6.0,-2.715784,0,0.05131391525268555,-0.28400235493977866,0.5256569576263428,0.35799882253011067,-0.9792751473770752,-0.001794471678540105,-0.20252645654581145,0.5897154317194908,33.7882053512621,1
0.03,10.631879561940108,5.9999995491553335,-5.999999909896813,-2.7157840686942203,14.805456,1.4265786,-4.323484,-1.4174879,19.857367,-8.973391,2.0102959,-0.009233756,-0.39522406,0.33798584,0.8540949,-10.063844,-6.450822,0.07497304,5.9999995,-6.0,-2.715784,0,0.05131391525268555,-0.28400235493977866,0.5256569576263428,0.35799882253011067,-0.9792751473770752,-0.001794471678540105,-0.20252645654581145,0.5897154317194908,33.7882053512621,1
0.04,10.631879561940108,5.9999995491553335,-5.999999909896813,-2.7157840686942203,12.823177,0.0036819447,-3.9197357,-0.8366151,19.756372,-9.037589,2.0108,0.024358278,-0.37408248,0.35817692,0.85508955,-10.133975,-6.3877516,0.025873588,5.9999995,-6.0,-2.715784,0,0.05131391525268555,-0.28400235493977866,0.5256569576263428,0.35799882253011067,-0.9792751473770752,-0.001794471678540105,-0.20252645654581145,0.5897154317194908,33.7882053512621,1
0.05,10.631879561940108,5.9999995491553335,-5.999999909896813,-2.7157840686942203,12.823177,0.0036819447,-3.9197357,-0.8366151,19.654709,-9.101125,2.0108147,0.057901982,-0.35219872,0.37765732,0.8543876,-10.1976185,-6.318435,-0.022807822,5.9999995,-6.0,-2.715784,0,0.05131391525268555,-0.28400235493977866,0.5256569576263428,0.35799882253011067,-0.9792751473770752,-0.001794471678540105,-0.20252645654581145,0.5897154317194908,33.7882053512621,1
0.060000000000000005,10.631879561940108,5.9999995491553335,-5.999999909896813,-2.7157840686942203,12.823177,0.0036819447,-3.9197357,-0.8366151,19.552443,-9.163938,2.0103443,0.09133081,-0.3296162,0.39638844,0.85199046,-10.254246,-6.243463,-0.07121019,5.9999995,-6.0,-2.715784,0,0.05131391525268555,-0.28400235493977866,0.5256569576263428,0.35799882253011067,-0.9792751473770752,-0.001794471678540105,-0.20252645654581145,0.5897154317194908,33.7882053512621,1
0.07,10.631879561940108,5.9999995491553335,-5.999999909896813,-2.7157840686942203,12.823177,0.0036819447,-3.9197357,-0.8366151,19.449648,-9.225976,2.0093906,0.12457843,-0.30637968,0.41433308,0.84790295,-10.303387,-6.16347,-0.11947474,5.9999995,-6.0,-2.715784,0,-0.05671561717987061,-0.19359642028808594,0.4716421914100647,0.403201789855957,-0.8874068087887991,0.4428904261046288,-0.12789537200438778,1.002008083413335,57.41083421757664,1
0.08,18.276514825778296,5.999998141369835,-5.999999814966927,-1.1391686665350613,14.745893,0.5563245,-4.8682127,-1.107486,19.346401,-9.287191,2.0079544,0.15757889,-0.28253528,0.43145564,0.84213316,-10.344628,-6.0791297,-0.16774376,5.9999995,-6.0,-2.715784,0,-0.05671561717987061,-0.19359642028808594,0.4716421914100647,0.403201789855957,-0.8874068087887991,0.4428904261046288,-0.12789537200438778,1.002008083413335,57.41083421757664,1
0.09,18.276514825778296,5.999998141369835,-5.999999814966927,-1.1391686665350613,14.745893,0.5563245,-4.8682127,-1.107486,19.24266,-9.347231,2.006214,0.18364291,-0.25475103,0.44998196,0.8359982,-10.401352,-5.9278817,-0.18045875,5.999998,-6.0,-1.1391686,0,-0.05671561717987061,-0.19359642028808594,0.4716421914100647,0.403201789855957,-0.8874068087887991,0.4428904261046288,-0.12789537200438778,1.002008083413335,57.41083421757664,1
0.09999999999999999,18.276514825778296,5.999998141369835,-5.999999814966927,-1.1391686665350613,14.745893,0.5563245,-4.8682127,-1.107486,19.138426,-9.405732,2.004343,0.20937046,-0.22649999,0.46768382,0.82833153,-10.443449,-5.771555,-0.19385745,5.999998,-6.0,-1.1391686,0,-0.05671561717987061,-0.19359642028808594,0.4716421914100647,0.403201789855957,-0.8874068087887991,0.4428904261046288,-0.12789537200438778,1.002008083413335,57.41083421757664,1
0.10999999999999999,18.276514825778296,5.999998141369835,-5.999999814966927,-1.1391686665350613,14.745893,0.5563245,-4.8682127,-1.107486,19.033844,-9.462649,2.0023332,0.23471442,-0.19783397,0.4845288,0.8191472,-10.470582,-5.6113515,-0.2083932,5.999998,-6.0,-1.1391686,0,-0.05671561717987061,-0.19359642028808594,0.4716421914100647,0.403201789855957,-0.8874068087887991,0.4428904261046288,-0.12789537200438778,1.002008083413335,57.41083421757664,1
0.11999999999999998,18.276514825778296,5.999998141369835,-5.999999814966927,-1.1391686665350613,14.745893,0.5563245,-4.8682127,-1.107486,18.929066,-9.517951,2.0001702,0.25962833,-0.16880551,0.5004861,0.80846214,-10.482526,-5.4485,-0.22451107,5.999998,-6.0,-1.1391686,0,-0.05671561717987061,-0.19359642028808594,0.4716421914100647,0.403201789855957,-0.8874068087887991,0.4428904261046288,-0.12789537200438778,1.002008083413335,57.41083421757664,1
0.12999999999999998,20.99999821578701,2.5845575377991734,-5.9999991296104636,0.624799375629466,14.7357025,-2.1849172,-1.259267,-0.42785653,18.824245,-9.571615,1.9978361,0.28406656,-0.13946778,0.51552635,0.7962959,-10.479167,-5.284249,-0.24264452,5.999998,-6.0,-1.1391686,0,-0.05671561717987061,-0.19359642028808594,0.4716421914100647,0.403201789855957,-0.8874068087887991,0.4428904261046288,-0.12789537200438778,1.002008083413335,57.41083421757664,1
0.13999999999999999,20.99999821578701,2.5845575377991734,-5.9999991296104636,0.624799375629466,14.7357025,-2.1849172,-1.259267,-0.42785653,18.719543,-9.623514,1.9953728,0.29869145,-0.11022762,0.5174525,0.79427695,-10.459319,-5.096112,-0.24966341,2.5845575,-5.999999,0.6247994,0,-0.1333720588684082,-0.06340291976928711,0.4333139705657959,0.46829854011535643,-0.6621294827567572,0.7471219664453947,-0.0582521700800574,1.2990165487843504,74.42816576299329,1
0.15,20.99999821578701,2.5845575377991734,-5.9999991296104636,0.624799375629466,14.7357025,-2.1849172,-1.259267,-0.42785653,18.615105,-9.673547,1.9928498,0.31299478,-0.080868796,0.51882154,0.7914028,-10.426224,-4.910867,-0.25462723,2.5845575,-5.999999,0.6247994,0,-0.1333720588684082,-0.06340291976928711,0.4333139705657959,0.46829854011535643,-0.6621294827567572,0.7471219664453947,-0.0582521700800574,1.2990165487843504,74.42816576299329,1
0.16,20.999997841523182,-0.07747758711237575,-2.9486443563802167,0.6669378303282075,14.0913105,-2.8622296,-0.5167535,-0.7126162,18.511063,-9.7217455,1.9902856,0.3269611,-0.051422894,0.519632,0.7876766,-10.380001,-4.7292705,-0.2580092,2.5845575,-5.999999,0.6247994,0,-0.1333720588684082,-0.06340291976928711,0.4333139705657959,0.46829854011535643,-0.6621294827567572,0.7471219664453947,-0.0582521700800574,1.2990165487843504,74.42816576299329,1
0.17,20.999997841523182,-0.07747758711237575,-2.9486443563802167,0.6669378303282075,14.0913105,-2.8622296,-0.5167535,-0.7126162,18.407541,-9.7681465,1.9876953,0.33193803,-0.03819848,0.51461864,0.78963625,-10.32388,-4.5514045,-0.25961474,-0.07747759,-2.9486444,0.6669378,0,-0.1333720588684082,-0.06340291976928711,0.4333139705657959,0.46829854011535643,-0.6621294827567572,0.7471219664453947,-0.0582521700800574,1.2990165487843504,74.42816576299329,1
0.18000000000000002,20.999997841523182,-0.07747758711237575,-2.9486443563802167,0.6669378303282075,14.0913105,-2.8622296,-0.5167535,-0.7126162,18.304604,-9.812784,1.9851024,0.33683905,-0.02496533,0.5094876,0.79141533,-10.263037,-4.376564,-0.2585886,-0.07747759,-2.9486444,0.6669378,0,-0.1333720588684082,-0.06340291976928711,0.4333139705657959,0.46829854011535643,-0.6621294827567572,0.7471219664453947,-0.0582521700800574,1.2990165487843504,74.42816576299329,1
0.19000000000000003,20.999997841523182,-0.07747758711237575,-2.9486443563802167,0.6669378303282075,14.0913105,-2.8622296,-0.5167535,-0.7126162,18.202297,-9.855689,1.9825324,0.34166303,-0.0117264725,0.50424016,0.79301345,-10.197501,-4.204891,-0.25504923,-0.07747759,-2.9486444,0.6669378,0,-0.1333720588684082,-0.06340291976928711,0.4333139705657959,0.46829854011535643,-0.6621294827567572,0.7471219664453947,-0.0582521700800574,1.2990165487843504,74.42816576299329,1
0.20000000000000004,20.719501055360055,-0.7092588269526234,-0.35595238079239566,0.43134470415551923,14.890348,-4.4820375,2.9729757,0.17459652,18.10067,-9.896893,1.9800098,0.34640893,0.0015150651,0.49887747,0.7944303,-10.127308,-4.036525,-0.24911727,-0.07747759,-2.9486444,0.6669378,0,0.04928349018096924,-0.12625877380371095,0.5246417450904847,0.4368706130981445,-0.36771063347405203,0.9299007186660694,-0.008575748039629225,1.573516051024364,90.15582871978795,1
0.21000000000000005,20.719501055360055,-0.7092588269526234,-0.35595238079239566,0.43134470415551923,14.890348,-4.4820375,2.9729757,0.17459652,17.999758,-9.936439,1.9775498,0.3455853,0.002776415,0.4954353,0.79693574,-10.055288,-3.8728085,-0.24262452,-0.70925885,-0.35595238,0.43134472,0,0.04928349018096924,-0.12625877380371095,0.5246417450904847,0.4368706130981445,-0.36771063347405203,0.9299007186660694,-0.008575748039629225,1.573516051024364,90.15582871978795,1
0.22000000000000006,20.719501055360055,-0.7092588269526234,-0.35595238079239566,0.43134470415551923,14.890348,-4.4820375,2.9729757,0.17459652,17.899565,-9.974352,1.9751619,0.3447546,0.004037708,0.49198306,0.79942495,-9.983513,-3.709896,-0.23471834,-0.70925885,-0.35595238,0.43134472,0,0.04928349018096924,-0.12625877380371095,0.5246417450904847,0.4368706130981445,-0.36771063347405203,0.9299007186660694,-0.008575748039629225,1.573516051024364,90.15582871978795,1
0.23000000000000007,20.719501055360055,-0.7092588269526234,-0.35595238079239566,0.43134470415551923,14.890348,-4.4820375,2.9729757,0.17459652,17.800087,-10.010639,1.9728602,0.3439169,0.0052989186,0.4885208,0.8018979,-9.91198,-3.5478003,-0.22540581,-0.70925885,-0.35595238,0.43134472,0,0.04928349018096924,-0.12625877380371095,0.5246417450904847,0.4368706130981445,-0.36771063347405203,0.9299007186660694,-0.008575748039629225,1.573516051024364,90.15582871978795,1
0.24000000000000007,20.719501055360055,-0.7092588269526234,-0.35595238079239566,0.43134470415551923,14.303417,-1.7080003,4.1012793,-0.36782917,17.701324,-10.04531,1.9706587,0.34307218,0.0065600215,0.48504853,0.8043544,-9.840686,-3.386534,-0.21469413,-0.70925885,-0.35595238,0.43134472,0,0.04928349018096924,-0.12625877380371095,0.5246417450904847,0.4368706130981445,-0.36771063347405203,0.9299007186660694,-0.008575748039629225,1.573516051024364,90.15582871978795,1
0.25000000000000006,20.719501055360055,-0.7092588269526234,-0.35595238079239566,0.43134470415551923,14.303417,-1.7080003,4.1012793,-0.36782917,17.603273,-10.078374,1.9685712,0.34222043,0.007820991,0.4815664,0.8067946,-9.769631,-3.2261097,-0.20259054,-0.70925885,-0.35595238,0.43134472,0,0.04928349018096924,-0.12625877380371095,0.5246417450904847,0.4368706130981445,-0.36771063347405203,0.9299007186660694,-0.008575748039629225,1.573516051024364,90.15582871978795,1
0.26000000000000006,20.719501055360055,-0.7092588269526234,-0.35595238079239566,0.43134470415551923,14.303417,-1.7080003,4.1012793,-0.36782917,17.505932,-10.109837,1.9666116,0.34136173,0.0090818,0.4780744,0.8092183,-9.6988125,-3.0665405,-0.18910247,-0.70925885,-0.35595238,0.43134472,0,0.04928349018096924,-0.12625877380371095,0.5246417450904847,0.4368706130981445,-0.36771063347405203,0.9299007186660694,-0.008575748039629225,1.573516051024364,90.15582871978795,1
0.2700000000000001,20.719501055360055,-0.7092588269526234,-0.35595238079239566,0.43134470415551923,14.303417,-1.7080003,4.1012793,-0.36782917,17.409296,-10.139708,1.9647939,0.34049603,0.010342424,0.4745727,0.8116254,-9.628227,-2.9078386,-0.17423743,-0.70925885,-0.35595238,0.43134472,0,-0.0035017290711402893,-0.04969550450642904,0.49824913546442984,0.4751522477467855,-0.46266095622664266,0.8854794560245289,0.04325474010964411,1.3826144868967614,79.21797479283029,1
0.2800000000000001,19.14023615712103,-1.2398736790582345,1.4893645363449641,0.21362022842848172,15.95022,-1.8212365,3.9960384,-0.61908776,17.313368,-10.167996,1.9631318,0.33962342,0.011602837,0.4710613,0.81401604,-9.557875,-2.7500172,-0.15800305,-0.70925885,-0.35595238,0.43134472,0,-0.0035017290711402893,-0.04969550450642904,0.49824913546442984,0.4751522477467855,-0.46266095622664266,0.8854794560245289,0.04325474010964411,1.3826144868967614,79.21797479283029,1
0.2900000000000001,19.14023615712103,-1.2398736790582345,1.4893645363449641,0.21362022842848172,15.95022,-1.8212365,3.9960384,-0.61908776,17.21811,-10.194769,1.9615943,0.33530194,0.0039382633,0.4685093,0.81734675,-9.494325,-2.6044316,-0.14933217,-1.2398736,1.4893645,0.21362023,0,-0.0035017290711402893,-0.04969550450642904,0.49824913546442984,0.4751522477467855,-0.46266095622664266,0.8854794560245289,0.04325474010964411,1.3826144868967614,79.21797479283029,1
0.3000000000000001,19.14023615712103,-1.2398736790582345,1.4893645363449641,0.21362022842848172,15.95022,-1.8212365,3.9960384,-0.61908776,17.12347,-10.220082,1.9601485,0.33094856,-0.0037266836,0.46591273,0.8205998,-9.434272,-2.4580638,-0.13971055,-1.2398736,1.4893645,0.21362023,0,-0.0035017290711402893,-0.04969550450642904,0.49824913546442984,0.4751522477467855,-0.46266095622664266,0.8854794560245289,0.04325474010964411,1.3826144868967614,79.21797479283029,1
0.3100000000000001,19.14023615712103,-1.2398736790582345,1.4893645363449641,0.21362022842848172,15.95022,-1.8212365,3.9960384,-0.61908776,17.029413,-10.243928,1.9588034,0.32656375,-0.011391276,0.46327195,0.8237748,-9.377741,-2.3109732,-0.1291724,-1.2398736,1.4893645,0.21362023,0,-0.0035017290711402893,-0.04969550450642904,0.49824913546442984,0.4751522477467855,-0.46266095622664266,0.8854794560245289,0.04325474010964411,1.3826144868967614,79.21797479283029,1
0.3200000000000001,17.91001378856982,-1.5744268836656479,3.0911689100114983,0.03418073478146994,16.035376,-2.4844096,5.132399,-0.75984204,16.935902,-10.266299,1.9575682,0.32214788,-0.019054785,0.4605871,0.8268716,-9.32475,-2.1632195,-0.1177523,-1.2398736,1.4893645,0.21362023,0,-0.0035017290711402893,-0.04969550450642904,0.49824913546442984,0.4751522477467855,-0.46266095622664266,0.8854794560245289,0.04325474010964411,1.3826144868967614,79.21797479283029,1
0.3300000000000001,17.91001378856982,-1.5744268836656479,3.0911689100114983,0.03418073478146994,16.035376,-2.4844096,5.132399,-0.75984204,16.842886,-10.287235,1.9564153,0.3146897,-0.03428843,0.458991,0.8301334,-9.279477,-2.0239391,-0.11277345,-1.5744269,3.0911689,0.034180734,0,-0.0035017290711402893,-0.04969550450642904,0.49824913546442984,0.4751522477467855,-0.46266095622664266,0.8854794560245289,0.04325474010964411,1.3826144868967614,79.21797479283029,1
0.34000000000000014,17.91001378856982,-1.5744268836656479,3.0911689100114983,0.03418073478146994,16.035376,-2.4844096,5.132399,-0.75984204,16.750292,-10.306772,1.9553132,0.30713683,-0.049511757,0.4572568,0.83314544,-9.240186,-1.882993,-0.10760582,-1.5744269,3.0911689,0.034180734,0,-0.1943307876586914,0.07826456705729166,0.4028346061706543,0.5391322835286458,-0.7364687658478299,0.6736913432115854,0.06126769958423767,0.9419400034305188,53.96918675110701,1
0.35000000000000014,17.91001378856982,-1.5744268836656479,3.0911689100114983,0.03418073478146994,16.035376,-2.4844096,5.132399,-0.75984204,16.658062,-10.324892,1.9542632,0.29949158,-0.06472018,0.45538497,0.8359068,-9.206924,-1.7405515,-0.10237197,-1.5744269,3.0911689,0.034180734,0,-0.1943307876586914,0.07826456705729166,0.4028346061706543,0.5391322835286458,-0.7364687658478299,0.6736913432115854,0.06126769958423767,0.9419400034305188,53.96918675110701,1
0.36000000000000015,17.232991108527752,-1.6179233797757642,3.215136984818926,-0.12946834024165343,15.356453,-2.2992485,5.4951715,-1.0106058,16.566133,-10.34158,1.9532654,0.2917562,-0.07990914,0.45337614,0.83841664,-9.179732,-1.5967872,-0.09719447,-1.5744269,3.0911689,0.034180734,0,-0.1943307876586914,0.07826456705729166,0.4028346061706543,0.5391322835286458,-0.7364687658478299,0.6736913432115854,0.06126769958423767,0.9419400034305188,53.96918675110701,1
0.37000000000000016,17.232991108527752,-1.6179233797757642,3.215136984818926,-0.12946834024165343,15.356453,-2.2992485,5.4951715,-1.0106058,16.474442,-10.356852,1.9522992,0.28431728,-0.09602711,0.45115876,0.8404747,-9.159522,-1.4573314,-0.09610692,-1.6179234,3.215137,-0.12946834,0,-0.1943307876586914,0.07826456705729166,0.4028346061706543,0.5391322835286458,-0.7364687658478299,0.6736913432115854,0.06126769958423767,0.9419400034305188,53.96918675110701,1
0.38000000000000017,17.232991108527752,-1.6179233797757642,3.215136984818926,-0.12946834024165343,15.356453,-2.2992485,5.4951715,-1.0106058,16.382921,-10.370723,1.9513422,0.27678615,-0.11211396,0.44879508,0.84226024,-9.145426,-1.3168881,-0.095356025,-1.6179234,3.215137,-0.12946834,0,-0.1943307876586914,0.07826456705729166,0.4028346061706543,0.5391322835286458,-0.7364687658478299,0.6736913432115854,0.06126769958423767,0.9419400034305188,53.96918675110701,1
0.3900000000000002,17.232991108527752,-1.6179233797757642,3.215136984818926,-0.12946834024165343,15.356453,-2.2992485,5.4951715,-1.0106058,16.291512,-10.383185,1.9503905,0.2691653,-0.12816446,0.44628587,0.8437727,-9.137459,-1.1756346,-0.0950764,-1.6179234,3.215137,-0.12946834,0,-0.1943307876586914,0.07826456705729166,0.4028346061706543,0.5391322835286458,-0.7364687658478299,0.6736913432115854,0.06126769958423767,0.9419400034305188,53.96918675110701,1
0.4000000000000002,16.75332457663687,-1.3401330603065396,1.9539722586133537,-0.27140025142152513,15.709735,-2.6739938,4.873255,-0.7253126,16.200151,-10.394233,1.9494386,0.26145712,-0.14417337,0.4436319,0.84501153,-9.135632,-1.0337495,-0.095402025,-1.6179234,3.215137,-0.12946834,0,-0.22613224029541015,0.0016219068566958109,0.38693387985229494,0.5008109534283479,-0.826096030832166,0.5631278840590624,0.021268146099388263,0.710996744666895,40.7371127169537,1
0.4100000000000002,16.75332457663687,-1.3401330603065396,1.9539722586133537,-0.27140025142152513,15.709735,-2.6739938,4.873255,-0.7253126,16.10878,-10.403879,1.9484671,0.25728503,-0.15477246,0.44029704,0.8461607,-9.139076,-0.8955292,-0.09890054,-1.3401331,1.9539722,-0.27140024,0,-0.22613224029541015,0.0016219068566958109,0.38693387985229494,0.5008109534283479,-0.826096030832166,0.5631278840590624,0.021268146099388263,0.710996744666895,40.7371127169537,1
0.4200000000000002,16.75332457663687,-1.3401330603065396,1.9539722586133537,-0.27140025142152513,15.709735,-2.6739938,4.873255,-0.7253126,16.017355,-10.412144,1.9474603,0.25307634,-0.16534954,0.43689957,0.84718955,-9.146488,-0.75739825,-0.102496274,-1.3401331,1.9539722,-0.27140024,0,-0.22613224029541015,0.0016219068566958109,0.38693387985229494,0.5008109534283479,-0.826096030832166,0.5631278840590624,0.021268146099388263,0.710996744666895,40.7371127169537,1
0.4300000000000002,16.75332457663687,-1.3401330603065396,1.9539722586133537,-0.27140025142152513,15.709735,-2.6739938,4.873255,-0.7253126,15.925837,-10.419027,1.9464167,0.2488317,-0.1759031,0.43344,0.848098,-9.157862,-0.61942804,-0.106251165,-1.3401331,1.9539722,-0.27140024,0,-0.22613224029541015,0.0016219068566958109,0.38693387985229494,0.5008109534283479,-0.826096030832166,0.5631278840590624,0.021268146099388263,0.710996744666895,40.7371127169537,1
0.4400000000000002,16.75332457663687,-1.3401330603065396,1.9539722586133537,-0.27140025142152513,16.640957,-3.2277632,3.4031086,-0.81630087,15.834185,-10.424533,1.9453346,0.24455167,-0.18643166,0.4299188,0.84888583,-9.173191,-0.48169,-0.11022707,-1.3401331,1.9539722,-0.27140024,0,-0.22613224029541015,0.0016219068566958109,0.38693387985229494,0.5008109534283479,-0.826096030832166,0.5631278840590624,0.021268146099388263,0.710996744666895,40.7371127169537,1
0.45000000000000023,16.75332457663687,-1.3401330603065396,1.9539722586133537,-0.27140025142152513,16.640957,-3.2277632,3.4031086,-0.81630087,15.742359,-10.428662,1.9442114,0.24023686,-0.19693372,0.42633647,0.8495529,-9.19247,-0.34425527,-0.1144857,-1.3401331,1.9539722,-0.27140024,0,-0.22613224029541015,0.0016219068566958109,0.38693387985229494,0.5008109534283479,-0.826096030832166,0.5631278840590624,0.021268146099388263,0.710996744666895,40.7371127169537,1
0.46000000000000024,16.75332457663687,-1.3401330603065396,1.9539722586133537,-0.27140025142152513,16.640957,-3.2277632,3.4031086,-0.81630087,15.650322,-10.431419,1.9430438,0.2358879,-0.20740776,0.42269352,0.8500992,-9.215684,-0.20719498,-0.11908864,-1.3401331,1.9539722,-0.27140024,0,-0.22613224029541015,0.0016219068566958109,0.38693387985229494,0.5008109534283479,-0.826096030832166,0.5631278840590624,0.021268146099388263,0.710996744666895,40.7371127169537,1
0.47000000000000025,16.75332457663687,-1.3401330603065396,1.9539722586133537,-0.27140025142152513,16.640957,-3.2277632,3.4031086,-0.81630087,15.558032,-10.432808,1.9418283,0.2315054,-0.21785232,0.41899046,0.85052466,-9.242823,-0.070579976,-0.12409725,-1.3401331,1.9539722,-0.27140024,0,-0.10198988914489746,-0.1739663569132487,0.44900505542755126,0.41301682154337566,-0.7795741680681229,0.6260888087780471,-0.0166409135500466,0.6842742896403919,39.20602882570693,1
0.48000000000000026,16.576479124383432,-1.1084949772103525,1.3058877889118146,-0.3298713183551771,16.105257,-2.6617408,2.1799426,-0.5229253,15.465452,-10.432833,1.9405605,0.22708997,-0.22826591,0.4152278,0.8508292,-9.273869,0.06551918,-0.12957266,-1.3401331,1.9539722,-0.27140024,0,-0.10198988914489746,-0.1739663569132487,0.44900505542755126,0.41301682154337566,-0.7795741680681229,0.6260888087780471,-0.0166409135500466,0.6842742896403919,39.20602882570693,1
0.49000000000000027,16.576479124383432,-1.1084949772103525,1.3058877889118146,-0.3298713183551771,16.105257,-2.6617408,2.1799426,-0.5229253,15.372544,-10.431506,1.9392308,0.22450832,-0.23575607,0.41160265,0.85123324,-9.308035,0.19960573,-0.13639946,-1.108495,1.3058878,-0.32987133,0,-0.10198988914489746,-0.1739663569132487,0.44900505542755126,0.41301682154337566,-0.7795741680681229,0.6260888087780471,-0.0166409135500466,0.6842742896403919,39.20602882570693,1
0.5000000000000002,16.576479124383432,-1.1084949772103525,1.3058877889118146,-0.3298713183551771,16.105257,-2.6617408,2.1799426,-0.5229253,15.279282,-10.428843,1.9378319,0.2219096,-0.24322829,0.40794614,0.8515725,-9.344967,0.33307415,-0.14339778,-1.108495,1.3058878,-0.32987133,0,-0.10198988914489746,-0.1739663569132487,0.44900505542755126,0.41301682154337566,-0.7795741680681229,0.6260888087780471,-0.0166409135500466,0.6842742896403919,39.20602882570693,1
0.5100000000000002,16.576479124383432,-1.1084949772103525,1.3058877889118146,-0.3298713183551771,16.105257,-2.6617408,2.1799426,-0.5229253,15.185636,-10.424847,1.9363621,0.21929398,-0.25068203,0.4042586,0.85184693,-9.384654,0.46589044,-0.1506021,-1.108495,1.3058878,-0.32987133,0,-0.10198988914489746,-0.1739663569132487,0.44900505542755126,0.41301682154337566,-0.7795741680681229,0.6260888087780471,-0.0166409135500466,0.6842742896403919,39.20602882570693,1
0.5200000000000002,16.17290373710131,-0.6968439089583325,0.04167881563633757,-0.3741043879880381,16.114538,-2.4732158,1.7611868,-0.523715,15.091579,-10.419527,1.9348191,0.21666169,-0.25811666,0.40054035,0.85205656,-9.427087,0.5980208,-0.15804693,-1.108495,1.3058878,-0.32987133,0,-0.10198988914489746,-0.1739663569132487,0.44900505542755126,0.41301682154337566,-0.7795741680681229,0.6260888087780471,-0.0166409135500466,0.6842742896403919,39.20602882570693,1
0.5300000000000002,16.17290373710131,-0.6968439089583325,0.04167881563633757,-0.3741043879880381,16.114538,-2.4732158,1.7611868,-0.523715,14.997092,-10.412905,1.9331902,0.21727099,-0.25979632,0.3971308,0.8529864,-9.470418,0.7262568,-0.16763632,-0.6968439,0.041678816,-0.37410438,0,-0.10198988914489746,-0.1739663569132487,0.44900505542755126,0.41301682154337566,-0.7795741680681229,0.6260888087780471,-0.0166409135500466,0.6842742896403919,39.20602882570693,1
0.5400000000000003,16.17290373710131,-0.6968439089583325,0.04167881563633757,-0.3741043879880381,16.114538,-2.4732158,1.7611868,-0.523715,14.902169,-10.405004,1.9314684,0.21787685,-0.2614719,0.39371502,0.8539029,-9.514451,0.8538394,-0.17663005,-0.6968439,0.041678816,-0.37410438,0,-0.0907802677154541,-0.28848279317220055,0.45460986614227294,0.35575860341389975,-0.7784041076495504,0.6274889302136173,0.018565765636728737,0.5889614032471466,33.74500270216408,1
0.5500000000000003,16.17290373710131,-0.6968439089583325,0.04167881563633757,-0.3741043879880381,16.114538,-2.4732158,1.7611868,-0.523715,14.806802,-10.39583,1.9296595,0.2184793,-0.26314336,0.39029306,0.854806,-9.559186,0.98076326,-0.18503517,-0.6968439,0.041678816,-0.37410438,0,-0.0907802677154541,-0.28848279317220055,0.45460986614227294,0.35575860341389975,-0.7784041076495504,0.6274889302136173,0.018565765636728737,0.5889614032471466,33.74500270216408,1
0.5600000000000003,16.003716683645617,-0.3652824294131374,-0.4516296276437798,-0.3779340356346553,16.318233,-2.7246594,1.5492842,-0.5491377,14.710983,-10.385391,1.9277695,0.21907835,-0.2648107,0.386865,0.85569566,-9.604627,1.1070231,-0.19285882,-0.6968439,0.041678816,-0.37410438,0,-0.0907802677154541,-0.28848279317220055,0.45460986614227294,0.35575860341389975,-0.7784041076495504,0.6274889302136173,0.018565765636728737,0.5889614032471466,33.74500270216408,1
0.5700000000000003,16.003716683645617,-0.3652824294131374,-0.4516296276437798,-0.3779340356346553,16.318233,-2.7246594,1.5492842,-0.5491377,14.61471,-10.373699,1.9257997,0.22108395,-0.264008,0.3843047,0.8565811,-9.649948,1.2313699,-0.20098236,-0.36528242,-0.45162964,-0.37793404,0,-0.0907802677154541,-0.28848279317220055,0.45460986614227294,0.35575860341389975,-0.7784041076495504,0.6274889302136173,0.018565765636728737,0.5889614032471466,33.74500270216408,1
0.5800000000000003,16.003716683645617,-0.3652824294131374,-0.4516296276437798,-0.3779340356346553,16.318233,-2.7246594,1.5492842,-0.5491377,14.517984,-10.360765,1.9237524,0.22308691,-0.26320213,0.38173983,0.8574562,-9.695057,1.3552353,-0.2083392,-0.36528242,-0.45162964,-0.37793404,0,-0.0907802677154541,-0.28848279317220055,0.45460986614227294,0.35575860341389975,-0.7784041076495504,0.6274889302136173,0.018565765636728737,0.5889614032471466,33.74500270216408,1
0.5900000000000003,16.003716683645617,-0.3652824294131374,-0.4516296276437798,-0.3779340356346553,16.318233,-2.7246594,1.5492842,-0.5491377,14.420809,-10.346596,1.9216355,0.22508718,-0.2623931,0.37917033,0.8583211,-9.739957,1.4786142,-0.21493226,-0.36528242,-0.45162964,-0.37793404,0,-0.0907802677154541,-0.28848279317220055,0.45460986614227294,0.35575860341389975,-0.7784041076495504,0.6274889302136173,0.018565765636728737,0.5889614032471466,33.74500270216408,1
0.6000000000000003,15.673362594415812,-0.11732242626010536,-0.7395116932900301,-0.3711814234781168,16.487307,-2.9846313,1.467011,-0.5447495,14.323186,-10.331195,1.9194565,0.22708476,-0.2615809,0.3765963,0.8591756,-9.784648,1.601501,-0.22076458,-0.36528242,-0.45162964,-0.37793404,0,-0.13024495124816896,-0.3359405771891276,0.43487752437591554,0.3320297114054362,-0.7782751180191185,0.621665315636808,0.08843119362824126,0.5117560881399212,29.32146399054245,1
0.6100000000000003,15.673362594415812,-0.11732242626010536,-0.7395116932900301,-0.3711814234781168,16.487307,-2.9846313,1.467011,-0.5447495,14.225122,-10.31458,1.9172134,0.22991635,-0.25923392,0.37476388,0.8599348,-9.828001,1.7214203,-0.22773144,-0.11732242,-0.73951167,-0.37118143,0,-0.13024495124816896,-0.3359405771891276,0.43487752437591554,0.3320297114054362,-0.7782751180191185,0.621665315636808,0.08843119362824126,0.5117560881399212,29.32146399054245,1
0.6200000000000003,15.673362594415812,-0.11732242626010536,-0.7395116932900301,-0.3711814234781168,16.487307,-2.9846313,1.467011,-0.5447495,14.126629,-10.296767,1.9149047,0.23274395,-0.2568824,0.37292492,0.860679,-9.870581,1.8409947,-0.2338848,-0.11732242,-0.73951167,-0.37118143,0,-0.13024495124816896,-0.3359405771891276,0.43487752437591554,0.3320297114054362,-0.7782751180191185,0.621665315636808,0.08843119362824126,0.5117560881399212,29.32146399054245,1
0.6300000000000003,15.673362594415812,-0.11732242626010536,-0.7395116932900301,-0.3711814234781168,16.487307,-2.9846313,1.467011,-0.5447495,14.027714,-10.277761,1.9125384,0.23556747,-0.25452638,0.37107947,0.8614081,-9.91239,1.9602152,-0.23922795,-0.11732242,-0.73951167,-0.37118143,0,-0.13024495124816896,-0.3359405771891276,0.43487752437591554,0.3320297114054362,-0.7782751180191185,0.621665315636808,0.08843119362824126,0.5117560881399212,29.32146399054245,1
0.6400000000000003,15.673362594415812,-0.11732242626010536,-0.7395116932900301,-0.3711814234781168,16.698143,-2.7336817,1.32056,-0.46843013,13.928385,-10.257565,1.9101229,0.23838688,-0.2521659,0.3692275,0.8621222,-9.953427,2.0790727,-0.2437643,-0.11732242,-0.73951167,-0.37118143,0,-0.13024495124816896,-0.3359405771891276,0.43487752437591554,0.3320297114054362,-0.7782751180191185,0.621665315636808,0.08843119362824126,0.5117560881399212,29.32146399054245,1
0.6500000000000004,15.673362594415812,-0.11732242626010536,-0.7395116932900301,-0.3711814234781168,16.698143,-2.7336817,1.32056,-0.46843013,13.828648,-10.236181,1.907666,0.24120213,-0.24980108,0.3673691,0.8628212,-9.993695,2.197558,-0.24749726,-0.11732242,-0.73951167,-0.37118143,0,-0.13024495124816896,-0.3359405771891276,0.43487752437591554,0.3320297114054362,-0.7782751180191185,0.621665315636808,0.08843119362824126,0.5117560881399212,29.32146399054245,1
0.6600000000000004,15.673362594415812,-0.11732242626010536,-0.7395116932900301,-0.3711814234781168,16.698143,-2.7336817,1.32056,-0.46843013,13.728512,-10.213614,1.9051757,0.24401316,-0.24743187,0.3655043,0.8635052,-10.033194,2.3156617,-0.25043032,-0.11732242,-0.73951167,-0.37118143,0,-0.13024495124816896,-0.3359405771891276,0.43487752437591554,0.3320297114054362,-0.7782751180191185,0.621665315636808,0.08843119362824126,0.5117560881399212,29.32146399054245,1
0.6700000000000004,15.673362594415812,-0.11732242626010536,-0.7395116932900301,-0.3711814234781168,16.698143,-2.7336817,1.32056,-0.46843013,13.627986,-10.18987,1.90266,0.24681994,-0.24505836,0.3636331,0.86417407,-10.071923,2.433375,-0.25256705,-0.11732242,-0.73951167,-0.37118143,0,-0.12277813911437989,-0.23465619405110677,0.4386109304428101,0.38267190297444664,-0.7863168243153742,0.6163845729078846,0.042141548141354124,0.42778212445536656,24.510110282432624,0
0.6800000000000004,15.671585694354125,0.03462897982505385,-0.5289701194453106,-0.3541378680660598,15.244149,-1.8528506,2.072359,0.19022694,13.527078,-10.16495,1.900127,0.2496224,-0.24268055,0.36175555,0.8648279,-10.109885,2.5506885,-0.25391102,-0.11732242,-0.73951167,-0.37118143,0,-0.12277813911437989,-0.23465619405110677,0.4386109304428101,0.38267190297444664,-0.7863168243153742,0.6163845729078846,0.042141548141354124,0.42778212445536656,24.510110282432624,0
0.6900000000000004,15.671585694354125,0.03462897982505385,-0.5289701194453106,-0.3541378680660598,15.244149,-1.8528506,2.072359,0.19022694,13.425792,-10.138858,1.8975842,0.25215128,-0.24098931,0.36081353,0.8649607,-10.147116,2.6676672,-0.25459602,0.03462898,-0.5289701,-0.35413787,0,-0.12277813911437989,-0.23465619405110677,0.4386109304428101,0.38267190297444664,-0.7863168243153742,0.6163845729078846,0.042141548141354124,0.42778212445536656,24.510110282432624,0
0.7000000000000004,15.671585694354125,0.03462897982505385,-0.5289701194453106,-0.3541378680660598,15.244149,-1.8528506,2.072359,0.19022694,13.324138,-10.111597,1.8950368,0.2546776,-0.23929563,0.35986784,0.8650847,-10.183686,2.784462,-0.25481173,0.03462898,-0.5289701,-0.35413787,0,-0.12277813911437989,-0.23465619405110677,0.4386109304428101,0.38267190297444664,-0.7863168243153742,0.6163845729078846,0.042141548141354124,0.42778212445536656,24.510110282432624,0
0.7100000000000004,15.671585694354125,0.03462897982505385,-0.5289701194453106,-0.3541378680660598,15.244149,-1.8528506,2.072359,0.19022694,13.222121,-10.083169,1.8924894,0.2572013,-0.23759952,0.3589185,0.8652,-10.219597,2.9010684,-0.2545593,0.03462898,-0.5289701,-0.35413787,0,-0.12277813911437989,-0.23465619405110677,0.4386109304428101,0.38267190297444664,-0.7863168243153742,0.6163845729078846,0.042141548141354124,0.42778212445536656,24.510110282432624,0
0.7200000000000004,15.364859780292427,0.2783080879509174,-0.617667873363534,-0.34831645209230583,15.307024,-1.6272168,1.9911488,0.18460083,13.119748,-10.053576,1.889947,0.2597224,-0.23590098,0.3579655,0.86530644,-10.254848,3.0174809,-0.2538399,0.03462898,-0.5289701,-0.35413787,0,-0.12277813911437989,-0.23465619405110677,0.4386109304428101,0.38267190297444664,-0.7863168243153742,0.6163845729078846,0.042141548141354124,0.42778212445536656,24.510110282432624,0
0.7300000000000004,15.364859780292427,0.2783080879509174,-0.617667873363534,-0.34831645209230583,15.307024,-1.6272168,1.9911488,0.18460083,13.01703,-10.022831,1.8874044,0.26266128,-0.23348893,0.35795406,0.8650783,-10.288638,3.1314905,-0.25463748,0.2783081,-0.61766785,-0.34831646,0,-0.12277813911437989,-0.23465619405110677,0.4386109304428101,0.38267190297444664,-0.7863168243153742,0.6163845729078846,0.042141548141354124,0.42778212445536656,24.510110282432624,0
0.7400000000000004,15.364859780292427,0.2783080879509174,-0.617667873363534,-0.34831645209230583,15.307024,-1.6272168,1.9911488,0.18460083,12.913979,-9.990946,1.8848555,0.26559633,-0.2310735,0.35793743,0.8648376,-10.321447,3.2454877,-0.25508532,0.2783081,-0.61766785,-0.34831646,0,-0.07793152809143067,-0.1972146733601888,0.46103423595428467,0.4013926633199056,-0.7497800970628574,0.6615587125435238,0.013033645160416912,0.4183180185313531,23.967856956121892,0
0.7500000000000004,15.364859780292427,0.2783080879509174,-0.617667873363534,-0.34831645209230583,15.307024,-1.6272168,1.9911488,0.18460083,12.810604,-9.957921,1.8823038,0.26852757,-0.22865468,0.35791558,0.86458427,-10.353276,3.359465,-0.25518543,0.2783081,-0.61766785,-0.34831646,0,-0.07793152809143067,-0.1972146733601888,0.46103423595428467,0.4013926633199056,-0.7497800970628574,0.6615587125435238,0.013033645160416912,0.4183180185313531,23.967856956121892,0
0.7600000000000005,15.242355994755178,0.417828126823271,-0.5554660204597742,-0.328003221449647,14.843713,-1.6211976,1.5343574,0.09688068,12.706917,-9.923757,1.8797531,0.2714549,-0.22623259,0.35788858,0.86431843,-10.384124,3.4734137,-0.25493973,0.2783081,-0.61766785,-0.34831646,0,-0.07793152809143067,-0.1972146733601888,0.46103423595428467,0.4013926633199056,-0.7497800970628574,0.6615587125435238,0.013033645160416912,0.4183180185313531,23.967856956121892,0
0.7700000000000005,15.242355994755178,0.417828126823271,-0.5554660204597742,-0.328003221449647,14.843713,-1.6211976,1.5343574,0.09688068,12.602927,-9.888457,1.8772024,0.274337,-0.22385025,0.3585667,0.8637475,-10.413726,3.5864773,-0.25519753,0.4178281,-0.555466,-0.32800323,0,-0.07793152809143067,-0.1972146733601888,0.46103423595428467,0.4013926633199056,-0.7497800970628574,0.6615587125435238,0.013033645160416912,0.4183180185313531,23.967856956121892,0
0.7800000000000005,15.242355994755178,0.417828126823271,-0.5554660204597742,-0.328003221449647,14.843713,-1.6211976,1.5343574,0.09688068,12.498647,-9.852027,1.8746499,0.27721503,-0.22146462,0.3592395,0.8631638,-10.44229,3.6996539,-0.25527737,0.4178281,-0.555466,-0.32800323,0,-0.07793152809143067,-0.1972146733601888,0.46103423595428467,0.4013926633199056,-0.7497800970628574,0.6615587125435238,0.013033645160416912,0.4183180185313531,23.967856956121892,0
0.7900000000000005,15.242355994755178,0.417828126823271,-0.5554660204597742,-0.328003221449647,14.843713,-1.6211976,1.5343574,0.09688068,12.394086,-9.814464,1.8720975,0.28008896,-0.21907571,0.359907,0.86256737,-10.469817,3.8129354,-0.25518134,0.4178281,-0.555466,-0.32800323,0,-0.07793152809143067,-0.1972146733601888,0.46103423595428467,0.4013926633199056,-0.7497800970628574,0.6615587125435238,0.013033645160416912,0.4183180185313531,23.967856956121892,0
0.8000000000000005,14.926564475133821,0.5394885077110222,-0.9123833313764809,-0.33322847969682656,14.656203,-1.2987893,0.8384892,-0.18923229,12.289254,-9.775767,1.8695469,0.28295878,-0.21668357,0.36056915,0.8619582,-10.496303,3.926314,-0.25491163,0.4178281,-0.555466,-0.32800323,0,-0.1036397647857666,-0.1890942891438802,0.4481801176071167,0.40545285542805987,-0.7377898097942213,0.6741654394989022,0.03416367587159383,0.3824154143920002,21.910789265408056,0
0.8100000000000005,14.926564475133821,0.5394885077110222,-0.9123833313764809,-0.33322847969682656,14.656203,-1.2987893,0.8384892,-0.18923229,12.184167,-9.735949,1.8669899,0.2866199,-0.21258557,0.3612368,0.8614893,-10.521026,4.037404,-0.2564311,0.5394885,-0.9123833,-0.33322847,0,-0.1036397647857666,-0.1890942891438802,0.4481801176071167,0.40545285542805987,-0.7377898097942213,0.6741654394989022,0.03416367587159383,0.3824154143920002,21.910789265408056,0
0.8200000000000005,14.926564475133821,0.5394885077110222,-0.9123833313764809,-0.33322847969682656,14.656203,-1.2987893,0.8384892,-0.18923229,12.078839,-9.695019,1.8644195,0.2902722,-0.208481,0.3618933,0.86099386,-10.544213,4.1484957,-0.25757197,0.5394885,-0.9123833,-0.33322847,0,-0.1036397647857666,-0.1890942891438802,0.4481801176071167,0.40545285542805987,-0.7377898097942213,0.6741654394989022,0.03416367587159383,0.3824154143920002,21.910789265408056,0
0.8300000000000005,14.926564475133821,0.5394885077110222,-0.9123833313764809,-0.33322847969682656,14.656203,-1.2987893,0.8384892,-0.18923229,11.973288,-9.652979,1.8618395,0.29391554,-0.20436999,0.36253864,0.86047184,-10.565864,4.2595725,-0.25834122,0.5394885,-0.9123833,-0.33322847,0,-0.1036397647857666,-0.1890942891438802,0.4481801176071167,0.40545285542805987,-0.7377898097942213,0.6741654394989022,0.03416367587159383,0.3824154143920002,21.910789265408056,0
0.8400000000000005,14.926564475133821,0.5394885077110222,-0.9123833313764809,-0.33322847969682656,14.3077,-1.1797091,0.4553316,-0.3766464,11.867527,-9.609828,1.8592538,0.2975498,-0.20025268,0.36317277,0.85992324,-10.585973,4.3706183,-0.2587461,0.5394885,-0.9123833,-0.33322847,0,-0.1036397647857666,-0.1890942891438802,0.4481801176071167,0.40545285542805987,-0.7377898097942213,0.6741654394989022,0.03416367587159383,0.3824154143920002,21.910789265408056,0
0.8500000000000005,14.926564475133821,0.5394885077110222,-0.9123833313764809,-0.33322847969682656,14.3077,-1.1797091,0.4553316,-0.3766464,11.761574,-9.565567,1.8566657,0.30117488,-0.19612919,0.3637957,0.8593481,-10.604541,4.481618,-0.25879368,0.5394885,-0.9123833,-0.33322847,0,-0.1036397647857666,-0.1890942891438802,0.4481801176071167,0.40545285542805987,-0.7377898097942213,0.6741654394989022,0.03416367587159383,0.3824154143920002,21.910789265408056,0
0.8600000000000005,14.926564475133821,0.5394885077110222,-0.9123833313764809,-0.33322847969682656,14.3077,-1.1797091,0.4553316,-0.3766464,11.655442,-9.520196,1.854079,0.30479068,-0.19199963,0.36440742,0.85874647,-10.621568,4.5925555,-0.25849122,0.5394885,-0.9123833,-0.33322847,0,-0.1036397647857666,-0.1890942891438802,0.4481801176071167,0.40545285542805987,-0.7377898097942213,0.6741654394989022,0.03416367587159383,0.3824154143920002,21.910789265408056,0
0.8700000000000006,14.926564475133821,0.5394885077110222,-0.9123833313764809,-0.33322847969682656,14.3077,-1.1797091,0.4553316,-0.3766464,11.549148,-9.473717,1.851497,0.30839705,-0.18786415,0.36500788,0.8581183,-10.6370535,4.703414,-0.25784597,0.5394885,-0.9123833,-0.33322847,0,-0.12913251876831056,-0.12171530405680339,0.4354337406158447,0.4391423479715983,-0.7287463675401784,0.6842896281717483,0.02600839429041696,0.3376209588359469,19.344256016459855,0
0.8800000000000006,14.812538316225453,0.5173015263529533,-0.6123675261291155,-0.3104230627745731,14.105438,-0.9782147,0.38700905,-0.559687,11.442705,-9.426128,1.8489233,0.31199393,-0.18372288,0.36559707,0.85746366,-10.650996,4.814178,-0.25686523,0.5394885,-0.9123833,-0.33322847,0,-0.12913251876831056,-0.12171530405680339,0.4354337406158447,0.4391423479715983,-0.7287463675401784,0.6842896281717483,0.02600839429041696,0.3376209588359469,19.344256016459855,0
0.8900000000000006,14.812538316225453,0.5173015263529533,-0.6123675261291155,-0.3104230627745731,14.105438,-0.9782147,0.38700905,-0.559687,11.336131,-9.377438,1.846357,0.31491652,-0.18085626,0.3665711,0.8565884,-10.663432,4.924047,-0.25639963,0.5173015,-0.6123675,-0.31042308,0,-0.12913251876831056,-0.12171530405680339,0.4354337406158447,0.4391423479715983,-0.7287463675401784,0.6842896281717483,0.02600839429041696,0.3376209588359469,19.344256016459855,0
0.9000000000000006,14.812538316225453,0.5173015263529533,-0.6123675261291155,-0.3104230627745731,14.105438,-0.9782147,0.38700905,-0.559687,11.22944,-9.327648,1.8437957,0.3178333,-0.1779863,0.36753836,0.85569733,-10.674685,5.0339565,-0.25583702,0.5173015,-0.6123675,-0.31042308,0,-0.12913251876831056,-0.12171530405680339,0.4354337406158447,0.4391423479715983,-0.7287463675401784,0.6842896281717483,0.02600839429041696,0.3376209588359469,19.344256016459855,0
0.9100000000000006,14.812538316225453,0.5173015263529533,-0.6123675261291155,-0.3104230627745731,14.105438,-0.9782147,0.38700905,-0.559687,11.1226425,-9.27676,1.8412405,0.32074422,-0.17511304,0.36849883,0.85479045,-10.684753,5.1438966,-0.255181,0.5173015,-0.6123675,-0.31042308,0,-0.12913251876831056,-0.12171530405680339,0.4354337406158447,0.4391423479715983,-0.7287463675401784,0.6842896281717483,0.02600839429041696,0.3376209588359469,19.344256016459855,0
0.9200000000000006,14.421857387080232,0.5076531119224975,-0.9630568602176821,-0.3057969412436308,13.741467,-0.99303395,0.43415007,-0.5807264,11.01575,-9.224771,1.8386923,0.32364917,-0.17223655,0.36945248,0.85386777,-10.693639,5.2538586,-0.25443524,0.5173015,-0.6123675,-0.31042308,0,-0.12913251876831056,-0.12171530405680339,0.4354337406158447,0.4391423479715983,-0.7287463675401784,0.6842896281717483,0.02600839429041696,0.3376209588359469,19.344256016459855,0
0.9300000000000006,14.421857387080232,0.5076531119224975,-0.9630568602176821,-0.3057969412436308,13.741467,-0.99303395,0.43415007,-0.5807264,10.908776,-9.171697,1.8361392,0.32716572,-0.16786559,0.3697921,0.85325086,-10.701002,5.360848,-0.25610927,0.5076531,-0.96305686,-0.30579695,0,-0.12913251876831056,-0.12171530405680339,0.4354337406158447,0.4391423479715983,-0.7287463675401784,0.6842896281717483,0.02600839429041696,0.3376209588359469,19.344256016459855,0
0.9400000000000006,14.421857387080232,0.5076531119224975,-0.9630568602176821,-0.3057969412436308,13.741467,-0.99303395,0.43415007,-0.5807264,10.801736,-9.117555,1.8335712,0.3306718,-0.16348925,0.3701199,0.85260665,-10.706852,5.467611,-0.25742996,0.5076531,-0.96305686,-0.30579695,0,-0.16219606399536132,-0.04012042681376139,0.4189019680023193,0.4799397865931193,-0.7348247254260837,0.6782552866928624,0.0015456311541242468,0.2732439596046339,15.655725662788678,0
0.9500000000000006,14.421857387080232,0.5076531119224975,-0.9630568602176821,-0.3057969412436308,13.741467,-0.99303395,0.43415007,-0.5807264,10.694644,-9.0623455,1.8309917,0.33416733,-0.15910769,0.37043586,0.85193527,-10.711189,5.5741324,-0.25840536,0.5076531,-0.96305686,-0.30579695,0,-0.16219606399536132,-0.04012042681376139,0.4189019680023193,0.4799397865931193,-0.7348247254260837,0.6782552866928624,0.0015456311541242468,0.2732439596046339,15.655725662788678,0
0.9600000000000006,14.24609801025002,0.42476099325547806,-0.7858783419567748,-0.27164709586084257,13.743184,-0.8781242,0.13478312,-0.54621255,10.587517,-9.006073,1.8284043,0.33765218,-0.15472105,0.37074003,0.8512366,-10.714014,5.6803966,-0.25904363,0.5076531,-0.96305686,-0.30579695,0,-0.16219606399536132,-0.04012042681376139,0.4189019680023193,0.4799397865931193,-0.7348247254260837,0.6782552866928624,0.0015456311541242468,0.2732439596046339,15.655725662788678,0
0.9700000000000006,14.24609801025002,0.42476099325547806,-0.7858783419567748,-0.27164709586084257,13.743184,-0.8781242,0.13478312,-0.54621255,10.480368,-8.948746,1.825806,0.34059003,-0.15116099,0.3710069,0.8505893,-10.715412,5.785118,-0.26056966,0.424761,-0.78587836,-0.2716471,0,-0.16219606399536132,-0.04012042681376139,0.4189019680023193,0.4799397865931193,-0.7348247254260837,0.6782552866928624,0.0015456311541242468,0.2732439596046339,15.655725662788678,0
0.9800000000000006,14.24609801025002,0.42476099325547806,-0.7858783419567748,-0.27164709586084257,13.743184,-0.8781242,0.13478312,-0.54621255,10.373213,-8.890371,1.8231938,0.3435205,-0.14759761,0.37126577,0.84992343,-10.715583,5.889616,-0.26184383,0.424761,-0.78587836,-0.2716471,0,-0.16219606399536132,-0.04012042681376139,0.4189019680023193,0.4799397865931193,-0.7348247254260837,0.6782552866928624,0.0015456311541242468,0.2732439596046339,15.655725662788678,0
0.9900000000000007,14.24609801025002,0.42476099325547806,-0.7858783419567748,-0.27164709586084257,13.743184,-0.8781242,0.13478312,-0.54621255,10.266061,-8.830955,1.8205701,0.34644344,-0.14403103,0.37151653,0.84923905,-10.714527,5.9938793,-0.2628714,0.424761,-0.78587836,-0.2716471,0,-0.16219606399536132,-0.04012042681376139,0.4189019680023193,0.4799397865931193,-0.7348247254260837,0.6782552866928624,0.0015456311541242468,0.2732439596046339,15.655725662788678,0
1.0000000000000007,13.860486797421885,0.2886195553783164,-1.1429402958883426,-0.23381094504169403,13.733471,-0.7621887,-0.16363385,-0.507051,10.158926,-8.770495,1.8179373,0.34935883,-0.14046131,0.37175918,0.8485362,-10.712247,6.0978975,-0.2636577,0.424761,-0.78587836,-0.2716471,0,-0.17735618591308594,-0.008409510453542074,0.41132190704345706,0.49579524477322895,-0.7190230074501198,0.6948817821043025,0.012050877849074604,0.25082702606791907,14.371329981509643,0
1.0100000000000007,13.860486797421885,0.2886195553783164,-1.1429402958883426,-0.23381094504169403,13.733471,-0.7621887,-0.16363385,-0.507051,10.05182,-8.709011,1.8152848,0.35267168,-0.13554014,0.37081632,0.8483786,-10.708753,6.1987267,-0.26671892,0.28861955,-1.1429403,-0.23381095,0,-0.17735618591308594,-0.008409510453542074,0.41132190704345706,0.49579524477322895,-0.7190230074501198,0.6948817821043025,0.012050877849074604,0.25082702606791907,14.371329981509643,0
1.0200000000000007,13.860486797421885,0.2886195553783164,-1.1429402958883426,-0.23381094504169403,13.733471,-0.7621887,-0.16363385,-0.507051,9.944756,-8.646522,1.8126048,0.3559718,-0.13061406,0.36986002,0.8481905,-10.703847,6.2989597,-0.2692136,0.28861955,-1.1429403,-0.23381095,0,-0.17735618591308594,-0.008409510453542074,0.41132190704345706,0.49579524477322895,-0.7190230074501198,0.6948817821043025,0.012050877849074604,0.25082702606791907,14.371329981509643,0
1.0300000000000007,13.860486797421885,0.2886195553783164,-1.1429402958883426,-0.23381094504169403,13.733471,-0.7621887,-0.16363385,-0.507051,9.837747,-8.583034,1.8099027,0.35925907,-0.12568326,0.36889037,0.8479717,-10.697533,6.398581,-0.27115253,0.28861955,-1.1429403,-0.23381095,0,-0.17735618591308594,-0.008409510453542074,0.41132190704345706,0.49579524477322895,-0.7190230074501198,0.6948817821043025,0.012050877849074604,0.25082702606791907,14.371329981509643,0
1.0400000000000007,13.860486797421885,0.2886195553783164,-1.1429402958883426,-0.23381094504169403,13.713923,-0.62011033,-0.5233617,-0.47158992,9.730808,-8.518552,1.8071836,0.36253336,-0.12074793,0.36790743,0.8477223,-10.689812,6.497573,-0.2725467,0.28861955,-1.1429403,-0.23381095,1,-0.17735618591308594,-0.008409510453542074,0.41132190704345706,0.49579524477322895,-0.7190230074501198,0.6948817821043025,0.012050877849074604,0.25082702606791907,14.371329981509643,0
1.0500000000000007,13.860486797421885,0.2886195553783164,-1.1429402958883426,-0.23381094504169403,13.713923,-0.62011033,-0.5233617,-0.47158992,9.623953,-8.453089,1.8044486,0.3651166,-0.12051984,0.36404157,0.8483148,-10.681339,6.5948315,-0.2743345,-0.62011033,-0.5233617,-0.47158992,1,-0.17735618591308594,-0.008409510453542074,0.41132190704345706,0.49579524477322895,-0.7190230074501198,0.6948817821043025,0.012050877849074604,0.25082702606791907,14.371329981509643,0
1.0600000000000007,13.860486797421885,0.2886195553783164,-1.1429402958883426,-0.23381094504169403,13.713923,-0.62011033,-0.5233617,-0.47158992,9.517181,-8.386658,1.8016996,0.3676918,-0.12028909,0.3601677,0.84888864,-10.672961,6.691311,-0.2753335,-0.62011033,-0.5233617,-0.47158992,1,-0.17735618591308594,-0.008409510453542074,0.41132190704345706,0.49579524477322895,-0.7190230074501198,0.6948817821043025,0.012050877849074604,0.25082702606791907,14.371329981509643,0
1.0700000000000007,13.860486797421885,0.2886195553783164,-1.1429402958883426,-0.23381094504169403,13.713923,-0.62011033,-0.5233617,-0.47158992,9.410493,-8.319266,1.7989446,0.37025893,-0.12005569,0.3562859,0.8494438,-10.664684,6.787005,-0.2755502,-0.62011033,-0.5233617,-0.47158992,1,-0.20591758728027343,0.04831047693888346,0.3970412063598633,0.5241552384694417,-0.7241380232177029,0.6894163572391048,0.018144136835922704,0.19408475808082937,11.120237505849124,0
1.0800000000000007,13.701923165691186,0.2176868104656781,-0.9958821477828291,-0.17797817660351947,13.641852,-0.79055536,-0.4743722,-0.42237425,9.303887,-8.250921,1.7961913,0.37281787,-0.119819656,0.35239628,0.84998024,-10.656514,6.881909,-0.27499118,-0.62011033,-0.5233617,-0.47158992,0,-0.20591758728027343,0.04831047693888346,0.3970412063598633,0.5241552384694417,-0.7241380232177029,0.6894163572391048,0.018144136835922704,0.19408475808082937,11.120237505849124,0
1.0900000000000007,13.701923165691186,0.2176868104656781,-0.9958821477828291,-0.17797817660351947,13.641852,-0.79055536,-0.4743722,-0.42237425,9.197364,-8.181632,1.7934468,0.37545437,-0.11549348,0.35135368,0.8498502,-10.6479845,6.9760036,-0.27385652,0.21768682,-0.99588215,-0.17797817,0,-0.20591758728027343,0.04831047693888346,0.3970412063598633,0.5241552384694417,-0.7241380232177029,0.6894163572391048,0.018144136835922704,0.19408475808082937,11.120237505849124,0
1.1000000000000008,13.701923165691186,0.2176868104656781,-0.9958821477828291,-0.17797817660351947,13.641852,-0.79055536,-0.4743722,-0.42237425,9.090931,-8.111403,1.7907159,0.37808084,-0.111164205,0.35030168,0.84969735,-10.638298,7.0694804,-0.27224514,0.21768682,-0.99588215,-0.17797817,0,-0.20591758728027343,0.04831047693888346,0.3970412063598633,0.5241552384694417,-0.7241380232177029,0.6894163572391048,0.018144136835922704,0.19408475808082937,11.120237505849124,0
1.1100000000000008,13.701923165691186,0.2176868104656781,-0.9958821477828291,-0.17797817660351947,13.641852,-0.79055536,-0.4743722,-0.42237425,8.984602,-8.040243,1.7880036,0.38069722,-0.10683196,0.3492403,0.8495218,-10.627455,7.162328,-0.27016592,0.21768682,-0.99588215,-0.17797817,0,-0.20591758728027343,0.04831047693888346,0.3970412063598633,0.5241552384694417,-0.7241380232177029,0.6894163572391048,0.018144136835922704,0.19408475808082937,11.120237505849124,0
1.1200000000000008,13.349136235798138,0.30303861467018406,-1.3287714829260013,-0.08335714780609563,13.461717,-0.58681244,-0.65994513,-0.38635182,8.8783865,-7.9681587,1.7853141,0.38330337,-0.102496855,0.34816957,0.84932345,-10.6154585,7.254535,-0.26762772,0.21768682,-0.99588215,-0.17797817,1,-0.20591758728027343,0.04831047693888346,0.3970412063598633,0.5241552384694417,-0.7241380232177029,0.6894163572391048,0.018144136835922704,0.19408475808082937,11.120237505849124,0
1.1300000000000008,13.349136235798138,0.30303861467018406,-1.3287714829260013,-0.08335714780609563,13.461717,-0.58681244,-0.65994513,-0.38635182,8.772294,-7.895163,1.7826438,0.38578773,-0.10149035,0.3442108,0.8499329,-10.602952,7.344396,-0.26627812,-0.58681244,-0.65994513,-0.38635182,1,-0.20591758728027343,0.04831047693888346,0.3970412063598633,0.5241552384694417,-0.7241380232177029,0.6894163572391048,0.018144136835922704,0.19408475808082937,11.120237505849124,0
1.1400000000000008,13.349136235798138,0.30303861467018406,-1.3287714829260013,-0.08335714780609563,13.461717,-0.58681244,-0.65994513,-0.38635182,8.666327,-7.821274,1.7799911,0.38826314,-0.10048149,0.340244,0.8505226,-10.590413,7.43337,-0.26413807,-0.58681244,-0.65994513,-0.38635182,1,-0.27625217437744143,0.1467911656697591,0.3618739128112793,0.5733955828348796,-0.7671159977274314,0.6414562418400755,0.008181432335098927,0.0844256952830551,4.837236022176599,0
1.1500000000000008,13.349136235798138,0.30303861467018406,-1.3287714829260013,-0.08335714780609563,13.461717,-0.58681244,-0.65994513,-0.38635182,8.560486,-7.746499,1.7773638,0.39072952,-0.099470295,0.33626932,0.8510925,-10.577846,7.52145,-0.2612149,-0.58681244,-0.65994513,-0.38635182,1,-0.27625217437744143,0.1467911656697591,0.3618739128112793,0.5733955828348796,-0.7671159977274314,0.6414562418400755,0.008181432335098927,0.0844256952830551,4.837236022176599,0
1.1600000000000008,13.041345173878192,0.2588958015191167,-1.4608502530877865,0.015949828964480346,13.589656,-0.7076835,-0.6689853,-0.25808537,8.45477,-7.6708484,1.7747695,0.39318684,-0.098456785,0.3322868,0.8516427,-10.565256,7.608629,-0.2575162,-0.58681244,-0.65994513,-0.38635182,1,-0.27625217437744143,0.1467911656697591,0.3618739128112793,0.5733955828348796,-0.7671159977274314,0.6414562418400755,0.008181432335098927,0.0844256952830551,4.837236022176599,0
1.1700000000000008,13.041345173878192,0.2588958015191167,-1.4608502530877865,0.015949828964480346,13.589656,-0.7076835,-0.6689853,-0.25808537,8.349181,-7.594326,1.7722211,0.39504394,-0.097426906,0.3278269,0.8526296,-10.552572,7.695689,-0.25204286,-0.7076835,-0.6689853,-0.25808537,1,-0.27625217437744143,0.1467911656697591,0.3618739128112793,0.5733955828348796,-0.7671159977274314,0.6414562418400755,0.008181432335098927,0.0844256952830551,4.837236022176599,0
1.1800000000000008,13.041345173878192,0.2588958015191167,-1.4608502530877865,0.015949828964480346,13.589656,-0.7076835,-0.6689853,-0.25808537,8.243718,-7.516938,1.7697316,0.39689103,-0.096394554,0.32335868,0.8535949,-10.539989,7.781741,-0.24571817,-0.7076835,-0.6689853,-0.25808537,1,-0.27625217437744143,0.1467911656697591,0.3618739128112793,0.5733955828348796,-0.7671159977274314,0.6414562418400755,0.008181432335098927,0.0844256952830551,4.837236022176599,0
1.1900000000000008,13.041345173878192,0.2588958015191167,-1.4608502530877865,0.015949828964480346,13.589656,-0.7076835,-0.6689853,-0.25808537,8.138381,-7.4386945,1.7673097,0.39872798,-0.09535976,0.31888226,0.8545385,-10.5275135,7.866777,-0.23855199,-0.7076835,-0.6689853,-0.25808537,1,-0.27625217437744143,0.1467911656697591,0.3618739128112793,0.5733955828348796,-0.7671159977274314,0.6414562418400755,0.008181432335098927,0.0844256952830551,4.837236022176599,0
1.2000000000000008,12.581418168035551,0.3783259112695275,-1.976374964775942,0.14831174582747897,13.4287615,-0.6032425,-0.5564113,-0.27469265,8.033168,-7.3596063,1.7649634,0.40055487,-0.09432255,0.31439775,0.85546046,-10.515145,7.9507885,-0.23055421,-0.7076835,-0.6689853,-0.25808537,0,-0.31658395767211917,0.23678995768229166,0.3417080211639404,0.6183949788411458,-0.7998276064963905,0.59962127244217,-0.027020908961180333,-0.004109530633434666,-0.23545876107553015,0
1.2100000000000009,12.581418168035551,0.3783259112695275,-1.976374964775942,0.14831174582747897,13.4287615,-0.6032425,-0.5564113,-0.27469265,7.928076,-7.2797136,1.7626618,0.4031853,-0.08487351,0.31211174,0.8560513,-10.503013,8.027471,-0.22965294,0.3783259,-1.976375,0.14831175,0,-0.31658395767211917,0.23678995768229166,0.3417080211639404,0.6183949788411458,-0.7998276064963905,0.59962127244217,-0.027020908961180333,-0.004109530633434666,-0.23545876107553015,0
1.2200000000000009,12.581418168035551,0.3783259112695275,-1.976374964775942,0.14831174582747897,13.4287615,-0.6032425,-0.5564113,-0.27469265,7.823115,-7.199061,1.760373,0.40577474,-0.075415835,0.30979395,0.85655504,-10.488882,8.1028,-0.22798105,0.3783259,-1.976375,0.14831175,0,-0.31658395767211917,0.23678995768229166,0.3417080211639404,0.6183949788411458,-0.7998276064963905,0.59962127244217,-0.027020908961180333,-0.004109530633434666,-0.23545876107553015,0
1.2300000000000009,12.581418168035551,0.3783259112695275,-1.976374964775942,0.14831174582747897,13.4287615,-0.6032425,-0.5564113,-0.27469265,7.7183056,-7.117662,1.7581046,0.40832287,-0.06595048,0.3074446,0.85697156,-10.472759,8.176749,-0.22558095,0.3783259,-1.976375,0.14831175,0,-0.31658395767211917,0.23678995768229166,0.3417080211639404,0.6183949788411458,-0.7998276064963905,0.59962127244217,-0.027020908961180333,-0.004109530633434666,-0.23545876107553015,0
1.2400000000000009,12.581418168035551,0.3783259112695275,-1.976374964775942,0.14831174582747897,13.680779,-0.55255693,-0.46729746,-0.34857166,7.613667,-7.0355306,1.7558637,0.41082942,-0.056478422,0.305064,0.8573009,-10.454647,8.24929,-0.2224953,0.3783259,-1.976375,0.14831175,0,-0.31658395767211917,0.23678995768229166,0.3417080211639404,0.6183949788411458,-0.7998276064963905,0.59962127244217,-0.027020908961180333,-0.004109530633434666,-0.23545876107553015,0
1.2500000000000009,12.581418168035551,0.3783259112695275,-1.976374964775942,0.14831174582747897,13.680779,-0.55255693,-0.46729746,-0.34857166,7.509219,-6.9526806,1.7536569,0.4132942,-0.04700061,0.30265233,0.857543,-10.434551,8.3203945,-0.2187671,0.3783259,-1.976375,0.14831175,0,-0.31658395767211917,0.23678995768229166,0.3417080211639404,0.6183949788411458,-0.7998276064963905,0.59962127244217,-0.027020908961180333,-0.004109530633434666,-0.23545876107553015,0
1.260000000000001,12.581418168035551,0.3783259112695275,-1.976374964775942,0.14831174582747897,13.680779,-0.55255693,-0.46729746,-0.34857166,7.4049826,-6.869127,1.7514905,0.4157169,-0.037518013,0.30020988,0.8576978,-10.4124775,8.390037,-0.21443959,0.3783259,-1.976375,0.14831175,0,-0.31658395767211917,0.23678995768229166,0.3417080211639404,0.6183949788411458,-0.7998276064963905,0.59962127244217,-0.027020908961180333,-0.004109530633434666,-0.23545876107553015,0
1.270000000000001,12.581418168035551,0.3783259112695275,-1.976374964775942,0.14831174582747897,13.680779,-0.55255693,-0.46729746,-0.34857166,7.3009763,-6.7848845,1.7493701,0.4180973,-0.028031595,0.29773688,0.85776526,-10.388432,8.458191,-0.20955624,0.3783259,-1.976375,0.14831175,0,-0.1830069351196289,0.19017278035481772,0.4084965324401856,0.5950863901774088,-0.6676861050414512,0.7405124421128879,0.0763975667844395,0.15373239620389656,8.80821747691627,0
1.280000000000001,12.383911826387807,-0.18656786503502185,-1.4027003072147237,0.1842253574265586,13.272356,-0.7892618,-0.30842093,-0.20994389,7.197221,-6.6999683,1.7473012,0.4204351,-0.018542327,0.29523358,0.85774547,-10.362424,8.524832,-0.20416075,0.3783259,-1.976375,0.14831175,0,-0.1830069351196289,0.19017278035481772,0.4084965324401856,0.5950863901774088,-0.6676861050414512,0.7405124421128879,0.0763975667844395,0.15373239620389656,8.80821747691627,0
