time-since-start [s],throttle_mpc,roll_mpc,pitch_mpc,yaw_mpc,throttle_nw,roll_nw,pitch_nw,yaw_nw,position_x [m],position_y [m],position_z [m],rotation_w [quaternion],rotation_x [quaternion],rotation_y [quaternion],rotation_z [quaternion],velocity_x [m/s],velocity_y [m/s],velocity_z [m/s],omega_x [rad/s],omega_y [rad/s],omega_z [rad/s],network_used
0.0,9.556696181188709,5.99999961628983,-5.999999920120676,-4.913738674857899,7.9626904,-2.3743255,-2.3150487,0.106493205,19.549566,-9.904492,2.1588354,-0.0028117856,-0.4517316,0.3372738,0.8259401,-10.176278,-4.246452,-0.36299986,1.1184235,-0.045388874,0.30253765,0
0.01,9.556696181188709,5.99999961628983,-5.999999920120676,-4.913738674857899,14.249492,-3.9753108,-4.8936563,0.65251285,19.447115,-9.9464445,2.1550493,-0.0011233318,-0.4510143,0.3421956,0.82430995,-10.313269,-4.1441164,-0.39463744,1.0340909,-0.1285281,0.12842101,0
0.02,9.556696181188709,5.99999961628983,-5.999999920120676,-4.913738674857899,14.249492,-3.9753108,-4.8936563,0.65251285,19.343315,-9.987378,2.1509337,0.00123056,-0.4502621,0.34640166,0.8229632,-10.446169,-4.042816,-0.42882004,0.96331,-0.19909804,-0.04138335,0
0.03,9.556696181188709,5.99999961628983,-5.999999920120676,-4.913738674857899,14.249492,-3.9753108,-4.8936563,0.65251285,19.238203,-10.027303,2.1464663,0.0042557158,-0.4495044,0.34997147,0.82185614,-10.575836,-3.942017,-0.4649291,0.91563994,-0.2707345,-0.20598277,0
0.04,9.556696181188709,5.99999961628983,-5.999999920120676,-4.913738674857899,5.5234013,-3.1396663,-4.4046035,-0.22961155,19.131805,-10.066219,2.1416304,0.00801054,-0.44869807,0.35303798,0.82095665,-10.703018,-3.8411925,-0.5024271,0.8993912,-0.3551969,-0.36465013,0
0.05,9.556696181188709,5.99999961628983,-5.999999920120676,-4.913738674857899,5.5234013,-3.1396663,-4.4046035,-0.22961155,19.02415,-10.104126,2.1364133,0.012559307,-0.4477838,0.3557322,0.8202355,-10.827594,-3.7404163,-0.5412025,0.9104679,-0.4513016,-0.51774883,0
0.060000000000000005,9.556696181188709,5.99999961628983,-5.999999920120676,-4.913738674857899,5.5234013,-3.1396663,-4.4046035,-0.22961155,18.915264,-10.141026,2.1308024,0.017957093,-0.4467048,0.35816664,0.8196638,-10.949427,-3.6397161,-0.5811533,0.9452762,-0.55790883,-0.66561204,0
0.07,9.556696181188709,5.99999961628983,-5.999999920120676,-4.913738674857899,5.5234013,-3.1396663,-4.4046035,-0.22961155,18.805174,-10.176918,2.1247864,0.024250647,-0.44540688,0.36043718,0.8192126,-11.068366,-3.5390847,-0.6221852,1.0006586,-0.6739307,-0.80854553,0
0.08,11.198723480725675,5.999999809332383,-5.999999957328786,-5.024347199844276,13.420408,-4.554738,-7.111048,1.2269496,18.693907,-10.211807,2.1183553,0.03147914,-0.4438381,0.36262503,0.8188526,-11.184254,-3.438488,-0.6642097,1.0738384,-0.7983359,-0.94683003,0
0.09,11.198723480725675,5.999999809332383,-5.999999957328786,-5.024347199844276,13.420408,-4.554738,-7.111048,1.2269496,18.58145,-10.2456455,2.111523,0.0397499,-0.4418933,0.3648459,0.8185581,-11.3064785,-3.3293266,-0.7024591,1.191255,-0.9590866,-1.0887322,0
0.09999999999999999,11.198723480725675,5.999999809332383,-5.999999957328786,-5.024347199844276,13.420408,-4.554738,-7.111048,1.2269496,18.46779,-10.278393,2.104303,0.04916032,-0.43947068,0.36719888,0.81829906,-11.424908,-3.2200954,-0.7416317,1.320678,-1.1251442,-1.2263839,0
0.10999999999999999,11.198723480725675,5.999999809332383,-5.999999957328786,-5.024347199844276,13.420408,-4.554738,-7.111048,1.2269496,18.352966,-10.310046,2.096687,0.059724994,-0.43652514,0.36972174,0.8180368,-11.539307,-3.110671,-0.78162867,1.4602932,-1.2957399,-1.3599987,0
0.11999999999999998,11.198723480725675,5.999999809332383,-5.999999957328786,-5.024347199844276,13.420408,-4.554738,-7.111048,1.2269496,18.237019,-10.340606,2.0886679,0.07145304,-0.43301216,0.3724422,0.81772935,-11.649433,-3.0009387,-0.822353,1.6085037,-1.4701579,-1.4897743,0
0.12999999999999998,14.625414541279994,5.999999922171234,-5.999999989352048,-4.752359346463624,10.094454,-3.1525416,-7.135109,1.353995,18.119991,-10.370065,2.080238,0.0843483,-0.42888767,0.37537873,0.8173317,-11.755046,-2.8907986,-0.86370885,1.7639033,-1.6477356,-1.6158931,0
0.13999999999999999,14.625414541279994,5.999999922171234,-5.999999989352048,-4.752359346463624,10.094454,-3.1525416,-7.135109,1.353995,18.001863,-10.398345,2.0714307,0.09867102,-0.42380467,0.37878224,0.8168091,-11.869587,-2.7650964,-0.89794856,2.0556235,-1.9585215,-1.7368355,0
0.15,14.625414541279994,5.999999922171234,-5.999999989352048,-4.752359346463624,10.094454,-3.1525416,-7.135109,1.353995,17.882622,-10.425365,2.0622773,0.11464737,-0.41743702,0.38285515,0.8161028,-11.977881,-2.6389854,-0.9328351,2.34153,-2.2605908,-1.8553938,0
0.16,17.624743131578413,5.999999957493577,-6.0,-4.362986982429524,13.045416,-1.2140753,-5.8146987,0.4640089,17.762327,-10.451122,2.0527723,0.13222304,-0.4097696,0.38753238,0.8151221,-12.079466,-2.5122576,-0.96819824,2.6216495,-2.5544167,-1.9716064,0
0.17,17.624743131578413,5.999999957493577,-6.0,-4.362986982429524,13.045416,-1.2140753,-5.8146987,0.4640089,17.641008,-10.475544,2.0429432,0.15159743,-0.40044618,0.39298102,0.8137729,-12.18328,-2.3720515,-0.99764293,3.0312178,-2.9759538,-2.078496,0
0.18000000000000002,17.624743131578413,5.999999957493577,-6.0,-4.362986982429524,13.045416,-1.2140753,-5.8146987,0.4640089,17.518694,-10.498561,2.032818,0.17293039,-0.38912866,0.39931485,0.8119243,-12.278196,-2.231269,-1.027426,3.4233124,-3.3782098,-2.184292,0
0.19000000000000003,17.624743131578413,5.999999957493577,-6.0,-4.362986982429524,13.045416,-1.2140753,-5.8146987,0.4640089,17.395475,-10.520167,2.0223942,0.19610092,-0.37582168,0.4063833,0.8094162,-12.363544,-2.089839,-1.0573398,3.7991168,-3.7626438,-2.2889094,0
0.20000000000000004,20.772287773454565,5.9999999645205095,-6.0,-3.61164772103197,13.656847,-2.1779625,-7.953612,0.8888696,17.271452,-10.540353,2.0116735,0.22095725,-0.36055383,0.4140173,0.80608183,-12.439409,-1.9464725,-1.086547,4.1415515,-4.1123424,-2.3906848,0
0.21000000000000005,20.772287773454565,5.9999999645205095,-6.0,-3.61164772103197,13.656847,-2.1779625,-7.953612,0.8888696,17.146656,-10.558954,2.0007322,0.24715286,-0.3434519,0.4220099,0.8017876,-12.517856,-1.7731547,-1.1013188,4.430745,-4.4073443,-2.4505978,0
0.22000000000000006,20.772287773454565,5.9999999645205095,-6.0,-3.61164772103197,13.656847,-2.1779625,-7.953612,0.8888696,17.021135,-10.575803,1.9896547,0.2743336,-0.32467136,0.43015933,0.79642457,-12.584249,-1.5959538,-1.1138223,4.6749005,-4.656281,-2.5075707,0
0.23000000000000007,20.772287773454565,5.9999999645205095,-6.0,-3.61164772103197,13.656847,-2.1779625,-7.953612,0.8888696,16.895016,-10.590862,1.9784639,0.302251,-0.30438757,0.4382645,0.78988373,-12.63763,-1.4155395,-1.1239756,4.8810353,-4.866342,-2.561748,0
0.24000000000000007,20.772287773454565,5.9999999645205095,-6.0,-3.61164772103197,15.273775,-2.3548286,-7.6551843,0.93659145,16.768429,-10.604106,1.9671835,0.3306806,-0.28275982,0.44615504,0.7820757,-12.677182,-1.2327583,-1.1317487,5.055073,-5.0435953,-2.6132667,0
0.25000000000000006,20.772287773454565,5.9999999645205095,-6.0,-3.61164772103197,15.273775,-2.3548286,-7.6551843,0.93659145,16.64152,-10.615513,1.9558371,0.3594189,-0.25993434,0.4536873,0.7729292,-12.702229,-1.0486048,-1.1371591,5.202014,-5.1931624,-2.6622577,0
0.26000000000000006,20.772287773454565,5.9999999645205095,-6.0,-3.61164772103197,15.273775,-2.3548286,-7.6551843,0.93659145,16.514437,-10.625076,1.9444482,0.3882806,-0.23604652,0.46074057,0.7623896,-12.712248,-0.8641958,-1.1402689,5.32608,-5.3193645,-2.7088444,0
0.2700000000000001,20.772287773454565,5.9999999645205095,-6.0,-3.61164772103197,15.273775,-2.3548286,-7.6551843,0.93659145,16.38733,-10.632799,1.9330393,0.41709664,-0.2112225,0.46721375,0.7504175,-12.706874,-0.6807432,-1.1411803,5.4308333,-5.425851,-2.7531452,0
0.2800000000000001,20.99999999748541,5.999999762508063,-5.999999932910327,-3.566181885347893,15.931868,-0.59331965,-5.9926934,0.1700705,16.260353,-10.638699,1.9216317,0.44571206,-0.18558042,0.47302264,0.73698705,-12.685895,-0.49952996,-1.1400317,5.519283,-5.5156994,-2.795272,0
0.2900000000000001,20.99999999748541,5.999999762508063,-5.999999932910327,-3.566181885347893,15.931868,-0.59331965,-5.9926934,0.1700705,16.133665,-10.642793,1.9102507,0.47398052,-0.15922886,0.47809854,0.7220874,-12.648862,-0.319939,-1.135885,5.5939746,-5.5915,-2.833101,0
0.3000000000000001,20.99999999748541,5.999999762508063,-5.999999932910327,-3.566181885347893,15.931868,-0.59331965,-5.9926934,0.1700705,16.00743,-10.645114,1.8989199,0.5017675,-0.13227046,0.482385,0.70571834,-12.596115,-0.14532715,-1.1300293,5.6570435,-5.6554546,-2.8690736,0
0.3100000000000001,20.99999999748541,5.999999762508063,-5.999999932910327,-3.566181885347893,15.931868,-0.59331965,-5.9926934,0.1700705,15.881798,-10.6457205,1.8876553,0.52895296,-0.10480513,0.48583522,0.6878871,-12.5279255,0.02293089,-1.1226907,5.7102995,-5.709413,-2.9032812,0
0.3200000000000001,20.999999985221162,3.4231800827528973,-5.651438622021525,-0.5372848834537156,16.132656,-1.0320854,-5.057979,0.44173178,15.756923,-10.644682,1.8764703,0.555426,-0.076927945,0.48841143,0.66860914,-12.44472,0.183476,-1.1141157,5.75527,-5.754937,-2.93581,0
0.3300000000000001,20.999999985221162,3.4231800827528973,-5.651438622021525,-0.5372848834537156,16.132656,-1.0320854,-5.057979,0.44173178,15.632953,-10.642081,1.8653762,0.5807115,-0.049223006,0.48952085,0.6486297,-12.347156,0.33500472,-1.1045215,5.392054,-5.737686,-2.8181136,0
0.34000000000000014,20.999999985221162,3.4231800827528973,-5.651438622021525,-0.5372848834537156,16.132656,-1.0320854,-5.057979,0.44173178,15.510024,-10.638016,1.8543835,0.60448647,-0.022170564,0.48876318,0.6286613,-12.23647,0.47642928,-1.0938696,5.085453,-5.7233005,-2.7061927,0
0.35000000000000014,20.999999985221162,3.4231800827528973,-5.651438622021525,-0.5372848834537156,16.132656,-1.0320854,-5.057979,0.44173178,15.388263,-10.63259,1.8435029,0.6268568,0.0042927423,0.48636374,0.60867256,-12.11404,0.60686326,-1.0820693,4.8266397,-5.7113013,-2.5997639,0
0.36000000000000015,20.99999964373429,1.5154408559294077,-3.5361830368218357,0.28099955122126913,16.143635,-1.2795408,-2.7971988,1.1243751,15.267779,-10.625918,1.8327463,0.64790606,0.03022318,0.48250875,0.58863354,-11.981186,0.72556293,-1.0690798,4.6081634,-5.701291,-2.4985573,0
0.37000000000000016,20.99999964373429,1.5154408559294077,-3.5361830368218357,0.28099955122126913,16.143635,-1.2795408,-2.7971988,1.1243751,15.148671,-10.618121,1.8221256,0.66728145,0.054727055,0.47747356,0.5689984,-11.839234,0.8319935,-1.0549082,4.1268845,-5.362491,-2.3621638,0
0.38000000000000017,20.99999964373429,1.5154408559294077,-3.5361830368218357,0.28099955122126913,16.143635,-1.2795408,-2.7971988,1.1243751,15.03102,-10.609321,1.8116522,0.68479484,0.07711557,0.47156435,0.5502146,-11.689769,0.9262448,-1.0395973,3.7205007,-5.0767374,-2.232463,0
0.3900000000000002,20.99999964373429,1.5154408559294077,-3.5361830368218357,0.28099955122126913,16.143635,-1.2795408,-2.7971988,1.1243751,14.914895,-10.599637,1.8013375,0.70071805,0.0977139,0.46494848,0.53223014,-11.534264,1.0086538,-1.0231812,3.3773625,-4.8357162,-2.1091263,0
0.4000000000000002,20.999997329929183,-0.42581804627818415,-1.3313881960099216,0.9972150501597745,17.115461,-1.6645224,-0.13369419,1.1198803,14.800351,-10.589187,1.7911922,0.71527004,0.11680049,0.45775166,0.514985,-11.373967,1.0795805,-1.0056832,3.0876307,-4.632419,-1.9918424,0
0.4100000000000002,20.999997329929183,-0.42581804627818415,-1.3313881960099216,0.9972150501597745,17.115461,-1.6645224,-0.13369419,1.1198803,14.687429,-10.578083,1.7812274,0.72829103,0.13364701,0.45030758,0.49895236,-11.209982,1.1394894,-0.98712003,2.540775,-4.11667,-1.8451685,0
0.4200000000000002,20.999997329929183,-0.42581804627818415,-1.3313881960099216,0.9972150501597745,17.115461,-1.6645224,-0.13369419,1.1198803,14.57616,-10.56643,1.7714536,0.73973006,0.14771016,0.44293362,0.4845521,-11.043441,1.1894239,-0.967478,2.078996,-3.6815603,-1.7056918,0
0.4300000000000002,20.999997329929183,-0.42581804627818415,-1.3313881960099216,0.9972150501597745,17.115461,-1.6645224,-0.13369419,1.1198803,14.466565,-10.554323,1.7618817,0.7498787,0.15945646,0.43567646,0.47163692,-10.87529,1.230533,-0.9467106,1.6890675,-3.314471,-1.5730594,0
0.4400000000000002,20.999997329929183,-0.42581804627818415,-1.3313881960099216,0.9972150501597745,16.845964,-3.1443572,2.048434,1.4733301,14.358657,-10.541845,1.7525234,0.75896406,0.16927782,0.42855597,0.4600633,-10.706252,1.2638338,-0.9247561,1.3598177,-3.0047598,-1.4469353,0
0.45000000000000023,20.999997329929183,-0.42581804627818415,-1.3313881960099216,0.9972150501597745,16.845964,-3.1443572,2.048434,1.4733301,14.252442,-10.52907,1.7433909,0.76716405,0.17750274,0.42157474,0.44969624,-10.536885,1.2902164,-0.9015481,1.0818104,-2.7434504,-1.327,0
0.46000000000000024,20.999997329929183,-0.42581804627818415,-1.3313881960099216,0.9972150501597745,16.845964,-3.1443572,2.048434,1.4733301,14.147921,-10.516062,1.7344971,0.77461916,0.184406,0.41472495,0.4404119,-10.36762,1.310454,-0.8770216,0.84707534,-2.5229733,-1.2129501,0
0.47000000000000025,20.999997329929183,-0.42581804627818415,-1.3313881960099216,0.9972150501597745,16.845964,-3.1443572,2.048434,1.4733301,14.045089,-10.502879,1.7258552,0.7814411,0.19021724,0.40799278,0.43209836,-10.198793,1.3252138,-0.8511172,0.6488813,-2.3369431,-1.1044967,0
0.48000000000000026,20.333298387996802,-2.8323405179167915,1.2826723096630008,4.810223868816294,16.59218,-3.6383338,2.8143392,1.3690256,13.943942,-10.489574,1.7174796,0.78771913,0.1951282,0.40136144,0.4246557,-10.030665,1.3350698,-0.82378244,0.4815426,-2.1799738,-1.0013652,0
0.49000000000000027,20.333298387996802,-2.8323405179167915,1.2826723096630008,4.810223868816294,16.59218,-3.6383338,2.8143392,1.3690256,13.8446455,-10.476186,1.7095156,0.793181,0.19822305,0.3951116,0.41887742,-9.829723,1.3417784,-0.7693483,-0.05197124,-1.6569513,-0.76184255,0
0.5000000000000002,20.333298387996802,-2.8323405179167915,1.2826723096630008,4.810223868816294,16.59218,-3.6383338,2.8143392,1.3690256,13.747327,-10.46275,1.7020863,0.7976099,0.19881624,0.3894803,0.41544622,-9.635151,1.3448057,-0.7167604,-0.49995923,-1.2131681,-0.528252,0
0.5100000000000002,20.333298387996802,-2.8323405179167915,1.2826723096630008,4.810223868816294,16.59218,-3.6383338,2.8143392,1.3690256,13.65192,-10.449296,1.6951748,0.80112964,0.19735818,0.38437557,0.41412112,-9.447,1.3458704,-0.6658318,-0.8767268,-0.8372315,-0.30044675,0
0.5200000000000002,20.259799707738843,-5.03607125913657,3.9468531779000084,5.130806732710076,17.660326,-4.3332815,5.456905,1.6480093,13.558365,-10.435835,1.6887646,0.80382717,0.19422072,0.3797027,0.41468772,-9.2652445,1.3463365,-0.61642444,-1.1942307,-0.5194092,-0.07828346,0
0.5300000000000002,20.259799707738843,-5.03607125913657,3.9468531779000084,5.130806732710076,17.660326,-4.3332815,5.456905,1.6480093,13.466625,-10.422366,1.682867,0.8055713,0.1885294,0.375743,0.41752666,-9.083692,1.3474499,-0.56330425,-1.8421222,0.12809269,0.14597182,0
0.5400000000000003,20.259799707738843,-5.03607125913657,3.9468531779000084,5.130806732710076,17.660326,-4.3332815,5.456905,1.6480093,13.376669,-10.408876,1.6774942,0.8062261,0.17959212,0.37269163,0.42290306,-8.908747,1.3509654,-0.51147103,-2.3906674,0.6729306,0.36467308,0
0.5500000000000003,20.259799707738843,-5.03607125913657,3.9468531779000084,5.130806732710076,17.660326,-4.3332815,5.456905,1.6480093,13.288428,-10.395333,1.6726338,0.80581903,0.16793235,0.3703315,0.43047515,-8.740492,1.3585076,-0.46080118,-2.8567848,1.1296866,0.5779578,0
0.5600000000000003,20.999968356866265,-5.999998791994947,5.999990663507824,5.752911605330239,19.786749,-4.5270853,6.0849423,0.6025423,13.201836,-10.381688,1.6682744,0.80434924,0.15398595,0.36846083,0.43993995,-8.579046,1.3712937,-0.41125482,-3.254612,1.5108109,0.7859602,0
0.5700000000000003,20.999968356866265,-5.999998791994947,5.999990663507824,5.752911605330239,19.786749,-4.5270853,6.0849423,0.6025423,13.116896,-10.367877,1.6644729,0.80163807,0.13738121,0.36710075,0.45137548,-8.410215,1.392048,-0.34921864,-3.831969,2.0614114,1.0076982,0
0.5800000000000003,20.999968356866265,-5.999998791994947,5.999990663507824,5.752911605330239,19.786749,-4.5270853,6.0849423,0.6025423,13.033605,-10.353819,1.6612854,0.7974789,0.11783167,0.36621258,0.46479172,-8.249403,1.4207798,-0.28851265,-4.3278255,2.5175958,1.2239444,0
0.5900000000000003,20.999968356866265,-5.999998791994947,5.999990663507824,5.752911605330239,19.786749,-4.5270853,6.0849423,0.6025423,12.951884,-10.339429,1.6587025,0.7917911,0.0958049,0.3655863,0.479828,-8.095811,1.4587789,-0.22796734,-4.7357383,2.9132776,1.4330728,0
0.6000000000000003,20.999994230927985,-5.999999362441602,5.999998209026246,5.3151099899910355,21.184532,-3.996826,5.4401073,0.6419927,12.871665,-10.324607,1.6567276,0.7844458,0.07173595,0.36518425,0.49612412,-7.9492493,1.507061,-0.16697031,-5.0548935,3.272458,1.6341906,0
0.6100000000000003,20.999994230927985,-5.999999362441602,5.999998209026246,5.3151099899910355,21.184532,-3.996826,5.4401073,0.6419927,12.792854,-10.3092575,1.6553415,0.77527744,0.046034746,0.36521316,0.5132689,-7.8142376,1.5645875,-0.11032094,-5.2371597,3.6629784,1.8117473,0
0.6200000000000003,20.999994230927985,-5.999999362441602,5.999998209026246,5.3151099899910355,21.184532,-3.996826,5.4401073,0.6419927,12.715351,-10.293279,1.6545177,0.76416045,0.019049462,0.36585796,0.5308897,-7.6876388,1.6328937,-0.054606356,-5.3633065,4.0203753,1.9830755,0
0.6300000000000003,20.999994230927985,-5.999999362441602,5.999998209026246,5.3151099899910355,21.184532,-3.996826,5.4401073,0.6419927,12.639074,-10.27656,1.6542492,0.7510667,-0.008961612,0.36702207,0.5487379,-7.5688915,1.712829,0.00089491997,-5.4634566,4.328386,2.1465795,0
0.6400000000000003,20.999994230927985,-5.999999362441602,5.999998209026246,5.3151099899910355,19.836035,-3.2424977,5.2504888,0.9927891,12.563945,-10.258982,1.6545336,0.7360141,-0.03779038,0.3685174,0.5666127,-7.45841,1.8047377,0.055861056,-5.5479574,4.588393,2.3020601,0
0.6500000000000004,20.999994230927985,-5.999999362441602,5.999998209026246,5.3151099899910355,19.836035,-3.2424977,5.2504888,0.9927891,12.489876,-10.240423,1.6553619,0.71902686,-0.067248486,0.3701758,0.5843354,-7.3570323,1.9085572,0.10950387,-5.619244,4.807884,2.4499114,0
0.6600000000000004,20.999994230927985,-5.999999362441602,5.999998209026246,5.3151099899910355,19.836035,-3.2424977,5.2504888,0.9927891,12.416771,-10.220769,1.6567166,0.7001329,-0.097162545,0.37185612,0.60174435,-7.265616,2.0240245,0.16104066,-5.6793747,4.9931774,2.5905075,0
0.6700000000000004,20.999994230927985,-5.999999362441602,5.999998209026246,5.3151099899910355,19.836035,-3.2424977,5.2504888,0.9927891,12.344526,-10.199904,1.6585728,0.67936563,-0.1273723,0.37344003,0.61869305,-7.185011,2.150688,0.20970297,-5.730088,5.149606,2.7242048,0
0.6800000000000004,20.993780968657536,-5.930733208359463,4.565555982961137,3.9035704242483127,17.33848,-3.0551765,4.147172,0.506959,12.27303,-10.177719,1.6608981,0.6567638,-0.15772904,0.37482876,0.6350482,-7.116043,2.2879214,0.25474545,-5.772853,5.281671,2.8513412,0
0.6900000000000004,20.993780968657536,-5.930733208359463,4.565555982961137,3.9035704242483127,17.33848,-3.0551765,4.147172,0.506959,12.202163,-10.154112,1.6636527,0.63271177,-0.1877761,0.3755621,0.6506681,-7.0595016,2.4348536,0.295451,-5.797441,5.169752,2.9029746,0
0.7000000000000004,20.993780968657536,-5.930733208359463,4.565555982961137,3.9035704242483127,17.33848,-3.0551765,4.147172,0.506959,12.131796,-10.128992,1.6667908,0.60758036,-0.21714288,0.37529746,0.6654674,-7.016016,2.590356,0.33144483,-5.818212,5.0753026,2.952074,0
0.7100000000000004,20.993780968657536,-5.930733208359463,4.565555982961137,3.9035704242483127,17.33848,-3.0551765,4.147172,0.506959,12.061795,-10.10228,1.6702641,0.5813941,-0.24581826,0.37411597,0.6794052,-6.986115,2.7531433,0.36241725,-5.8357587,4.9955964,2.998764,0
0.7200000000000004,19.47257105645543,-4.6020490117356285,2.6429165701593513,2.97971255686049,17.073984,-2.4873762,2.5873754,0.32894424,11.992024,-10.073908,1.6740209,0.5541821,-0.2737887,0.3720861,0.6924404,-6.9702215,2.9219105,0.38808602,-5.8505816,4.9283333,3.043163,0
0.7300000000000004,19.47257105645543,-4.6020490117356285,2.6429165701593513,2.97971255686049,17.073984,-2.4873762,2.5873754,0.32894424,11.922339,-10.043887,1.6779636,0.5265061,-0.3002622,0.36919564,0.7045057,-6.968709,3.082743,0.39967725,-5.655159,4.572322,3.0400496,0
0.7400000000000004,19.47257105645543,-4.6020490117356285,2.6429165701593513,2.97971255686049,17.073984,-2.4873762,2.5873754,0.32894424,11.852605,-10.012241,1.6819971,0.4988949,-0.32464805,0.3654955,0.7156258,-6.980213,3.246486,0.4062615,-5.490324,4.271769,3.0370889,0
0.7500000000000004,19.47257105645543,-4.6020490117356285,2.6429165701593513,2.97971255686049,17.073984,-2.4873762,2.5873754,0.32894424,11.782692,-9.97895,1.6860722,0.47132483,-0.34720388,0.36111477,0.7258776,-7.0043597,3.4118445,0.40804973,-5.3512893,4.0180345,3.0342734,0
0.7600000000000005,17.230078366873126,-2.8552785793398887,0.3928342158336092,2.0422021468289464,16.622187,-3.3188396,1.4846919,1.3124344,11.712475,-9.944002,1.6901424,0.4437706,-0.36814728,0.35615417,0.7353157,-7.04076,3.5776665,0.40525597,-5.2340155,3.803826,3.031596,0
0.7700000000000005,17.230078366873126,-2.8552785793398887,0.3928342158336092,2.0422021468289464,16.622187,-3.3188396,1.4846919,1.3124344,11.641862,-9.907494,1.6941099,0.41688487,-0.38674334,0.3507837,0.74403435,-7.0833874,3.7238827,0.38766885,-4.8618994,3.272772,2.983046,0
0.7800000000000005,17.230078366873126,-2.8552785793398887,0.3928342158336092,2.0422021468289464,16.622187,-3.3188396,1.4846919,1.3124344,11.570774,-9.869529,1.6978846,0.39123994,-0.4024716,0.3451931,0.75218976,-7.135603,3.8687694,0.36677918,-4.5480113,2.8243937,2.9368784,0
0.7900000000000005,17.230078366873126,-2.8552785793398887,0.3928342158336092,2.0422021468289464,16.622187,-3.3188396,1.4846919,1.3124344,11.499121,-9.830124,1.7014362,0.3666902,-0.41578484,0.33946574,0.75988424,-7.1965203,4.011679,0.34315768,-4.2832355,2.445822,2.8929765,0
0.8000000000000005,15.786321175745046,-1.1403579065386271,-1.60990996253769,1.135212610192592,17.022131,-3.1664035,0.33913156,1.0954983,11.426817,-9.789303,1.70474,0.3430992,-0.42705992,0.33365604,0.76718724,-7.265357,4.1521153,0.31731626,-4.0598855,2.1261907,2.8512287,0
0.8100000000000005,15.786321175745046,-1.1403579065386271,-1.60990996253769,1.135212610192592,17.022131,-3.1664035,0.33913156,1.0954983,11.353806,-9.747124,1.7077599,0.32085362,-0.43598825,0.32794705,0.77422076,-7.3374753,4.2826843,0.286144,-3.6616533,1.6026014,2.7722583,0
0.8200000000000005,15.786321175745046,-1.1403579065386271,-1.60990996253769,1.135212610192592,17.022131,-3.1664035,0.33913156,1.0954983,11.280054,-9.7036705,1.7104533,0.30040205,-0.44220492,0.32256874,0.7811291,-7.413429,4.4069777,0.2521843,-3.280593,1.1155441,2.6931295,0
0.8300000000000005,15.786321175745046,-1.1403579065386271,-1.60990996253769,1.135212610192592,17.022131,-3.1664035,0.33913156,1.0954983,11.205523,-9.658997,1.7128009,0.28164563,-0.4460017,0.31758013,0.7879726,-7.4935503,4.527408,0.21729532,-2.946045,0.69124484,2.616682,0
0.8400000000000005,15.786321175745046,-1.1403579065386271,-1.60990996253769,1.135212610192592,16.649908,-2.2935343,-0.27071598,0.41894838,11.130169,-9.613132,1.7147999,0.26437548,-0.44776565,0.31295854,0.7947756,-7.5776405,4.645035,0.18253587,-2.6638222,0.33298832,2.5439858,0
0.8500000000000005,15.786321175745046,-1.1403579065386271,-1.60990996253769,1.135212610192592,16.649908,-2.2935343,-0.27071598,0.41894838,11.053958,-9.566105,1.7164537,0.24839303,-0.44783336,0.30866536,0.80154324,-7.665005,4.759931,0.14835483,-2.4257352,0.030498318,2.474857,0
0.8600000000000005,15.786321175745046,-1.1403579065386271,-1.60990996253769,1.135212610192592,16.649908,-2.2935343,-0.27071598,0.41894838,10.976859,-9.517941,1.7177701,0.23352578,-0.4464826,0.30465925,0.8082707,-7.7550507,4.872194,0.11512725,-2.2248783,-0.22490318,2.4091203,0
0.8700000000000006,15.786321175745046,-1.1403579065386271,-1.60990996253769,1.135212610192592,16.649908,-2.2935343,-0.27071598,0.41894838,10.8988495,-9.468669,1.7187604,0.21962479,-0.443943,0.30089894,0.8149473,-7.847268,4.981929,0.0831644,-2.055427,-0.44054446,2.3466094,0
0.8800000000000006,15.091813253522714,0.20291135670683316,-3.074765784315523,0.27075013452566166,16.345228,-2.3195534,-0.54436636,-0.039455805,10.819908,-9.418312,1.7194386,0.20656213,-0.44040495,0.29734513,0.8215602,-7.9412155,5.0892425,0.052722853,-1.9124681,-0.6226137,2.2871659,0
0.8900000000000006,15.091813253522714,0.20291135670683316,-3.074765784315523,0.27075013452566166,16.345228,-2.3195534,-0.54436636,-0.039455805,10.740027,-9.366901,1.7198154,0.19463184,-0.4355852,0.29417148,0.82815874,-8.034592,5.192189,0.022656854,-1.6215156,-0.96509826,2.1917725,0
0.9000000000000006,15.091813253522714,0.20291135670683316,-3.074765784315523,0.27075013452566166,16.345228,-2.3195534,-0.54436636,-0.039455805,10.65922,-9.314483,1.7198935,0.18416691,-0.4291527,0.29159006,0.83479667,-8.126706,5.2909904,-0.0068790168,-1.3422471,-1.2879843,2.0980294,0
0.9100000000000006,15.091813253522714,0.20291135670683316,-3.074765784315523,0.27075013452566166,16.345228,-2.3195534,-0.54436636,-0.039455805,10.577494,-9.261087,1.7196851,0.1750508,-0.42126828,0.28956753,0.8414515,-8.218585,5.387727,-0.03443887,-1.100991,-1.5662374,2.0083642,0
0.9200000000000006,14.552053028511992,1.1265382577105267,-4.12654571969101,-0.449824872329593,15.087991,-1.6236353,-1.4770322,-0.61608076,10.494849,-9.206733,1.7192131,0.16710716,-0.41215774,0.28801385,0.8480855,-8.310045,5.4830294,-0.05954674,-0.89744025,-1.8011751,1.923099,0
0.9300000000000006,14.552053028511992,1.1265382577105267,-4.12654571969101,-0.449824872329593,15.087991,-1.6236353,-1.4770322,-0.61608076,10.411283,-9.151419,1.718514,0.16032733,-0.40187946,0.2868845,0.85468435,-8.402954,5.5795555,-0.08008891,-0.6779371,-2.0671668,1.815297,0
0.9400000000000006,14.552053028511992,1.1265382577105267,-4.12654571969101,-0.449824872329593,15.087991,-1.6236353,-1.4770322,-0.61608076,10.326801,-9.095154,1.7176152,0.15478645,-0.39037892,0.28620902,0.8612374,-8.492572,5.673123,-0.09943531,-0.45952973,-2.324889,1.7098185,0
0.9500000000000006,14.552053028511992,1.1265382577105267,-4.12654571969101,-0.449824872329593,15.087991,-1.6236353,-1.4770322,-0.61608076,10.241444,-9.037966,1.7165294,0.15044977,-0.37768266,0.28600925,0.86770934,-8.578508,5.7640495,-0.1175366,-0.24274257,-2.5749316,1.6066121,0
0.9600000000000006,14.416212458015664,1.5487709438525568,-4.712805256378117,-1.0655669512304775,15.303132,-1.1652517,-2.40831,-0.9548614,10.155245,-8.97988,1.7152693,0.14727771,-0.3638177,0.28629792,0.87405926,-8.660629,5.852881,-0.13414961,-0.03252308,-2.813297,1.5060167,0
0.9700000000000006,14.416212458015664,1.5487709438525568,-4.712805256378117,-1.0655669512304775,15.303132,-1.1652517,-2.40831,-0.9548614,10.068218,-8.920884,1.7138803,0.14518118,-0.34893492,0.28693447,0.8802475,-8.744111,5.946025,-0.14342508,0.11801493,-3.0133543,1.3884368,0
0.9800000000000006,14.416212458015664,1.5487709438525568,-4.712805256378117,-1.0655669512304775,15.303132,-1.1652517,-2.40831,-0.9548614,9.98038,-8.860967,1.7124057,0.14410858,-0.3331344,0.2878207,0.8862356,-8.822789,6.0373306,-0.15124112,0.27439857,-3.2115784,1.274003,0
0.9900000000000007,14.416212458015664,1.5487709438525568,-4.712805256378117,-1.0655669512304775,15.303132,-1.1652517,-2.40831,-0.9548614,9.891781,-8.800144,1.7108599,0.14404128,-0.31640762,0.2889937,0.8919759,-8.896386,6.1269493,-0.15769954,0.4354166,-3.407955,1.162588,0
1.0000000000000007,14.274660039340903,1.4955187107813224,-4.641888752088387,-1.488980331455198,15.189239,-0.5152513,-2.2872014,-1.2272327,9.802471,-8.738434,1.7092559,0.14495677,-0.29874697,0.290483,0.89741707,-8.964652,6.215036,-0.16290744,0.5996484,-3.6020744,1.0541043,0
1.0100000000000007,14.274660039340903,1.4955187107813224,-4.641888752088387,-1.488980331455198,15.189239,-0.5152513,-2.2872014,-1.2272327,9.712498,-8.675837,1.707619,0.14676313,-0.28034234,0.29217318,0.9024985,-9.029156,6.304198,-0.16431035,0.7003326,-3.7254012,0.9328049,0
1.0200000000000007,14.274660039340903,1.4955187107813224,-4.641888752088387,-1.488980331455198,15.189239,-0.5152513,-2.2872014,-1.2272327,9.621908,-8.612353,1.7059739,0.14938447,-0.2613582,0.29396757,0.907171,-9.087917,6.3921494,-0.16455276,0.8102765,-3.8544729,0.81522584,0
1.0300000000000007,14.274660039340903,1.4955187107813224,-4.641888752088387,-1.488980331455198,15.189239,-0.5152513,-2.2872014,-1.2272327,9.530759,-8.547996,1.7043334,0.15280147,-0.24177526,0.29589707,0.91139525,-9.141162,6.4795284,-0.16313365,0.9169122,-3.9772801,0.70215774,0
1.0400000000000007,14.274660039340903,1.4955187107813224,-4.641888752088387,-1.488980331455198,14.655411,-0.48662546,-2.2734265,-1.3029617,9.439103,-8.482762,1.7027196,0.1569414,-0.2216622,0.297927,0.91513646,-9.189145,6.5671573,-0.15928894,1.0069073,-4.0809546,0.59463793,0
1.0500000000000007,14.274660039340903,1.4955187107813224,-4.641888752088387,-1.488980331455198,14.655411,-0.48662546,-2.2734265,-1.3029617,9.346995,-8.416652,1.7011553,0.16172443,-0.2011043,0.3000104,0.91836596,-9.231593,6.6549983,-0.1531976,1.0828624,-4.168474,0.49239427,0
1.0600000000000007,14.274660039340903,1.4955187107813224,-4.641888752088387,-1.488980331455198,14.655411,-0.48662546,-2.2734265,-1.3029617,9.254491,-8.349663,1.6996626,0.16708055,-0.18017547,0.30210835,0.92105997,-9.268269,6.7429843,-0.14505747,1.1469709,-4.242355,0.39516765,0
1.0700000000000007,14.274660039340903,1.4955187107813224,-4.641888752088387,-1.488980331455198,14.655411,-0.48662546,-2.2734265,-1.3029617,9.161651,-8.281793,1.6982604,0.17294793,-0.15894005,0.30418864,0.92319894,-9.298964,6.8310237,-0.135082,1.2010834,-4.3047204,0.30271196,0
1.0800000000000007,13.620308592890787,1.0129784523182592,-4.047683981693004,-1.690077916406377,14.384079,-0.6972095,-2.0890532,-1.1188991,9.068533,-8.213042,1.6969664,0.1792717,-0.13745427,0.30622482,0.92476714,-9.323501,6.919004,-0.12349718,1.2467612,-4.357364,0.21479313,0
1.0900000000000007,13.620308592890787,1.0129784523182592,-4.047683981693004,-1.690077916406377,14.384079,-0.6972095,-2.0890532,-1.1188991,8.975206,-8.143434,1.6957698,0.18592842,-0.11603074,0.30805787,0.9257796,-9.340915,7.002764,-0.11562863,1.2100334,-4.3091483,0.12132055,0
1.1000000000000008,13.620308592890787,1.0129784523182592,-4.047683981693004,-1.690077916406377,14.384079,-0.6972095,-2.0890532,-1.1188991,8.881735,-8.0729885,1.6946576,0.19282585,-0.09492605,0.30956832,0.9262692,-9.352332,7.086168,-0.10666834,1.1790521,-4.2684445,0.03243471,0
1.1100000000000008,13.620308592890787,1.0129784523182592,-4.047683981693004,-1.690077916406377,14.384079,-0.6972095,-2.0890532,-1.1188991,8.788179,-8.001712,1.6936395,0.19995862,-0.07410981,0.31078985,0.9262472,-9.3578,7.169037,-0.096827365,1.1529189,-4.2340813,-0.052089494,0
1.1200000000000008,12.750598646802834,0.2571297446901379,-3.1619377425413813,-1.7314614834832367,14.322107,-1.2865613,-1.8871293,-0.8080382,8.694599,-7.9296103,1.6927234,0.20731872,-0.053556334,0.31175134,0.92572224,-9.357365,7.251199,-0.08630991,1.130876,-4.2050714,-0.13246605,0
1.1300000000000008,12.750598646802834,0.2571297446901379,-3.1619377425413813,-1.7314614834832367,14.322107,-1.2865613,-1.8871293,-0.8080382,8.601049,-7.8567176,1.6918802,0.21477738,-0.03363748,0.31227374,0.92478335,-9.351505,7.327288,-0.082274936,0.9944223,-4.0424347,-0.21092921,0
1.1400000000000008,12.750598646802834,0.2571297446901379,-3.1619377425413813,-1.7314614834832367,14.322107,-1.2865613,-1.8871293,-0.8080382,8.507586,-7.783068,1.691079,0.22224139,-0.014649818,0.31222743,0.92353016,-9.340412,7.402366,-0.07792582,0.8792705,-3.905149,-0.28554216,0
1.1500000000000008,12.750598646802834,0.2571297446901379,-3.1619377425413813,-1.7314614834832367,14.322107,-1.2865613,-1.8871293,-0.8080382,8.414258,-7.708674,1.6903224,0.2297466,0.003529454,0.3117009,0.9219796,-9.324333,7.4762597,-0.07337606,0.78209406,-3.789264,-0.35649386,0
1.1600000000000008,12.044260019090151,-0.7530999804784009,-1.9408387897688364,-1.5464598419666062,13.523787,-2.3789144,-0.9214382,-0.78568846,8.3211155,-7.6335473,1.6896118,0.23731919,0.021005567,0.31076807,0.92014205,-9.303484,7.5488133,-0.0687278,0.7000862,-3.6914449,-0.4239639,0
1.1700000000000008,12.044260019090151,-0.7530999804784009,-1.9408387897688364,-1.5464598419666062,13.523787,-2.3789144,-0.9214382,-0.78568846,8.228198,-7.5577226,1.6889194,0.24481711,0.037329488,0.3092376,0.91817373,-9.2795,7.615947,-0.069756806,0.47341457,-3.4183939,-0.4790451,0
1.1800000000000008,12.044260019090151,-0.7530999804784009,-1.9408387897688364,-1.5464598419666062,13.523787,-2.3789144,-0.9214382,-0.78568846,8.13554,-7.481234,1.6882167,0.25213706,0.05215084,0.30697277,0.91622853,-9.251605,7.6815457,-0.07078059,0.28210294,-3.1879206,-0.53142345,0
1.1900000000000008,12.044260019090151,-0.7530999804784009,-1.9408387897688364,-1.5464598419666062,13.523787,-2.3789144,-0.9214382,-0.78568846,8.043178,-7.4040976,1.6875038,0.25934455,0.06568707,0.30410087,0.91430193,-9.220183,7.7454944,-0.07177964,0.12063335,-2.9933875,-0.5812316,0
1.2000000000000008,11.742677041504098,-1.690702005436619,-0.47651980501289903,-1.1651710656721366,13.164585,-3.0583792,0.10430394,-0.5722171,7.9511466,-7.3263297,1.6867812,0.26648983,0.078123525,0.3007267,0.9123832,-9.185568,7.8076997,-0.072731756,-0.015650362,-2.8291914,-0.62859565,0
1.2100000000000009,11.742677041504098,-1.690702005436619,-0.47651980501289903,-1.1651710656721366,13.164585,-3.0583792,0.10430394,-0.5722171,7.8594713,-7.2479568,1.6860372,0.27342492,0.088997446,0.29674974,0.9106358,-9.149017,7.866576,-0.07603808,-0.27676624,-2.4621823,-0.6549255,0
1.2200000000000009,11.742677041504098,-1.690702005436619,-0.47651980501289903,-1.1651710656721366,13.164585,-3.0583792,0.10430394,-0.5722171,7.768174,-7.169004,1.685261,0.28003702,0.09795306,0.2921024,0.90920866,-9.110128,7.9236445,-0.079168096,-0.49717218,-2.1524174,-0.6799634,0
1.2300000000000009,11.742677041504098,-1.690702005436619,-0.47651980501289903,-1.1651710656721366,13.164585,-3.0583792,0.10430394,-0.5722171,7.677275,-7.08949,1.6844549,0.2864051,0.10528063,0.28690454,0.9080604,-9.069364,7.978891,-0.08200734,-0.68321633,-1.8909694,-0.70377266,0
1.2400000000000009,11.742677041504098,-1.690702005436619,-0.47651980501289903,-1.1651710656721366,13.425358,-3.5083456,1.0635893,-0.1295779,7.586792,-7.009433,1.6836222,0.29259065,0.11122589,0.2812532,0.9071471,-9.02711,8.0323105,-0.08445296,-0.840257,-1.6703026,-0.7264136,0
1.2500000000000009,11.742677041504098,-1.690702005436619,-0.47651980501289903,-1.1651710656721366,13.425358,-3.5083456,1.0635893,-0.1295779,7.4967375,-6.9288497,1.6827674,0.29864132,0.11599685,0.2752272,0.90642583,-8.983701,8.083904,-0.08641529,-0.97281635,-1.4840567,-0.7479436,0
1.260000000000001,11.742677041504098,-1.690702005436619,-0.47651980501289903,-1.1651710656721366,13.425358,-3.5083456,1.0635893,-0.1295779,7.407121,-6.84776,1.6818956,0.30459413,0.11976961,0.26889068,0.905856,-8.939418,8.133677,-0.0878182,-1.0847114,-1.3268628,-0.76841706,0
1.270000000000001,11.742677041504098,-1.690702005436619,-0.47651980501289903,-1.1651710656721366,13.425358,-3.5083456,1.0635893,-0.1295779,7.3179517,-6.7661824,1.6810131,0.3104775,0.12269326,0.26229623,0.90540075,-8.894499,8.181634,-0.08859858,-1.1791642,-1.1941901,-0.78788584,0
1.280000000000001,12.042051354659161,-2.407548693244551,0.8524786936233872,-0.5792481643323614,14.5575695,-3.7549148,0.8347411,1.2707511,7.2292333,-6.684134,1.6801261,0.31631318,0.1248941,0.25548682,0.90502685,-8.8491535,8.227785,-0.08870549,-1.2588937,-1.0822136,-0.8063993,0
1.290000000000001,12.042051354659161,-2.407548693244551,0.8524786936233872,-0.5792481643323614,14.5575695,-3.7549148,0.8347411,1.2707511,7.1409755,-6.6016273,1.679254,0.3219536,0.12592499,0.2483988,0.90486825,-8.802429,8.273275,-0.0855723,-1.4378616,-0.7804158,-0.79525286,0
1.300000000000001,12.042051354659161,-2.407548693244551,0.8524786936233872,-0.5792481643323614,14.5575695,-3.7549148,0.8347411,1.2707511,7.053185,-6.5186744,1.6784174,0.3272765,0.12543787,0.24098496,0.90503114,-8.755836,8.31699,-0.081599735,-1.5889482,-0.52569944,-0.7846534,0
1.310000000000001,12.042051354659161,-2.407548693244551,0.8524786936233872,-0.5792481643323614,14.5575695,-3.7549148,0.8347411,1.2707511,6.965858,-6.4352927,1.6776253,0.33232915,0.12366476,0.23329823,0.905448,-8.709736,8.359001,-0.07669161,-1.7164966,-0.31071946,-0.7745741,0
1.320000000000001,12.441969238190326,-2.9798356089327713,1.8733833856816005,0.05136638124866467,14.578276,-3.9794338,1.6988122,2.228829,6.878988,-6.3514996,1.6768872,0.33714867,0.12080162,0.22538136,0.9060578,-8.664442,8.399372,-0.0707754,-1.8241732,-0.1292764,-0.7649894,0
1.330000000000001,12.441969238190326,-2.9798356089327713,1.8733833856816005,0.05136638124866467,14.578276,-3.9794338,1.6988122,2.228829,6.792573,-6.267304,1.6762308,0.3416295,0.116583474,0.21719052,0.90693194,-8.618776,8.439453,-0.06030295,-2.004247,0.18307494,-0.7249306,0
1.340000000000001,12.441969238190326,-2.9798356089327713,1.8733833856816005,0.05136638124866467,14.578276,-3.9794338,1.6988122,2.228829,6.7066073,-6.1827154,1.675685,0.3456783,0.110808566,0.20869136,0.9081165,-8.574641,8.477996,-0.04864788,-2.156276,0.4466961,-0.6868375,0
1.350000000000001,12.441969238190326,-2.9798356089327713,1.8733833856816005,0.05136638124866467,14.578276,-3.9794338,1.6988122,2.228829,6.6210732,-6.0977488,1.675262,0.34933662,0.103714935,0.19992778,0.909525,-8.532427,8.515096,-0.03574698,-2.2846253,0.6691907,-0.65061367,0
1.360000000000001,12.931024946546268,-3.29267411202852,2.4378209572866307,0.639512793567295,15.177002,-4.5477834,3.2437098,1.911559,6.53595,-6.0124183,1.6749743,0.35263756,0.09550393,0.19093585,0.9110812,-8.49247,8.550826,-0.021569634,-2.3929822,0.8569761,-0.61616725,0
1.370000000000001,12.931024946546268,-3.29267411202852,2.4378209572866307,0.639512793567295,15.177002,-4.5477834,3.2437098,1.911559,6.451222,-5.92673,1.6748573,0.35551006,0.08610947,0.18170437,0.91278744,-8.453606,8.58661,-0.0016474854,-2.5332334,1.1034628,-0.55455065,0
1.380000000000001,12.931024946546268,-3.29267411202852,2.4378209572866307,0.639512793567295,15.177002,-4.5477834,3.2437098,1.911559,6.3668675,-5.840691,1.6749461,0.35788712,0.07548846,0.17222503,0.91463464,-8.41776,8.621121,0.019601038,-2.6516418,1.311497,-0.49595764,0
1.390000000000001,12.931024946546268,-3.29267411202852,2.4378209572866307,0.639512793567295,15.177002,-4.5477834,3.2437098,1.911559,6.2828555,-5.754312,1.6752537,0.35979858,0.06382973,0.16252965,0.9165449,-8.385268,8.654431,0.042143952,-2.7516072,1.4870791,-0.44023976,0
1.400000000000001,13.153214072748714,-3.346357014603835,2.437233855813683,1.0880953319777629,15.091808,-4.446852,3.4375498,2.4039042,6.19915,-5.6676064,1.6757932,0.36126938,0.05129373,0.15264551,0.9184512,-8.356423,8.686594,0.06591819,-2.8360002,1.6352731,-0.387256,0
1.410000000000001,13.153214072748714,-3.346357014603835,2.437233855813683,1.0880953319777629,15.091808,-4.446852,3.4375498,2.4039042,6.1157165,-5.580581,1.6765865,0.36227068,0.03801786,0.14257383,0.920319,-8.331047,8.718182,0.092947856,-2.9156413,1.7602212,-0.31486008,0
1.420000000000001,13.153214072748714,-3.346357014603835,2.437233855813683,1.0880953319777629,15.091808,-4.446852,3.4375498,2.4039042,6.032515,-5.493246,1.6776557,0.36277315,0.024119701,0.13231811,0.92212015,-8.309857,8.748665,0.12102624,-2.9828727,1.865681,-0.24601665,0
1.430000000000001,13.153214072748714,-3.346357014603835,2.437233855813683,1.0880953319777629,15.091808,-4.446852,3.4375498,2.4039042,5.9495044,-5.4056115,1.6790102,0.36279657,0.009699077,0.12190397,0.9238094,-8.293049,8.778049,0.15002075,-3.039627,1.9546938,-0.18055141,0
1.440000000000001,13.153214072748714,-3.346357014603835,2.437233855813683,1.0880953319777629,15.464378,-4.127056,2.777565,2.801276,5.8666387,-5.3176885,1.6806587,0.36235905,-0.005158659,0.111354224,0.9253483,-8.280785,8.806335,0.17978126,-3.087535,2.0298262,-0.118298545,0
1.450000000000001,13.153214072748714,-3.346357014603835,2.437233855813683,1.0880953319777629,15.464378,-4.127056,2.777565,2.801276,5.783872,-5.229488,1.6826079,0.36147726,-0.020380393,0.10068932,0.92670405,-8.273199,8.833517,0.21014309,-3.127974,2.0932438,-0.059100464,0
1.460000000000001,13.153214072748714,-3.346357014603835,2.437233855813683,1.0880953319777629,15.464378,-4.127056,2.777565,2.801276,5.7011585,-5.1410217,1.684863,0.36016682,-0.035903342,0.08992772,0.92784894,-8.270404,8.859579,0.24092971,-3.1621075,2.1467743,-0.002807226,0
1.470000000000001,13.153214072748714,-3.346357014603835,2.437233855813683,1.0880953319777629,15.464378,-4.127056,2.777565,2.801276,5.618448,-5.052301,1.6874273,0.35844243,-0.051673442,0.079086155,0.92875946,-8.272489,8.8845,0.27195507,-3.1909175,2.19196,0.050723676,0
1.480000000000001,12.734809050907135,-3.1038431774450257,1.7442782257536111,1.3009897808860886,15.6099,-3.6629417,1.8378189,2.3423917,5.5356913,-4.963336,1.6903024,0.35631806,-0.06764403,0.068179876,0.9294155,-8.279521,8.908253,0.30302548,-3.2152333,2.2301025,0.10162781,0
1.490000000000001,12.734809050907135,-3.1038431774450257,1.7442782257536111,1.3009897808860886,15.6099,-3.6629417,1.8378189,2.3423917,5.4528413,-4.874143,1.6934668,0.3538086,-0.08348089,0.057216547,0.9298261,-8.291151,8.930085,0.32984024,-3.1979399,2.1542168,0.16048084,0
1.500000000000001,12.734809050907135,-3.1038431774450257,1.7442782257536111,1.3009897808860886,15.6099,-3.6629417,1.8378189,2.3423917,5.369852,-4.784738,1.696898,0.35092723,-0.098917544,0.04620627,0.9300162,-8.307531,8.950682,0.3563322,-3.183335,2.0901725,0.21644594,0
1.5100000000000011,12.734809050907135,-3.1038431774450257,1.7442782257536111,1.3009897808860886,15.6099,-3.6629417,1.8378189,2.3423917,5.286675,-4.695134,1.7005919,0.34768468,-0.11400806,0.03516522,0.9299896,-8.328561,8.969963,0.38233584,-3.1710014,2.0361223,0.26966482,0
1.5200000000000011,12.145812343533452,-2.6152640751190868,0.5936804315052524,1.334159957856214,15.524017,-3.1291413,0.9403112,1.9879153,5.203265,-4.605344,1.7045425,0.34409198,-0.12879783,0.024107475,0.92974746,-8.354145,8.987858,0.4076903,-3.1605859,1.9905068,0.32027224,0
1.5300000000000011,12.145812343533452,-2.6152640751190868,0.5936804315052524,1.334159957856214,15.524017,-3.1291413,0.9403112,1.9879153,5.1195836,-4.5153856,1.7087144,0.34019363,-0.14283034,0.013069969,0.9293528,-8.382776,9.003531,0.4265736,-3.0755558,1.7725903,0.370024,0
1.5400000000000011,12.145812343533452,-2.6152640751190868,0.5936804315052524,1.334159957856214,15.524017,-3.1291413,0.9403112,1.9879153,5.0355954,-4.425278,1.713071,0.33603036,-0.15574951,0.0020852599,0.92888165,-8.41539,9.017705,0.44460347,-3.0037785,1.5886644,0.4173344,0
1.5500000000000012,12.145812343533452,-2.6152640751190868,0.5936804315052524,1.334159957856214,15.524017,-3.1291413,0.9403112,1.9879153,4.9512625,-4.335037,1.7176033,0.33160746,-0.16772573,-0.008841887,0.928346,-8.451717,9.030272,0.4617129,-2.9431896,1.4334273,0.46232334,0
1.5600000000000012,11.084176030746631,-1.8389766687694273,-0.601411613706996,1.1725010358361636,13.504209,-2.2504902,-0.72969794,1.4144523,4.8665485,-4.244679,1.722302,0.3269307,-0.17890266,-0.019708013,0.9277508,-8.491524,9.041138,0.47784147,-2.892047,1.3024039,0.5051046,0
1.5700000000000012,11.084176030746631,-1.8389766687694273,-0.601411613706996,1.1725010358361636,13.504209,-2.2504902,-0.72969794,1.4144523,4.781439,-4.154225,1.7271072,0.322072,-0.18885727,-0.03038166,0.927189,-8.530814,9.049429,0.48304948,-2.7277458,1.0055004,0.53785396,0
1.5800000000000012,11.084176030746631,-1.8389766687694273,-0.601411613706996,1.1725010358361636,13.504209,-2.2504902,-0.72969794,1.4144523,4.695923,-4.063696,1.7319598,0.31709588,-0.19726557,-0.04075787,0.9267552,-8.572729,9.056019,0.48734486,-2.5890708,0.75489926,0.56899625,0
1.5900000000000012,11.084176030746631,-1.8389766687694273,-0.601411613706996,1.1725010358361636,13.504209,-2.2504902,-0.72969794,1.4144523,4.609977,-3.9731104,1.736851,0.31199756,-0.20437181,-0.05087094,0.9264457,-8.616932,9.060839,0.4907741,-2.4720263,0.54337883,0.5986104,0
1.6000000000000012,10.338128003882684,-0.9478754884617676,-1.4256320951324781,0.9257615821100313,12.584818,-1.0749186,-1.6693356,0.7373645,4.523578,-3.8824854,1.7417724,0.30677325,-0.21038131,-0.060750835,0.92625,-8.663132,9.063834,0.49338105,-2.37324,0.3648441,0.62677145,0
1.6100000000000012,10.338128003882684,-0.9478754884617676,-1.4256320951324781,0.9257615821100313,12.584818,-1.0749186,-1.6693356,0.7373645,4.4367247,-3.7918406,1.7466823,0.301504,-0.21505113,-0.070200495,0.9262397,-8.707836,9.064888,0.48848873,-2.1508427,0.08569022,0.641443,0
1.6200000000000012,10.338128003882684,-0.9478754884617676,-1.4256320951324781,0.9257615821100313,12.584818,-1.0749186,-1.6693356,0.7373645,4.349417,-3.7011936,1.75154,0.29626015,-0.21820071,-0.07906574,0.9264809,-8.753827,9.064196,0.48297232,-1.963141,-0.14993933,0.6553947,0
1.6300000000000012,10.338128003882684,-0.9478754884617676,-1.4256320951324781,0.9257615821100313,12.584818,-1.0749186,-1.6693356,0.7373645,4.2616444,-3.6105623,1.7563398,0.2910241,-0.220072,-0.08742899,0.9269463,-8.800789,9.061765,0.476938,-1.804723,-0.348831,0.6686616,0
1.6400000000000012,10.338128003882684,-0.9478754884617676,-1.4256320951324781,0.9257615821100313,11.958885,-0.6352633,-2.4121141,0.40974507,4.1733985,-3.5199642,1.7610772,0.28578064,-0.22086757,-0.095360585,0.9276062,-8.848454,9.057603,0.47047916,-1.671021,-0.516713,0.6812776,0
1.6500000000000012,10.338128003882684,-0.9478754884617676,-1.4256320951324781,0.9257615821100313,11.958885,-0.6352633,-2.4121141,0.40974507,4.0846734,-3.4294162,1.7657481,0.28051716,-0.22075735,-0.10292054,0.9284308,-8.896597,9.051721,0.46367615,-1.5581789,-0.6584207,0.69327444,0
1.6600000000000013,10.338128003882684,-0.9478754884617676,-1.4256320951324781,0.9257615821100313,11.958885,-0.6352633,-2.4121141,0.40974507,3.9954658,-3.3389359,1.7703497,0.27522352,-0.2198838,-0.11016003,0.92939126,-8.945022,9.044127,0.45659688,-1.462943,-0.7780348,0.70468265,0
1.6700000000000013,10.338128003882684,-0.9478754884617676,-1.4256320951324781,0.9257615821100313,11.958885,-0.6352633,-2.4121141,0.40974507,3.905773,-3.2485397,1.7748795,0.26989165,-0.21836656,-0.11712276,0.9304607,-8.993565,9.034837,0.44929767,-1.3825659,-0.87900025,0.7155311,0
1.6800000000000013,9.855074566927586,-0.20169278188849799,-2.0015052083087213,0.6211721508103298,11.972618,-0.22407976,-3.3815322,0.21525702,3.8155947,-3.1582448,1.7793351,0.2645154,-0.21630608,-0.12384601,0.9316146,-9.04208,9.023859,0.4418244,-1.3147299,-0.9642244,0.7258471,0
1.6900000000000013,9.855074566927586,-0.20169278188849799,-2.0015052083087213,0.6211721508103298,11.972618,-0.22407976,-3.3815322,0.21525702,3.7249432,-3.0680654,1.7836944,0.25916085,-0.21348907,-0.1301519,0.9329088,-9.088171,9.011805,0.42999357,-1.1410797,-1.1259019,0.72071064,0
1.7000000000000013,9.855074566927586,-0.20169278188849799,-2.0015052083087213,0.6211721508103298,11.972618,-0.22407976,-3.3815322,0.21525702,3.6338322,-2.978014,1.7879349,0.25388354,-0.20975135,-0.13590081,0.93438685,-9.133913,8.998209,0.4181198,-0.9945228,-1.2623798,0.7158262,0
1.7100000000000013,9.855074566927586,-0.20169278188849799,-2.0015052083087213,0.6211721508103298,11.972618,-0.22407976,-3.3815322,0.21525702,3.5422666,-2.8881063,1.7920568,0.248665,-0.2052363,-0.1411738,0.9360096,-9.179113,8.983127,0.40628415,-0.8708319,-1.3775858,0.7111816,0
1.7200000000000013,9.697055963393959,0.5056543600335546,-2.3818003213990777,0.24864572153309766,11.385609,0.38480276,-3.0968442,-0.09969607,3.4502523,-2.7983565,1.7960609,0.24349007,-0.20006426,-0.14603962,0.93774176,-9.223609,8.96661,0.3945521,-0.7664393,-1.4748353,0.7067649,0
1.7300000000000013,9.697055963393959,0.5056543600335546,-2.3818003213990777,0.24864572153309766,11.385609,0.38480276,-3.0968442,-0.09969607,3.357801,-2.7087774,1.7999414,0.23842324,-0.19411834,-0.15033685,0.9396125,-9.266547,8.948999,0.3815942,-0.5680156,-1.6161762,0.6842848,0
1.7400000000000013,9.697055963393959,0.5056543600335546,-2.3818003213990777,0.24864572153309766,11.385609,0.38480276,-3.0968442,-0.09969607,3.264925,-2.619381,1.8036935,0.23351873,-0.18731077,-0.15394013,0.9416403,-9.308456,8.930119,0.36887673,-0.40054828,-1.7354946,0.6629079,0
1.7500000000000013,9.697055963393959,0.5056543600335546,-2.3818003213990777,0.24864572153309766,11.385609,0.38480276,-3.0968442,-0.09969607,3.171636,-2.530179,1.8073201,0.22875127,-0.17977345,-0.156952,0.94378006,-9.349156,8.910061,0.35647568,-0.25920725,-1.8362212,0.6425799,0
1.7600000000000013,9.912315962707197,1.092820963167095,-2.3408379319698462,-0.1854902354751475,11.592201,0.40876767,-3.1565733,-0.19486704,3.077947,-2.4411833,1.8108244,0.22409965,-0.1716172,-0.15945907,0.9459915,-9.38849,8.888912,0.3444485,-0.13991614,-1.9212523,0.6232494,0
1.7700000000000014,9.912315962707197,1.092820963167095,-2.3408379319698462,-0.1854902354751475,11.592201,0.40876767,-3.1565733,-0.19486704,2.9838674,-2.3524065,1.8142201,0.21963938,-0.16289005,-0.16131772,0.94826275,-9.427161,8.866262,0.3347601,0.05230367,-1.9866095,0.58356434,0
1.7800000000000014,9.912315962707197,1.092820963167095,-2.3408379319698462,-0.1854902354751475,11.592201,0.40876767,-3.1565733,-0.19486704,2.8894098,-2.263861,1.8175213,0.21543476,-0.1536348,-0.16241832,0.9505814,-9.464158,8.842715,0.32555217,0.21454254,-2.0417945,0.54582655,0
1.7900000000000014,9.912315962707197,1.092820963167095,-2.3408379319698462,-0.1854902354751475,11.592201,0.40876767,-3.1565733,-0.19486704,2.7945907,-2.1755548,1.820733,0.21145436,-0.14393018,-0.16287427,0.9529132,-9.499353,8.8184,0.31686798,0.3514772,-2.0883894,0.5099406,0
1.8000000000000014,10.202935570336363,1.5357288711656338,-1.7030776503803162,-0.5369862997276572,11.124198,0.5873069,-2.7757678,-0.55654866,2.6994293,-2.087495,1.8238604,0.20767155,-0.1338425,-0.16278128,0.95522845,-9.5326395,8.793439,0.30873483,0.46705496,-2.1277304,0.47581565,0
1.8100000000000014,10.202935570336363,1.5357288711656338,-1.7030776503803162,-0.5369862997276572,11.124198,0.5873069,-2.7757678,-0.55654866,2.6039405,-1.9996916,1.8269228,0.20417023,-0.12362835,-0.16200407,0.95748925,-9.564846,8.767199,0.30382144,0.63362646,-2.0614746,0.42611718,0
1.8200000000000014,10.202935570336363,1.5357288711656338,-1.7030776503803162,-0.5369862997276572,11.124198,0.5873069,-2.7757678,-0.55654866,2.5081398,-1.9121525,1.829939,0.20102055,-0.1134952,-0.16044141,0.959671,-9.594964,8.740585,0.2994987,0.7742313,-2.0055676,0.3788574,0
1.8300000000000014,10.202935570336363,1.5357288711656338,-1.7030776503803162,-0.5369862997276572,11.124198,0.5873069,-2.7757678,-0.55654866,2.4120483,-1.8248807,1.832915,0.19818291,-0.10342821,-0.15821344,0.9617666,-9.622981,8.713772,0.2957687,0.8929173,-1.9583911,0.3339167,0
1.8400000000000014,10.202935570336363,1.5357288711656338,-1.7030776503803162,-0.5369862997276572,11.501596,0.5766295,-2.352539,-0.5977544,2.3156874,-1.7378772,1.8358564,0.19562347,-0.093414694,-0.15542132,0.96376854,-9.648884,8.686907,0.29262608,0.9931011,-1.918581,0.29118124,0
1.8500000000000014,10.202935570336363,1.5357288711656338,-1.7030776503803162,-0.5369862997276572,11.501596,0.5766295,-2.352539,-0.5977544,2.219078,-1.6511422,1.8387694,0.19331327,-0.08344396,-0.15215026,0.96566963,-9.672661,8.660117,0.2900589,1.0776672,-1.8849857,0.2505428,0
1.8600000000000014,10.202935570336363,1.5357288711656338,-1.7030776503803162,-0.5369862997276572,11.501596,0.5766295,-2.352539,-0.5977544,2.1222413,-1.5646743,1.8416595,0.19122742,-0.073507085,-0.14847209,0.9674633,-9.694304,8.6335125,0.2880493,1.1490502,-1.8566343,0.21189852,0
1.8700000000000014,10.202935570336363,1.5357288711656338,-1.7030776503803162,-0.5369862997276572,11.501596,0.5766295,-2.352539,-0.5977544,2.0251992,-1.478471,1.8445321,0.18934448,-0.06359672,-0.14444731,0.96914375,-9.713805,8.607188,0.28657416,1.2093052,-1.8327079,0.17515051,0
1.8800000000000014,10.311262802976644,1.6100933794986638,-1.1883969785509763,-0.8007257355733073,11.605801,0.40242448,-1.9532704,-0.39863148,1.9279727,-1.3925292,1.8473927,0.18764584,-0.053706903,-0.14012699,0.97070575,-9.731156,8.581227,0.28560585,1.2601672,-1.8125149,0.14020576,0
1.8900000000000015,10.311262802976644,1.6100933794986638,-1.1883969785509763,-0.8007257355733073,11.605801,0.40242448,-1.9532704,-0.39863148,1.8305826,-1.3068464,1.8502512,0.18617724,-0.044022862,-0.13548855,0.97213346,-9.74652,8.555434,0.286149,1.3146774,-1.7152185,0.094033964,0
1.9000000000000015,10.311262802976644,1.6100933794986638,-1.1883969785509763,-0.8007257355733073,11.605801,0.40242448,-1.9532704,-0.39863148,1.7330496,-1.2214187,1.8531173,0.1849775,-0.034691498,-0.1305171,0.97341955,-9.759761,8.530179,0.287138,1.3606952,-1.633097,0.050127838,0
1.9100000000000015,10.311262802976644,1.6100933794986638,-1.1883969785509763,-0.8007257355733073,11.605801,0.40242448,-1.9532704,-0.39863148,1.6353946,-1.1362406,1.8559954,0.184022,-0.025656767,-0.1252624,0.9745704,-9.770938,8.50555,0.28853822,1.3995438,-1.563783,0.008376218,0
1.9200000000000015,10.054865152882353,1.3665017929668144,-0.8291455958148622,-0.9409064417705447,11.219828,0.40613255,-1.6699421,-0.410058,1.537638,-1.0513053,1.8588893,0.18328924,-0.01687151,-0.11976629,0.9755906,-9.7801,8.481623,0.29031506,1.4323394,-1.5052787,-0.031326648,0
1.9300000000000015,10.054865152882353,1.3665017929668144,-0.8291455958148622,-0.9409064417705447,11.219828,0.40613255,-1.6699421,-0.410058,1.4398004,-0.96660256,1.8617904,0.18279313,-0.00845222,-0.11413322,0.9764678,-9.787116,8.459035,0.28994057,1.4220333,-1.3998773,-0.075959995,0
1.9400000000000015,10.054865152882353,1.3665017929668144,-0.8291455958148622,-0.9409064417705447,11.219828,0.40613255,-1.6699421,-0.410058,1.3419018,-0.8821218,1.8646892,0.18254629,-0.00048929045,-0.10844824,0.9771981,-9.792297,8.437234,0.289859,1.4133412,-1.3109107,-0.11840317,0
1.9500000000000015,10.054865152882353,1.3665017929668144,-0.8291455958148622,-0.9409064417705447,11.219828,0.40613255,-1.6699421,-0.410058,1.2439604,-0.797855,1.8675886,0.18252906,0.007088961,-0.10271759,0.9777947,-9.7957325,8.416252,0.29003257,1.4060098,-1.2358161,-0.15876365,0
1.9600000000000015,9.629154845229612,0.9740872630930271,-0.4877200094631094,-0.9691386024356414,10.741664,-0.02963712,-1.6267037,-0.2815,1.145993,-0.7137939,1.8704907,0.18272392,0.014342918,-0.0969464,0.9782679,-9.797491,8.396114,0.29042694,1.3998257,-1.1724305,-0.19714363,0
1.9700000000000015,9.629154845229612,0.9740872630930271,-0.4877200094631094,-0.9691386024356414,10.741664,-0.02963712,-1.6267037,-0.2815,1.0480162,-0.6299257,1.8733768,0.1831344,0.021161348,-0.0912676,0.97861356,-9.797636,8.377655,0.28683123,1.3334193,-1.0656748,-0.23502564,0
1.9800000000000015,9.629154845229612,0.9740872630930271,-0.4877200094631094,-0.9691386024356414,10.741664,-0.02963712,-1.6267037,-0.2815,0.9500452,-0.54623806,1.8762279,0.18376333,0.027458597,-0.08578709,0.978835,-9.796344,8.36001,0.28338253,1.2773724,-0.9755646,-0.27104878,0
1.9900000000000015,9.629154845229612,0.9740872630930271,-0.4877200094631094,-0.9691386024356414,10.741664,-0.02963712,-1.6267037,-0.2815,0.85209394,-0.4627228,1.879045,0.18459462,0.033316016,-0.08047223,0.9789481,-9.793716,8.3431635,0.28005156,1.2300684,-0.8995046,-0.30530426,0
2.0000000000000013,,,,,10.264296,-0.16477826,-1.2067921,-0.5829053,0.75417525,-0.3793721,1.8818293,0.18561366,0.038802218,-0.07529536,0.9789652,-9.789839,8.327098,0.2768135,1.1901432,-0.83530426,-0.3378788,0
2.010000000000001,,,,,10.264296,-0.16477826,-1.2067921,-0.5829053,0.65630007,-0.29617453,1.8845592,0.18682045,0.043729063,-0.070342645,0.97889644,-9.785031,8.31252,0.26917166,1.0966427,-0.694824,-0.36499104,0
2.020000000000001,,,,,10.264296,-0.16477826,-1.2067921,-0.5829053,0.55847806,-0.21311925,1.8872129,0.1882124,0.047950346,-0.065681234,0.97875595,-9.779241,8.298643,0.26158255,1.0177236,-0.576251,-0.39077288,0
2.0300000000000007,,,,,10.264296,-0.16477826,-1.2067921,-0.5829053,0.46071827,-0.13019939,1.8897909,0.18977347,0.051575925,-0.061263956,0.9785567,-9.772594,8.285438,0.2540353,0.95111114,-0.4761693,-0.41528958,0
2.0400000000000005,,,,,10.264296,-0.16477826,-1.2067921,-0.5829053,0.36302876,-0.047408298,1.8922937,0.19148935,0.054698538,-0.057051003,0.9783075,-9.765201,8.272879,0.24652225,0.89488596,-0.3916954,-0.43860328,0
2.0500000000000003,,,,,10.166237,-0.44767287,-1.0017271,-0.6211306,0.26541653,0.035260342,1.8947215,0.19334726,0.057396416,-0.053008825,0.9780148,-9.7571535,8.260945,0.23903799,0.847428,-0.32039535,-0.460773,1
2.06,,,,,10.166237,-0.44767287,-1.0017271,-0.6211306,0.16789235,0.11780647,1.8971235,0.19530551,0.060070828,-0.04960036,0.9776438,-9.747585,8.248372,0.24136487,0.6454237,-0.42659158,-0.4686418,1
2.07,,,,,10.166237,-0.44767287,-1.0017271,-0.6211306,0.070467085,0.2002294,1.8995486,0.19732869,0.06304206,-0.047192343,0.9771695,-9.737368,8.23627,0.24368554,0.47492597,-0.51623404,-0.47612444,1
2.0799999999999996,,,,,10.166237,-0.44767287,-1.0017271,-0.6211306,-0.026852697,0.28253278,1.9019969,0.19941382,0.0662621,-0.045628864,0.9766072,-9.726483,8.224437,0.24596833,0.3310211,-0.5919034,-0.48323995,1
2.0899999999999994,,,,,9.812582,-0.66409767,-1.2085917,-0.45143667,-0.12406024,0.36471844,1.9044677,0.20155725,0.06969055,-0.04477813,0.97596776,-9.714919,8.212703,0.24818666,0.20956133,-0.65577805,-0.4900063,1
2.099999999999999,,,,,9.812582,-0.66409767,-1.2085917,-0.45143667,-0.22115082,0.4467887,1.9069427,0.20373695,0.07335571,-0.04463152,0.97525305,-9.703089,8.201329,0.24683024,0.07328801,-0.74194556,-0.4881137,1
2.109999999999999,,,,,9.812582,-0.66409767,-1.2085917,-0.45143667,-0.31811965,0.5287444,1.9094038,0.2059318,0.0772779,-0.04517674,0.9744637,-9.690573,8.189757,0.24536386,-0.041729145,-0.8146823,-0.48631397,1
2.1199999999999988,,,,,9.812582,-0.66409767,-1.2085917,-0.45143667,-0.41495985,0.61058277,1.9118495,0.20813915,0.08141507,-0.046306044,0.97360444,-9.677354,8.177848,0.243763,-0.13880573,-0.87608176,-0.4846025,1
2.1299999999999986,,,,,9.659228,-0.7234098,-0.98515284,-0.3076286,-0.5116643,0.69229984,1.9142785,0.2103563,0.08573186,-0.047928363,0.97267836,-9.66342,8.165488,0.24200451,-0.22074012,-0.9279108,-0.48297504,1
2.1399999999999983,,,,,9.659228,-0.7234098,-0.98515284,-0.3076286,-0.6082269,0.7738916,1.9166815,0.21256971,0.09010566,-0.04997245,0.9716985,-9.6489935,8.152782,0.23856406,-0.2991287,-0.93681455,-0.47437075,1
2.149999999999998,,,,,9.659228,-0.7234098,-0.98515284,-0.3076286,-0.70464176,0.85535336,1.9190493,0.21476644,0.09443787,-0.052377902,0.97067684,-9.633877,8.13946,0.23493081,-0.36529246,-0.94433445,-0.46618864,1
2.159999999999998,,,,,9.659228,-0.7234098,-0.98515284,-0.3076286,-0.8009021,0.9366785,1.9213796,0.21694466,0.09873329,-0.055088345,0.96961445,-9.618094,8.125454,0.23109008,-0.4211378,-0.9506852,-0.45840803,1
2.1699999999999977,,,,,10.0526905,-0.94053066,-0.641273,-0.12048653,-0.89700145,1.0178599,1.9236704,0.21910281,0.10299606,-0.058056172,0.96851194,-9.601671,8.110713,0.22702736,-0.46827388,-0.95604867,-0.45100924,1
2.1799999999999975,,,,,10.0526905,-0.94053066,-0.641273,-0.12048653,-0.99293,1.0988868,1.9259385,0.22123444,0.107076034,-0.061297428,0.9673845,-9.583941,8.094559,0.22655031,-0.54189795,-0.9069436,-0.43479043,1
2.1899999999999973,,,,,10.0526905,-0.94053066,-0.641273,-0.12048653,-1.0886782,1.1797479,1.9282005,0.22333239,0.11085426,-0.064822815,0.9662464,-9.565639,8.077544,0.22582142,-0.60404396,-0.86550087,-0.41936746,1
2.199999999999997,,,,,10.0526905,-0.94053066,-0.641273,-0.12048653,-1.1842409,1.2604346,1.9304539,0.22539444,0.11437601,-0.068588115,0.96509653,-9.546837,8.05963,0.22483557,-0.65650123,-0.83052456,-0.40470126,1
2.209999999999997,,,,,10.143646,-0.9482285,0.34977266,-0.04562596,-1.2796134,1.3409375,1.9326961,0.22741884,0.117679544,-0.07255603,0.96393365,-9.5275955,8.040785,0.22358695,-0.7007804,-0.80100536,-0.39075476,1
