time-since-start [s],throttle_mpc,roll_mpc,pitch_mpc,yaw_mpc,throttle_nw,roll_nw,pitch_nw,yaw_nw,position_x [m],position_y [m],position_z [m],rotation_w [quaternion],rotation_x [quaternion],rotation_y [quaternion],rotation_z [quaternion],velocity_x [m/s],velocity_y [m/s],velocity_z [m/s],omega_x [rad/s],omega_y [rad/s],omega_z [rad/s],network_used
0.0,9.795976763267007,5.999999669514339,-5.99999992395478,-4.783314414119876,13.648308,2.439449,-4.2356563,-0.20159508,20.15574,-8.777501,2.0057964,-0.109633654,-0.453784,0.273556,0.8409683,-9.820533,-6.597431,0.22611356,1.7295816,-0.4094239,-0.36768043,0
0.01,9.795976763267007,5.999999669514339,-5.99999992395478,-4.783314414119876,12.128608,-3.578968,-6.0547433,-1.2624635,20.056845,-8.84317,2.0079339,-0.10325081,-0.45327452,0.279937,0.83995044,-9.9582615,-6.5359926,0.2010984,1.6702329,-0.55619407,-0.51951075,0
0.02,9.795976763267007,5.999999669514339,-5.99999992395478,-4.783314414119876,12.128608,-3.578968,-6.0547433,-1.2624635,19.956583,-8.9082155,2.0098114,-0.096121386,-0.45229366,0.28585586,0.8393316,-10.0933275,-6.4727583,0.17411639,1.6447245,-0.7046849,-0.6660902,0
0.03,9.795976763267007,5.999999669514339,-5.99999992395478,-4.783314414119876,12.128608,-3.578968,-6.0547433,-1.2624635,19.854988,-8.97262,2.0114102,-0.088188834,-0.45084465,0.29144996,0.8390583,-10.225525,-6.407781,0.14536095,1.6483405,-0.85519737,-0.80772674,0
0.04,9.795976763267007,5.999999669514339,-5.99999992395478,-4.783314414119876,15.03987,-0.48753038,-5.8647795,-2.56415,19.752085,-9.036366,2.0127132,-0.07940497,-0.44892332,0.29683587,0.8390776,-10.354654,-6.3410788,0.1150013,1.6769923,-1.0078745,-0.94470334,0
0.05,9.795976763267007,5.999999669514339,-5.99999992395478,-4.783314414119876,15.03987,-0.48753038,-5.8647795,-2.56415,19.647905,-9.099437,2.0137053,-0.069729194,-0.44651926,0.30211148,0.8393372,-10.48052,-6.272643,0.083186164,1.7271307,-1.1627369,-1.0772805,0
0.060000000000000005,9.795976763267007,5.999999669514339,-5.99999992395478,-4.783314414119876,15.03987,-0.48753038,-5.8647795,-2.56415,19.542484,-9.161815,2.0143723,-0.059127785,-0.443617,0.30735844,0.83978486,-10.602926,-6.2024493,0.050047133,1.7956712,-1.319713,-1.205698,0
0.07,9.795976763267007,5.999999669514339,-5.99999992395478,-4.783314414119876,15.03987,-0.48753038,-5.8647795,-2.56415,19.43586,-9.22348,2.0147018,-0.047573432,-0.4401968,0.31264383,0.8403674,-10.721677,-6.130462,0.015701469,1.8799311,-1.4786617,-1.3301766,0
0.08,12.064796643456878,5.9999998432981405,-5.999999958635176,-4.498256197666647,13.695406,-0.7211924,-6.472882,-2.1181757,19.328066,-9.284418,2.0146825,-0.035044692,-0.43623555,0.31802154,0.84103066,-10.8365755,-6.0566444,-0.019745372,1.9775746,-1.6393911,-1.45092,0
0.09,12.064796643456878,5.9999998432981405,-5.999999958635176,-4.498256197666647,13.695406,-0.7211924,-6.472882,-2.1181757,19.219093,-9.344574,2.0143309,-0.021342983,-0.43149373,0.32376158,0.84174573,-10.957163,-5.9742813,-0.05077012,2.1875377,-1.9028393,-1.5631561,0
0.09999999999999999,12.064796643456878,5.9999998432981405,-5.999999958635176,-4.498256197666647,13.695406,-0.7211924,-6.472882,-2.1181757,19.10894,-9.403897,2.013663,-0.006294323,-0.42574397,0.33008748,0.8424634,-11.072672,-5.8899465,-0.08296074,2.3982966,-2.158797,-1.6728858,0
0.10999999999999999,12.064796643456878,5.9999998432981405,-5.999999958635176,-4.498256197666647,13.695406,-0.7211924,-6.472882,-2.1181757,18.997658,-9.462366,2.0126681,0.010078701,-0.41897574,0.33696926,0.8430951,-11.182794,-5.803476,-0.11619185,2.6091275,-2.4078288,-1.7801781,0
0.11999999999999998,12.064796643456878,5.9999998432981405,-5.999999958635176,-4.498256197666647,13.695406,-0.7211924,-6.472882,-2.1181757,18.885302,-9.519959,2.011336,0.027749993,-0.41117424,0.34437105,0.84354854,-11.287215,-5.714762,-0.15035298,2.8194244,-2.6504161,-1.885099,0
0.12999999999999998,15.791587754463501,5.999999921855816,-5.999999981058159,-3.8850808044500367,10.849669,0.6195705,-7.150234,-2.315867,18.77193,-9.576653,2.0096583,0.046689514,-0.40232143,0.3522514,0.84372765,-11.385621,-5.623753,-0.18534765,3.0286794,-2.8869708,-1.9877124,0
0.13999999999999999,15.791587754463501,5.999999921855816,-5.999999981058159,-3.8850808044500367,10.849669,0.6195705,-7.150234,-2.315867,18.657545,-9.632363,2.0076687,0.06718956,-0.39195675,0.36094695,0.84354764,-11.489972,-5.5179505,-0.2127501,3.4224951,-3.3043156,-2.0746279,0
0.15,15.791587754463501,5.999999921855816,-5.999999981058159,-3.8850808044500367,10.849669,0.6195705,-7.150234,-2.315867,18.542158,-9.687004,2.0053995,0.08949555,-0.37964293,0.37071404,0.8428717,-11.58603,-5.409929,-0.24122764,3.7977388,-3.6994522,-2.1611104,0
0.16,19.64023064856898,5.999999945982879,-5.999999986490162,-3.1941690921640826,16.01048,0.012322504,-7.8810673,-0.873678,18.425854,-9.740551,2.0028424,0.11348115,-0.36541325,0.38136986,0.84151775,-11.67402,-5.298615,-0.27002937,4.140337,-4.0588155,-2.2456954,0
0.17,19.64023064856898,5.999999945982879,-5.999999986490162,-3.1941690921640826,16.01048,0.012322504,-7.8810673,-0.873678,18.308605,-9.792819,2.000087,0.13883853,-0.34938675,0.3926777,0.83931935,-11.7741375,-5.153935,-0.28091118,4.429775,-4.3620996,-2.2922373,0
0.18000000000000002,19.64023064856898,5.999999945982879,-5.999999986490162,-3.1941690921640826,16.01048,0.012322504,-7.8810673,-0.873678,18.190407,-9.843609,1.997228,0.16524655,-0.33171204,0.4044002,0.8361346,-11.863836,-5.003197,-0.29072884,4.6741366,-4.618028,-2.3364952,0
0.19000000000000003,19.64023064856898,5.999999945982879,-5.999999986490162,-3.1941690921640826,16.01048,0.012322504,-7.8810673,-0.873678,18.071367,-9.892863,1.9942762,0.19248267,-0.31255293,0.4163059,0.83183557,-11.942088,-4.8468065,-0.29950276,4.8804436,-4.8339934,-2.3785818,0
0.20000000000000004,20.99999970451609,5.919473422702931,-5.999999803450998,-3.160016377485004,17.145525,-0.26484862,-7.8575892,-0.7489688,17.951607,-9.940527,1.9912416,0.22034514,-0.29205889,0.4281968,0.8263154,-12.007958,-4.6853595,-0.3072962,5.054625,-5.016233,-2.418603,0
0.21000000000000005,20.99999970451609,5.919473422702931,-5.999999803450998,-3.160016377485004,17.145525,-0.26484862,-7.8575892,-0.7489688,17.831234,-9.986497,1.988165,0.24863753,-0.27037328,0.43987852,0.81950265,-12.06427,-4.5081453,-0.30789542,5.189133,-5.169986,-2.4549844,0
0.22000000000000006,20.99999970451609,5.919473422702931,-5.999999803450998,-3.160016377485004,17.145525,-0.26484862,-7.8575892,-0.7489688,17.710373,-10.030676,1.9850866,0.27718264,-0.24763,0.45118815,0.8113436,-12.105716,-4.3273187,-0.30768424,5.302703,-5.299727,-2.4895806,0
0.23000000000000007,20.99999970451609,5.919473422702931,-5.999999803450998,-3.160016377485004,17.145525,-0.26484862,-7.8575892,-0.7489688,17.589174,-10.073034,1.9820136,0.30583075,-0.22394843,0.46201146,0.8017856,-12.131688,-4.143982,-0.3068217,5.398595,-5.4092054,-2.522479,0
0.24000000000000007,20.99999970451609,5.919473422702931,-5.999999803450998,-3.160016377485004,16.364155,-0.13505523,-6.7322607,-0.8233353,17.467794,-10.113552,1.9789518,0.33444378,-0.19944046,0.47225124,0.79079056,-12.141721,-3.9593391,-0.305493,5.479562,-5.5015845,-2.5537632,0
0.25000000000000006,20.99999970451609,5.919473422702931,-5.999999803450998,-3.160016377485004,16.364155,-0.13505523,-6.7322607,-0.8233353,17.346395,-10.152221,1.9759046,0.36289382,-0.17421147,0.48182496,0.7783336,-12.135491,-3.7746708,-0.3039044,5.5479283,-5.5795336,-2.583512,0
0.26000000000000006,20.99999970451609,5.919473422702931,-5.999999803450998,-3.160016377485004,16.364155,-0.13505523,-6.7322607,-0.8233353,17.225142,-10.189049,1.9728738,0.39106223,-0.148361,0.4906626,0.76440156,-12.112827,-3.5913146,-0.30227837,5.605656,-5.6453056,-2.6118014,0
0.2700000000000001,20.99999970451609,5.919473422702931,-5.999999803450998,-3.160016377485004,16.364155,-0.13505523,-6.7322607,-0.8233353,17.104195,-10.224056,1.9698584,0.41883856,-0.121983476,0.49870506,0.7489912,-12.073708,-3.4106445,-0.30084905,5.654402,-5.7008023,-2.6387024,0
0.2800000000000001,20.999999003951256,3.474919007092341,-5.0042147984533125,-0.6318909431066837,14.977211,-0.14848773,-4.910517,-0.97735685,16.983723,-10.257276,1.9668553,0.44612002,-0.095168754,0.50590247,0.7321084,-12.018264,-3.2340527,-0.299858,5.6955633,-5.7476277,-2.6642835,0
0.2900000000000001,20.999999003951256,3.474919007092341,-5.0042147984533125,-0.6318909431066837,14.977211,-0.14848773,-4.910517,-0.97735685,16.863884,-10.288756,1.9638591,0.47230875,-0.06858158,0.51172817,0.71439165,-11.946864,-3.0629137,-0.2995117,5.349824,-5.630744,-2.5645533,0
0.3000000000000001,20.999999003951256,3.474919007092341,-5.0042147984533125,-0.6318909431066837,14.977211,-0.14848773,-4.910517,-0.97735685,16.744835,-10.318558,1.960863,0.49697456,-0.04276405,0.51584697,0.6964838,-11.860505,-2.898436,-0.29979086,5.05794,-5.5322356,-2.4697168,0
0.3100000000000001,20.999999003951256,3.474919007092341,-5.0042147984533125,-0.6318909431066837,14.977211,-0.14848773,-4.910517,-0.97735685,16.62672,-10.346752,1.9578613,0.5202521,-0.01762268,0.51847047,0.6783921,-11.760343,-2.7416387,-0.30061284,4.8115225,-5.449211,-2.379534,0
0.3200000000000001,20.371475147202222,1.4506613183925787,-2.786545478564208,0.2130275892173954,15.002285,-0.7886678,-2.9268923,-0.31324035,16.50967,-10.373421,1.954849,0.5422514,0.0069248616,0.51977164,0.6601161,-11.647482,-2.5933974,-0.3019182,4.603489,-5.3792334,-2.2937765,0
0.3300000000000001,20.371475147202222,1.4506613183925787,-2.786545478564208,0.2130275892173954,15.002285,-0.7886678,-2.9268923,-0.31324035,16.393791,-10.398673,1.9518071,0.5625593,0.029979235,0.51986414,0.6421602,-11.526793,-2.4585574,-0.30654687,4.112813,-4.97384,-2.1707668,0
0.34000000000000014,20.371475147202222,1.4506613183925787,-2.786545478564208,0.2130275892173954,15.002285,-0.7886678,-2.9268923,-0.31324035,16.279167,-10.422623,1.948717,0.58092505,0.050844908,0.5189307,0.6250216,-11.396394,-2.3328106,-0.31152678,3.6984897,-4.631863,-2.0537934,0
0.35000000000000014,20.371475147202222,1.4506613183925787,-2.786545478564208,0.2130275892173954,15.002285,-0.7886678,-2.9268923,-0.31324035,16.165892,-10.445359,1.9455757,0.5976409,0.06986712,0.51717645,0.6086647,-11.257723,-2.2160392,-0.31676227,3.3486433,-4.3433743,-1.9425598,0
0.36000000000000015,18.8697873705718,-0.4072097005393231,-0.616507260819556,1.063405306704979,14.156472,-2.623716,-0.9751539,-0.36197144,16.054039,-10.466973,1.9423813,0.61294484,0.08734185,0.5147571,0.59303904,-11.111989,-2.1080678,-0.3221574,3.0532453,-4.100003,-1.8367846,0
0.37000000000000016,18.8697873705718,-0.4072097005393231,-0.616507260819556,1.063405306704979,14.156472,-2.623716,-0.9751539,-0.36197144,15.943617,-10.487587,1.9390982,0.62660354,0.10260735,0.51189137,0.57862514,-10.9714575,-2.0159419,-0.33444393,2.5145724,-3.5558727,-1.6944714,0
0.38000000000000017,18.8697873705718,-0.4072097005393231,-0.616507260819556,1.063405306704979,14.156472,-2.623716,-0.9751539,-0.36197144,15.834623,-10.507317,1.9356927,0.6384877,0.1151712,0.5088042,0.56585103,-10.826523,-1.93097,-0.3466616,2.0597038,-3.0967946,-1.5591415,0
0.3900000000000002,18.8697873705718,-0.4072097005393231,-0.616507260819556,1.063405306704979,14.156472,-2.623716,-0.9751539,-0.36197144,15.7270975,-10.526228,1.9321657,0.6489024,0.12549303,0.50559473,0.554573,-10.6781845,-1.8523077,-0.35867146,1.6756122,-2.709463,-1.4304523,0
0.4000000000000002,19.02665592016496,-3.55373103334386,2.457840109053203,3.0992526813567336,15.942031,-3.927483,0.36580563,0.29253775,15.621069,-10.54438,1.9285203,0.65809005,0.1339592,0.50232583,0.5446478,-10.527227,-1.7791888,-0.37034285,1.351293,-2.382656,-1.308078,0
0.4100000000000002,19.02665592016496,-3.55373103334386,2.457840109053203,3.0992526813567336,15.942031,-3.927483,0.36580563,0.29253775,15.516646,-10.561788,1.9248097,0.6657069,0.13949788,0.49912664,0.53688675,-10.357686,-1.7033432,-0.37206513,0.58146286,-1.6327964,-1.1094769,0
0.4200000000000002,19.02665592016496,-3.55373103334386,2.457840109053203,3.0992526813567336,15.942031,-3.927483,0.36580563,0.29253775,15.413905,-10.578466,1.9210737,0.6714866,0.14130269,0.49614075,0.5319621,-10.191257,-1.6329222,-0.37536174,-0.06431286,-0.9958857,-0.9157943,0
0.4300000000000002,19.02665592016496,-3.55373103334386,2.457840109053203,3.0992526813567336,15.942031,-3.927483,0.36580563,0.29253775,15.312808,-10.594459,1.9172981,0.67568445,0.14002301,0.4933902,0.52953774,-10.028795,-1.5660957,-0.37992874,-0.6065423,-0.45546547,-0.7269086,0
0.4400000000000002,19.02665592016496,-3.55373103334386,2.457840109053203,3.0992526813567336,17.542492,-5.235588,1.7796988,1.2377361,15.213313,-10.609795,1.9134715,0.67848706,0.1361985,0.49085855,0.5293044,-9.870905,-1.5013818,-0.3855441,-1.0623949,0.0024948567,-0.54270095,0
0.45000000000000023,19.02665592016496,-3.55373103334386,2.457840109053203,3.0992526813567336,17.542492,-5.235588,1.7796988,1.2377361,15.1153755,-10.624489,1.9095855,0.6800375,0.13027664,0.48849934,0.5309852,-9.717072,-1.437198,-0.3914782,-1.4497626,0.38643694,-0.36417657,0
0.46000000000000024,19.02665592016496,-3.55373103334386,2.457840109053203,3.0992526813567336,17.542492,-5.235588,1.7796988,1.2377361,15.018966,-10.638533,1.9056469,0.68045676,0.1226225,0.48624557,0.5343291,-9.565012,-1.3714682,-0.39599326,-1.7778753,0.70935416,-0.1942251,0
0.47000000000000025,19.02665592016496,-3.55373103334386,2.457840109053203,3.0992526813567336,17.542492,-5.235588,1.7796988,1.2377361,14.924067,-10.651908,1.901671,0.67983294,0.11353948,0.48404902,0.5391035,-9.41501,-1.3033454,-0.39891246,-2.0548863,0.98184985,-0.03261321,0
0.48000000000000026,20.799066211907064,-5.761244857079404,4.48053594480335,3.3442306938691555,16.403389,-5.497199,3.1083355,1.2936891,14.830657,-10.664589,1.8976742,0.67823416,0.10328142,0.48186523,0.5451031,-9.267488,-1.2321925,-0.40019384,-2.2887456,1.2118067,0.12106836,0
0.49000000000000027,20.799066211907064,-5.761244857079404,4.48053594480335,3.3442306938691555,16.403389,-5.497199,3.1083355,1.2936891,14.738775,-10.676505,1.8937186,0.6753889,0.091033064,0.47971034,0.5526672,-9.109419,-1.1504446,-0.39064083,-2.8304944,1.7212317,0.27922982,0
0.5000000000000002,20.799066211907064,-5.761244857079404,4.48053594480335,3.3442306938691555,16.403389,-5.497199,3.1083355,1.2936891,14.648455,-10.687579,1.8898678,0.6710336,0.07615201,0.47755805,0.56200826,-8.955367,-1.0636805,-0.37921435,-3.28783,2.151141,0.42963028,0
0.5100000000000002,20.799066211907064,-5.761244857079404,4.48053594480335,3.3442306938691555,16.403389,-5.497199,3.1083355,1.2936891,14.559651,-10.697757,1.8861407,0.6652208,0.059069145,0.47530845,0.5727777,-8.806253,-0.97090423,-0.36590472,-3.6738915,2.5139604,0.5726506,0
0.5200000000000002,20.999997981144844,-5.999998820729261,5.281617732929124,4.04614061131304,17.233646,-5.6426663,4.2573943,1.499183,14.47231,-10.706973,1.8825558,0.65798616,0.0401515,0.47287208,0.584666,-8.662985,-0.87137103,-0.35077885,-3.999776,2.8201723,0.70865285,0
0.5300000000000002,20.999997981144844,-5.999998820729261,5.281617732929124,4.04614061131304,17.233646,-5.6426663,4.2573943,1.499183,14.386375,-10.715154,1.8791364,0.6491548,0.019503193,0.47031954,0.5975095,-8.525148,-0.7635056,-0.3328737,-4.3122263,3.203431,0.87242436,0
0.5400000000000003,20.999997981144844,-5.999998820729261,5.281617732929124,4.04614061131304,17.233646,-5.6426663,4.2573943,1.499183,14.30178,-10.722217,1.8759032,0.63856584,-0.0027693687,0.4676898,0.6111404,-8.395098,-0.6477862,-0.3135625,-4.5759735,3.52691,1.0281595,0
0.5500000000000003,20.999997981144844,-5.999998820729261,5.281617732929124,4.04614061131304,17.233646,-5.6426663,4.2573943,1.499183,14.218443,-10.728083,1.8728688,0.62626547,-0.026367586,0.4648694,0.62529445,-8.273815,-0.5239136,-0.29319715,-4.798598,3.7999446,1.1762527,0
0.5600000000000003,20.999997443189237,-5.999998612792366,4.5245827775893215,3.381597214457619,17.069483,-5.6001053,4.16555,1.1902801,14.13627,-10.732667,1.8700417,0.61229587,-0.0510304,0.4617639,0.6397375,-8.162261,-0.39181504,-0.2721671,-4.986501,4.0304103,1.3170788,0
0.5700000000000003,20.999997443189237,-5.999998612792366,4.5245827775893215,3.381597214457619,17.069483,-5.6001053,4.16555,1.1902801,14.0551605,-10.735891,1.8674264,0.59689426,-0.07637108,0.45810977,0.6542327,-8.061353,-0.25164413,-0.25087285,-5.144892,4.1070013,1.4183851,0
0.5800000000000003,20.999997443189237,-5.999998612792366,4.5245827775893215,3.381597214457619,17.069483,-5.6001053,4.16555,1.1902801,13.975003,-10.737675,1.8650241,0.5802769,-0.102064125,0.45370847,0.66858846,-7.9719143,-0.1038499,-0.2296315,-5.278567,4.1716685,1.5147206,0
0.5900000000000003,20.999997443189237,-5.999998612792366,4.5245827775893215,3.381597214457619,17.069483,-5.6001053,4.16555,1.1902801,13.89568,-10.737945,1.8628327,0.5624588,-0.1279783,0.44857782,0.682671,-7.8946877,0.050950695,-0.20874839,-5.3913803,4.2262726,1.6063287,0
0.6000000000000003,20.592092977116874,-5.427605007322,2.858793909241719,2.1089393326785464,16.2838,-4.7420244,3.7359974,1.0607353,13.817066,-10.736634,1.8608469,0.5434615,-0.153997,0.4427368,0.69636106,-7.83034,0.21203569,-0.18854955,-5.486585,4.2723827,1.6934417,0
0.6100000000000003,20.592092977116874,-5.427605007322,2.858793909241719,2.1089393326785464,16.2838,-4.7420244,3.7359974,1.0607353,13.739022,-10.733701,1.8590468,0.5237608,-0.17949784,0.43598968,0.70948446,-7.780403,0.37531984,-0.1716182,-5.477198,4.051872,1.7138304,0
0.6200000000000003,20.592092977116874,-5.427605007322,2.858793909241719,2.1089393326785464,16.2838,-4.7420244,3.7359974,1.0607353,13.661412,-10.729114,1.8574108,0.5037928,-0.20399216,0.4282209,0.72194666,-7.743828,0.54284453,-0.15576218,-5.4693055,3.8657515,1.7332184,0
0.6300000000000003,20.592092977116874,-5.427605007322,2.858793909241719,2.1089393326785464,16.2838,-4.7420244,3.7359974,1.0607353,13.584101,-10.722834,1.8559277,0.48352754,-0.227566,0.41955316,0.73375076,-7.7206635,0.7134941,-0.14103091,-5.46267,3.708659,1.7516551,0
0.6400000000000003,20.592092977116874,-5.427605007322,2.858793909241719,2.1089393326785464,16.169708,-3.4541352,2.8890164,0.7764918,13.506954,-10.714836,1.8545861,0.46294215,-0.25029203,0.41008878,0.74489325,-7.7109046,0.8862085,-0.12749027,-5.457091,3.5760667,1.7691872,0
0.6500000000000004,20.592092977116874,-5.427605007322,2.858793909241719,2.1089393326785464,16.169708,-3.4541352,2.8890164,0.7764918,13.429838,-10.705105,1.8533736,0.4420206,-0.27223116,0.39991352,0.75536585,-7.714494,1.0599757,-0.11522048,-5.452401,3.4641547,1.785859,0
0.6600000000000004,20.592092977116874,-5.427605007322,2.858793909241719,2.1089393326785464,16.169708,-3.4541352,2.8890164,0.7764918,13.352619,-10.693635,1.8522772,0.4207529,-0.2934339,0.3890996,0.7651571,-7.7313275,1.233826,-0.10431381,-5.448459,3.369697,1.8017126,0
0.6700000000000004,20.592092977116874,-5.427605007322,2.858793909241719,2.1089393326785464,16.169708,-3.4541352,2.8890164,0.7764918,13.2751665,-10.680431,1.8512825,0.3991346,-0.3139418,0.37770826,0.7742538,-7.7612524,1.4068267,-0.0948722,-5.4451456,3.2899725,1.8167883,0
0.6800000000000004,19.237232064857103,-3.8786519030296254,1.3408318578810168,1.4582868199617969,16.001654,-2.7421677,2.0116174,0.7529325,13.1973505,-10.665505,1.8503743,0.37716588,-0.33378848,0.36579174,0.7826416,-7.804072,1.5780796,-0.08700504,-5.4423614,3.2226827,1.8311242,0
0.6900000000000004,19.237232064857103,-3.8786519030296254,1.3408318578810168,1.4582868199617969,16.001654,-2.7421677,2.0116174,0.7529325,13.119061,-10.648933,1.8495022,0.35535136,-0.35233033,0.3536372,0.79027194,-7.855824,1.7356318,-0.0876626,-5.1981173,2.9295626,1.8128289,0
0.7000000000000004,19.237232064857103,-3.8786519030296254,1.3408318578810168,1.4582868199617969,16.001654,-2.7421677,2.0116174,0.7529325,13.040198,-10.630802,1.848616,0.33413312,-0.36909574,0.3415139,0.79717743,-7.91861,1.8900578,-0.0898053,-4.9920244,2.6821005,1.7954314,0
0.7100000000000004,19.237232064857103,-3.8786519030296254,1.3408318578810168,1.4582868199617969,16.001654,-2.7421677,2.0116174,0.7529325,12.960655,-10.611144,1.8477014,0.31342497,-0.3843393,0.32943118,0.8034447,-7.9916344,2.0407846,-0.09331653,-4.818124,2.4731858,1.7788876,0
0.7200000000000004,17.03504372589758,-1.8428102077571118,-0.34816365289058676,0.8774473509489245,16.439425,-1.778604,1.07618,0.14048569,12.880333,-10.590001,1.8467454,0.2931503,-0.3982739,0.31738997,0.8091382,-8.0741825,2.1873274,-0.098088905,-4.671386,2.2968137,1.7631557,0
0.7300000000000004,17.03504372589758,-1.8428102077571118,-0.34816365289058676,0.8774473509489245,16.439425,-1.778604,1.07618,0.14048569,12.799192,-10.567495,1.845683,0.2738451,-0.41032594,0.3058301,0.81431544,-8.155068,2.3130507,-0.11455076,-4.2297444,1.8849581,1.7196938,0
0.7400000000000004,17.03504372589758,-1.8428102077571118,-0.34816365289058676,0.8774473509489245,16.439425,-1.778604,1.07618,0.14048569,12.717209,-10.543754,1.8444518,0.25595674,-0.42009148,0.29512915,0.8190899,-8.242768,2.434628,-0.13176605,-3.857072,1.5372256,1.6783645,0
0.7500000000000004,17.03504372589758,-1.8428102077571118,-0.34816365289058676,0.8774473509489245,16.439425,-1.778604,1.07618,0.14048569,12.634317,-10.518817,1.843046,0.23929626,-0.42795533,0.285188,0.8235652,-8.336326,2.5520852,-0.14945142,-3.5425959,1.2436349,1.6390634,0
0.7600000000000005,15.980339441117573,0.23314984048131698,-1.8472056236795966,0.28201693792719235,15.251619,-0.48601288,-0.56630653,-0.3528221,12.550465,-10.492725,1.8414619,0.2236967,-0.43423465,0.27591163,0.8278122,-8.434936,2.6654894,-0.16735278,-3.277226,0.9957582,1.6016906,0
0.7700000000000005,15.980339441117573,0.23314984048131698,-1.8472056236795966,0.28201693792719235,15.251619,-0.48601288,-0.56630653,-0.3528221,12.465634,-10.465552,1.8396747,0.20959477,-0.43854594,0.26773572,0.8319046,-8.531602,2.7683141,-0.19010422,-2.7311156,0.5549004,1.5371038,0
0.7800000000000005,15.980339441117573,0.23314984048131698,-1.8472056236795966,0.28201693792719235,15.251619,-0.48601288,-0.56630653,-0.3528221,12.379823,-10.437369,1.8376608,0.19735207,-0.44060588,0.26102108,0.83593464,-8.631303,2.8677053,-0.21259463,-2.2684577,0.18084812,1.4755163,0
0.7900000000000005,15.980339441117573,0.23314984048131698,-1.8472056236795966,0.28201693792719235,15.251619,-0.48601288,-0.56630653,-0.3528221,12.293001,-10.408209,1.8354251,0.1867104,-0.44080314,0.25556377,0.8399519,-8.733296,2.964221,-0.23441681,-1.8780342,-0.13497823,1.4169511,0
0.8000000000000005,15.86620336433965,1.9063317284400016,-2.9161618867323797,-0.3053046461356515,14.719355,0.5235538,-1.1755267,-1.125711,12.205152,-10.378094,1.8329757,0.17744535,-0.43945536,0.25118098,0.8439789,-8.836879,3.0582662,-0.25529876,-1.548564,-0.40163836,1.3612596,0
0.8100000000000005,15.86620336433965,1.9063317284400016,-2.9161618867323797,-0.3053046461356515,14.719355,0.5235538,-1.1755267,-1.125711,12.116253,-10.347043,1.8303286,0.16975856,-0.43645188,0.24811572,0.8480156,-8.942432,3.1511207,-0.2742591,-1.0366852,-0.7660721,1.281949,0
0.8200000000000005,15.86620336433965,1.9063317284400016,-2.9161618867323797,-0.3053046461356515,14.719355,0.5235538,-1.1755267,-1.125711,12.026308,-10.315082,1.8274906,0.16389641,-0.43159723,0.24662894,0.85207754,-9.046491,3.2409256,-0.29310742,-0.577513,-1.100949,1.2040634,0
0.8300000000000005,15.86620336433965,1.9063317284400016,-2.9161618867323797,-0.3053046461356515,14.719355,0.5235538,-1.1755267,-1.125711,11.935324,-10.2822275,1.8244722,0.1596372,-0.42514417,0.24650592,0.85615623,-9.150086,3.3297849,-0.31030548,-0.19000316,-1.3837166,1.1299982,0
0.8400000000000005,15.86620336433965,1.9063317284400016,-2.9161618867323797,-0.3053046461356515,14.630655,1.0511298,-1.5247188,-1.3103065,11.843308,-10.2484865,1.8212909,0.15675288,-0.4173471,0.24752712,0.8602212,-9.252615,3.4181921,-0.3256695,0.137021,-1.6224654,1.0595676,0
0.8500000000000005,15.86620336433965,1.9063317284400016,-2.9161618867323797,-0.3053046461356515,14.630655,1.0511298,-1.5247188,-1.3103065,11.750277,-10.213863,1.8179655,0.15504903,-0.40841487,0.24950293,0.86423707,-9.353556,3.5065646,-0.33906654,0.41300392,-1.8240438,0.99259293,0
0.8600000000000005,15.86620336433965,1.9063317284400016,-2.9161618867323797,-0.3053046461356515,14.630655,1.0511298,-1.5247188,-1.3103065,11.656245,-10.178355,1.8145164,0.15436007,-0.39852002,0.25227034,0.86816746,-9.452454,3.5952492,-0.3504077,0.6459152,-1.9942346,0.92890465,0
0.8700000000000006,15.86620336433965,1.9063317284400016,-2.9161618867323797,-0.3053046461356515,14.630655,1.0511298,-1.5247188,-1.3103065,11.561235,-10.141957,1.8109646,0.15454507,-0.38780618,0.25568986,0.87197775,-9.548913,3.6845312,-0.35964236,0.8424791,-2.1379225,0.8683417,0
0.8800000000000006,15.994653602811185,2.8277046206106666,-3.351476239780663,-0.724694285735414,14.295557,1.5726072,-2.0917723,-1.8564403,11.465276,-10.104663,1.807331,0.15548408,-0.37639332,0.2596423,0.8756363,-9.642581,3.7746403,-0.36675304,1.0083704,-2.2592323,0.8107505,0
0.8900000000000006,15.994653602811185,2.8277046206106666,-3.351476239780663,-0.724694285735414,14.295557,1.5726072,-2.0917723,-1.8564403,11.368391,-10.066458,1.8036405,0.15730278,-0.3641849,0.26430243,0.87907314,-9.733858,3.8665159,-0.37099677,1.2920656,-2.4294798,0.7354058,0
0.9000000000000006,15.994653602811185,2.8277046206106666,-3.351476239780663,-0.724694285735414,14.295557,1.5726072,-2.0917723,-1.8564403,11.270611,-10.0273285,1.7999182,0.16009508,-0.35110614,0.26979887,0.88221467,-9.821562,3.9596999,-0.37314847,1.5314968,-2.5732212,0.6637583,0
0.9100000000000006,15.994653602811185,2.8277046206106666,-3.351476239780663,-0.724694285735414,14.295557,1.5726072,-2.0917723,-1.8564403,11.171973,-9.987259,1.7961844,0.16372328,-0.33727965,0.27597478,0.8850283,-9.9052725,4.054437,-0.37327716,1.7335728,-2.694579,0.5956265,0
0.9200000000000006,16.29375304401336,3.25130812938309,-3.4656528727557636,-1.1378877638635283,14.244334,1.8487942,-2.0520725,-1.8771067,11.07252,-9.946233,1.7924592,0.16806982,-0.32280928,0.28269655,0.8874849,-9.984612,4.1509066,-0.37147963,1.9041239,-2.7970355,0.530838,0
0.9300000000000006,16.29375304401336,3.25130812938309,-3.4656528727557636,-1.1378877638635283,14.244334,1.8487942,-2.0520725,-1.8771067,10.97229,-9.904224,1.7887707,0.1731462,-0.30772844,0.28997642,0.8895152,-10.06063,4.251076,-0.36597732,2.1140978,-2.9013455,0.44895318,0
0.9400000000000006,16.29375304401336,3.25130812938309,-3.4656528727557636,-1.1378877638635283,14.244334,1.8487942,-2.0520725,-1.8771067,10.8713255,-9.861204,1.7851455,0.17895773,-0.2920689,0.29781452,0.89105356,-10.131472,4.3532734,-0.3588012,2.2913196,-2.9894133,0.37108645,0
0.9500000000000006,16.29375304401336,3.25130812938309,-3.4656528727557636,-1.1378877638635283,14.244334,1.8487942,-2.0520725,-1.8771067,10.769679,-9.817151,1.7815998,0.18540248,-0.27591127,0.3060889,0.89208096,-10.19679,4.4575844,-0.35013837,2.4408996,-3.0637639,0.29704064,0
0.9600000000000006,16.4990565319168,3.1274190611258583,-3.1487138512088366,-1.3963292914163328,13.651443,1.8611808,-1.9916644,-1.9863312,10.667411,-9.772045,1.7781472,0.19239256,-0.25932533,0.31469595,0.89258164,-10.25627,4.5640416,-0.34019133,2.5671513,-3.1265314,0.2266283,0
0.9700000000000006,16.4990565319168,3.1274190611258583,-3.1487138512088366,-1.3963292914163328,13.651443,1.8611808,-1.9916644,-1.9863312,10.564572,-9.725857,1.7748065,0.19982779,-0.24250518,0.32352042,0.8925215,-10.310317,4.673995,-0.32780346,2.654363,-3.1301155,0.1469893,0
0.9800000000000006,16.4990565319168,3.1274190611258583,-3.1487138512088366,-1.3963292914163328,13.651443,1.8611808,-1.9916644,-1.9863312,10.4612255,-9.678558,1.7715939,0.20762818,-0.22561368,0.33246905,0.89188194,-10.35799,4.7860374,-0.31458458,2.7279813,-3.1331434,0.07125819,0
0.9900000000000007,16.4990565319168,3.1274190611258583,-3.1487138512088366,-1.3963292914163328,13.651443,1.8611808,-1.9916644,-1.9863312,10.357435,-9.630129,1.7685167,0.21574949,-0.20866495,0.34148997,0.89067155,-10.399143,4.9000707,-0.30078748,2.7901263,-3.1356995,-0.000756748,0
1.0000000000000007,16.161823041671067,2.44746020587369,-2.6236668627097925,-1.4871538551081718,12.930872,1.300277,-1.8073342,-2.0255377,10.253265,-9.580549,1.7655793,0.22415234,-0.19167216,0.35053927,0.8888981,-10.433646,5.0159698,-0.28665978,2.8425868,-3.137856,-0.069237895,0
1.0100000000000007,16.161823041671067,2.44746020587369,-2.6236668627097925,-1.4871538551081718,12.930872,1.300277,-1.8073342,-2.0255377,10.1487875,-9.529815,1.7627724,0.23268753,-0.17490089,0.35938528,0.88662755,-10.460845,5.1311736,-0.274736,2.7808318,-3.0577922,-0.13881545,0
1.0200000000000007,16.161823041671067,2.44746020587369,-2.6236668627097925,-1.4871538551081718,12.930872,1.300277,-1.8073342,-2.0255377,10.04407,-9.4779215,1.7600844,0.24124192,-0.15856919,0.36785194,0.88393617,-10.4815035,5.2478356,-0.2629264,2.7287195,-2.9902039,-0.2049788,0
1.0300000000000007,16.161823041671067,2.44746020587369,-2.6236668627097925,-1.4871538551081718,12.930872,1.300277,-1.8073342,-2.0255377,9.939179,-9.424855,1.757513,0.24982995,-0.14262351,0.37597927,0.8808423,-10.495728,5.3657317,-0.25141218,2.6847446,-2.9331467,-0.2678955,0
1.0400000000000007,16.161823041671067,2.44746020587369,-2.6236668627097925,-1.4871538551081718,12.592127,0.63253015,-1.4573884,-2.0071278,9.834178,-9.370603,1.7550547,0.25846145,-0.12701815,0.38380077,0.87736034,-10.503609,5.484648,-0.24036022,2.6476362,-2.8849804,-0.3277248,0
1.0500000000000007,16.161823041671067,2.44746020587369,-2.6236668627097925,-1.4871538551081718,12.592127,0.63253015,-1.4573884,-2.0071278,9.729129,-9.315158,1.7527038,0.26714236,-0.11171413,0.39134446,0.87350136,-10.505232,5.604377,-0.2299254,2.6163218,-2.8443196,-0.3846183,0
1.0600000000000007,16.161823041671067,2.44746020587369,-2.6236668627097925,-1.4871538551081718,12.592127,0.63253015,-1.4573884,-2.0071278,9.624095,-9.258512,1.7504535,0.27587548,-0.09667832,0.39863363,0.86927414,-10.500676,5.7247167,-0.22025262,2.5898976,-2.8099935,-0.43872005,0
1.0700000000000007,16.161823041671067,2.44746020587369,-2.6236668627097925,-1.4871538551081718,12.592127,0.63253015,-1.4573884,-2.0071278,9.519137,-9.20066,1.7482955,0.2846612,-0.08188263,0.40568757,0.8646855,-10.490016,5.845472,-0.2114782,2.5675995,-2.7810156,-0.490167,0
1.0800000000000007,16.06292603849188,1.5223881431829624,-1.888444293460249,-1.4526778884883527,12.515072,-0.09014733,-1.3766358,-1.6274867,9.414317,-9.141601,1.7462202,0.29349765,-0.067303315,0.4125224,0.85974115,-10.473323,5.966448,-0.20373099,2.5487838,-2.7565525,-0.53908944,0
1.0900000000000007,16.06292603849188,1.5223881431829624,-1.888444293460249,-1.4526778884883527,12.515072,-0.09014733,-1.3766358,-1.6274867,9.309691,-9.081334,1.7442136,0.3022342,-0.053281143,0.4189237,0.8545868,-10.450837,6.0867114,-0.19776326,2.3886886,-2.6211853,-0.58391947,0
1.1000000000000008,16.06292603849188,1.5223881431829624,-1.888444293460249,-1.4526778884883527,12.515072,-0.09014733,-1.3766358,-1.6274867,9.205319,-9.019867,1.7422608,0.31075954,-0.040087774,0.42473644,0.84936476,-10.422734,6.206803,-0.19296756,2.2535632,-2.506926,-0.62654966,0
1.1100000000000008,16.06292603849188,1.5223881431829624,-1.888444293460249,-1.4526778884883527,12.515072,-0.09014733,-1.3766358,-1.6274867,9.101255,-8.9572,1.7403501,0.31912172,-0.027610278,0.43005097,0.8440706,-10.389323,6.3265433,-0.18935497,2.1395123,-2.4104843,-0.66708803,0
1.1200000000000008,15.257707948944693,0.3009226974519845,-1.2743228950100647,-1.2465421951026638,12.578244,-1.0145023,-0.9425922,-1.1671665,8.997551,-8.893338,1.7384696,0.32735884,-0.015752027,0.43494195,0.8386975,-10.350868,6.445775,-0.18693274,2.0432487,-2.3290823,-0.70563716,0
1.1300000000000008,15.257707948944693,0.3009226974519845,-1.2743228950100647,-1.2465421951026638,12.578244,-1.0145023,-0.9425922,-1.1671665,8.894244,-8.828317,1.7365824,0.33536807,-0.004786521,0.43914583,0.8334604,-10.309799,6.558409,-0.19066645,1.7715716,-2.164499,-0.7321795,0
1.1400000000000008,15.257707948944693,0.3009226974519845,-1.2743228950100647,-1.2465421951026638,12.578244,-1.0145023,-0.9425922,-1.1671665,8.791369,-8.762173,1.7346529,0.34307605,0.005073375,0.44246888,0.82854944,-10.264588,6.670283,-0.19539234,1.5422574,-2.0255928,-0.75741947,0
1.1500000000000008,15.257707948944693,0.3009226974519845,-1.2743228950100647,-1.2465421951026638,12.578244,-1.0145023,-0.9425922,-1.1671665,8.688966,-8.694915,1.7326717,0.35054773,0.0139868725,0.4450591,0.82391924,-10.215637,6.7812786,-0.20095873,1.3486999,-1.9083585,-0.7814208,0
1.1600000000000008,14.911062117792952,-1.000395739604411,-0.6268511455235106,-0.8891156011777938,12.581633,-2.1279306,-0.6901558,-0.68428385,8.587069,-8.626552,1.7306314,0.3578347,0.022089928,0.44703835,0.819526,-10.163284,6.8913035,-0.20723026,1.1853229,-1.8094158,-0.8042445,0
1.1700000000000008,14.911062117792952,-1.000395739604411,-0.6268511455235106,-0.8891156011777938,12.581633,-2.1279306,-0.6901558,-0.68428385,8.485704,-8.557105,1.7285148,0.36483988,0.029118672,0.4481751,0.8155874,-10.109113,6.99781,-0.2161392,0.8445534,-1.6248193,-0.8084092,0
1.1800000000000008,14.911062117792952,-1.000395739604411,-0.6268511455235106,-0.8891156011777938,12.581633,-2.1279306,-0.6901558,-0.68428385,8.384895,-8.4866,1.7263074,0.37148958,0.03487127,0.44829804,0.8122857,-10.052383,7.103237,-0.22535543,0.5569128,-1.4690368,-0.8123695,0
1.1900000000000008,14.911062117792952,-1.000395739604411,-0.6268511455235106,-0.8891156011777938,12.581633,-2.1279306,-0.6901558,-0.68428385,8.284664,-8.415045,1.7240075,0.37785032,0.03953912,0.44757742,0.80953074,-9.993542,7.207546,-0.23462473,0.31411767,-1.3375708,-0.8161355,0
1.2000000000000008,14.700320929679668,-2.0923417868212293,-0.17841766627012037,-0.44370726512881864,12.579071,-3.1746101,0.34675485,-0.09648946,8.18503,-8.342452,1.7216154,0.38397497,0.04328488,0.44615287,0.8072404,-9.932964,7.3107142,-0.24372828,0.109176084,-1.2266259,-0.8197167,0
1.2100000000000009,14.700320929679668,-2.0923417868212293,-0.17841766627012037,-0.44370726512881864,12.579071,-3.1746101,0.34675485,-0.09648946,8.086004,-8.268841,1.7191278,0.3898008,0.045957763,0.44385412,0.8055661,-9.87187,7.4112864,-0.25372374,-0.23404913,-1.0629777,-0.8012658,0
1.2200000000000009,14.700320929679668,-2.0923417868212293,-0.17841766627012037,-0.44370726512881864,12.579071,-3.1746101,0.34675485,-0.09648946,7.987595,-8.194231,1.7165433,0.3952743,0.047446933,0.440552,0.80462474,-9.8098345,7.510711,-0.26307645,-0.52376604,-0.92488563,-0.7837203,0
1.2300000000000009,14.700320929679668,-2.0923417868212293,-0.17841766627012037,-0.44370726512881864,12.579071,-3.1746101,0.34675485,-0.09648946,7.889809,-8.118632,1.7138696,0.40044487,0.04793409,0.43640494,0.804299,-9.747275,7.6089845,-0.27151865,-0.76831645,-0.80835795,-0.76703584,0
1.2400000000000009,14.700320929679668,-2.0923417868212293,-0.17841766627012037,-0.44370726512881864,12.799709,-3.774676,0.6614365,0.29792795,7.79265,-8.042057,1.7111168,0.4053515,0.04757318,0.4315437,0.80448556,-9.684549,7.7061057,-0.278829,-0.974741,-0.710026,-0.75117004,0
1.2500000000000009,14.700320929679668,-2.0923417868212293,-0.17841766627012037,-0.44370726512881864,12.799709,-3.774676,0.6614365,0.29792795,7.6961174,-7.9645147,1.7082974,0.41002527,0.046494663,0.42607632,0.80509406,-9.621964,7.802075,-0.28482687,-1.1489836,-0.6270481,-0.7360827,0
1.260000000000001,14.700320929679668,-2.0923417868212293,-0.17841766627012037,-0.44370726512881864,12.799709,-3.774676,0.6614365,0.29792795,7.600209,-7.8860188,1.7054253,0.4144913,0.044809088,0.4200926,0.80604666,-9.559786,7.8968906,-0.28936693,-1.2960609,-0.5570259,-0.7217357,0
1.270000000000001,14.700320929679668,-2.0923417868212293,-0.17841766627012037,-0.44370726512881864,12.799709,-3.774676,0.6614365,0.29792795,7.50492,-7.806581,1.7025154,0.41876987,0.042610183,0.41366753,0.8072764,-9.498245,7.9905505,-0.29233447,-1.4202082,-0.4979366,-0.70809275,0
1.280000000000001,14.496001252280886,-2.8197355341117705,0.103009591901065,0.007173985914656634,13.819716,-3.8921852,0.4425784,0.49621198,7.410242,-7.7262125,1.6995841,0.4228777,0.039977398,0.4068638,0.8087262,-9.437546,8.08305,-0.29364115,-1.5250001,-0.44807222,-0.69511926,0
1.290000000000001,14.496001252280886,-2.8197355341117705,0.103009591901065,0.007173985914656634,13.819716,-3.8921852,0.4425784,0.49621198,7.3161616,-7.644931,1.6966417,0.4267486,0.036785956,0.39954367,0.810492,-9.378709,8.173111,-0.2945796,-1.7268661,-0.36207852,-0.66065747,0
1.300000000000001,14.496001252280886,-2.8197355341117705,0.103009591901065,0.007173985914656634,13.819716,-3.8921852,0.4425784,0.49621198,7.222664,-7.562754,1.693699,0.43032157,0.032941718,0.3915981,0.81264323,-9.321159,8.262002,-0.2936886,-1.8972609,-0.28951526,-0.6278867,0
1.310000000000001,14.496001252280886,-2.8197355341117705,0.103009591901065,0.007173985914656634,13.819716,-3.8921852,0.4425784,0.49621198,7.1297336,-7.479695,1.6907747,0.43361595,0.028548334,0.38311404,0.81509864,-9.265164,8.349703,-0.29086354,-2.0410905,-0.2282837,-0.5967241,0
1.320000000000001,14.009307738030046,-3.2075804994557253,0.1518112638157558,0.3972689739652042,14.304164,-4.540603,-0.03412168,0.95292675,7.037355,-7.3957644,1.6878886,0.43664792,0.02369358,0.37416476,0.8177884,-9.210961,8.436189,-0.28603208,-2.1624963,-0.1766132,-0.5670907,0
1.330000000000001,14.009307738030046,-3.2075804994557253,0.1518112638157558,0.3972689739652042,14.304164,-4.540603,-0.03412168,0.95292675,6.9454994,-7.3109894,1.6850435,0.4393874,0.018385798,0.36469215,0.8207316,-9.160518,8.518565,-0.28266847,-2.3254533,-0.12540686,-0.5197693,0
1.340000000000001,14.009307738030046,-3.2075804994557253,0.1518112638157558,0.3972689739652042,14.304164,-4.540603,-0.03412168,0.95292675,6.854138,-7.2253976,1.6822422,0.4418029,0.01263703,0.35465178,0.82393724,-9.11224,8.599687,-0.27726012,-2.4630034,-0.082200445,-0.47476998,0
1.350000000000001,14.009307738030046,-3.2075804994557253,0.1518112638157558,0.3972689739652042,14.304164,-4.540603,-0.03412168,0.95292675,6.7632465,-7.1390004,1.6795055,0.44390565,0.0065209353,0.34411937,0.8273373,-9.066346,8.679496,-0.26976812,-2.5791073,-0.04574237,-0.4319788,0
1.360000000000001,13.078789516023587,-3.21066435773547,-0.0067368825079245805,0.6768825966854028,13.921521,-4.747238,-0.54216343,1.0925419,6.672802,-7.051812,1.676854,0.44570577,9.981543e-05,0.33315948,0.83087367,-9.023027,8.757932,-0.2601806,-2.6771085,-0.01497725,-0.39128736,0
1.370000000000001,13.078789516023587,-3.21066435773547,-0.0067368825079245805,0.6768825966854028,13.921521,-4.747238,-0.54216343,1.0925419,6.582763,-6.9638724,1.6742727,0.44720462,-0.0065099588,0.32179788,0.8345129,-8.985146,8.829813,-0.25579894,-2.7603154,-0.013765227,-0.33887196,0
1.380000000000001,13.078789516023587,-3.21066435773547,-0.0067368825079245805,0.6768825966854028,13.921521,-4.747238,-0.54216343,1.0925419,6.49309,-6.8752213,1.6717447,0.44839954,-0.013211978,0.31005892,0.8382283,-8.949947,8.900272,-0.24949178,-2.8305464,-0.012745472,-0.28902858,0
1.390000000000001,13.078789516023587,-3.21066435773547,-0.0067368825079245805,0.6768825966854028,13.921521,-4.747238,-0.54216343,1.0925419,6.4037547,-6.785872,1.6692892,0.4492944,-0.0199847,0.2979918,0.8419834,-8.91754,8.96923,-0.2412948,-2.889825,-0.011886496,-0.24163106,0
1.400000000000001,12.10259078277825,-2.8797301450672665,-0.35675361288079743,0.8517870649057532,13.124613,-4.464387,-1.0931165,0.8577231,6.314729,-6.695842,1.666925,0.44989362,-0.026810143,0.2856389,0.8457466,-8.888015,9.036602,-0.23125824,-2.9398592,-0.011161788,-0.19655934,0
1.410000000000001,12.10259078277825,-2.8797301450672665,-0.35675361288079743,0.8517870649057532,13.124613,-4.464387,-1.0931165,0.8577231,6.225974,-6.6051707,1.6646292,0.45022792,-0.033488993,0.27308688,0.8494685,-8.863428,9.097405,-0.22764938,-2.930487,-0.065156095,-0.14511669,0
1.420000000000001,12.10259078277825,-2.8797301450672665,-0.35675361288079743,0.8517870649057532,13.124613,-4.464387,-1.0931165,0.8577231,6.137451,-6.5139,1.6623774,0.45032147,-0.03986176,0.26040924,0.853117,-8.841576,9.156582,-0.22246881,-2.922572,-0.110724494,-0.09619832,0
1.430000000000001,12.10259078277825,-2.8797301450672665,-0.35675361288079743,0.8517870649057532,13.124613,-4.464387,-1.0931165,0.8577231,6.0491333,-6.422045,1.6601851,0.45017123,-0.04596867,0.24762201,0.856689,-8.822437,9.2140465,-0.2157935,-2.9158888,-0.14918149,-0.049680404,0
1.440000000000001,12.10259078277825,-2.8797301450672665,-0.35675361288079743,0.8517870649057532,12.708219,-4.0694804,-1.5964514,0.6651485,5.960993,-6.3296247,1.6580665,0.44977593,-0.05184424,0.23473914,0.860181,-8.805997,9.26972,-0.20770267,-2.9102457,-0.18163644,-0.0054451423,0
1.450000000000001,12.10259078277825,-2.8797301450672665,-0.35675361288079743,0.8517870649057532,12.708219,-4.0694804,-1.5964514,0.6651485,5.873004,-6.236657,1.6560357,0.44913596,-0.05751807,0.22177273,0.86358863,-8.792239,9.323528,-0.19827755,-2.905481,-0.20902558,0.036619492,0
1.460000000000001,12.10259078277825,-2.8797301450672665,-0.35675361288079743,0.8517870649057532,12.708219,-4.0694804,-1.5964514,0.6651485,5.785139,-6.143161,1.6541054,0.44825283,-0.063015565,0.2087334,0.8669076,-8.781152,9.375404,-0.1876013,-2.9014585,-0.2321394,0.07661998,0
1.470000000000001,12.10259078277825,-2.8797301450672665,-0.35675361288079743,0.8517870649057532,12.708219,-4.0694804,-1.5964514,0.6651485,5.6973724,-6.049156,1.6522877,0.44712898,-0.068358526,0.19563048,0.87013304,-8.772721,9.425282,-0.17575873,-2.8980627,-0.2516447,0.11465765,0
1.480000000000001,11.602714951411278,-2.390006442159107,-0.6615323804150833,0.9316464397933931,14.767422,-4.4011383,-3.3953063,1.8879726,5.6096764,-5.9546623,1.6505939,0.4457676,-0.07356567,0.18247226,0.87326014,-8.766936,9.473103,-0.1628362,-2.8951962,-0.26810458,0.1508288,0
1.490000000000001,11.602714951411278,-2.390006442159107,-0.6615323804150833,0.9316464397933931,14.767422,-4.4011383,-3.3953063,1.8879726,5.522024,-5.85971,1.6490114,0.4442012,-0.078457505,0.16938418,0.8762641,-8.763901,9.516921,-0.15354852,-2.816398,-0.32952225,0.18914376,0
1.500000000000001,11.602714951411278,-2.390006442159107,-0.6615323804150833,0.9316464397933931,14.767422,-4.4011383,-3.3953063,1.8879726,5.4343896,-5.764331,1.647526,0.44245765,-0.0828933,0.15646857,0.8791346,-8.763285,9.558666,-0.14339727,-2.749887,-0.38135633,0.22557859,0
1.5100000000000011,11.602714951411278,-2.390006442159107,-0.6615323804150833,0.9316464397933931,14.767422,-4.4011383,-3.3953063,1.8879726,5.3467503,-5.668545,1.6461462,0.44053477,-0.086940244,0.14370075,0.88188475,-8.764983,9.5983,-0.13246608,-2.6937478,-0.42510232,0.26022553,0
1.5200000000000011,11.444795015835941,-1.8180838813138045,-0.8165843820778587,0.9302291936469421,14.992836,-4.2769375,-3.4034956,1.7964846,5.259083,-5.5723724,1.6448792,0.4384316,-0.09065537,0.13105965,0.884524,-8.768905,9.635783,-0.12083415,-2.6463633,-0.46202242,0.29317233,0
1.5300000000000011,11.444795015835941,-1.8180838813138045,-0.8165843820778587,0.9302291936469421,14.992836,-4.2769375,-3.4034956,1.7964846,5.1713653,-5.475838,1.6437243,0.43617812,-0.09393222,0.118703194,0.88703716,-8.774878,9.670608,-0.11008009,-2.5171723,-0.51734304,0.3244329,0
1.5400000000000011,11.444795015835941,-1.8180838813138045,-0.8165843820778587,0.9302291936469421,14.992836,-4.2769375,-3.4034956,1.7964846,5.083578,-5.3789673,1.6426796,0.43380222,-0.09669026,0.10675715,0.8894209,-8.782809,9.703282,-0.09878569,-2.4081292,-0.56403345,0.35415953,0
1.5500000000000012,11.444795015835941,-1.8180838813138045,-0.8165843820778587,0.9302291936469421,14.992836,-4.2769375,-3.4034956,1.7964846,4.995703,-5.2817802,1.6417503,0.4313011,-0.0990091,0.095161304,0.89169556,-8.792551,9.733815,-0.08701969,-2.3160915,-0.6034401,0.38242742,0
1.5600000000000012,11.529117313047829,-1.1796735700793701,-0.686534317353699,0.8554421827168853,14.7944355,-3.8676927,-3.0896528,1.7169062,4.907722,-5.1842985,1.6409408,0.42867276,-0.100956015,0.083864376,0.893876,-8.803979,9.762213,-0.07484386,-2.238408,-0.6366998,0.40930825,0
1.5700000000000012,11.529117313047829,-1.1796735700793701,-0.686534317353699,0.8554421827168853,14.7944355,-3.8676927,-3.0896528,1.7169062,4.819618,-5.0865426,1.6402589,0.42594722,-0.10252617,0.07307279,0.8959452,-8.817068,9.788682,-0.061500926,-2.0732877,-0.64445716,0.43120018,0
1.5800000000000012,11.529117313047829,-1.1796735700793701,-0.686534317353699,0.8554421827168853,14.7944355,-3.8676927,-3.0896528,1.7169062,4.7313757,-4.9885325,1.6397119,0.42315412,-0.10372039,0.06294837,0.89789766,-8.831582,9.8130865,-0.047863048,-1.9339184,-0.6510063,0.45201784,0
1.5900000000000012,11.529117313047829,-1.1796735700793701,-0.686534317353699,0.8554421827168853,14.7944355,-3.8676927,-3.0896528,1.7169062,4.642982,-4.8902884,1.6393025,0.4202919,-0.10459848,0.05339038,0.8997574,-8.847372,9.835506,-0.033982515,-1.8162843,-0.6565358,0.471814,0
1.6000000000000012,11.623983973698818,-0.5757284320114531,-0.6178880041006489,0.7471524333799605,14.209854,-3.3617513,-2.7111022,1.5886734,4.5544243,-4.791829,1.639033,0.41735914,-0.10521071,0.044313304,0.90154225,-8.864311,9.856012,-0.019902995,-1.7169956,-0.6612046,0.49063876,0
1.6100000000000012,11.623983973698818,-0.5757284320114531,-0.6178880041006489,0.7471524333799605,14.209854,-3.3617513,-2.7111022,1.5886734,4.4656916,-4.693173,1.6389097,0.41439173,-0.10552423,0.035872743,0.9032482,-8.882433,9.874825,-0.0047373977,-1.5390124,-0.65440536,0.503226,0
1.6200000000000012,11.623983973698818,-0.5757284320114531,-0.6178880041006489,0.7471524333799605,14.209854,-3.3617513,-2.7111022,1.5886734,4.376773,-4.5943384,1.6389388,0.41142237,-0.10551637,0.028188279,0.9048775,-8.901446,9.891886,0.010559399,-1.3887856,-0.64867234,0.51519555,0
1.6300000000000012,11.623983973698818,-0.5757284320114531,-0.6178880041006489,0.7471524333799605,14.209854,-3.3617513,-2.7111022,1.5886734,4.2876596,-4.495342,1.6391213,0.40844536,-0.105239436,0.021144204,0.9064491,-8.921207,9.9073105,0.025962908,-1.2619867,-0.6438385,0.5265777,0
1.6400000000000012,11.623983973698818,-0.5757284320114531,-0.6178880041006489,0.7471524333799605,14.170715,-2.6611354,-2.1520128,1.6173046,4.198346,-4.3961983,1.6394583,0.40545556,-0.10473716,0.014642484,0.9079766,-8.941594,9.921196,0.041454554,-1.1549622,-0.639763,0.53740144,0
1.6500000000000012,11.623983973698818,-0.5757284320114531,-0.6178880041006489,0.7471524333799605,14.170715,-2.6611354,-2.1520128,1.6173046,4.1088257,-4.296923,1.6399506,0.40244845,-0.10404615,0.008600104,0.90947,-8.962503,9.933624,0.057019956,-1.0646279,-0.6363272,0.54769397,0
1.6600000000000013,11.623983973698818,-0.5757284320114531,-0.6178880041006489,0.7471524333799605,14.170715,-2.6611354,-2.1520128,1.6173046,4.0190945,-4.1975307,1.640599,0.39942026,-0.103197,0.0029467854,0.9109364,-8.983849,9.944668,0.072647594,-0.98838127,-0.6334308,0.5574814,0
1.6700000000000013,11.623983973698818,-0.5757284320114531,-0.6178880041006489,0.7471524333799605,14.170715,-2.6611354,-2.1520128,1.6173046,3.929148,-4.0980344,1.6414039,0.39636782,-0.10221537,-0.0023769487,0.91238093,-9.005554,9.954387,0.08832803,-0.92402536,-0.6309892,0.5667887,0
1.6800000000000013,11.68524395458393,-0.11809076895191568,-0.522094224197231,0.6122211821367659,13.760186,-2.056449,-1.7837238,1.2415723,3.8389826,-3.9984477,1.6423658,0.39328867,-0.10112271,-0.007421429,0.913807,-9.027556,9.962831,0.10405319,-0.86970574,-0.6289309,0.5756391,0
1.6900000000000013,11.68524395458393,-0.11809076895191568,-0.522094224197231,0.6122211821367659,13.760186,-2.056449,-1.7837238,1.2415723,3.7485955,-3.898782,1.6434882,0.3902151,-0.09990015,-0.012048432,0.91520864,-9.049912,9.97009,0.120416604,-0.7524974,-0.6122267,0.57743424,0
1.7000000000000013,11.68524395458393,-0.11809076895191568,-0.522094224197231,0.6122211821367659,13.760186,-2.056449,-1.7837238,1.2415723,3.6579835,-3.7990496,1.6447742,0.3871759,-0.098534375,-0.016150795,0.91658324,-9.072422,9.976213,0.13681626,-0.6535667,-0.5981341,0.5791412,0
1.7100000000000013,11.68524395458393,-0.11809076895191568,-0.522094224197231,0.6122211821367659,13.760186,-2.056449,-1.7837238,1.2415723,3.5671465,-3.6992614,1.6462245,0.38416404,-0.09704914,-0.0198097,0.91793627,-9.095007,9.981291,0.15325251,-0.57006335,-0.5862449,0.5807644,0
1.7200000000000013,11.718584306634877,0.25684776551740773,-0.4647924193588516,0.44383844923548066,13.570817,-1.3452624,-1.4527303,0.847262,3.4760835,-3.5994272,1.6478393,0.38117358,-0.09546421,-0.02309377,0.9192714,-9.117598,9.985403,0.16972636,-0.4995816,-0.57621443,0.582308,0
1.7300000000000013,11.718584306634877,0.25684776551740773,-0.4647924193588516,0.44383844923548066,13.570817,-1.3452624,-1.4527303,0.847262,3.3847945,-3.4995563,1.6496208,0.37823352,-0.09375967,-0.025916241,0.9205851,-9.140197,9.988634,0.18656681,-0.38162592,-0.55879164,0.57551324,0
1.7400000000000013,11.718584306634877,0.25684776551740773,-0.4647924193588516,0.44383844923548066,13.570817,-1.3452624,-1.4527303,0.847262,3.2932804,-3.3996572,1.6515708,0.3753694,-0.091920905,-0.02821153,0.92187446,-9.162661,9.991073,0.20345339,-0.28206408,-0.5440939,0.5690519,0
1.7500000000000013,11.718584306634877,0.25684776551740773,-0.4647924193588516,0.44383844923548066,13.570817,-1.3452624,-1.4527303,0.847262,3.2015421,-3.2997372,1.6536901,0.37257177,-0.08996999,-0.03006167,0.92314255,-9.184914,9.992818,0.22039355,-0.19802776,-0.531695,0.56290764,0
1.7600000000000013,11.744313673515576,0.5382688306778336,-0.18710339309142046,0.2925789612605989,13.737438,-1.0891508,-1.2532924,0.75973463,3.1095827,-3.199803,1.655979,0.36983234,-0.08792534,-0.03153595,0.92439103,-9.206893,9.993953,0.23739399,-0.12709603,-0.5212351,0.5570649,0
1.7700000000000014,11.744313673515576,0.5382688306778336,-0.18710339309142046,0.2925789612605989,13.737438,-1.0891508,-1.2532924,0.75973463,3.0174048,-3.0998602,1.6584395,0.36717469,-0.08586293,-0.032549385,0.92560846,-9.228593,9.994559,0.25471315,-0.02335566,-0.4690897,0.54408646,0
1.7800000000000014,11.744313673515576,0.5382688306778336,-0.18710339309142046,0.2925789612605989,13.737438,-1.0891508,-1.2532924,0.75973463,2.9250119,-2.9999135,1.6610734,0.3646196,-0.08384408,-0.033038072,0.9267854,-9.249924,9.994752,0.2721028,0.064210355,-0.4250836,0.53174484,0
1.7900000000000014,11.744313673515576,0.5382688306778336,-0.18710339309142046,0.2925789612605989,13.737438,-1.0891508,-1.2532924,0.75973463,2.8324077,-2.8999662,1.6638818,0.36215654,-0.08186294,-0.03308431,0.92792594,-9.270848,9.994644,0.28956673,0.13812375,-0.38794607,0.52000886,0
1.8000000000000014,11.54856786038977,0.6353107249611344,-0.0970174110087711,0.17641223345581838,15.094361,-1.441661,-2.2672389,1.4683422,2.7395964,-2.8000212,1.666865,0.35977605,-0.079914354,-0.032757524,0.92903274,-9.291338,9.994334,0.30710813,0.20051296,-0.35660517,0.50884885,0
1.8100000000000014,11.54856786038977,0.6353107249611344,-0.0970174110087711,0.17641223345581838,15.094361,-1.441661,-2.2672389,1.4683422,2.646584,-2.7000797,1.6700145,0.3574876,-0.07801289,-0.032068368,0.9301012,-9.311036,9.993916,0.32280064,0.2683027,-0.31610286,0.49253607,0
1.8200000000000014,11.54856786038977,0.6353107249611344,-0.0970174110087711,0.17641223345581838,15.094361,-1.441661,-2.2672389,1.4683422,2.5533772,-2.6001427,1.6733212,0.35529968,-0.07616983,-0.03102846,0.9311271,-9.330264,9.993471,0.3385733,0.3255236,-0.2819216,0.47702378,0
1.8300000000000014,11.54856786038977,0.6353107249611344,-0.0970174110087711,0.17641223345581838,15.094361,-1.441661,-2.2672389,1.4683422,2.4599805,-2.5002098,1.6767862,0.35320348,-0.07437649,-0.029693048,0.93211263,-9.349009,9.99308,0.35442695,0.3738234,-0.25307444,0.4622727,0
1.8400000000000014,11.54856786038977,0.6353107249611344,-0.0970174110087711,0.17641223345581838,15.770245,-1.665672,-3.0492113,1.7210497,2.3663986,-2.4002805,1.6804101,0.35119113,-0.07262543,-0.028108722,0.9330597,-9.367256,9.992811,0.37036157,0.4145928,-0.22872894,0.44824544,0
1.8500000000000014,11.54856786038977,0.6353107249611344,-0.0970174110087711,0.17641223345581838,15.770245,-1.665672,-3.0492113,1.7210497,2.272637,-2.300353,1.6841938,0.34925565,-0.070910275,-0.026314756,0.93397,-9.384996,9.992719,0.38637638,0.44900593,-0.20818235,0.4349065,0
1.8600000000000014,11.54856786038977,0.6353107249611344,-0.0970174110087711,0.17641223345581838,15.770245,-1.665672,-3.0492113,1.7210497,2.1787004,-2.2004256,1.688138,0.34739083,-0.0692256,-0.024344264,0.93484485,-9.402223,9.992853,0.40246996,0.47805354,-0.19084193,0.42222214,0
1.8700000000000014,11.54856786038977,0.6353107249611344,-0.0970174110087711,0.17641223345581838,15.770245,-1.665672,-3.0492113,1.7210497,2.084594,-2.1004953,1.6922435,0.3455912,-0.0675668,-0.022225168,0.93568563,-9.418926,9.9932575,0.41864026,0.50257236,-0.17620714,0.41016018,0
1.8800000000000014,11.145273119620708,0.5332219514805464,-0.2111743841073841,0.10236764927686033,14.849203,-1.613983,-2.7735927,1.4385223,1.9903234,-2.0005596,1.696511,0.34385183,-0.06592993,-0.019981004,0.93649346,-9.435104,9.993967,0.43488473,0.5232683,-0.16385591,0.39869013,0
1.8900000000000015,11.145273119620708,0.5332219514805464,-0.2111743841073841,0.10236764927686033,14.849203,-1.613983,-2.7735927,1.4385223,1.8958964,-1.9006151,1.7009214,0.34217337,-0.064282686,-0.017686158,0.93726856,-9.450206,9.994971,0.44720486,0.5248209,-0.1712398,0.3841495,0
1.9000000000000015,11.145273119620708,0.5332219514805464,-0.2111743841073841,0.10236764927686033,14.849203,-1.613983,-2.7735927,1.4385223,1.801321,-1.8006591,1.7054554,0.34055734,-0.06259918,-0.015400602,0.9380111,-9.464789,9.996301,0.45959112,0.526131,-0.1774719,0.37032238,0
1.9100000000000015,11.145273119620708,0.5332219514805464,-0.2111743841073841,0.10236764927686033,14.849203,-1.613983,-2.7735927,1.4385223,1.7066023,-1.7006879,1.7101135,0.33900067,-0.060884997,-0.013123207,0.9387222,-9.47885,9.997954,0.47204077,0.5272365,-0.1827321,0.3571738,0
1.9200000000000015,10.729114858805813,0.297056513826304,-0.3472665164077431,0.07688809453589857,14.575531,-1.7549652,-2.949978,1.4359608,1.6117456,-1.6006988,1.7148964,0.3375005,-0.05914487,-0.010853002,0.93940276,-9.492383,9.999929,0.484551,0.5281696,-0.18717177,0.3446704,0
1.9300000000000015,10.729114858805813,0.297056513826304,-0.3472665164077431,0.07688809453589857,14.575531,-1.7549652,-2.949978,1.4359608,1.5167588,-1.5006888,1.7197841,0.3360509,-0.057363432,-0.008696494,0.94005513,-9.504899,10.002135,0.4929865,0.4921314,-0.21215086,0.3315302,0
1.9400000000000015,10.729114858805813,0.297056513826304,-0.3472665164077431,0.07688809453589857,14.575531,-1.7549652,-2.949978,1.4359608,1.4216493,-1.4006553,1.7247564,0.33464763,-0.055528577,-0.0067380206,0.94068176,-9.516907,10.004613,0.5014746,0.4617123,-0.23323247,0.31903484,0
1.9500000000000015,10.729114858805813,0.297056513826304,-0.3472665164077431,0.07688809453589857,14.575531,-1.7549652,-2.949978,1.4359608,1.3264222,-1.3005958,1.7298137,0.33329016,-0.053648412,-0.0049469443,0.9412837,-9.52841,10.007321,0.5100127,0.436036,-0.2510248,0.30715266,0
1.9600000000000015,10.63167327653723,-0.033308362223742984,-0.24333464342546907,0.13161350931572713,16.810736,-2.5191398,-4.752996,2.2331986,1.2310826,-1.2005082,1.7349566,0.3319776,-0.05172983,-0.0032973844,0.941862,-9.5394125,10.010228,0.51859844,0.41436327,-0.2660412,0.29585353,0
1.9700000000000015,10.63167327653723,-0.033308362223742984,-0.24333464342546907,0.13161350931572713,16.810736,-2.5191398,-4.752996,2.2331986,1.1356359,-1.1003909,1.7401809,0.33069584,-0.049861718,-0.0018778997,0.9424174,-9.549826,10.013276,0.52625996,0.34454712,-0.26251543,0.28779423,0
1.9800000000000015,10.63167327653723,-0.033308362223742984,-0.24333464342546907,0.13161350931572713,16.810736,-2.5191398,-4.752996,2.2331986,1.0400873,-1.0002424,1.745482,0.32943287,-0.04811469,-0.00075763906,0.942952,-9.559788,10.016442,0.5339615,0.28561902,-0.25953665,0.2801304,0
1.9900000000000015,10.63167327653723,-0.033308362223742984,-0.24333464342546907,0.13161350931572713,16.810736,-2.5191398,-4.752996,2.2331986,0.9444413,-0.9000617,1.7508602,0.3281902,-0.046469588,0.000109753644,0.943468,-9.569341,10.019682,0.5416985,0.23588076,-0.25702018,0.2728426,0
2.0000000000000013,,,,,17.130014,-2.9893699,-5.1050143,2.3783684,0.8487017,-0.79984856,1.7563161,0.3269688,-0.044910282,0.0007634462,0.9439671,-9.578522,10.022953,0.5494676,0.19389935,-0.2548944,0.26591244,0
2.010000000000001,,,,,17.130014,-2.9893699,-5.1050143,2.3783684,0.7528721,-0.69960266,1.7618496,0.32574737,-0.0434522,0.001071823,0.9444572,-9.587359,10.026216,0.55723435,0.09379408,-0.26348722,0.26541135,0
2.020000000000001,,,,,17.130014,-2.9893699,-5.1050143,2.3783684,0.6569556,-0.59932446,1.7674608,0.32450706,-0.042106643,0.00093233207,0.9449451,-9.595908,10.029395,0.56502724,0.009299923,-0.2707372,0.26493484,0
2.0300000000000007,,,,,17.130014,-2.9893699,-5.1050143,2.3783684,0.5609548,-0.49901524,1.7731502,0.32325143,-0.040855568,0.00041466462,0.94543064,-9.6042185,10.032416,0.57284373,-0.06201774,-0.27685422,0.26448172,0
2.0400000000000005,,,,,17.130014,-2.9893699,-5.1050143,2.3783684,0.46487188,-0.39867693,1.7789178,0.32198325,-0.039683793,-0.00042233086,0.9459132,-9.612333,10.035214,0.5806816,-0.12221357,-0.2820154,0.26405084,0
2.0500000000000003,,,,,16.757978,-3.2660716,-4.885777,2.367399,0.3687087,-0.29831195,1.7847639,0.32070473,-0.038578566,-0.0015289614,0.946392,-9.620286,10.037734,0.5885388,-0.17302215,-0.28637004,0.26364112,1
2.06,,,,,16.757978,-3.2660716,-4.885777,2.367399,0.2724392,-0.19791573,1.7910619,0.31916732,-0.036383823,-0.0040495046,0.94699097,-9.633504,10.041342,0.6703231,-0.52223206,-0.8707357,0.35494396,1
2.07,,,,,16.757978,-3.2660716,-4.885777,2.367399,0.1760419,-0.09749065,1.7981548,0.3171137,-0.032079007,-0.00908942,0.9478012,-9.645781,10.043343,0.74757594,-0.8649467,-1.4120301,0.44606063,1
2.0799999999999996,,,,,16.757978,-3.2660716,-4.885777,2.367399,0.07952805,0.00294232,1.8059984,0.31452715,-0.025840824,-0.016548239,0.94875234,-9.656761,10.042785,0.8204903,-1.2002467,-1.9150306,0.5368269,1
2.0899999999999994,,,,,17.644693,-3.2049487,-5.795557,2.4197555,-0.01708793,0.103353344,1.8145517,0.31138647,-0.017829526,-0.026317626,0.9497515,-9.666188,10.038819,0.8899446,-1.51927,-2.3756733,0.62638795,1
2.099999999999999,,,,,17.644693,-3.2049487,-5.795557,2.4197555,-0.11379206,0.20370191,1.823841,0.30766493,-0.007909046,-0.03823309,0.95069337,-9.674325,10.030113,0.9678823,-1.781768,-2.909211,0.71438897,1
2.109999999999999,,,,,17.644693,-3.2049487,-5.795557,2.4197555,-0.21056667,0.30393696,1.8339086,0.30333906,0.003958703,-0.052036382,0.9514525,-9.680204,10.015981,1.0455549,-2.003321,-3.359547,0.7980718,1
2.1199999999999988,,,,,17.644693,-3.2049487,-5.795557,2.4197555,-0.30738676,0.40400028,1.8447504,0.2984009,0.017464973,-0.06741842,0.95189625,-9.683351,9.99566,1.1226879,-2.1903238,-3.7396514,0.87764835,1
2.1299999999999986,,,,,16.257084,-2.9995332,-5.3677044,2.7119207,-0.4042228,0.5038268,1.8563594,0.29284534,0.032343753,-0.08411469,0.95190334,-9.683335,9.968542,1.1989245,-2.3481715,-4.060474,0.95332,1
2.1399999999999983,,,,,16.257084,-2.9995332,-5.3677044,2.7119207,-0.5010424,0.60335916,1.8686563,0.28664958,0.048222538,-0.10177155,0.9513932,-9.680067,9.936872,1.2602322,-2.449385,-4.2645364,1.039615,1
2.149999999999998,,,,,16.257084,-2.9995332,-5.3677044,2.7119207,-0.597812,0.7025404,1.8815583,0.27979982,0.06478738,-0.120096356,0.9503112,-9.67328,9.898271,1.3198915,-2.5348268,-4.436768,1.1216756,1
2.159999999999998,,,,,16.257084,-2.9995332,-5.3677044,2.7119207,-0.69449514,0.80130035,1.8950468,0.27230915,0.08190254,-0.13896006,0.9485935,-9.662752,9.852607,1.3774439,-2.6069586,-4.582132,1.1997094,1
2.1699999999999977,,,,,14.273161,-2.5992143,-4.10852,2.953128,-0.7910535,0.8995681,1.9090984,0.2641932,0.09944875,-0.15825021,0.94618636,-9.648291,9.799826,1.4324073,-2.6678572,-4.7048182,1.2739141,1
2.1799999999999975,,,,,14.273161,-2.5992143,-4.10852,2.953128,-0.8874577,0.9973084,1.9235927,0.25551027,0.11688231,-0.17759016,0.9431408,-9.632013,9.747275,1.4659932,-2.6569815,-4.6119595,1.3563136,1
2.1899999999999973,,,,,14.273161,-2.5992143,-4.10852,2.953128,-0.98368144,1.0944929,1.9384079,0.24632537,0.13376638,-0.19668667,0.93954486,-9.61217,9.688732,1.4965279,-2.6478102,-4.533576,1.4346696,1
