time-since-start [s],throttle_mpc,roll_mpc,pitch_mpc,yaw_mpc,throttle_nw,roll_nw,pitch_nw,yaw_nw,position_x [m],position_y [m],position_z [m],rotation_w [quaternion],rotation_x [quaternion],rotation_y [quaternion],rotation_z [quaternion],velocity_x [m/s],velocity_y [m/s],velocity_z [m/s],omega_x [rad/s],omega_y [rad/s],omega_z [rad/s],network_used
0.0,7.70003042385644,5.9999959185953955,-5.999999905828966,-4.315367156553692,820.37366,2392.3052,677.2989,83.28321,20.00948,-9.529848,1.6607025,-0.017620968,-0.4315318,0.18823953,0.8820633,-11.443659,-2.79934,-0.22994824,0.3709557,0.34312135,0.47635862,0
0.01,7.70003042385644,5.9999959185953955,-5.999999905828966,-4.315367156553692,386.957,1658.8323,254.99324,-91.36491,19.894753,-9.557714,1.6581289,0.02001005,-0.40917963,0.20569907,0.8887404,-11.501418,-2.7730331,-0.28448713,5.9999957,-6.0,-4.315367,0
0.02,7.70003042385644,5.9999959185953955,-5.999999905828966,-4.315367156553692,386.957,1658.8323,254.99324,-91.36491,19.779467,-9.585293,1.6550189,0.057595745,-0.38590065,0.2226927,0.8934044,-11.555231,-2.7418456,-0.33722958,5.9999957,-6.0,-4.315367,0
0.03,7.70003042385644,5.9999959185953955,-5.999999905828966,-4.315367156553692,386.957,1658.8323,254.99324,-91.36491,19.663662,-9.612535,1.6513901,0.095050976,-0.36174753,0.2391819,0.8960447,-11.60462,-2.7061605,-0.38828704,5.9999957,-6.0,-4.315367,0
0.04,7.70003042385644,5.9999959185953955,-5.999999905828966,-4.315367156553692,231.99957,1349.9491,194.63905,-638.2018,19.547388,-9.6394005,1.6472585,0.1322909,-0.33677506,0.2551293,0.89665526,-11.649151,-2.6664023,-0.43778622,5.9999957,-6.0,-4.315367,0
0.05,7.70003042385644,5.9999959185953955,-5.999999905828966,-4.315367156553692,231.99957,1349.9491,194.63905,-638.2018,19.430695,-9.665851,1.6426393,0.16923116,-0.31103975,0.27049878,0.89523476,-11.688431,-2.6230323,-0.48586795,5.9999957,-6.0,-4.315367,0
0.060000000000000005,7.70003042385644,5.9999959185953955,-5.999999905828966,-4.315367156553692,231.99957,1349.9491,194.63905,-638.2018,19.313637,-9.691851,1.6375456,0.2057881,-0.28459987,0.28525555,0.8917865,-11.722115,-2.5765438,-0.5326858,5.9999957,-6.0,-4.315367,0
0.07,7.70003042385644,5.9999959185953955,-5.999999905828966,-4.315367156553692,231.99957,1349.9491,194.63905,-638.2018,19.196272,-9.717372,1.6319894,0.24187891,-0.2575153,0.2993662,0.88631827,-11.74991,-2.527459,-0.57840496,5.9999957,-6.0,-4.315367,0
0.08,15.109075791225665,4.450956051151862,-5.999999814687647,-0.9295459164506503,14.805295,0.35293466,-4.3050385,-3.1141584,19.078661,-9.742392,1.6259807,0.27742186,-0.22984748,0.31279874,0.87884235,-11.771578,-2.476323,-0.6232004,5.9999957,-6.0,-4.315367,0
0.09,15.109075791225665,4.450956051151862,-5.999999814687647,-0.9295459164506503,14.805295,0.35293466,-4.3050385,-3.1141584,18.960783,-9.766642,1.6197885,0.29580477,-0.19860658,0.32274225,0.8768649,-11.802267,-2.3735838,-0.6148986,4.450956,-6.0,-0.92954594,0
0.09999999999999999,15.109075791225665,4.450956051151862,-5.999999814687647,-0.9295459164506503,14.805295,0.35293466,-4.3050385,-3.1141584,18.842653,-9.789861,1.6136894,0.31376857,-0.1670843,0.33222857,0.8736452,-11.821863,-2.2701573,-0.6046593,4.450956,-6.0,-0.92954594,0
0.10999999999999999,15.109075791225665,4.450956051151862,-5.999999814687647,-0.9295459164506503,14.805295,0.35293466,-4.3050385,-3.1141584,18.724384,-9.812044,1.6077001,0.33128786,-0.13532531,0.3412442,0.8691878,-11.830266,-2.1666965,-0.59301555,4.450956,-6.0,-0.92954594,0
0.11999999999999998,15.109075791225665,4.450956051151862,-5.999999814687647,-0.9295459164506503,14.805295,0.35293466,-4.3050385,-3.1141584,18.606089,-9.833197,1.6018322,0.34833783,-0.103374615,0.3497764,0.86349905,-11.8274355,-2.0638545,-0.5805082,4.450956,-6.0,-0.92954594,0
0.12999999999999998,19.724244196993066,1.7745113704975657,-5.999999475905966,0.8570072354902671,16.758007,-0.2828571,-0.19513986,-1.5068341,18.487875,-9.853326,1.5960912,0.3648943,-0.07127747,0.35781306,0.85658693,-11.813398,-1.9622816,-0.5676829,4.450956,-6.0,-0.92954594,0
0.13999999999999999,19.724244196993066,1.7745113704975657,-5.999999475905966,0.8570072354902671,16.758007,-0.2828571,-0.19513986,-1.5068341,18.369888,-9.872298,1.5906501,0.3724074,-0.04077861,0.3545939,0.856687,-11.781887,-1.8330822,-0.5201558,1.7745113,-5.9999995,0.85700727,0
0.15,19.724244196993066,1.7745113704975657,-5.999999475905966,0.8570072354902671,16.758007,-0.2828571,-0.19513986,-1.5068341,18.252274,-9.890006,1.5856949,0.37954926,-0.010239094,0.3510212,0.855933,-11.739521,-1.7093875,-0.4706166,1.7745113,-5.9999995,0.85700727,0
0.16,19.5954950206117,-0.45853055553493116,-4.201382368256728,0.9856560576528623,17.122162,-2.694878,0.46509382,-0.68289053,18.135136,-9.906507,1.5812424,0.3863127,0.020310635,0.34709853,0.85432565,-11.686417,-1.5916156,-0.41971174,1.7745113,-5.9999995,0.85700727,0
0.17,19.5954950206117,-0.45853055553493116,-4.201382368256728,0.9856560576528623,17.122162,-2.694878,0.46509382,-0.68289053,18.018574,-9.921864,1.5773003,0.3893492,0.03907604,0.33684358,0.8563974,-11.625125,-1.4807304,-0.3683431,-0.45853055,-4.201382,0.9856561,0
0.18000000000000002,19.5954950206117,-0.45853055553493116,-4.201382368256728,0.9856560576528623,17.122162,-2.694878,0.46509382,-0.68289053,17.90265,-9.936143,1.5738832,0.39220238,0.057823054,0.32643008,0.8580659,-11.558692,-1.3759537,-0.31478107,-0.45853055,-4.201382,0.9856561,0
0.19000000000000003,19.5954950206117,-0.45853055553493116,-4.201382368256728,0.9856560576528623,17.122162,-2.694878,0.46509382,-0.68289053,17.787416,-9.949405,1.5710112,0.3948709,0.07654285,0.3158629,0.8593304,-11.487178,-1.2774401,-0.259344,-0.45853055,-4.201382,0.9856561,0
0.20000000000000004,18.34068057486609,-0.5514335443677748,-1.5370985786062958,0.7791798459966819,16.858017,-3.3259342,3.655335,-0.88975656,17.672924,-9.961714,1.5687016,0.39735353,0.095226586,0.305147,0.8601903,-11.410651,-1.1853327,-0.20235401,-0.45853055,-4.201382,0.9856561,0
0.21000000000000005,18.34068057486609,-0.5514335443677748,-1.5370985786062958,0.7791798459966819,16.858017,-3.3259342,3.655335,-0.88975656,17.559193,-9.973157,1.5669181,0.3965938,0.10192683,0.29933804,0.8618126,-11.335661,-1.1039042,-0.1542239,-0.55143356,-1.5370985,0.7791799,0
0.22000000000000006,18.34068057486609,-0.5514335443677748,-1.5370985786062958,0.7791798459966819,16.858017,-3.3259342,3.655335,-0.88975656,17.446215,-9.983801,1.56562,0.39580166,0.10861874,0.2935046,0.86336446,-11.259426,-1.025085,-0.105309695,-0.55143356,-1.5370985,0.7791799,0
0.23000000000000007,18.34068057486609,-0.5514335443677748,-1.5370985786062958,0.7791798459966819,16.858017,-3.3259342,3.655335,-0.88975656,17.334007,-9.9936695,1.5648146,0.3949771,0.115301766,0.28764713,0.8648455,-11.181949,-0.9488904,-0.055663235,-0.55143356,-1.5370985,0.7791799,0
0.24000000000000007,18.34068057486609,-0.5514335443677748,-1.5370985786062958,0.7791798459966819,15.84138,-2.7782693,4.978067,-0.7078098,17.22258,-10.002788,1.5645092,0.39412022,0.12197534,0.28176612,0.8662558,-11.10323,-0.87533545,-0.0053365994,-0.55143356,-1.5370985,0.7791799,0
0.25000000000000006,18.34068057486609,-0.5514335443677748,-1.5370985786062958,0.7791798459966819,15.84138,-2.7782693,4.978067,-0.7078098,17.111946,-10.011185,1.5647101,0.3932311,0.12863894,0.27586204,0.86759526,-11.0232725,-0.804434,0.045617893,-0.55143356,-1.5370985,0.7791799,0
0.26000000000000006,18.34068057486609,-0.5514335443677748,-1.5370985786062958,0.7791798459966819,15.84138,-2.7782693,4.978067,-0.7078098,17.00212,-10.018886,1.5654236,0.39230976,0.13529202,0.26993537,0.86886364,-10.942079,-0.7361993,0.09714774,-0.55143356,-1.5370985,0.7791799,0
0.2700000000000001,18.34068057486609,-0.5514335443677748,-1.5370985786062958,0.7791798459966819,15.84138,-2.7782693,4.978067,-0.7078098,16.893106,-10.025918,1.5666549,0.39135632,0.14193402,0.26398662,0.870061,-10.859653,-0.6706435,0.14920026,-0.55143356,-1.5370985,0.7791799,0
0.2800000000000001,16.578766194177472,-0.9998338710477709,2.011835740844926,0.42492936635516976,15.081455,-2.1873636,5.002113,-0.4713863,16.784927,-10.032308,1.5684091,0.39037088,0.14856441,0.25801626,0.8711871,-10.775998,-0.60777795,0.20172255,-0.55143356,-1.5370985,0.7791799,0
0.2900000000000001,16.578766194177472,-0.9998338710477709,2.011835740844926,0.42492936635516976,15.081455,-2.1873636,5.002113,-0.4713863,16.677546,-10.038107,1.570619,0.38664174,0.13838817,0.25725535,0.87474376,-10.70088,-0.5518834,0.24043477,-0.9998339,2.0118358,0.42492938,0
0.3000000000000001,16.578766194177472,-0.9998338710477709,2.011835740844926,0.42492936635516976,15.081455,-2.1873636,5.002113,-0.4713863,16.5709,-10.04334,1.5732214,0.3828621,0.12819384,0.25646085,0.87818605,-10.62897,-0.49443263,0.28022206,-0.9998339,2.0118358,0.42492938,0
0.3100000000000001,16.578766194177472,-0.9998338710477709,2.011835740844926,0.42492936635516976,15.081455,-2.1873636,5.002113,-0.4713863,16.464956,-10.047991,1.5762268,0.3790324,0.11798275,0.25563282,0.88151366,-10.56031,-0.43546802,0.32102245,-0.9998339,2.0118358,0.42492938,0
0.3200000000000001,15.318115957965508,-0.8498422566988239,4.3638493269697864,0.1739097983813225,14.9874115,-1.7028606,6.010243,-0.14528896,16.359682,-10.052045,1.5796452,0.37515318,0.10775624,0.2547714,0.884726,-10.494937,-0.37503266,0.36277342,-0.9998339,2.0118358,0.42492938,0
0.3300000000000001,15.318115957965508,-0.8498422566988239,4.3638493269697864,0.1739097983813225,14.9874115,-1.7028606,6.010243,-0.14528896,16.25502,-10.055508,1.5834317,0.36919048,0.08705466,0.25904047,0.88826674,-10.438502,-0.31686157,0.39464268,-0.84984225,4.363849,0.1739098,0
0.34000000000000014,15.318115957965508,-0.8498422566988239,4.3638493269697864,0.1739097983813225,14.9874115,-1.7028606,6.010243,-0.14528896,16.150896,-10.05837,1.5875396,0.36304507,0.06631,0.26318133,0.89136785,-10.387608,-0.25476152,0.4269813,-0.84984225,4.363849,0.1739098,0
0.35000000000000014,15.318115957965508,-0.8498422566988239,4.3638493269697864,0.1739097983813225,14.9874115,-1.7028606,6.010243,-0.14528896,16.047253,-10.060591,1.5919721,0.35672003,0.045532525,0.26719198,0.89402795,-10.342361,-0.1888638,0.45953766,-0.84984225,4.363849,0.1739098,0
0.36000000000000015,14.725869378130518,-0.6591729779571747,5.141109676988509,-0.01352431246212684,14.753106,-0.9348671,5.199481,-0.19212236,15.944032,-10.062135,1.5967302,0.35021842,0.024732513,0.2710704,0.89624554,-10.302857,-0.1193071,0.49205974,-0.84984225,4.363849,0.1739098,1
0.37000000000000016,14.725869378130518,-0.6591729779571747,5.141109676988509,-0.01352431246212684,14.753106,-0.9348671,5.199481,-0.19212236,15.841168,-10.062977,1.6017882,0.3440262,-0.00047068158,0.2759143,0.89750594,-10.2708,-0.04866897,0.5194318,-0.9348671,5.199481,-0.19212236,1
0.38000000000000017,14.725869378130518,-0.6591729779571747,5.141109676988509,-0.01352431246212684,14.753106,-0.9348671,5.199481,-0.19212236,15.738593,-10.063094,1.6071165,0.33759367,-0.025673548,0.28056544,0.89813936,-10.24544,0.025884619,0.54606855,-0.9348671,5.199481,-0.19212236,1
0.3900000000000002,14.725869378130518,-0.6591729779571747,5.141109676988509,-0.01352431246212684,14.753106,-0.9348671,5.199481,-0.19212236,15.636237,-10.062447,1.612706,0.3309253,-0.050858475,0.2850206,0.8981453,-10.226839,0.10415627,0.57161415,-0.9348671,5.199481,-0.19212236,1
0.4000000000000002,14.035100220499983,-0.02526725192133693,2.844085239294101,-0.17762794777048171,14.200122,-0.4718446,3.8742726,-0.43734375,15.534034,-10.061,1.6185439,0.32402572,-0.07600787,0.28927663,0.8975238,-10.215044,0.18593821,0.5957158,-0.9348671,5.199481,-0.19212236,0
0.4100000000000002,14.035100220499983,-0.02526725192133693,2.844085239294101,-0.17762794777048171,14.200122,-0.4718446,3.8742726,-0.43734375,15.431916,-10.058739,1.6245853,0.32066685,-0.089060746,0.293674,0.8961006,-10.209057,0.26652083,0.6123666,-0.025267253,2.8440852,-0.17762795,0
0.4200000000000002,14.035100220499983,-0.02526725192133693,2.844085239294101,-0.17762794777048171,14.200122,-0.4718446,3.8742726,-0.43734375,15.329843,-10.055661,1.6307865,0.31724283,-0.10209553,0.29801175,0.8944955,-10.206198,0.34917417,0.6276571,-0.025267253,2.8440852,-0.17762795,0
0.4300000000000002,14.035100220499983,-0.02526725192133693,2.844085239294101,-0.17762794777048171,14.200122,-0.4718446,3.8742726,-0.43734375,15.227782,-10.051748,1.6371335,0.31375444,-0.11510959,0.30228898,0.8927088,-10.206467,0.43383586,0.64149225,-0.025267253,2.8440852,-0.17762795,0
0.4400000000000002,14.035100220499983,-0.02526725192133693,2.844085239294101,-0.17762794777048171,13.180511,-0.35665157,2.6316736,-0.34943807,15.125704,-10.046978,1.6436111,0.31020233,-0.12810028,0.30650488,0.8907409,-10.209858,0.52044183,0.6537782,-0.025267253,2.8440852,-0.17762795,1
0.45000000000000023,14.035100220499983,-0.02526725192133693,2.844085239294101,-0.17762794777048171,13.180511,-0.35665157,2.6316736,-0.34943807,15.023577,-10.041361,1.6501706,0.30746934,-0.1408978,0.3087468,0.8889801,-10.215992,0.6033888,0.6579221,-0.35665157,2.6316736,-0.34943807,1
0.46000000000000024,14.035100220499983,-0.02526725192133693,2.844085239294101,-0.17762794777048171,13.180511,-0.35665157,2.6316736,-0.34943807,14.921373,-10.034907,1.656765,0.3046812,-0.15367003,0.31093338,0.88705975,-10.2251,0.68764484,0.66076565,-0.35665157,2.6316736,-0.34943807,1
0.47000000000000025,14.035100220499983,-0.02526725192133693,2.844085239294101,-0.17762794777048171,13.180511,-0.35665157,2.6316736,-0.34943807,14.819064,-10.027605,1.6633811,0.30183843,-0.16641471,0.31306416,0.8849803,-10.237168,0.7731589,0.6622313,-0.35665157,2.6316736,-0.34943807,1
0.48000000000000026,14.056151458690408,0.173057796204952,2.4164911178114945,-0.17637804695761855,12.764476,-0.36612234,1.4650725,-0.42745554,14.7166195,-10.01944,1.6700047,0.29894146,-0.17912954,0.31513882,0.88274217,-10.252184,0.85987884,0.6622426,-0.35665157,2.6316736,-0.34943807,0
0.49000000000000027,14.056151458690408,0.173057796204952,2.4164911178114945,-0.17637804695761855,12.764476,-0.36612234,1.4650725,-0.42745554,14.614006,-10.010373,1.6766528,0.2960453,-0.189801,0.31933329,0.87997645,-10.271057,0.953717,0.6670739,0.1730578,2.416491,-0.17637804,0
0.5000000000000002,14.056151458690408,0.173057796204952,2.4164911178114945,-0.17637804695761855,12.764476,-0.36612234,1.4650725,-0.42745554,14.511191,-10.0003605,1.6833398,0.29310545,-0.20044446,0.3234806,0.8770809,-10.292333,1.0490706,0.6700269,0.1730578,2.416491,-0.17637804,0
0.5100000000000002,14.056151458690408,0.173057796204952,2.4164911178114945,-0.17637804695761855,12.764476,-0.36612234,1.4650725,-0.42745554,14.408152,-9.989387,1.6900467,0.2901224,-0.21105836,0.32758024,0.87405604,-10.315994,1.1458871,0.67103976,0.1730578,2.416491,-0.17637804,0
0.5200000000000002,13.586722980812965,0.7879612975441642,0.4621366325788532,-0.22206444969748787,12.691012,0.07424876,0.23356202,-0.4460899,14.304863,-9.977438,1.6967537,0.28709656,-0.22164112,0.33163157,0.8709022,-10.342023,1.2441134,0.6700519,0.1730578,2.416491,-0.17637804,1
0.5300000000000002,13.586722980812965,0.7879612975441642,0.4621366325788532,-0.22206444969748787,12.691012,0.07424876,0.23356202,-0.4460899,14.201319,-9.964549,1.7033962,0.28873315,-0.22329056,0.3317947,0.869877,-10.36691,1.3336337,0.658398,0.07424876,0.23356202,-0.4460899,1
0.5400000000000003,13.586722980812965,0.7879612975441642,0.4621366325788532,-0.22206444969748787,12.691012,0.07424876,0.23356202,-0.4460899,14.097525,-9.950765,1.7099211,0.29036787,-0.22493857,0.3319557,0.8688463,-10.391953,1.4233166,0.6465301,0.07424876,0.23356202,-0.4460899,1
0.5500000000000003,13.586722980812965,0.7879612975441642,0.4621366325788532,-0.22206444969748787,12.691012,0.07424876,0.23356202,-0.4460899,13.993479,-9.936083,1.7163261,0.29200068,-0.22658509,0.33211455,0.8678099,-10.417152,1.5131624,0.6344472,0.07424876,0.23356202,-0.4460899,1
0.5600000000000003,13.823084410261234,1.1403277845157966,0.15235817483171377,-0.17191393045271564,12.481018,0.45917544,-0.7303506,-0.29319257,13.889181,-9.920502,1.7226093,0.29363158,-0.22823015,0.33227125,0.8667679,-10.442505,1.6031711,0.6221485,0.07424876,0.23356202,-0.4460899,0
0.5700000000000003,13.823084410261234,1.1403277845157966,0.15235817483171377,-0.17191393045271564,12.481018,0.45917544,-0.7303506,-0.29319257,13.784618,-9.903977,1.7288059,0.29541978,-0.22749801,0.3372351,0.8644325,-10.469889,1.7017052,0.61704713,1.1403278,0.15235817,-0.17191394,0
0.5800000000000003,13.823084410261234,1.1403277845157966,0.15235817483171377,-0.17191393045271564,12.481018,0.45917544,-0.7303506,-0.29319257,13.679787,-9.886464,1.7349474,0.297198,-0.22675818,0.34218752,0.8620679,-10.496378,1.801259,0.61111516,1.1403278,0.15235817,-0.17191394,0
0.5900000000000003,13.823084410261234,1.1403277845157966,0.15235817483171377,-0.17191393045271564,12.481018,0.45917544,-0.7303506,-0.29319257,13.574695,-9.86795,1.7410254,0.29896617,-0.22601068,0.3471284,0.85967404,-10.521968,1.9018184,0.6043418,1.1403278,0.15235817,-0.17191394,0
0.6000000000000003,13.389082694403982,1.4186501937206974,-0.8833081454630556,-0.21274868316491258,12.220567,0.7524891,-0.86627626,-0.26181632,13.469352,-9.848425,1.7470315,0.30072424,-0.22525555,0.35205752,0.8572511,-10.546652,2.0033696,0.59671646,1.1403278,0.15235817,-0.17191394,0
0.6100000000000003,13.389082694403982,1.4186501937206974,-0.8833081454630556,-0.21274868316491258,12.220567,0.7524891,-0.86627626,-0.26181632,13.363771,-9.827896,1.7529435,0.30477813,-0.21970291,0.3565579,0.8553984,-10.569211,2.1025712,0.58565944,1.4186502,-0.8833082,-0.21274868,0
0.6200000000000003,13.389082694403982,1.4186501937206974,-0.8833081454630556,-0.21274868316491258,12.220567,0.7524891,-0.86627626,-0.26181632,13.257975,-9.806372,1.758744,0.30881035,-0.2141347,0.361033,0.85348505,-10.589634,2.2024088,0.5744023,1.4186502,-0.8833082,-0.21274868,0
0.6300000000000003,13.389082694403982,1.4186501937206974,-0.8833081454630556,-0.21274868316491258,12.220567,0.7524891,-0.86627626,-0.26181632,13.151985,-9.783846,1.7644308,0.31282067,-0.20855129,0.36548248,0.8515112,-10.607914,2.3028517,0.5629244,1.4186502,-0.8833082,-0.21274868,0
0.6400000000000003,13.389082694403982,1.4186501937206974,-0.8833081454630556,-0.21274868316491258,11.75548,0.8074301,-1.0288258,-0.21285781,13.045824,-9.760313,1.7700016,0.31680876,-0.20295309,0.369906,0.8494769,-10.624044,2.4038692,0.5512051,1.4186502,-0.8833082,-0.21274868,0
0.6500000000000004,13.389082694403982,1.4186501937206974,-0.8833081454630556,-0.21274868316491258,11.75548,0.8074301,-1.0288258,-0.21285781,12.939511,-9.735767,1.7754539,0.3207744,-0.19734049,0.3743033,0.84738225,-10.638021,2.5054297,0.53922397,1.4186502,-0.8833082,-0.21274868,0
0.6600000000000004,13.389082694403982,1.4186501937206974,-0.8833081454630556,-0.21274868316491258,11.75548,0.8074301,-1.0288258,-0.21285781,12.833071,-9.710203,1.7807851,0.32471725,-0.19171388,0.378674,0.84522754,-10.649838,2.6075025,0.5269604,1.4186502,-0.8833082,-0.21274868,0
0.6700000000000004,13.389082694403982,1.4186501937206974,-0.8833081454630556,-0.21274868316491258,11.75548,0.8074301,-1.0288258,-0.21285781,12.726523,-9.683616,1.7859921,0.3286371,-0.18607369,0.38301787,0.8430128,-10.65949,2.7100558,0.51439416,1.4186502,-0.8833082,-0.21274868,0
0.6800000000000004,13.706455916782103,1.0741697911434762,0.13450184730770476,-0.20559698760247586,11.763899,0.67795753,-1.0173994,-0.18095937,12.619889,-9.656001,1.7910718,0.33253363,-0.1804203,0.38733456,0.8407383,-10.666974,2.8130581,0.5015049,1.4186502,-0.8833082,-0.21274868,0
0.6900000000000004,13.706455916782103,1.0741697911434762,0.13450184730770476,-0.20559698760247586,11.763899,0.67795753,-1.0173994,-0.18095937,12.513188,-9.627341,1.7960305,0.33410138,-0.17959516,0.3918823,0.83818203,-10.672912,2.919066,0.49008602,1.0741698,0.13450184,-0.20559698,0
0.7000000000000004,13.706455916782103,1.0741697911434762,0.13450184730770476,-0.20559698760247586,11.763899,0.67795753,-1.0173994,-0.18095937,12.406433,-9.597617,1.8008705,0.33565897,-0.17876457,0.39641815,0.8356004,-10.677949,3.025844,0.47777393,1.0741698,0.13450184,-0.20559698,0
0.7100000000000004,13.706455916782103,1.0741697911434762,0.13450184730770476,-0.20559698760247586,11.763899,0.67795753,-1.0173994,-0.18095937,12.299632,-9.566821,1.805583,0.33720636,-0.17792855,0.40094197,0.8329933,-10.682082,3.133379,0.46456006,1.0741698,0.13450184,-0.20559698,0
0.7200000000000004,13.414222061365473,0.9770872940164116,-0.6416237480180962,-0.24993594734038416,11.921028,0.4758259,-0.72428083,-0.1991375,12.192794,-9.534947,1.8101587,0.3387435,-0.17708713,0.40545362,0.830361,-10.685309,3.2416573,0.45043597,1.0741698,0.13450184,-0.20559698,0
0.7300000000000004,13.414222061365473,0.9770872940164116,-0.6416237480180962,-0.24993594734038416,11.921028,0.4758259,-0.72428083,-0.1991375,12.085929,-9.501999,1.8145806,0.341941,-0.17327186,0.40819502,0.82851017,-10.687336,3.348155,0.43387154,0.9770873,-0.64162374,-0.24993594,0
0.7400000000000004,13.414222061365473,0.9770872940164116,-0.6416237480180962,-0.24993594734038416,11.921028,0.4758259,-0.72428083,-0.1991375,11.979052,-9.467983,1.8188354,0.3451263,-0.1694504,0.4109218,0.82662964,-10.687828,3.4548564,0.4170643,0.9770873,-0.64162374,-0.24993594,0
0.7500000000000004,13.414222061365473,0.9770872940164116,-0.6416237480180962,-0.24993594734038416,11.921028,0.4758259,-0.72428083,-0.1991375,11.872178,-9.432899,1.8229209,0.3482993,-0.16562292,0.41363394,0.82471967,-10.686783,3.5617445,0.4000062,0.9770873,-0.64162374,-0.24993594,0
0.7600000000000005,13.820909034577065,0.6309195258181153,-0.05191644156317297,-0.21624657921388288,12.421891,0.6762844,-0.81157124,-0.16156009,11.765322,-9.396748,1.8268346,0.35145983,-0.1617895,0.4163313,0.82278025,-10.6842,3.6688023,0.38268918,0.9770873,-0.64162374,-0.24993594,0
0.7700000000000005,13.820909034577065,0.6309195258181153,-0.05191644156317297,-0.21624657921388288,12.421891,0.6762844,-0.81157124,-0.16156009,11.658499,-9.359507,1.8305857,0.35296592,-0.16091646,0.41865835,0.8211243,-10.680298,3.7793274,0.3674787,0.6309195,-0.051916443,-0.21624658,0
0.7800000000000005,13.820909034577065,0.6309195258181153,-0.05191644156317297,-0.21624657921388288,12.421891,0.6762844,-0.81157124,-0.16156009,11.55172,-9.321159,1.8341824,0.35446808,-0.16004162,0.4209807,0.81945914,-10.675722,3.8901703,0.35180816,0.6309195,-0.051916443,-0.21624658,0
0.7900000000000005,13.820909034577065,0.6309195258181153,-0.05191644156317297,-0.21624657921388288,12.421891,0.6762844,-0.81157124,-0.16156009,11.444988,-9.281702,1.8376201,0.35596627,-0.15916498,0.42329836,0.81778485,-10.670473,4.0013256,0.33567545,0.6309195,-0.051916443,-0.21624658,0
0.8000000000000005,13.543959132184865,0.5795166056352327,-1.1859599770467102,-0.2111632181791083,12.633018,0.50372505,-0.8954836,-0.20549147,11.338314,-9.241131,1.8408943,0.35746047,-0.15828656,0.42561126,0.8161014,-10.664548,4.1127872,0.31907845,0.6309195,-0.051916443,-0.21624658,1
0.8100000000000005,13.543959132184865,0.5795166056352327,-1.1859599770467102,-0.2111632181791083,12.633018,0.50372505,-0.8954836,-0.20549147,11.231698,-9.199492,1.843966,0.3605984,-0.15416735,0.42589772,0.81535965,-10.65828,4.214742,0.29530945,0.50372505,-0.8954836,-0.20549147,1
0.8200000000000005,13.543959132184865,0.5795166056352327,-1.1859599770467102,-0.2111632181791083,12.633018,0.50372505,-0.8954836,-0.20549147,11.125152,-9.1568365,1.8468013,0.36372638,-0.15004393,0.4261725,0.8145955,-10.650772,4.316422,0.27180183,0.50372505,-0.8954836,-0.20549147,1
0.8300000000000005,13.543959132184865,0.5795166056352327,-1.1859599770467102,-0.2111632181791083,12.633018,0.50372505,-0.8954836,-0.20549147,11.018687,-9.113165,1.8494029,0.36684436,-0.1459164,0.4264356,0.8138091,-10.642024,4.4178143,0.24854986,0.50372505,-0.8954836,-0.20549147,1
0.8400000000000005,13.543959132184865,0.5795166056352327,-1.1859599770467102,-0.2111632181791083,12.814274,0.533671,-1.156975,-0.21691112,10.912316,-9.0684805,1.8517731,0.36995232,-0.14178485,0.426687,0.8130003,-10.632039,4.5189075,0.22554766,0.50372505,-0.8954836,-0.20549147,1
0.8500000000000005,13.543959132184865,0.5795166056352327,-1.1859599770467102,-0.2111632181791083,12.814274,0.533671,-1.156975,-0.21691112,10.806052,-9.022779,1.8539202,0.37367296,-0.13655443,0.42655358,0.8122637,-10.620559,4.621079,0.20393011,0.533671,-1.156975,-0.21691112,1
0.8600000000000005,13.543959132184865,0.5795166056352327,-1.1859599770467102,-0.2111632181791083,12.814274,0.533671,-1.156975,-0.21691112,10.69991,-8.97606,1.8558532,0.37737805,-0.1313183,0.42640233,0.8114933,-10.607571,4.722769,0.1827112,0.533671,-1.156975,-0.21691112,1
0.8700000000000006,13.543959132184865,0.5795166056352327,-1.1859599770467102,-0.2111632181791083,12.814274,0.533671,-1.156975,-0.21691112,10.593905,-8.928326,1.8575759,0.38106734,-0.12607668,0.4262333,0.810689,-10.593078,4.82396,0.16188115,0.533671,-1.156975,-0.21691112,1
0.8800000000000006,14.155194221943539,0.31751514138280323,-0.3584510732701418,-0.18080310289304646,13.073976,0.49722034,-1.1756077,-0.23352432,10.488053,-8.879581,1.8590921,0.3847407,-0.1208298,0.42604646,0.8098508,-10.577084,4.9246335,0.14143011,0.533671,-1.156975,-0.21691112,0
0.8900000000000006,14.155194221943539,0.31751514138280323,-0.3584510732701418,-0.18080310289304646,13.073976,0.49722034,-1.1756077,-0.23352432,10.382377,-8.829781,1.8604461,0.38642696,-0.11915229,0.426532,0.80904055,-10.55813,5.0354333,0.12935987,0.31751513,-0.35845107,-0.1808031,0
0.9000000000000006,14.155194221943539,0.31751514138280323,-0.3584510732701418,-0.18080310289304646,13.073976,0.49722034,-1.1756077,-0.23352432,10.276893,-8.778873,1.8616793,0.3881107,-0.117474005,0.4270147,0.808225,-10.538508,5.1461196,0.11728604,0.31751513,-0.35845107,-0.1808031,0
0.9100000000000006,14.155194221943539,0.31751514138280323,-0.3584510732701418,-0.18080310289304646,13.073976,0.49722034,-1.1756077,-0.23352432,10.171608,-8.72686,1.8627918,0.3897919,-0.11579495,0.42749465,0.8074041,-10.518219,5.2566886,0.10520762,0.31751513,-0.35845107,-0.1808031,0
0.9200000000000006,14.082179022267677,0.17276509529698933,-0.895901681619677,-0.16308962086582293,13.277253,0.3216723,-1.1040723,-0.22383326,10.06653,-8.673741,1.8637835,0.39147055,-0.114115134,0.42797175,0.8065779,-10.497263,5.3671374,0.093123615,0.31751513,-0.35845107,-0.1808031,1
0.9300000000000006,14.082179022267677,0.17276509529698933,-0.895901681619677,-0.16308962086582293,13.277253,0.3216723,-1.1040723,-0.22383326,9.961659,-8.619553,1.8646281,0.3949126,-0.10950994,0.4269729,0.8060676,-10.476732,5.4704213,0.07588919,0.3216723,-1.1040723,-0.22383326,1
0.9400000000000006,14.082179022267677,0.17276509529698933,-0.895901681619677,-0.16308962086582293,13.277253,0.3216723,-1.1040723,-0.22383326,9.857,-8.564335,1.8653029,0.39834112,-0.10490099,0.4259594,0.8055296,-10.454916,5.573049,0.059151907,0.3216723,-1.1040723,-0.22383326,1
0.9500000000000006,14.082179022267677,0.17276509529698933,-0.895901681619677,-0.16308962086582293,13.277253,0.3216723,-1.1040723,-0.22383326,9.752565,-8.508094,1.8658128,0.40175596,-0.10028845,0.42493132,0.80496395,-10.431818,5.6750054,0.042903453,0.3216723,-1.1040723,-0.22383326,1
0.9600000000000006,14.327335357502896,-0.12484127599428557,-0.280518036765397,-0.11641283412542294,13.383667,0.39470777,-1.1189542,-0.22958015,9.648367,-8.450837,1.8661627,0.40515706,-0.095672466,0.42388862,0.80437064,-10.407444,5.776276,0.027135484,0.3216723,-1.1040723,-0.22383326,1
0.9700000000000006,14.327335357502896,-0.12484127599428557,-0.280518036765397,-0.11641283412542294,13.383667,0.39470777,-1.1189542,-0.22958015,9.544422,-8.392568,1.8663604,0.40863335,-0.090857476,0.42309177,0.8035896,-10.381561,5.877658,0.012484716,0.39470777,-1.1189542,-0.22958015,1
0.9800000000000006,14.327335357502896,-0.12484127599428557,-0.280518036765397,-0.11641283412542294,13.383667,0.39470777,-1.1189542,-0.22958015,9.4407425,-8.333287,1.8664137,0.4120947,-0.08603916,0.42227945,0.8027792,-10.354319,5.978336,-0.001748387,0.39470777,-1.1189542,-0.22958015,1
0.9900000000000007,14.327335357502896,-0.12484127599428557,-0.280518036765397,-0.11641283412542294,13.383667,0.39470777,-1.1189542,-0.22958015,9.33734,-8.273004,1.8663268,0.41554102,-0.081217706,0.42145172,0.8019395,-10.325719,6.0782948,-0.01557296,0.39470777,-1.1189542,-0.22958015,1
1.0000000000000007,14.26924908977758,-0.47149687080017005,-0.4385956773921907,-0.07026504191792811,13.297427,0.25302324,-1.102397,-0.22258711,9.234231,-8.211723,1.8661038,0.4189722,-0.076393284,0.4206086,0.8010705,-10.29577,6.1775184,-0.028998196,0.39470777,-1.1189542,-0.22958015,1
1.0100000000000007,14.26924908977758,-0.47149687080017005,-0.4385956773921907,-0.07026504191792811,13.297427,0.25302324,-1.102397,-0.22258711,9.131427,-8.14946,1.8657457,0.4222718,-0.07191461,0.4192207,0.80047995,-10.264736,6.27534,-0.042542215,0.25302324,-1.102397,-0.22258711,1
1.0200000000000007,14.26924908977758,-0.47149687080017005,-0.4385956773921907,-0.07026504191792811,13.297427,0.25302324,-1.102397,-0.22258711,9.028939,-8.086221,1.8652546,0.42555737,-0.06743356,0.41781884,0.7998627,-10.232527,6.3723593,-0.055602778,0.25302324,-1.102397,-0.22258711,1
1.0300000000000007,14.26924908977758,-0.47149687080017005,-0.4385956773921907,-0.07026504191792811,13.297427,0.25302324,-1.102397,-0.22258711,8.92678,-8.022015,1.8646353,0.4288288,-0.06295025,0.4164031,0.7992189,-10.199146,6.468562,-0.06818842,0.25302324,-1.102397,-0.22258711,1
1.0400000000000007,14.26924908977758,-0.47149687080017005,-0.4385956773921907,-0.07026504191792811,13.225933,0.22524375,-0.98446584,-0.22294363,8.824961,-7.9568515,1.8638926,0.43208596,-0.058464862,0.41497353,0.7985485,-10.1646,6.563935,-0.08030775,0.25302324,-1.102397,-0.22258711,0
1.0500000000000007,14.26924908977758,-0.47149687080017005,-0.4385956773921907,-0.07026504191792811,13.225933,0.22524375,-0.98446584,-0.22294363,8.723504,-7.8907037,1.8630625,0.43313643,-0.057877783,0.41212067,0.79949903,-10.126795,6.6654916,-0.08557478,-0.47149688,-0.43859568,-0.07026504,0
1.0600000000000007,14.26924908977758,-0.47149687080017005,-0.4385956773921907,-0.07026504191792811,13.225933,0.22524375,-0.98446584,-0.22294363,8.622425,-7.823543,1.8621835,0.43418238,-0.057290096,0.40926352,0.80044115,-10.089101,6.7664537,-0.09015037,-0.47149688,-0.43859568,-0.07026504,0
1.0700000000000007,14.26924908977758,-0.47149687080017005,-0.4385956773921907,-0.07026504191792811,13.225933,0.22524375,-0.98446584,-0.22294363,8.521722,-7.7553763,1.861262,0.43522376,-0.056701813,0.40640208,0.8013749,-10.051518,6.866817,-0.09403832,-0.47149688,-0.43859568,-0.07026504,0
1.0800000000000007,14.414970845427973,-0.8456286386263588,0.213966220481318,-0.010104180679694775,13.244741,0.016859949,-0.64507055,-0.16120706,8.421393,-7.686209,1.860305,0.43626058,-0.056112934,0.40353635,0.8023002,-10.014052,6.9665775,-0.097242504,-0.47149688,-0.43859568,-0.07026504,0
1.0900000000000007,14.414970845427973,-0.8456286386263588,0.213966220481318,-0.010104180679694775,13.244741,0.016859949,-0.64507055,-0.16120706,8.321441,-7.6160417,1.8593242,0.435628,-0.058835678,0.40060416,0.8039167,-9.976687,7.0669146,-0.098826036,-0.8456286,0.21396622,-0.01010418,0
1.1000000000000008,14.414970845427973,-0.8456286386263588,0.213966220481318,-0.010104180679694775,13.244741,0.016859949,-0.64507055,-0.16120706,8.221856,-7.5448713,1.8583305,0.43498713,-0.061557304,0.39766434,0.8055179,-9.940425,7.167089,-0.099822804,-0.8456286,0.21396622,-0.01010418,0
1.1100000000000008,14.414970845427973,-0.8456286386263588,0.213966220481318,-0.010104180679694775,13.244741,0.016859949,-0.64507055,-0.16120706,8.122629,-7.4727,1.8573297,0.434338,-0.06427775,0.39471698,0.8071039,-9.905265,7.2670937,-0.100240275,-0.8456286,0.21396622,-0.01010418,0
1.1200000000000008,14.065268189919033,-0.9134422340920916,-0.33465016407262393,0.026405124221310257,13.243752,-0.076109946,-0.8243427,-0.1480888,8.023747,-7.3995295,1.8563278,0.4336806,-0.06699698,0.3917621,0.80867434,-9.871211,7.3669205,-0.10008595,-0.8456286,0.21396622,-0.01010418,1
1.1300000000000008,14.065268189919033,-0.9134422340920916,-0.33465016407262393,0.026405124221310257,13.243752,-0.076109946,-0.8243427,-0.1480888,7.9251895,-7.3254027,1.8552899,0.43586475,-0.064118385,0.38961378,0.80877125,-9.840337,7.4582524,-0.107385084,-0.076109946,-0.8243427,-0.1480888,1
1.1400000000000008,14.065268189919033,-0.9134422340920916,-0.33465016407262393,0.026405124221310257,13.243752,-0.076109946,-0.8243427,-0.1480888,7.8269434,-7.250367,1.8541819,0.4380412,-0.061238654,0.38745856,0.80885386,-9.80887,7.548838,-0.11414163,-0.076109946,-0.8243427,-0.1480888,1
1.1500000000000008,14.065268189919033,-0.9134422340920916,-0.33465016407262393,0.026405124221310257,13.243752,-0.076109946,-0.8243427,-0.1480888,7.7290144,-7.174429,1.853009,0.44020993,-0.058357846,0.38529652,0.8089222,-9.776815,7.6386714,-0.12036098,-0.076109946,-0.8243427,-0.1480888,1
1.1600000000000008,13.939758901307675,-1.1320508374988631,-0.5364487104497144,0.08935437729063073,13.015917,0.0329971,-1.2094615,-0.20733996,7.631409,-7.0975966,1.8517765,0.44237086,-0.055476002,0.38312766,0.8089762,-9.744175,7.7277446,-0.1260486,-0.076109946,-0.8243427,-0.1480888,0
1.1700000000000008,13.939758901307675,-1.1320508374988631,-0.5364487104497144,0.08935437729063073,13.015917,0.0329971,-1.2094615,-0.20733996,7.5341406,-7.0198536,1.8505149,0.44271433,-0.0556378,0.3773794,0.8114753,-9.709715,7.82062,-0.1260761,-1.1320509,-0.5364487,0.08935438,0
1.1800000000000008,13.939758901307675,-1.1320508374988631,-0.5364487104497144,0.08935437729063073,13.015917,0.0329971,-1.2094615,-0.20733996,7.4372125,-6.9411874,1.8492591,0.44304037,-0.055797398,0.3716162,0.8139423,-9.676005,7.9124813,-0.12489559,-1.1320509,-0.5364487,0.08935438,0
1.1900000000000008,13.939758901307675,-1.1320508374988631,-0.5364487104497144,0.08935437729063073,13.015917,0.0329971,-1.2094615,-0.20733996,7.3406177,-6.861608,1.8480211,0.4433489,-0.0559548,0.36583838,0.8163773,-9.643048,8.003313,-0.12252236,-1.1320509,-0.5364487,0.08935438,0
1.2000000000000008,13.645190302249349,-1.2445544990506645,-0.7664339944122246,0.1394293893975635,13.042139,-0.58402187,-1.3840594,-0.20573871,7.244349,-6.7811246,1.8468128,0.44364,-0.056109987,0.36004612,0.81878006,-9.610849,8.0931015,-0.11897198,-1.1320509,-0.5364487,0.08935438,1
1.2100000000000009,13.645190302249349,-1.2445544990506645,-0.7664339944122246,0.1394293893975635,13.042139,-0.58402187,-1.3840594,-0.20573871,7.1483893,-6.6997786,1.8456129,0.44679728,-0.052108064,0.35451704,0.8197398,-9.580982,8.175924,-0.120855294,-0.58402187,-1.3840594,-0.20573871,1
1.2200000000000009,13.645190302249349,-1.2445544990506645,-0.7664339944122246,0.1394293893975635,13.042139,-0.58402187,-1.3840594,-0.20573871,7.0527306,-6.6176114,1.8443997,0.4499289,-0.04810315,0.3489676,0.8206525,-9.550626,8.257229,-0.12160275,-0.58402187,-1.3840594,-0.20573871,1
1.2300000000000009,13.645190302249349,-1.2445544990506645,-0.7664339944122246,0.1394293893975635,13.042139,-0.58402187,-1.3840594,-0.20573871,6.9573784,-6.5346394,1.8431846,0.45303464,-0.044095468,0.3433981,0.82151794,-9.51979,8.336995,-0.12123498,-0.58402187,-1.3840594,-0.20573871,1
1.2400000000000009,13.645190302249349,-1.2445544990506645,-0.7664339944122246,0.1394293893975635,12.919237,-0.54239625,-1.896756,-0.35971716,6.862336,-6.4508767,1.8419787,0.45611432,-0.040085252,0.3378089,0.8223362,-9.488484,8.415205,-0.11977285,-0.58402187,-1.3840594,-0.20573871,0
1.2500000000000009,13.645190302249349,-1.2445544990506645,-0.7664339944122246,0.1394293893975635,12.919237,-0.54239625,-1.896756,-0.35971716,6.7676163,-6.3663216,1.8408161,0.4565738,-0.039535638,0.33096272,0.82488775,-9.455699,8.495493,-0.11252705,-1.2445545,-0.766434,0.13942939,0
1.260000000000001,13.645190302249349,-1.2445544990506645,-0.7664339944122246,0.1394293893975635,12.919237,-0.54239625,-1.896756,-0.35971716,6.6732197,-6.280971,1.8397324,0.45700872,-0.038983893,0.3240987,0.8273948,-9.423631,8.574405,-0.10402825,-1.2445545,-0.766434,0.13942939,0
1.270000000000001,13.645190302249349,-1.2445544990506645,-0.7664339944122246,0.1394293893975635,12.919237,-0.54239625,-1.896756,-0.35971716,6.5791407,-6.194838,1.8387399,0.457419,-0.038430046,0.31721717,0.8298573,-9.3922825,8.651923,-0.09429907,-1.2445545,-0.766434,0.13942939,0
1.280000000000001,13.407736637734128,-1.4415444161790802,-0.883106659196964,0.2663022493506605,13.528999,-0.8651442,-1.6989759,-0.46717417,6.4853716,-6.107938,1.8378507,0.45780462,-0.03787413,0.31031856,0.832275,-9.36166,8.728028,-0.083362445,-1.2445545,-0.766434,0.13942939,1
1.290000000000001,13.407736637734128,-1.4415444161790802,-0.883106659196964,0.2663022493506605,13.528999,-0.8651442,-1.6989759,-0.46717417,6.3919053,-6.020287,1.8370723,0.46219885,-0.0335075,0.3027261,0.83282954,-9.331597,8.801792,-0.072110035,-0.8651442,-1.6989759,-0.46717417,1
1.300000000000001,13.407736637734128,-1.4415444161790802,-0.883106659196964,0.2663022493506605,13.528999,-0.8651442,-1.6989759,-0.46717417,6.298741,-5.931909,1.836413,0.46654856,-0.029137641,0.29510447,0.833304,-9.3011465,8.873382,-0.059527624,-0.8651442,-1.6989759,-0.46717417,1
1.310000000000001,13.407736637734128,-1.4415444161790802,-0.883106659196964,0.2663022493506605,13.528999,-0.8651442,-1.6989759,-0.46717417,6.205883,-5.8428264,1.8358862,0.47085336,-0.024764977,0.28745443,0.8336981,-9.2703285,8.942769,-0.04565221,-0.8651442,-1.6989759,-0.46717417,1
1.320000000000001,13.004703623155445,-1.6218145734120881,-0.634663226237019,0.35912623903839025,13.647594,-0.7038706,-2.1991897,-0.6502383,6.1133356,-5.7530613,1.8355044,0.4751128,-0.020389926,0.27977666,0.8340119,-9.239167,9.00993,-0.03052129,-0.8651442,-1.6989759,-0.46717417,0
1.330000000000001,13.004703623155445,-1.6218145734120881,-0.634663226237019,0.35912623903839025,13.647594,-0.7038706,-2.1991897,-0.6502383,6.0210934,-5.6626477,1.8352579,0.47431892,-0.021092877,0.27153158,0.8371655,-9.209483,9.072584,-0.018598204,-1.6218146,-0.6346632,0.35912624,0
1.340000000000001,13.004703623155445,-1.6218145734120881,-0.634663226237019,0.35912623903839025,13.647594,-0.7038706,-2.1991897,-0.6502383,5.929142,-5.5716147,1.8351364,0.47348756,-0.021794159,0.26326504,0.8402529,-9.181046,9.133746,-0.005512644,-1.6218146,-0.6346632,0.35912624,0
1.350000000000001,13.004703623155445,-1.6218145734120881,-0.634663226237019,0.35912623903839025,13.647594,-0.7038706,-2.1991897,-0.6502383,5.8374686,-5.479978,1.8351516,0.47261876,-0.022493718,0.25497767,0.8432738,-9.153855,9.193393,0.008702594,-1.6218146,-0.6346632,0.35912624,0
1.360000000000001,12.455568725879212,-1.6495136406347748,-1.2999653522131225,0.510854710055176,13.748558,-1.0160351,-1.5621945,-0.46633258,5.746061,-5.3877525,1.8353143,0.4717126,-0.0231915,0.24667016,0.84622806,-9.127915,9.251501,0.024014354,-1.6218146,-0.6346632,0.35912624,0
1.370000000000001,12.455568725879212,-1.6495136406347748,-1.2999653522131225,0.510854710055176,13.748558,-1.0160351,-1.5621945,-0.46633258,5.6549015,-5.2949667,1.8356116,0.47093558,-0.020950273,0.23666981,0.8495686,-9.104106,9.305411,0.03564318,-1.6495136,-1.2999654,0.5108547,0
1.380000000000001,12.455568725879212,-1.6495136406347748,-1.2999653522131225,0.510854710055176,13.748558,-1.0160351,-1.5621945,-0.46633258,5.5639763,-5.201652,1.8360313,0.4701036,-0.0187066,0.22664182,0.85280997,-9.081061,9.357132,0.048482347,-1.6495136,-1.2999654,0.5108547,0
1.390000000000001,12.455568725879212,-1.6495136406347748,-1.2999653522131225,0.510854710055176,13.748558,-1.0160351,-1.5621945,-0.46633258,5.4732776,-5.1078315,1.8365853,0.46921673,-0.01646074,0.21658736,0.85595167,-9.05878,9.406636,0.062482458,-1.6495136,-1.2999654,0.5108547,0
1.400000000000001,12.10848454694457,-1.6531016830184657,-1.071603379827663,0.5513454560233455,13.400808,-0.9079737,-1.8324264,-0.38709617,5.382798,-5.0135274,1.8372849,0.46827504,-0.014212957,0.20650761,0.85899353,-9.037258,9.453897,0.07759359,-1.6495136,-1.2999654,0.5108547,0
1.410000000000001,12.10848454694457,-1.6531016830184657,-1.071603379827663,0.5513454560233455,13.400808,-0.9079737,-1.8324264,-0.38709617,5.2925267,-4.918768,1.8381249,0.46687156,-0.01291098,0.19692712,0.8620225,-9.017132,9.497719,0.09055967,-1.6531017,-1.0716034,0.55134547,0
1.420000000000001,12.10848454694457,-1.6531016830184657,-1.071603379827663,0.5513454560233455,13.400808,-0.9079737,-1.8324264,-0.38709617,5.2024527,-4.82358,1.8390992,0.46541923,-0.0116076525,0.18732601,0.8649613,-8.997895,9.539531,0.10445407,-1.6531017,-1.0716034,0.55134547,0
1.430000000000001,12.10848454694457,-1.6531016830184657,-1.071603379827663,0.5513454560233455,13.400808,-0.9079737,-1.8324264,-0.38709617,5.1125665,-4.727984,1.8402169,0.46391818,-0.01030311,0.17770532,0.8678096,-8.979545,9.579313,0.11923324,-1.6531017,-1.0716034,0.55134547,0
1.440000000000001,12.10848454694457,-1.6531016830184657,-1.071603379827663,0.5513454560233455,12.994738,-0.8871108,-1.6979383,-0.21041568,5.022859,-4.6320004,1.8414866,0.4623686,-0.00899749,0.16806602,0.8705671,-8.962075,9.617044,0.13485329,-1.6531017,-1.0716034,0.55134547,1
1.450000000000001,12.10848454694457,-1.6531016830184657,-1.071603379827663,0.5513454560233455,12.994738,-0.8871108,-1.6979383,-0.21041568,4.93333,-4.5356364,1.8429582,0.46464992,-0.0038339854,0.16026208,0.87086207,-8.943791,9.655264,0.1595982,-0.8871108,-1.6979383,-0.21041568,1
1.460000000000001,12.10848454694457,-1.6531016830184657,-1.071603379827663,0.5513454560233455,12.994738,-0.8871108,-1.6979383,-0.21041568,4.843985,-4.4389033,1.8446808,0.4668881,0.0013298746,0.15244325,0.87107617,-8.925187,9.691106,0.18500964,-0.8871108,-1.6979383,-0.21041568,1
1.470000000000001,12.10848454694457,-1.6531016830184657,-1.071603379827663,0.5513454560233455,12.994738,-0.8871108,-1.6979383,-0.21041568,4.7548275,-4.3418236,1.8466606,0.46908292,0.0064936117,0.14461026,0.8712094,-8.906274,9.724558,0.21104321,-0.8871108,-1.6979383,-0.21041568,1
1.480000000000001,11.729205372914107,-1.5853216800252943,-1.929862600330937,0.6691082687611831,13.246215,-0.72669417,-2.1599317,-0.3787311,4.6658607,-4.2444205,1.8489037,0.47123417,0.011656745,0.13676383,0.8712617,-8.887065,9.755606,0.23765421,-0.8871108,-1.6979383,-0.21041568,0
1.490000000000001,11.729205372914107,-1.5853216800252943,-1.929862600330937,0.6691082687611831,13.246215,-0.72669417,-2.1599317,-0.3787311,4.5770774,-4.146734,1.8513548,0.46969205,0.016784966,0.12526049,0.873737,-8.86966,9.781206,0.25268465,-1.5853217,-1.9298626,0.6691083,0
1.500000000000001,11.729205372914107,-1.5853216800252943,-1.929862600330937,0.6691082687611831,13.246215,-0.72669417,-2.1599317,-0.3787311,4.4884667,-4.048806,1.8539596,0.46807143,0.02191038,0.11373621,0.87606615,-8.852513,9.803961,0.2683605,-1.5853217,-1.9298626,0.6691083,0
1.5100000000000011,11.729205372914107,-1.5853216800252943,-1.929862600330937,0.6691082687611831,13.246215,-0.72669417,-2.1599317,-0.3787311,4.4000263,-3.9506648,1.856724,0.4663726,0.027032133,0.10219293,0.878249,-8.835614,9.8238535,0.28460833,-1.5853217,-1.9298626,0.6691083,0
1.5200000000000011,11.352841477925331,-1.7615197538821885,-0.9613337826134741,0.7479214599135997,12.919382,-1.058244,-2.0497227,0.016882494,4.3117537,-3.852339,1.8596535,0.46459585,0.032149367,0.090632565,0.8802851,-8.818953,9.840869,0.30135438,-1.5853217,-1.9298626,0.6691083,0
1.5300000000000011,11.352841477925331,-1.7615197538821885,-0.9613337826134741,0.7479214599135997,12.919382,-1.058244,-2.0497227,0.016882494,4.2236433,-3.753859,1.8627342,0.46199614,0.03262571,0.08052097,0.8826156,-8.803342,9.85484,0.31483135,-1.7615198,-0.9613338,0.74792147,0
1.5400000000000011,11.352841477925331,-1.7615197538821885,-0.9613337826134741,0.7479214599135997,12.919382,-1.058244,-2.0497227,0.016882494,4.1356835,-3.6552494,1.8659514,0.45934346,0.033098307,0.070400156,0.884845,-8.78873,9.866797,0.32867694,-1.7615198,-0.9613338,0.74792147,0
1.5500000000000012,11.352841477925331,-1.7615197538821885,-0.9613337826134741,0.7479214599135997,12.919382,-1.058244,-2.0497227,0.016882494,4.047865,-3.5565302,1.869309,0.45663813,0.033567112,0.060271263,0.88697296,-8.775107,9.876728,0.34284493,-1.7615198,-0.9613338,0.74792147,0
1.5600000000000012,11.273333729196183,-1.511778559127525,-1.3188575500595983,0.7630885155297255,12.817608,-0.9767317,-1.9524173,0.14547056,3.9601781,-3.4577222,1.8728095,0.45388043,0.034032065,0.050135467,0.8889992,-8.762465,9.884621,0.35728893,-1.7615198,-0.9613338,0.74792147,0
1.5700000000000012,11.273333729196183,-1.511778559127525,-1.3188575500595983,0.7630885155297255,12.817608,-0.9767317,-1.9524173,0.14547056,3.872613,-3.3588455,1.8764516,0.45105025,0.036652826,0.040290054,0.89083433,-8.750698,9.890362,0.37115768,-1.5117786,-1.3188576,0.7630885,0
1.5800000000000012,11.273333729196183,-1.511778559127525,-1.3188575500595983,0.7630885155297255,12.817608,-0.9767317,-1.9524173,0.14547056,3.7851627,-3.2599223,1.8802332,0.44816813,0.03926936,0.030440003,0.8925668,-8.73942,9.893899,0.38516784,-1.5117786,-1.3188576,0.7630885,0
1.5900000000000012,11.273333729196183,-1.511778559127525,-1.3188575500595983,0.7630885155297255,12.817608,-0.9767317,-1.9524173,0.14547056,3.697823,-3.160975,1.8841552,0.4452344,0.04188138,0.02058644,0.8941964,-8.728618,9.895228,0.39927277,-1.5117786,-1.3188576,0.7630885,0
1.6000000000000012,11.32669622801648,-1.2809337054103902,0.21370739491357318,0.6866588882728439,12.533437,-0.7855949,-2.0639727,0.3538197,3.610589,-3.0620253,1.8882186,0.44224936,0.04448857,0.010730511,0.895723,-8.71828,9.894344,0.41342574,-1.5117786,-1.3188576,0.7630885,0
1.6100000000000012,11.32669622801648,-1.2809337054103902,0.21370739491357318,0.6866588882728439,12.533437,-0.7855949,-2.0639727,0.3538197,3.5234554,-2.9630938,1.8924265,0.43943566,0.04073467,0.005313279,0.89733344,-8.708663,9.891805,0.42815435,-1.2809337,0.2137074,0.68665886,0
1.6200000000000012,11.32669622801648,-1.2809337054103902,0.21370739491357318,0.6866588882728439,12.533437,-0.7855949,-2.0639727,0.3538197,3.4364114,-2.8641913,1.896782,0.43659824,0.036978576,-0.000104239676,0.89889544,-8.700337,9.888566,0.44296777,-1.2809337,0.2137074,0.68665886,0
1.6300000000000012,11.32669622801648,-1.2809337054103902,0.21370739491357318,0.6866588882728439,12.533437,-0.7855949,-2.0639727,0.3538197,3.3494442,-2.765325,1.9012862,0.43373728,0.03322048,-0.005521753,0.90040904,-8.6933,9.884622,0.45784628,-1.2809337,0.2137074,0.68665886,0
1.6400000000000012,11.32669622801648,-1.2809337054103902,0.21370739491357318,0.6866588882728439,11.962827,-0.6566,-1.9245034,0.44811115,3.2625408,-2.6665018,1.9059393,0.43085292,0.029460596,-0.0109389685,0.901874,-8.687548,9.879962,0.47277033,-1.2809337,0.2137074,0.68665886,0
1.6500000000000012,11.32669622801648,-1.2809337054103902,0.21370739491357318,0.6866588882728439,11.962827,-0.6566,-1.9245034,0.44811115,3.1756887,-2.5677285,1.9107418,0.4279453,0.025699124,-0.016355593,0.90329033,-8.683076,9.874578,0.48772016,-1.2809337,0.2137074,0.68665886,0
1.6600000000000013,11.32669622801648,-1.2809337054103902,0.21370739491357318,0.6866588882728439,11.962827,-0.6566,-1.9245034,0.44811115,3.0888748,-2.4690127,1.9156938,0.4250146,0.021936264,-0.021771336,0.90465796,-8.679881,9.868465,0.5026761,-1.2809337,0.2137074,0.68665886,0
1.6700000000000013,11.32669622801648,-1.2809337054103902,0.21370739491357318,0.6866588882728439,11.962827,-0.6566,-1.9245034,0.44811115,3.0020866,-2.3703618,1.9207952,0.42206094,0.018172221,-0.027185902,0.9059768,-8.6779585,9.861614,0.51761854,-1.2809337,0.2137074,0.68665886,0
1.6800000000000013,11.402991320220552,-0.979599185258976,-0.6330532195849989,0.5574083794389929,11.874489,-0.5396615,-1.735073,0.4944661,2.9153113,-2.271783,1.926046,0.41908455,0.014407197,-0.032599002,0.90724665,-8.677303,9.854017,0.53252774,-1.2809337,0.2137074,0.68665886,0
1.6900000000000013,11.402991320220552,-0.979599185258976,-0.6330532195849989,0.5574083794389929,11.874489,-0.5396615,-1.735073,0.4944661,2.8285375,-2.1732848,1.9314494,0.41651464,0.015135039,-0.038408637,0.9081904,-8.67758,9.845419,0.54813206,-0.9795992,-0.63305324,0.5574084,0
1.7000000000000013,11.402991320220552,-0.979599185258976,-0.6330532195849989,0.5574083794389929,11.874489,-0.5396615,-1.735073,0.4944661,2.7417586,-2.0748792,1.9370084,0.41392735,0.015862249,-0.044216663,0.90909624,-8.678234,9.835549,0.5636316,-0.9795992,-0.63305324,0.5574084,0
1.7100000000000013,11.402991320220552,-0.979599185258976,-0.6330532195849989,0.5574083794389929,11.874489,-0.5396615,-1.735073,0.4944661,2.6549716,-1.9765784,1.9427217,0.41132274,0.016588794,-0.05002284,0.9099641,-8.679256,9.824408,0.57901067,-0.9795992,-0.63305324,0.5574084,0
1.7200000000000013,11.599305420055074,-0.6124328551390271,0.6715759080300339,0.43348244026475385,11.7664,-0.26739496,-1.6534696,0.45610592,2.5681725,-1.8783954,1.9485883,0.40870097,0.017314648,-0.055826932,0.91079396,-8.680641,9.811994,0.5942537,-0.9795992,-0.63305324,0.5574084,0
1.7300000000000013,11.599305420055074,-0.6124328551390271,0.6715759080300339,0.43348244026475385,11.7664,-0.26739496,-1.6534696,0.45610592,2.4813569,-1.7803426,1.9546163,0.40696222,0.012883602,-0.057280377,0.9115554,-8.68267,9.798597,0.6113523,-0.61243284,0.6715759,0.43348244,0
1.7400000000000013,11.599305420055074,-0.6124328551390271,0.6715759080300339,0.43348244026475385,11.7664,-0.26739496,-1.6534696,0.45610592,2.3945158,-1.682423,1.9608153,0.40521312,0.008452227,-0.05873237,0.9122938,-8.685746,9.785308,0.6284401,-0.61243284,0.6715759,0.43348244,0
1.7500000000000013,11.599305420055074,-0.6124328551390271,0.6715759080300339,0.43348244026475385,11.7664,-0.26739496,-1.6534696,0.45610592,2.3076384,-1.5846359,1.9671851,0.40345377,0.0040206397,-0.060182877,0.91300905,-8.689872,9.772121,0.64550686,-0.61243284,0.6715759,0.43348244,0
1.7600000000000013,11.729853010387874,-0.2597041072692532,0.15670668765394932,0.28700178623312705,11.732199,-0.44293034,-1.935088,0.3268951,2.2207146,-1.4869802,1.9737254,0.4016842,-0.0004110497,-0.061631855,0.9137011,-8.695046,9.759035,0.66254276,-0.61243284,0.6715759,0.43348244,0
1.7700000000000014,11.729853010387874,-0.2597041072692532,0.15670668765394932,0.28700178623312705,11.732199,-0.44293034,-1.935088,0.3268951,2.1337345,-1.3894558,1.9804423,0.40041992,-0.0017370007,-0.06250286,0.9141952,-8.701073,9.745836,0.6808405,-0.2597041,0.15670669,0.2870018,0
1.7800000000000014,11.729853010387874,-0.2597041072692532,0.15670668765394932,0.28700178623312705,11.732199,-0.44293034,-1.935088,0.3268951,2.046692,-1.2920637,1.9873421,0.3991539,-0.0030629442,-0.06337359,0.9146853,-8.707447,9.732569,0.69911164,-0.2597041,0.15670669,0.2870018,0
1.7900000000000014,11.729853010387874,-0.2597041072692532,0.15670668765394932,0.28700178623312705,11.732199,-0.44293034,-1.935088,0.3268951,1.9595841,-1.1948047,1.9944245,0.39788613,-0.0043888744,-0.06424404,0.91517144,-8.714169,9.71923,0.7173552,-0.2597041,0.15670669,0.2870018,0
1.8000000000000014,11.992175524364164,0.03786938479818012,1.455583507935704,0.22443560235125157,11.817353,-0.13029516,-1.5522362,0.20095477,1.8724073,-1.0976794,2.0016892,0.3966166,-0.0057147853,-0.065114215,0.9156535,-8.721238,9.705819,0.73556995,-0.2597041,0.15670669,0.2870018,0
1.8100000000000014,11.992175524364164,0.03786938479818012,1.455583507935704,0.22443560235125157,11.817353,-0.13029516,-1.5522362,0.20095477,1.7851565,-1.0006886,2.0091488,0.39605328,-0.0123765925,-0.062046144,0.91604453,-8.729124,9.69255,0.75639325,0.037869386,1.4555835,0.2244356,0
1.8200000000000014,11.992175524364164,0.03786938479818012,1.455583507935704,0.22443560235125157,11.817353,-0.13029516,-1.5522362,0.20095477,1.6978208,-0.9038239,2.016817,0.3954685,-0.01903773,-0.058974702,0.91638577,-8.738174,9.680581,0.7772715,0.037869386,1.4555835,0.2244356,0
1.8300000000000014,11.992175524364164,0.03786938479818012,1.455583507935704,0.22443560235125157,11.817353,-0.13029516,-1.5522362,0.20095477,1.610389,-0.80707246,2.0246942,0.39486226,-0.025697831,-0.05590006,0.91667736,-8.748389,9.669912,0.79817915,0.037869386,1.4555835,0.2244356,0
1.8400000000000014,11.992175524364164,0.03786938479818012,1.455583507935704,0.22443560235125157,11.476115,-0.21156749,-1.7195393,0.13525215,1.522849,-0.7104212,2.0327806,0.39423457,-0.032356538,-0.05282239,0.9169191,-8.75977,9.660543,0.81909037,0.037869386,1.4555835,0.2244356,0
1.8500000000000014,11.992175524364164,0.03786938479818012,1.455583507935704,0.22443560235125157,11.476115,-0.21156749,-1.7195393,0.13525215,1.4351894,-0.6138571,2.041076,0.3935855,-0.03901349,-0.049741853,0.91711116,-8.772319,9.652473,0.83997947,0.037869386,1.4555835,0.2244356,0
1.8600000000000014,11.992175524364164,0.03786938479818012,1.455583507935704,0.22443560235125157,11.476115,-0.21156749,-1.7195393,0.13525215,1.3473985,-0.5173672,2.0495799,0.39291507,-0.045668326,-0.046658617,0.91725343,-8.786034,9.6457,0.8608208,0.037869386,1.4555835,0.2244356,0
1.8700000000000014,11.992175524364164,0.03786938479818012,1.455583507935704,0.22443560235125157,11.476115,-0.21156749,-1.7195393,0.13525215,1.2594647,-0.42093855,2.0582922,0.3922233,-0.05232068,-0.04357285,0.91734594,-8.800915,9.640224,0.8815886,0.037869386,1.4555835,0.2244356,0
1.8800000000000014,11.920887084635739,0.21575702773259187,0.05133384489493913,0.10191846756143064,11.815456,0.11847523,-2.0672462,0.040672377,1.1713763,-0.3245582,2.0672116,0.39151028,-0.0589702,-0.04048472,0.9173886,-8.816963,9.636045,0.9022572,0.037869386,1.4555835,0.2244356,0
1.8900000000000015,11.920887084635739,0.21575702773259187,0.05133384489493913,0.10191846756143064,11.815456,0.11847523,-2.0672462,0.040672377,1.0831236,-0.22821425,2.0763335,0.3911165,-0.058803897,-0.039364487,0.91761595,-8.833588,9.632778,0.92215604,0.21575703,0.051333845,0.10191847,0
1.9000000000000015,11.920887084635739,0.21575702773259187,0.05133384489493913,0.10191846756143064,11.815456,0.11847523,-2.0672462,0.040672377,0.99470514,-0.13190188,2.0856547,0.39072213,-0.058637507,-0.038244195,0.917842,-8.85007,9.629733,0.9420806,0.21575703,0.051333845,0.10191847,0
1.9100000000000015,11.920887084635739,0.21575702773259187,0.05133384489493913,0.10191846756143064,11.815456,0.11847523,-2.0672462,0.040672377,0.90612257,-0.035618834,2.0951753,0.3903272,-0.05847103,-0.037123844,0.91806656,-8.866411,9.62691,0.9620303,0.21575703,0.051333845,0.10191847,0
1.9200000000000015,12.172967024381416,0.5187128953696992,0.6200848378593935,0.08367404155526878,12.335045,0.49845156,-1.6380682,0.06935729,0.8173773,0.060637083,2.1048954,0.38993165,-0.058304466,-0.036003433,0.91828984,-8.882611,9.624309,0.9820046,0.21575703,0.051333845,0.10191847,0
1.9300000000000015,12.172967024381416,0.5187128953696992,0.6200848378593935,0.08367404155526878,12.335045,0.49845156,-1.6380682,0.06935729,0.7284689,0.15686867,2.1148276,0.38980708,-0.060154818,-0.032388154,0.918358,-8.899091,9.622163,1.0044942,0.5187129,0.6200848,0.08367404,0
1.9400000000000015,12.172967024381416,0.5187128953696992,0.6200848378593935,0.08367404155526878,12.335045,0.49845156,-1.6380682,0.06935729,0.6393953,0.2530837,2.1249847,0.38967606,-0.06200418,-0.028772343,0.91841096,-8.91564,9.620998,1.0269878,0.5187129,0.6200848,0.08367404,0
1.9500000000000015,12.172967024381416,0.5187128953696992,0.6200848378593935,0.08367404155526878,12.335045,0.49845156,-1.6380682,0.06935729,0.5501559,0.349292,2.135367,0.38953862,-0.06385251,-0.025156055,0.91844887,-8.93226,9.620816,1.0494771,0.5187129,0.6200848,0.08367404,0
1.9600000000000015,12.006662702200552,0.6927938653407174,-0.17176209950133473,-0.005455800986149085,12.129997,0.29859525,-2.304871,-0.06397446,0.46074986,0.44550338,2.1459742,0.38939473,-0.06569979,-0.021539353,0.9184715,-8.948949,9.621615,1.0719543,0.5187129,0.6200848,0.08367404,0
1.9700000000000015,12.006662702200552,0.6927938653407174,-0.17176209950133473,-0.005455800986149085,12.129997,0.29859525,-2.304871,-0.06397446,0.37117866,0.541727,2.1567981,0.38962638,-0.06356114,-0.018693872,0.9185861,-8.965178,9.62317,1.0928086,0.69279385,-0.1717621,-0.005455801,0
1.9800000000000015,12.006662702200552,0.6927938653407174,-0.17176209950133473,-0.005455800986149085,12.129997,0.29859525,-2.304871,-0.06397446,0.2814488,0.6379683,2.1678307,0.38985306,-0.06142169,-0.015848152,0.91868895,-8.980671,9.6251545,1.1137545,0.69279385,-0.1717621,-0.005455801,0
1.9900000000000015,12.006662702200552,0.6927938653407174,-0.17176209950133473,-0.005455800986149085,12.129997,0.29859525,-2.304871,-0.06397446,0.19156773,0.7342316,2.179073,0.3900748,-0.05928145,-0.013002233,0.9187801,-8.995428,9.627569,1.134786,0.69279385,-0.1717621,-0.005455801,0
2.0000000000000013,,,,,12.587757,0.6256481,-2.177392,-0.15653224,0.10154278,0.83052117,2.1905265,0.39029157,-0.05714046,-0.010156146,0.91885954,-9.009449,9.630415,1.1558969,0.69279385,-0.1717621,-0.005455801,0
2.010000000000001,,,,,12.587757,0.6256481,-2.177392,-0.15653224,0.011378976,0.92684305,2.2022028,0.39042613,-0.060527664,-0.0040606856,0.9186327,-9.023339,9.634227,1.179349,0.8568598,1.1011516,0.034101084,0
2.020000000000001,,,,,12.587757,0.6256481,-2.177392,-0.15653224,-0.07892461,1.0232115,2.2141132,0.39054164,-0.06391192,0.0020349731,0.918361,-9.037404,9.639734,1.2027158,0.8568598,1.1011516,0.034101084,0
2.0300000000000007,,,,,12.587757,0.6256481,-2.177392,-0.15653224,-0.16936971,1.1196434,2.2262568,0.39063817,-0.06729306,0.008130533,0.9180446,-9.051643,9.646938,1.2259736,0.8568598,1.1011516,0.034101084,0
2.0400000000000005,,,,,12.587757,0.6256481,-2.177392,-0.15653224,-0.25995806,1.2161561,2.2386324,0.39071566,-0.07067094,0.014225696,0.91768354,-9.066053,9.655836,1.2490988,0.8568598,1.1011516,0.034101084,0
2.0500000000000003,,,,,13.011477,0.61118406,-1.8104635,-0.2590354,-0.35069135,1.3127661,2.2512383,0.39077413,-0.07404536,0.020320166,0.9172778,-9.080631,9.666426,1.2720677,0.8568598,1.1011516,0.034101084,1
2.06,,,,,13.011477,0.61118406,-1.8104635,-0.2590354,-0.44157332,1.409491,2.264112,0.3923542,-0.064570725,0.01948905,0.91733724,-9.095421,9.67838,1.3026832,0.61118406,-1.8104635,-0.2590354,1
2.07,,,,,13.011477,0.61118406,-1.8104635,-0.2590354,-0.5325923,1.5063298,2.2772932,0.3938978,-0.05509008,0.018656122,0.9173114,-9.108026,9.689197,1.3336318,0.61118406,-1.8104635,-0.2590354,1
2.0799999999999996,,,,,13.011477,0.61118406,-1.8104635,-0.2590354,-0.6237263,1.6032711,2.2907858,0.3954048,-0.045604315,0.01782146,0.91720027,-9.1184435,9.698865,1.364866,0.61118406,-1.8104635,-0.2590354,1
2.0899999999999994,,,,,13.275684,0.80210626,-2.734731,-0.3799823,-0.71495366,1.7003032,2.3045917,0.39687502,-0.036114313,0.01698514,0.91700387,-9.126675,9.707376,1.3963392,0.61118406,-1.8104635,-0.2590354,1
2.099999999999999,,,,,13.275684,0.80210626,-2.734731,-0.3799823,-0.8062518,1.7974145,2.3187265,0.39895326,-0.022012861,0.015165775,0.9165808,-9.132458,9.714599,1.430669,0.80210626,-2.734731,-0.3799823,1
2.109999999999999,,,,,13.275684,0.80210626,-2.734731,-0.3799823,-0.8975916,1.8945886,2.3332057,0.40094906,-0.007906863,0.013343275,0.9159683,-9.134989,9.719897,1.4651917,0.80210626,-2.734731,-0.3799823,1
2.1199999999999988,,,,,13.275684,0.80210626,-2.734731,-0.3799823,-0.9889404,1.9918059,2.3480306,0.40286198,0.006200771,0.011518017,0.9151665,-9.134275,9.723253,1.4998001,0.80210626,-2.734731,-0.3799823,1
2.1299999999999986,,,,,12.632951,0.34432372,-2.004357,-0.25351295,-1.0802659,2.089047,2.3632016,0.40469167,0.020307122,0.009690379,0.9141756,-9.130323,9.724653,1.5343865,0.80210626,-2.734731,-0.3799823,1
2.1399999999999983,,,,,12.632951,0.34432372,-2.004357,-0.25351295,-1.1715386,2.1862924,2.378686,0.40589133,0.030151999,0.0072337827,0.9133945,-9.123885,9.724221,1.562449,0.34432372,-2.004357,-0.25351295,1
2.149999999999998,,,,,12.632951,0.34432372,-2.004357,-0.25351295,-1.2627369,2.2835257,2.3944502,0.40704837,0.039993707,0.0047764266,0.9125175,-9.115429,9.722203,1.5903771,0.34432372,-2.004357,-0.25351295,1
2.159999999999998,,,,,12.632951,0.34432372,-2.004357,-0.25351295,-1.3538405,2.3807309,2.410493,0.40816268,0.04983122,0.002318569,0.9115446,-9.104965,9.718594,1.6181186,0.34432372,-2.004357,-0.25351295,1
2.1699999999999977,,,,,13.646087,0.11617908,-2.655683,-0.3327647,-1.4448293,2.4778922,2.426812,0.40923414,0.059663497,-0.00013953232,0.910476,-9.092501,9.71339,1.6456219,0.34432372,-2.004357,-0.25351295,1
