t,px,py,pz,qx,qy,qz,qw,vx,vy,vz,wx,wy,wz,throttle_mpc,roll_mpc,pitch_mpc,yaw_mpc,throttle_nw,roll_nw,pitch_nw,yaw_nw,network_used
-2.0,20.173117,-9.184057000000001,2.2235897000000002,-0.46399406,0.32225332,0.81451654,-0.13200416,-10.73557,-5.8553195,-0.17754099,1.3070803999999998,0.09802565,0.11394855,11.830705751022858,-5.99999966808601,-5.999999960660889,5.9999998096049225,9.287911,-3.2560337,-3.5177424,-0.003929291,0
-1.99,20.064854,-9.242174,2.2217119,-0.46499524,0.32772097,0.81205094,-0.13019848,-10.916641,-5.767918,-0.19846609,1.1785165000000002,0.15818115,0.31238455,11.830705751022858,-5.99999966808601,-5.999999960660889,5.9999998096049225,16.280891,-6.096480400000001,-5.6167625999999995,1.6222302,0
-1.98,19.954792,-9.299414,2.2196102000000004,-0.46573484,0.33306062,0.8095536999999999,-0.1295551,-11.095222,-5.679944,-0.22229397,1.0399119000000001,0.17882578,0.50377184,11.830705751022858,-5.99999966808601,-5.999999960660889,5.9999998096049225,16.280891,-6.096480400000001,-5.6167625999999995,1.6222302,0
-1.97,19.842957000000002,-9.355772,2.2172568,-0.46606505,0.33824438,0.8071383000000001,-0.13000736,-11.2712755,-5.5917425000000005,-0.24886799999999998,0.8918696,0.16514452,0.6885437,11.830705751022858,-5.99999966808601,-5.999999960660889,5.9999998096049225,16.280891,-6.096480400000001,-5.6167625999999995,1.6222302,0
-1.96,19.729374,-9.411249,2.2146244,-0.46585718,0.34324384,0.80490375,-0.13149469,-11.444745,-5.5036206,-0.27796509999999996,0.7350764,0.12169435,0.8670958000000001,11.830705751022858,-5.99999966808601,-5.999999960660889,5.9999998096049225,6.430181500000001,-4.6814857000000005,-5.2944226,0.731437,0
-1.95,19.61407,-9.465846,2.2116895,-0.464999,0.34803090000000003,0.8029351,-0.13396177,-11.615566000000001,-5.415844,-0.30930787,0.5702693,0.052482575,1.0397904,11.830705751022858,-5.99999966808601,-5.999999960660889,5.9999998096049225,6.430181500000001,-4.6814857000000005,-5.2944226,0.731437,0
-1.94,19.497072,-9.5195675,2.2084314999999997,-0.46339226,0.3525782,0.80130476,-0.13735764,-11.783665,-5.3286432999999995,-0.34257594,0.39821002,-0.038966574,1.2069590000000001,11.830705751022858,-5.99999966808601,-5.999999960660889,5.9999998096049225,6.430181500000001,-4.6814857000000005,-5.2944226,0.731437,0
-1.93,19.378407,-9.572421,2.2048326,-0.4609505,0.35685933,0.8000723000000001,-0.14163487,-11.948958,-5.2422156,-0.37741620000000003,0.21966566,-0.14955252,1.3689059,11.830705751022858,-5.99999966808601,-5.999999960660889,5.9999998096049225,6.430181500000001,-4.6814857000000005,-5.2944226,0.731437,0
-1.92,19.258101999999997,-9.624414999999999,2.2008789,-0.4575971,0.36084887,0.7992858,-0.14674886,-12.111355999999999,-5.156725,-0.41345249999999995,0.035393400000000005,-0.27654629999999997,1.52591,13.139953367515938,-5.999999894171609,-6.0,5.999999864936112,15.241903,-6.1381736,-7.6525636,2.69699,0
-1.91,19.13615,-9.675537,2.1965764,-0.45317602,0.3644677,0.7990533000000001,-0.15267187,-12.278874,-5.068006,-0.44716359999999994,-0.18918954,-0.45294452,1.6813861,13.139953367515938,-5.999999894171609,-6.0,5.999999864936112,15.241903,-6.1381736,-7.6525636,2.69699,0
-1.9,19.012539,-9.72578,2.1919343,-0.4475441,0.36764294,0.7994638000000001,-0.15937620000000002,-12.442991000000001,-4.98059,-0.48126733,-0.41566464,-0.63884145,1.8325368999999998,13.139953367515938,-5.999999894171609,-6.0,5.999999864936112,15.241903,-6.1381736,-7.6525636,2.69699,0
-1.89,18.887302,-9.775153999999999,2.1869512,-0.44065347,0.37035840000000003,0.8005189,-0.16681989,-12.603565,-4.894558,-0.5152617,-0.64356804,-0.832584,1.9795596999999998,13.139953367515938,-5.999999894171609,-6.0,5.999999864936112,15.241903,-6.1381736,-7.6525636,2.69699,0
-1.8800000000000001,18.760479,-9.823675999999999,2.1816307999999998,-0.43245944,0.37259674,0.80220896,-0.17496136,-12.76044,-4.8099627,-0.54866534,-0.8724531999999999,-1.0327221,2.1226366000000003,13.139953367515938,-5.999999894171609,-6.0,5.999999864936112,15.241903,-6.1381736,-7.6525636,2.69699,0
-1.87,18.632107,-9.871359,2.1759812999999997,-0.4229198,0.37433920000000004,0.80451345,-0.18375897,-12.913442,-4.7268324,-0.5810228000000001,-1.1018964,-1.2379835,2.2619374,15.14355512779636,-5.999999990809683,-6.0,5.9999996696591165,14.270794,-5.2540236,-8.027872,3.0190294,0
-1.8599999999999999,18.502160999999997,-9.918184,2.1700428,-0.41185367,0.37548584,0.80750626,-0.19318594,-13.07448,-4.638532,-0.60643137,-1.3855209,-1.5014542,2.4024520000000003,15.14355512779636,-5.999999990809683,-6.0,5.9999996696591165,14.270794,-5.2540236,-8.027872,3.0190294,0
-1.85,18.370632,-9.964135,2.1638598,-0.39908946,0.37594163,0.8112342,-0.20321122,-13.230691,-4.5518856,-0.6297842,-1.6652796000000003,-1.7642881000000001,2.5396838,15.14355512779636,-5.999999990809683,-6.0,5.9999996696591165,14.270794,-5.2540236,-8.027872,3.0190294,0
-1.84,18.237566,-10.009227000000001,2.1574560000000003,-0.38460097,0.3756915,0.8156189,-0.21378504,-13.381775,-4.4668474,-0.6505905,-1.9411466,-2.025949,2.6737377999999996,18.963277136147823,-6.0,-6.0,5.87593096781792,14.552926999999999,-5.217077,-6.1111580000000005,2.6363962000000005,0
-1.83,18.102911,-10.053416,2.1509156000000003,-0.36804068,0.37453693,0.82079494,-0.22486447,-13.548237,-4.371398,-0.65690196,-2.333345,-2.4066857999999995,2.8093855,18.963277136147823,-6.0,-6.0,5.87593096781792,14.552926999999999,-5.217077,-6.1111580000000005,2.6363962000000005,0
-1.82,17.966625,-10.096661,2.144331,-0.34907934,0.37228920000000004,0.8268386000000001,-0.23639493,-13.707569,-4.27781,-0.65935516,-2.7126238,-2.7763727000000005,2.9426942000000005,18.963277136147823,-6.0,-6.0,5.87593096781792,14.552926999999999,-5.217077,-6.1111580000000005,2.6363962000000005,0
-1.81,17.828787,-10.138978,2.1377437,-0.32771784,0.36893886,0.83356494,-0.24830407,-13.859182,-4.1859589999999995,-0.6574025,-3.0797630000000003,-3.1354911,3.0736678,18.963277136147823,-6.0,-6.0,5.87593096781792,14.552926999999999,-5.217077,-6.1111580000000005,2.6363962000000005,0
-1.8,17.689472,-10.180385000000001,2.1311996,-0.30395755,0.36446905,0.84077626,-0.26051426,-14.002442000000002,-4.095718,-0.65065485,-3.435468,-3.4844953999999997,3.2023141,20.999999767962212,-6.0,-6.0,5.178931604719789,16.055007999999997,-6.825753999999999,-7.839457,2.9445715,0
-1.79,17.54872,-10.220863,2.1247882999999996,-0.2776538,0.3587435,0.848383,-0.27286994,-14.147067000000002,-4.00007,-0.63032395,-3.8343422,-3.8778602999999996,3.2993072999999997,20.999999767962212,-6.0,-6.0,5.178931604719789,16.055007999999997,-6.825753999999999,-7.839457,2.9445715,0
-1.7799999999999998,17.406558999999998,-10.260383000000001,2.1186216,-0.24886509999999998,0.35172218,0.85616153,-0.2852111,-14.284053,-3.9038234,-0.60169375,-4.171111,-4.2097807000000005,3.391541,20.999999767962212,-6.0,-6.0,5.178931604719789,16.055007999999997,-6.825753999999999,-7.839457,2.9445715,0
-1.77,17.263070000000003,-10.298936999999999,2.1127834,-0.21788143,0.34351236,0.86374074,-0.29745436,-14.412145,-3.80689,-0.56457704,-4.4554515,-4.489846,3.4792487999999997,20.999999767962212,-6.0,-6.0,5.178931604719789,16.055007999999997,-6.825753999999999,-7.839457,2.9445715,0
-1.7599999999999998,17.118351,-10.336519000000001,2.107359,-0.18496729999999997,0.33420205,0.87079954,-0.30952287,-14.530119000000001,-3.709202,-0.5190643,-4.6955323,-4.726153,3.5626523,20.999999767962212,-6.0,-6.0,5.178931604719789,17.117620000000002,-6.712455,-7.679568300000001,1.8118566000000003,0
-1.75,16.972507,-10.373119,2.10243,-0.15036683,0.32386538,0.8770621999999999,-0.32134578,-14.636802,-3.6107117999999994,-0.46549836,-4.8982472,-4.9255322999999995,3.6419635,20.999999767962212,-6.0,-6.0,5.178931604719789,17.117620000000002,-6.712455,-7.679568300000001,1.8118566000000003,0
-1.7399999999999998,16.825657,-10.408731,2.098075,-0.11430747,0.31256609999999996,0.8822937,-0.33285770000000003,-14.73109,-3.5113912000000003,-0.40444967,-5.069417,-5.09375,3.7173827000000004,20.999999767962212,-6.0,-6.0,5.178931604719789,17.117620000000002,-6.712455,-7.679568300000001,1.8118566000000003,0
-1.73,16.67793,-10.443344999999999,2.0943644,-0.0770027,0.30036062,0.8862953000000001,-0.34399828,-14.811967000000001,-3.4112312999999994,-0.33669195,-5.213953500000001,-5.235673,3.7891013999999994,20.999999767962212,-6.0,-6.0,5.178931604719789,17.117620000000002,-6.712455,-7.679568300000001,1.8118566000000003,0
-1.72,16.529467,-10.476953,2.0913608,-0.03865401,0.28730002,0.8889007,-0.3547116,-14.878526999999998,-3.3102398,-0.26317778,-5.3360047,-5.355408000000001,3.8573008,21.0,-6.0,-6.0,4.306661359822635,17.060257,-3.1670456000000002,-8.082692,-0.7133066,0
-1.71,16.380411,-10.509546,2.0891168,0.00051686633,0.27342877,0.8900116,-0.36485058,-14.929985999999998,-3.20844,-0.18501447,-5.439223,-5.4562693,3.879351,21.0,-6.0,-6.0,4.306661359822635,17.060257,-3.1670456000000002,-8.082692,-0.7133066,0
-1.7,16.230919,-10.541119,2.0876721999999996,0.04030159,0.2587958,0.889559,-0.37428012,-14.965698999999999,-3.105871,-0.10343855,-5.526385299999999,-5.54136,3.900319,21.0,-6.0,-6.0,4.306661359822635,17.060257,-3.1670456000000002,-8.082692,-0.7133066,0
-1.69,16.081152,-10.571662,2.087055,0.08053339999999999,0.24345408,0.88745713,-0.3829683,-14.985167,-3.0025882999999998,-0.019790584,-5.59999,-5.613144999999999,3.9202585,21.0,-6.0,-6.0,4.306661359822635,17.060257,-3.1670456000000002,-8.082692,-0.7133066,0
-1.68,15.931273000000001,-10.601169,2.0872786,0.12105363599999999,0.22745457,0.88363934,-0.3908866,-14.988048999999998,-2.898663,0.06450836,-5.662146599999999,-5.673703700000001,3.9392192,21.0,-5.9999995376580175,-5.80945630248779,4.139816279465223,16.553074,-1.4163504,-7.848501,-1.7881613999999997,0
-1.67,15.78145,-10.629633,2.0883422,0.16163954,0.21081963,0.8780757,-0.39800903,-14.974166,-2.7941837000000005,0.14798233,-5.714743599999999,-5.695046,3.9490627999999997,21.0,-5.9999995376580175,-5.80945630248779,4.139816279465223,16.553074,-1.4163504,-7.848501,-1.7881613999999997,0
-1.66,15.631848000000002,-10.65705,2.0902302,0.20209183,0.19357847,0.87075764,-0.40431142,-14.943532000000001,-2.6892753,0.22913963,-5.759148000000001,-5.7130375,3.9584231,21.0,-5.9999995376580175,-5.80945630248779,4.139816279465223,16.553074,-1.4163504,-7.848501,-1.7881613999999997,0
-1.65,15.482636,-10.683415,2.092912,0.24229586,0.17578952,0.8616710999999999,-0.4097731,-14.896319,-2.5840747000000004,0.30648488,-5.796636599999999,-5.7282043,3.9673239999999996,21.0,-5.9999995376580175,-5.80945630248779,4.139816279465223,16.553074,-1.4163504,-7.848501,-1.7881613999999997,0
-1.64,15.333979000000001,-10.708728,2.0963418000000003,0.2821406,0.15750913,0.8508110999999999,-0.41437697,-14.832856,-2.4787195,0.37853137,-5.828286,-5.740989,3.9757884,21.0,-5.289407109112188,-3.5254311760980426,5.999999016371225,16.929735,-0.2942181,-6.9250417,-3.1415912999999995,0
-1.63,15.186034,-10.732987,2.1004593,0.320668,0.1385867,0.8383290999999999,-0.41853368,-14.753682000000001,-2.3733819,0.4438728,-5.7447915,-5.395630000000001,4.075116599999999,21.0,-5.289407109112188,-3.5254311760980426,5.999999016371225,16.929735,-0.2942181,-6.9250417,-3.1415912999999995,0
-1.6199999999999999,15.038955999999999,-10.756196000000001,2.1051924,0.3571388,0.11889356400000001,0.8244468,-0.42261565,-14.659795,-2.2684178,0.5014867999999999,-5.6742325,-5.1041360000000005,4.1695714,21.0,-5.289407109112188,-3.5254311760980426,5.999999016371225,16.929735,-0.2942181,-6.9250417,-3.1415912999999995,0
-1.6099999999999999,14.892885,-10.7783575,2.1104596,0.39174625,0.09851238,0.80924827,-0.4265534000000001,-14.552298,-2.1641734,0.55055296,-5.614601599999999,-4.8581047,4.2593913,21.0,-5.289407109112188,-3.5254311760980426,5.999999016371225,16.929735,-0.2942181,-6.9250417,-3.1415912999999995,0
-1.5999999999999999,14.747953,-10.799481,2.1161716,0.42464620000000003,0.07751876,0.7927946,-0.43028313,-14.432259,-2.0609107,0.590326,-5.564204,-4.6504445,4.3448033,21.0,-2.9084376146070534,-2.4526026701646897,5.999999576539087,17.251045,1.2738569,-4.010318,-2.4287899,0
-1.5899999999999999,14.6042795,-10.819579,2.122232,0.45522250000000003,0.056547225,0.77527046,-0.43420154,-14.300796,-1.958791,0.6201788,-5.150780999999999,-4.306796,4.4260244,21.0,-2.9084376146070534,-2.4526026701646897,5.999999576539087,17.251045,1.2738569,-4.010318,-2.4287899,0
-1.5799999999999998,14.461972,-10.838661,2.1285403,0.48303320000000005,0.036092624,0.7569271,-0.43867773,-14.159397,-1.8577352999999999,0.6398891,-4.8017199999999995,-4.0168724000000005,4.50326,21.0,-2.9084376146070534,-2.4526026701646897,5.999999576539087,17.251045,1.2738569,-4.010318,-2.4287899,0
-1.5699999999999998,14.321121,-10.856736999999999,2.1349947,0.5084248,0.01603356,0.73787457,-0.44360873,-14.009514999999999,-1.7575699,0.6494423,-4.5069985,-3.7722776,4.5767055,21.0,-2.9084376146070534,-2.4526026701646897,5.999999576539087,17.251045,1.2738569,-4.010318,-2.4287899,0
-1.5599999999999998,14.181806,-10.873814999999999,2.1414942999999997,0.53168464,-0.0037277932,0.7181863,-0.44889470000000004,-13.852414999999999,-1.6581061999999998,0.6488868,-4.2581553,-3.565928,4.646547,21.0,-2.9084376146070534,-2.4526026701646897,5.999999576539087,15.868642999999999,3.0403043999999997,-1.9889821,-2.5539377,0
-1.5499999999999998,14.044094,-10.8899,2.147938,0.55305016,-0.023268543,0.6979098000000001,-0.45444095,-13.689207000000001,-1.5591471000000001,0.63830966,-4.048046,-3.3918455,4.712961,21.0,-2.9084376146070534,-2.4526026701646897,5.999999576539087,15.868642999999999,3.0403043999999997,-1.9889821,-2.5539377,0
-1.5399999999999998,13.90804,-10.904999,2.1542263,0.5727168,-0.042647883,0.677075,-0.46015920000000005,-13.520879,-1.4604923,0.61782104,-3.8706407999999994,-3.2449863,4.7761164,21.0,-2.9084376146070534,-2.4526026701646897,5.999999576539087,15.868642999999999,3.0403043999999997,-1.9889821,-2.5539377,0
-1.5299999999999998,13.77369,-10.919111000000001,2.1602604,0.5908451,-0.061909705,0.65570056,-0.46596816,-13.348313000000001,-1.3619398,0.58754534,-3.7208477999999996,-3.121095,4.836172,21.0,-2.9084376146070534,-2.4526026701646897,5.999999576539087,15.868642999999999,3.0403043999999997,-1.9889821,-2.5539377,0
-1.5199999999999998,13.641085,-10.932238,2.1659436000000003,0.60756636,-0.081084974,0.63379776,-0.47179347,-13.172313,-1.2632887,0.5476154000000001,-3.5943692000000005,-3.0165796,4.8932815000000005,21.0,-0.6920745942956448,-1.7626680370995853,5.999999695995786,15.087175,2.9141494999999997,0.30436537,-2.1592553,0
-1.5099999999999998,13.510254000000002,-10.944376,2.1711802000000002,0.62240106,-0.09977181,0.6116295999999999,-0.47809213,-12.993646,-1.1643122,0.49824622,-3.1422833999999997,-2.8197042999999997,4.947588400000001,21.0,-0.6920745942956448,-1.7626680370995853,5.999999695995786,15.087175,2.9141494999999997,0.30436537,-2.1592553,0
-1.4999999999999998,13.381219,-10.955522,2.1758783,0.63500196,-0.11767728599999999,0.58945554,-0.48524958,-12.813189999999999,-1.0646425,0.44009608,-2.7606182,-2.6537243999999998,4.9992304,21.0,-0.6920745942956448,-1.7626680370995853,5.999999695995786,15.087175,2.9141494999999997,0.30436537,-2.1592553,0
-1.4899999999999998,13.253993,-10.965665,2.1799543,0.64564097,-0.1349601,0.5672636,-0.49309835,-12.631732000000001,-0.9639056999999999,0.37393585,-2.4384036,-2.5137947,5.048339,21.0,-0.6920745942956448,-1.7626680370995853,5.999999695995786,15.087175,2.9141494999999997,0.30436537,-2.1592553,0
-1.4799999999999998,13.128585000000001,-10.974795,2.1833317,0.6545419,-0.15174542,0.5450316999999999,-0.50148696,-12.449911,-0.8617802999999999,0.30047682,-2.1663785,-2.395829,5.0950365,21.0,1.4575048664641461,-1.649365139385131,5.999999652686718,14.483191,4.5615562999999995,2.516261,-2.3878812999999997,0
-1.4699999999999998,13.004994,-10.982896,2.185941,0.66143346,-0.16769335,0.52290297,-0.51084024,-12.268275,-0.7579591,0.22044167,-1.6015598,-2.277592,5.139444,21.0,1.4575048664641461,-1.649365139385131,5.999999652686718,14.483191,4.5615562999999995,2.516261,-2.3878812999999997,0
-1.4599999999999997,12.883217,-10.989947,2.1877215,0.66611147,-0.18255822,0.5010092,-0.5214962000000001,-12.087405,-0.65200585,0.13489945,-1.1247714,-2.1780565,5.1816716,21.0,1.4575048664641461,-1.649365139385131,5.999999652686718,14.483191,4.5615562999999995,2.516261,-2.3878812999999997,0
-1.4499999999999997,12.763243,-10.995927,2.1886240000000003,0.66883135,-0.19654828,0.47929963,-0.5332033,-11.907786999999999,-0.54352057,0.044961512,-0.7222929,-2.0942693,5.2218275,21.0,1.4575048664641461,-1.649365139385131,5.999999652686718,14.483191,4.5615562999999995,2.516261,-2.3878812999999997,0
-1.4399999999999997,12.645057000000001,-11.000808000000001,2.1886094,0.6698029000000001,-0.2098277,0.45772004,-0.5457373999999999,-11.729786,-0.43220595,-0.04836888599999999,-0.38254246,-2.0237417,5.2600126,21.0,2.8301695058886778,-2.230308255542905,5.999999687402641,13.425161,6.7118955,2.7871532,-1.8497795,0
-1.4299999999999997,12.528641,-11.004560000000001,2.187648,0.6690003999999999,-0.22214969,0.43618026,-0.5593168000000001,-11.55369,-0.31782183,-0.14414760000000001,0.11863310000000002,-2.0542376,5.296323999999999,21.0,2.8301695058886778,-2.230308255542905,5.999999687402641,13.425161,6.7118955,2.7871532,-1.8497795,0
-1.4199999999999997,12.413975,-11.007152,2.1857219,0.666391,-0.23332502,0.41460600000000003,-0.5740947,-11.37984,-0.20003471,-0.24128617,0.54163384,-2.0802255,5.330853,21.0,2.8301695058886778,-2.230308255542905,5.999999687402641,13.425161,6.7118955,2.7871532,-1.8497795,0
-1.4099999999999997,12.301036,-11.008547,2.1828217999999997,0.6621254,-0.24354301,0.39296582,-0.5897924,-11.20853,-0.07857973,-0.3387134,0.89865303,-2.1023731,5.363688,21.0,2.8301695058886778,-2.230308255542905,5.999999687402641,13.425161,6.7118955,2.7871532,-1.8497795,0
-1.3999999999999997,12.189795,-11.008709,2.17895,0.65633047,-0.25295335,0.37122887,-0.60616374,-11.039988000000001,0.04667842,-0.43545747,1.1999824,-2.1212485,5.3949122,21.0,3.308849279851706,-4.735517670603013,5.999999899089635,15.031889999999999,6.352661599999999,4.8039510000000005,-1.9966055,0
-1.3899999999999997,12.080224000000001,-11.0076,2.174118,0.649355,-0.260988,0.3487588,-0.6233708,-10.874436,0.17583758,-0.53063583,1.5303366000000003,-2.5277548,5.4246044,21.0,3.308849279851706,-4.735517670603013,5.999999899089635,15.031889999999999,6.352661599999999,4.8039510000000005,-1.9966055,0
-1.3799999999999997,11.972292999999999,-11.0051775,2.1683457,0.6414295,-0.26717204,0.32504743,-0.64150757,-10.712404,0.3093066,-0.62341,1.8089608,-2.871039,5.4528394,21.0,3.308849279851706,-4.735517670603013,5.999999899089635,15.031889999999999,6.352661599999999,4.8039510000000005,-1.9966055,0
-1.3699999999999997,11.865962,-11.001397,2.1616611,0.6324991999999999,-0.2717394,0.3002417,-0.660271,-10.554475,0.44744012,-0.7129503,2.0439526999999997,-3.1609352000000004,5.4796879999999994,21.0,3.308849279851706,-4.735517670603013,5.999999899089635,15.031889999999999,6.352661599999999,4.8039510000000005,-1.9966055,0
-1.3599999999999997,11.761188,-10.996212,2.154101,0.62252355,-0.27488443,0.2744679,-0.6793901,-10.401167,0.5903834,-0.79844666,2.2421434,-3.4057474,5.505220400000001,21.0,3.308849279851706,-4.735517670603013,5.999999899089635,15.271192999999998,5.651863,4.248868,-0.96563476,0
-1.3499999999999996,11.657921,-10.9895735,2.145709,0.611475,-0.2767693,0.24783692,-0.69862324,-10.252938,0.738096,-0.87912095,2.4092944,-3.6124883000000003,5.5294989999999995,21.0,3.308849279851706,-4.735517670603013,5.999999899089635,15.271192999999998,5.651863,4.248868,-0.96563476,0
-1.3399999999999996,11.556109,-10.981435000000001,2.1365377999999997,0.59933853,-0.27752984,0.22044824,-0.7177559,-10.110191,0.8903734000000001,-0.95423716,2.5502653,-3.7870793,5.5525866,21.0,3.308849279851706,-4.735517670603013,5.999999899089635,15.271192999999998,5.651863,4.248868,-0.96563476,0
-1.3299999999999996,11.455697,-10.971751,2.126646,0.5861098000000001,-0.27728006,0.19239259,-0.736598,-9.9732685,1.0468683,-1.0231103000000001,2.6691557999999995,-3.9345209999999997,5.574541,21.0,3.308849279851706,-4.735517670603013,5.999999899089635,15.271192999999998,5.651863,4.248868,-0.96563476,0
-1.3199999999999996,11.356622999999999,-10.9604845,2.116099,0.5717941,-0.2761163,0.16375406,-0.7549811,-9.842456,1.2071097,-1.0851133,2.7694229999999997,-4.0590353,5.5954185,20.99999997897147,2.818719803660243,-4.74990456181416,5.999999853704969,15.341488,4.6014404,3.1897984,0.106460065,0
-1.3099999999999996,11.258825,-10.947598,2.1049688,0.5565557,-0.27414602,0.1345541,-0.77264833,-9.717985,1.3705273,-1.1397002,2.7775571,-4.166711,5.615271,20.99999997897147,2.818719803660243,-4.74990456181416,5.999999853704969,15.341488,4.6014404,3.1897984,0.106460065,0
-1.2999999999999996,11.162239999999999,-10.933065,2.0933316000000004,0.54054165,-0.27145436,0.104823574,-0.78939205,-9.600041000000001,1.5365016000000002,-1.1864873,2.784361,-4.257601,5.6341496,20.99999997897147,2.818719803660243,-4.74990456181416,5.999999853704969,15.341488,4.6014404,3.1897984,0.106460065,0
-1.2899999999999996,11.0668,-10.9168625,2.0812668999999997,0.5237438,-0.2680885,0.07465188,-0.8051389,-9.488758,1.7043613999999998,-1.2251718999999999,2.7900515,-4.334322,5.652101999999999,20.99999997897147,2.818719803660243,-4.74990456181416,5.999999853704969,15.341488,4.6014404,3.1897984,0.106460065,0
-1.2799999999999996,10.972439999999999,-10.898974,2.068857,0.5061623,-0.2640905,0.044122685,-0.819823,-9.384215,1.8733824000000001,-1.2554958999999999,2.7948096000000002,-4.3990836,5.6691732,20.99999990887164,1.9204185271571583,-3.7264584122279794,5.999999817772147,17.063316,3.1932445,2.6336117000000003,0.008686867,0
-1.2699999999999996,10.879092,-10.879394,2.0561863999999996,0.48809236,-0.25984952,0.013424553999999998,-0.8331052999999999,-9.286412,2.0428038,-1.2772948,2.6581082,-4.294664,5.685406700000001,20.99999990887164,1.9204185271571583,-3.7264584122279794,5.999999817772147,17.063316,3.1932445,2.6336117000000003,0.008686867,0
-1.2599999999999996,10.78669,-10.85812,2.04334,0.46981233,-0.25568038,-0.01728777,-0.8447519,-9.195148,2.2118863999999996,-1.290699,2.5427814,-4.206454,5.700844,20.99999990887164,1.9204185271571583,-3.7264584122279794,5.999999817772147,17.063316,3.1932445,2.6336117000000003,0.008686867,0
-1.2499999999999996,10.695167999999999,-10.835158999999999,2.0304005000000003,0.45130172,-0.2515183,-0.04798407,-0.8548471,-9.110152000000001,2.3799403,-1.2959254,2.445487,-4.1319360000000005,5.715523200000001,20.99999990887164,1.9204185271571583,-3.7264584122279794,5.999999817772147,17.063316,3.1932445,2.6336117000000003,0.008686867,0
-1.2399999999999995,10.6044655,-10.810526,2.017449,0.43254268,-0.24730997,-0.07863247,-0.8634594000000001,-9.031143,2.5463138,-1.2931803,2.3634052000000003,-4.0689855,5.729482,20.99999977407373,1.612898542167512,-2.2024147666936154,5.999999871943191,16.782598,2.3911743,1.9504468000000001,0.7465274000000001,0
-1.2299999999999995,10.514524,-10.784239999999999,2.0045636000000004,0.41368678,-0.24353065,-0.108971395,-0.8704492,-8.957786,2.7103927000000003,-1.2827017,2.2453122000000003,-3.7783144,5.7427564,20.99999977407373,1.612898542167512,-2.2024147666936154,5.999999871943191,16.782598,2.3911743,1.9504468000000001,0.7465274000000001,0
-1.2199999999999995,10.425292,-10.756328,1.9918200000000001,0.39489037,-0.24056414,-0.13880278,-0.87574244,-8.889476,2.8716426,-1.2649317,2.1457992000000004,-3.532907,5.7553790000000005,20.99999977407373,1.612898542167512,-2.2024147666936154,5.999999871943191,16.782598,2.3911743,1.9504468000000001,0.7465274000000001,0
-1.2099999999999995,10.33672,-10.726818,1.9792884999999998,0.37613907,-0.23824497,-0.16817765,-0.8794745,-8.825571,3.029626,-1.2403463,2.061943,-3.325714,5.7673825999999995,20.99999977407373,1.612898542167512,-2.2024147666936154,5.999999871943191,16.782598,2.3911743,1.9504468000000001,0.7465274000000001,0
-1.1999999999999995,10.248768,-10.695746,1.9670348999999998,0.35741508,-0.23643187,-0.19713269,-0.8817559000000001,-8.765478,3.1839802,-1.2093782,1.9912816000000002,-3.1507857000000006,5.778797,20.99999953575609,1.2813813445704731,0.009446903593476058,5.9999998980404925,15.959072,1.8670808999999997,3.0020542000000003,1.6212677,0
-1.1899999999999995,10.161401,-10.663152,1.9551213,0.33900514,-0.23575929999999998,-0.22541586,-0.8824291,-8.708596,3.334428,-1.1724758999999998,1.8787394,-2.6583567,5.789651999999999,20.99999953575609,1.2813813445704731,0.009446903593476058,5.9999998980404925,15.959072,1.8670808999999997,3.0020542000000003,1.6212677,0
-1.1799999999999995,10.074589,-10.629073,1.9436034,0.32117268,-0.23672657,-0.25284982,-0.88140565,-8.654039,3.4809108,-1.1303508,1.7840297999999999,-2.242657,5.7999735,20.99999953575609,1.2813813445704731,0.009446903593476058,5.9999998980404925,15.959072,1.8670808999999997,3.0020542000000003,1.6212677,0
-1.1699999999999995,9.988314,-10.593548,1.9325297,0.30385703,-0.23903756,-0.27955133,-0.8788534,-8.600932,3.6235056000000005,-1.0837309,1.704329,-1.8917307,5.8097887,20.99999953575609,1.2813813445704731,0.009446903593476058,5.9999998980404925,15.959072,1.8670808999999997,3.0020542000000003,1.6212677,0
-1.1599999999999995,9.902566,-10.556616,1.9219418999999998,0.28699559999999996,-0.242439,-0.30560982,-0.8749056000000001,-8.548539,3.7623491000000002,-1.0332533000000002,1.6372598,-1.5954852,5.8191223,20.99999953575609,1.2813813445704731,0.009446903593476058,5.9999998980404925,15.904164000000002,0.92813283,3.5999133999999997,2.3253434,0
-1.1499999999999995,9.817342,-10.518313000000001,1.9118758000000002,0.27052733,-0.24671477,-0.33109227,-0.86966944,-8.496236999999999,3.8976152,-0.97947866,1.5808209999999998,-1.3454003,5.827998,20.99999953575609,1.2813813445704731,0.009446903593476058,5.9999998980404925,15.904164000000002,0.92813283,3.5999133999999997,2.3253434,0
-1.1399999999999995,9.732642,-10.478676,1.9023621,0.25439483,-0.25168094,-0.35604763,-0.8632325000000001,-8.443506,4.0295,-0.9229031999999999,1.5333287,-1.1342833,5.8364387,20.99999953575609,1.2813813445704731,0.009446903593476058,5.9999998980404925,15.904164000000002,0.92813283,3.5999133999999997,2.3253434,0
-1.1299999999999994,9.648474,-10.437733999999999,1.8934262,0.23854545,-0.25718117,-0.38051027,-0.85566705,-8.389915,4.1582127,-0.8639683000000001,1.4933652,-0.95606214,5.8444650000000005,20.99999953575609,1.2813813445704731,0.009446903593476058,5.9999998980404925,15.904164000000002,0.92813283,3.5999133999999997,2.3253434,0
-1.1199999999999994,9.564848,-10.395521,1.8850895,0.22293194,-0.2630827,-0.40450275,-0.8470340000000001,-8.335104,4.283966,-0.8030691,1.4597378,-0.8056113,5.852096599999999,20.999999260098157,1.0142749313845334,2.0591622068935806,5.9999999026251825,14.942589000000002,0.58457196,3.5191947999999997,2.3423731,0
-1.1099999999999994,9.481777000000001,-10.352064,1.8773701,0.20794359,-0.26992017,-0.42788967,-0.8371459000000001,-8.278744,4.407025,-0.7406103,1.3885686000000002,-0.35911366,5.8593545,20.999999260098157,1.0142749313845334,2.0591622068935806,5.9999999026251825,14.942589000000002,0.58457196,3.5191947999999997,2.3423731,0
-1.0999999999999994,9.399281,-10.307388000000001,1.8702805,0.19390722,-0.27809933,-0.45057678,-0.8258581,-8.2204,4.527947,-0.67723846,1.3287598,0.017795078,5.866255799999999,20.999999260098157,1.0142749313845334,2.0591622068935806,5.9999999026251825,14.942589000000002,0.58457196,3.5191947999999997,2.3423731,0
-1.0899999999999994,9.317378,-10.261511,1.8638263,0.18069278,-0.287342,-0.47262326,-0.81327254,-8.159708,4.6473645999999995,-0.6136126000000001,1.2784993999999998,0.33596033,5.8728185,20.999999260098157,1.0142749313845334,2.0591622068935806,5.9999999026251825,14.942589000000002,0.58457196,3.5191947999999997,2.3423731,0
-1.0799999999999994,9.236094999999999,-10.214444,1.8580072,0.16818379,-0.2974118,-0.49406862,-0.79947287,-8.09643,4.7658667999999995,-0.55030495,1.2362643,0.60453767,5.8790593,20.999931191848273,0.5507105312413038,3.701957399625304,5.9999998960586645,14.098610999999998,0.40021273,3.6336184,2.6217368,0
-1.0699999999999994,9.155459,-10.166195,1.8528173,0.15675515,-0.3085354,-0.51488537,-0.7843003000000001,-8.03043,4.8840449999999995,-0.48785320000000004,1.1275008,1.0871693,5.884994,20.999931191848273,0.5507105312413038,3.701957399625304,5.9999998960586645,14.098610999999998,0.40021273,3.6336184,2.6217368,0
-1.0599999999999994,9.075498,-10.116762,1.8482448,0.1467058,-0.32086226,-0.5350522,-0.7676225,-7.961659399999999,5.002730000000001,-0.42694628,1.0359838,1.4945993,5.8906374,20.999931191848273,0.5507105312413038,3.701957399625304,5.9999998960586645,14.098610999999998,0.40021273,3.6336184,2.6217368,0
-1.0499999999999994,8.996236,-10.066136,1.8442707999999999,0.13783266,-0.3341028,-0.55459064,-0.7495378,-7.890192999999999,5.122755000000001,-0.368251,0.95898014,1.8385456000000002,5.8960040000000005,20.999931191848273,0.5507105312413038,3.701957399625304,5.9999998960586645,14.098610999999998,0.40021273,3.6336184,2.6217368,0
-1.0399999999999994,8.917702,-10.0143,1.8408703000000002,0.12995793,-0.34801117,-0.5735066,-0.73012984,-7.816219,5.244844400000001,-0.31233782,0.89418894,2.1288993,5.901107,20.825496202787193,0.01449928576450615,4.596351267047252,5.999999896913325,13.721865,-0.11279275,3.3148042999999996,2.894504,0
-1.0299999999999994,8.839915,-9.961235,1.8380064999999999,0.12328959,-0.36251116,-0.59182376,-0.7093168000000001,-7.7406692999999995,5.368609999999999,-0.26096395,0.7555173000000001,2.5131686,5.905958999999999,20.825496202787193,0.01449928576450615,4.596351267047252,5.999999896913325,13.721865,-0.11279275,3.3148042999999996,2.894504,0
-1.0199999999999994,8.762893,-9.906916,1.8356379,0.11798144,-0.37751335,-0.6095520000000001,-0.68703043,-7.663403,5.4957785999999995,-0.21337381,0.6386998,2.8375945,5.9105735,20.825496202787193,0.01449928576450615,4.596351267047252,5.999999896913325,13.721865,-0.11279275,3.3148042999999996,2.894504,0
-1.0099999999999993,8.68665,-9.851305,1.8337244,0.113814816,-0.3928078,-0.6266605,-0.66335905,-7.5849977,5.6269846,-0.17003618,0.540293,3.111496,5.9149613,20.825496202787193,0.01449928576450615,4.596351267047252,5.999999896913325,13.721865,-0.11279275,3.3148042999999996,2.894504,0
-0.9999999999999991,8.611195,-9.794359,1.8322212,0.110601045,-0.4082166,-0.6431128,-0.63838315,-7.506086,5.7627239999999995,-0.13133511,0.45739588,3.342742,5.919134,20.64444223923995,-0.812841067161693,5.107936430719961,5.999999904587929,11.486278,0.4809954000000001,4.6701913,1.426381,0
-0.9899999999999991,8.536524,-9.736038,1.8310748,0.10851839,-0.42350113,-0.6589828000000001,-0.612056,-7.4280550000000005,5.902157,-0.09872561,0.2582351,3.6172578,5.923102,20.64444223923995,-0.812841067161693,5.107936430719961,5.999999904587929,11.486278,0.4809954000000001,4.6701913,1.426381,0
-0.9799999999999991,8.462628,-9.676297,1.8302292000000002,0.10768935,-0.43844799999999995,-0.67432034,-0.58434486,-7.351119000000001,6.0468183,-0.07125203,0.09029712,3.8490824999999997,5.9268756,20.64444223923995,-0.812841067161693,5.107936430719961,5.999999904587929,11.486278,0.4809954000000001,4.6701913,1.426381,0
-0.9699999999999993,8.389494000000001,-9.615083,1.8296317,0.107888155,-0.4529531,-0.68904996,-0.5553416,-7.2762337,6.1969476,-0.04907092,-0.051312305,4.0448546,5.930464,20.64444223923995,-0.812841067161693,5.107936430719961,5.999999904587929,11.486278,0.4809954000000001,4.6701913,1.426381,0
-0.9599999999999993,8.317094,-9.5523405,1.8292292,0.10892227,-0.46692917,-0.70309913,-0.5251335,-7.204328,6.3526416,-0.032267712000000004,-0.1707204,4.2101809999999995,5.933876000000001,20.64444223923995,-0.812841067161693,5.107936430719961,5.999999904587929,11.856073,0.21184537,4.5304933,1.1929107,0
-0.9499999999999993,8.245394000000001,-9.488012,1.8289677,0.11062755,-0.48030320000000004,-0.7163996,-0.49380416,-7.1362977,6.513868,-0.02086394,-0.2714078,4.3497962999999995,5.9371204,20.64444223923995,-0.812841067161693,5.107936430719961,5.999999904587929,11.856073,0.21184537,4.5304933,1.1929107,0
-0.9399999999999993,8.174351,-9.422044999999999,1.8287935000000002,0.112864055,-0.49301409999999996,-0.7288876999999999,-0.46143484,-7.0729966,6.680482400000001,-0.01482297,-0.35630915,4.4676995,5.9402056,20.64444223923995,-0.812841067161693,5.107936430719961,5.999999904587929,11.856073,0.21184537,4.5304933,1.1929107,0
-0.9299999999999993,8.103914,-9.354385,1.8286531000000004,0.1155125,-0.5050107,-0.7405050999999999,-0.4281049,-7.0152307,6.852239999999999,-0.014054833999999999,-0.42789915,4.567267,5.943139599999999,20.64444223923995,-0.812841067161693,5.107936430719961,5.999999904587929,11.856073,0.21184537,4.5304933,1.1929107,0
-0.9199999999999993,8.034024,-9.284984,1.8284948,0.11847118,-0.51625055,-0.75119865,-0.39389232,-6.963754,7.028808000000001,-0.018420458,-0.4882646,4.65135,5.945930000000001,18.820873828404945,-1.388434584660586,4.982224456239237,5.999999915609303,12.248724000000001,-0.14604,4.0431742999999996,0.9151848,0
-0.9099999999999993,7.964595,-9.213873,1.8282281999999999,0.1217029,-0.5265048999999999,-0.76104647,-0.3588731,-6.923203,7.193786,-0.035562154,-0.6288522,4.7024045,5.948583,18.820873828404945,-1.388434584660586,4.982224456239237,5.999999915609303,12.248724000000001,-0.14604,4.0431742999999996,0.9151848,0
-0.8999999999999992,7.8955364,-9.141095,1.8277691999999999,0.12516311,-0.5355916000000001,-0.77010924,-0.32312253,-6.889673700000001,7.362302000000001,-0.056886457,-0.7474844,4.7455815999999995,5.951105999999999,18.820873828404945,-1.388434584660586,4.982224456239237,5.999999915609303,12.248724000000001,-0.14604,4.0431742999999996,0.9151848,0
-0.8899999999999992,7.8267755999999995,-9.066616,1.8270775000000001,0.12876354,-0.54354125,-0.77831715,-0.28671554,-6.8637466,7.5338254000000004,-0.082023524,-0.8475896,4.782097,5.9535055,18.820873828404945,-1.388434584660586,4.982224456239237,5.999999915609303,12.248724000000001,-0.14604,4.0431742999999996,0.9151848,0
-0.8799999999999992,7.7582335,-8.99041,1.8261169999999998,0.13243082,-0.55038065,-0.78560853,-0.24972592,-6.8459144,7.7077865999999995,-0.11058632,-0.93206143,4.812978,5.9557877,16.820758961012693,-2.187175812735868,4.913997640460272,5.9999999146159935,12.844614,-1.1335273000000001,3.7053447,1.1925636999999998,0
-0.8699999999999992,7.689822,-8.912546,1.8248199,0.13615745,-0.55587465,-0.7921089,-0.21219952,-6.837587400000001,7.864894400000001,-0.14922138,-1.1278617,4.827971,5.9579572999999995,16.820758961012693,-2.187175812735868,4.913997640460272,5.9999999146159935,12.844614,-1.1335273000000001,3.7053447,1.1925636999999998,0
-0.8599999999999992,7.621454700000001,-8.833107,1.8231252,0.13992059,-0.5598369000000001,-0.79791284,-0.17418516,-6.837225,8.023027,-0.1900325,-1.2931181,4.840744,5.96002,16.820758961012693,-2.187175812735868,4.913997640460272,5.9999999146159935,12.844614,-1.1335273000000001,3.7053447,1.1925636999999998,0
-0.8499999999999992,7.5530496,-8.752084,1.8210137,0.14364628,-0.5623563,-0.8029264,-0.13575965,-6.845102000000001,8.181549,-0.23248032,-1.432595,4.8516254,5.961982,16.820758961012693,-2.187175812735868,4.913997640460272,5.9999999146159935,12.844614,-1.1335273000000001,3.7053447,1.1925636999999998,0
-0.8399999999999992,7.484523299999999,-8.6694765,1.8184718,0.14727520000000002,-0.5635097,-0.80706775,-0.09699876,-6.861394000000001,8.339815,-0.2760405,-1.5503142,4.860894,5.963847599999999,15.202212211280749,-2.6720049716661847,5.21586958389471,5.999999868785924,13.915841,-2.1820962,3.5131407,1.1317190000000001,0
-0.8299999999999992,7.415804,-8.585366,1.815465,0.15087283,-0.56321543,-0.8103554000000001,-0.05788069,-6.88381,8.482035,-0.32538557,-1.7254599999999998,4.9155707,5.965622,15.202212211280749,-2.6720049716661847,5.21586958389471,5.999999868785924,13.915841,-2.1820962,3.5131407,1.1317190000000001,0
-0.8199999999999992,7.346821,-8.499842,1.811964,0.1544805,-0.5614017,-0.8127888000000001,-0.01840185,-6.913988000000001,8.622823,-0.37476268,-1.873259,4.9618269999999995,5.967308999999999,15.202212211280749,-2.6720049716661847,5.21586958389471,5.999999868785924,13.915841,-2.1820962,3.5131407,1.1317190000000001,0
-0.8099999999999992,7.277498,-8.412918,1.8079712,0.15802377,-0.55814683,-0.81427616,0.021337295,-6.951922,8.761553999999999,-0.42367032,-1.9979810000000002,5.0009584,5.968913,15.202212211280749,-2.6720049716661847,5.21586958389471,5.999999868785924,13.915841,-2.1820962,3.5131407,1.1317190000000001,0
-0.7999999999999992,7.207757000000001,-8.32462,1.8034938999999999,0.16144247,-0.55352104,-0.81473976,0.061239332,-6.9975142,8.897615,-0.47163206,-2.1032290000000002,5.034063,5.970439,13.268057482008064,-5.331149582812742,5.99999753886134,5.999999851661968,13.120057000000001,-4.1213675,3.1138778,0.9377848,0
-0.7899999999999991,7.137555,-8.235063,1.798511,0.16485935,-0.5466898,-0.8146404,0.10155259,-7.043847599999999,9.013483,-0.5246997,-2.6072067999999997,5.182739700000001,5.9718895,13.268057482008064,-5.331149582812742,5.99999753886134,5.999999851661968,13.120057000000001,-4.1213675,3.1138778,0.9377848,0
-0.7799999999999991,7.0668583,-8.144363,1.7930068,0.16831152,-0.536956,-0.8142833,0.14245112,-7.0965996,9.1257515,-0.5757627,-3.0325002999999997,5.308535,5.9732695,13.268057482008064,-5.331149582812742,5.99999753886134,5.999999851661968,13.120057000000001,-4.1213675,3.1138778,0.9377848,0
-0.7699999999999991,6.995602000000001,-8.052562,1.7870052,0.17164798,-0.52456903,-0.8133918000000001,0.18373448,-7.155532000000001,9.233667,-0.6240635999999999,-3.391394,5.4149709999999995,5.9745812,13.268057482008064,-5.331149582812742,5.99999753886134,5.999999851661968,13.120057000000001,-4.1213675,3.1138778,0.9377848,0
-0.7599999999999991,6.923727,-7.959707000000001,1.7805372,0.17475007,-0.50974846,-0.8117259,0.22521141,-7.220254400000001,9.336511999999999,-0.66894567,-3.6942544,5.5050254,5.975828599999999,13.268057482008064,-5.331149582812742,5.99999753886134,5.999999851661968,13.588652,-4.9682207,3.3966133999999997,1.2776603000000002,0
-0.7499999999999991,6.851178,-7.865851400000001,1.7736398999999998,0.17752571,-0.4926911,-0.8090809,0.26669917,-7.290241,9.433614,-0.70985156,-3.9498292999999998,5.581219,5.977015,13.268057482008064,-5.331149582812742,5.99999753886134,5.999999851661968,13.588652,-4.9682207,3.3966133999999997,1.2776603000000002,0
-0.7399999999999989,6.777906,-7.7710567,1.7663555,0.17990439,-0.47357559999999993,-0.80528426,0.30802298,-7.364846000000001,9.524352,-0.7463228,-4.165502,5.6456857000000005,5.978143,13.268057482008064,-5.331149582812742,5.99999753886134,5.999999851661968,13.588652,-4.9682207,3.3966133999999997,1.2776603000000002,0
-0.7299999999999989,6.703867999999999,-7.6753883,1.75873,0.18183318,-0.45256606,-0.800193,0.34901592,-7.443328999999999,9.6081705,-0.77799755,-4.3475018,5.700229599999999,5.979216,13.268057482008064,-5.331149582812742,5.99999753886134,5.999999851661968,13.588652,-4.9682207,3.3966133999999997,1.2776603000000002,0
-0.7199999999999989,6.629029300000001,-7.578919,1.7508130000000002,0.18327349999999998,-0.42981508,-0.7936911,0.38951853,-7.5248623,9.684581,-0.80460835,-4.5010858,5.746378,5.980236,12.654885453475885,-5.99999879637761,5.999991602137879,5.999999865372548,16.282736,-4.3114204,2.925634,0.8668582,0
-0.7099999999999989,6.5533824,-7.481739999999999,1.7426384999999998,0.18408898,-0.40525258,-0.785796,0.4294259,-7.604678999999999,9.750001,-0.82951367,-4.734996,5.7850155999999995,5.981205999999999,12.654885453475885,-5.99999879637761,5.999991602137879,5.999999865372548,16.282736,-4.3114204,2.925634,0.8668582,0
-0.6999999999999991,6.476932,-7.383946000000001,1.7342407,0.18416016,-0.3788414,-0.7765029999999999,0.4686232,-7.6855917,9.807619,-0.84925014,-4.9324045,5.8177695,5.9821279999999994,12.654885453475885,-5.99999879637761,5.999991602137879,5.999999865372548,16.282736,-4.3114204,2.925634,0.8668582,0
-0.6899999999999991,6.399671,-7.285615400000001,1.7256716,0.18349008,-0.35076618,-0.76570153,0.50694776,-7.766589,9.857177,-0.8637391999999999,-5.099007599999999,5.8455353,5.9830055,12.654885453475885,-5.99999879637761,5.999991602137879,5.999999865372548,16.282736,-4.3114204,2.925634,0.8668582,0
-0.679999999999999,6.3216043,-7.186830499999999,1.7169839,0.18208899,-0.3211993,-0.7533076,0.54424506,-7.8466353,9.898511,-0.8730071,-5.2396126,5.869072,5.983839,12.909209086641402,-5.629552247862071,4.024318433926223,5.999999844016119,18.615328,-3.6797507000000005,3.1341963,1.0813700000000002,0
-0.669999999999999,6.242738,-7.08767,1.7082384999999998,0.1794683,-0.29086095,-0.7393704000000001,0.5801058000000001,-7.926247,9.932269999999999,-0.8752993,-5.299305,5.581146700000001,5.984632,12.909209086641402,-5.629552247862071,4.024318433926223,5.999999844016119,18.615328,-3.6797507000000005,3.1341963,1.0813700000000002,0
-0.659999999999999,6.16309,-6.988213000000001,1.6994948,0.17528135,-0.26039487,-0.72399116,0.614254,-8.002736,9.957962,-0.8726690999999999,-5.3498635000000005,5.3381596,5.9853864,12.909209086641402,-5.629552247862071,4.024318433926223,5.999999844016119,18.615328,-3.6797507000000005,3.1341963,1.0813700000000002,0
-0.649999999999999,6.0826974,-6.8885374000000015,1.6908006999999998,0.16973385,-0.22984053,-0.70718366,0.6467264,-8.075105,9.976075,-0.8654506999999999,-5.392685,5.1330967,5.9861035000000005,12.909209086641402,-5.629552247862071,4.024318433926223,5.999999844016119,18.615328,-3.6797507000000005,3.1341963,1.0813700000000002,0
-0.639999999999999,6.0016055,-6.7887163,1.6822002,0.16300362,-0.19923146,-0.6889658000000001,0.6775418000000001,-8.142463000000001,9.987142,-0.8540155,-5.428952,4.9600387,5.9867854000000005,13.3262292847725,-4.625060496718733,2.5629665951027842,5.999999806507981,20.87646,-2.2898047000000004,3.0324426,0.5011198,0
-0.629999999999999,5.9198580000000005,-6.688816,1.6737516,0.15512672,-0.16927786,-0.66938853,0.70654076,-8.206028,9.99191,-0.8351181999999999,-5.302132,4.5867059999999995,5.9874339999999995,13.3262292847725,-4.625060496718733,2.5629665951027842,5.999999806507981,20.87646,-2.2898047000000004,3.0324426,0.5011198,0
-0.619999999999999,5.8375072,-6.5888979999999995,1.6655096,0.14618012,-0.14056613,-0.6485525,0.73365694,-8.263062,9.990853,-0.8128092,-5.1953163,4.2715178,5.98805,13.3262292847725,-4.625060496718733,2.5629665951027842,5.999999806507981,20.87646,-2.2898047000000004,3.0324426,0.5011198,0
-0.6099999999999992,5.7546206,-6.489016,1.6575055,0.13635507,-0.1129501,-0.6265409000000001,0.7590101,-8.313162,9.984839,-0.78759474,-5.1053489999999995,4.0054172999999995,5.988636,13.3262292847725,-4.625060496718733,2.5629665951027842,5.999999806507981,20.87646,-2.2898047000000004,3.0324426,0.5011198,0
-0.5999999999999992,5.671269000000001,-6.389215,1.649766,0.12580955,-0.08630106,-0.6034251,0.7826893,-8.356029,9.974689999999999,-0.7599467,-5.029574,3.7807602999999994,5.9891934000000004,14.078666080680447,-3.4302814059318374,0.9187104001321658,5.999999766709047,22.033194,-0.75610805,3.413118,0.96123505,0
-0.5899999999999992,5.5875154,-6.2895365,1.6423491000000001,0.11466497,-0.06131323,-0.57932013,0.80466205,-8.393482,9.960453999999999,-0.7231036999999999,-4.778428599999999,3.3354,5.9897237,14.078666080680447,-3.4302814059318374,0.9187104001321658,5.999999766709047,22.033194,-0.75610805,3.413118,0.96123505,0
-0.5799999999999992,5.503426,-6.190014,1.6353093,0.10305947,-0.03853446,-0.5543634,0.82496977,-8.4232235,9.943675,-0.6846394,-4.566719,2.9593406000000004,5.9902277,14.078666080680447,-3.4302814059318374,0.9187104001321658,5.999999766709047,22.033194,-0.75610805,3.413118,0.96123505,0
-0.5699999999999992,5.419077,-6.090668,1.6286606000000001,0.091126785,-0.017658457,-0.52863616,0.8437583000000001,-8.445509,9.925277000000001,-0.64496654,-4.388254,2.6417982999999996,5.9907074,14.078666080680447,-3.4302814059318374,0.9187104001321658,5.999999766709047,22.033194,-0.75610805,3.413118,0.96123505,0
-0.5599999999999992,5.334541000000001,-5.991511,1.6224129999999999,0.07897073,0.0015792465,-0.5022032999999999,0.86113477,-8.4606285,9.90607,-0.6044323,-4.237813500000001,2.3736677000000004,5.991164,14.078666080680447,-3.4302814059318374,0.9187104001321658,5.999999766709047,21.849592,0.013647534,2.3952096000000003,1.0536393,0
-0.5499999999999992,5.249887999999999,-5.8925467000000005,1.6165738,0.06667182599999999,0.019405412,-0.47511932,0.8771773000000002,-8.468891000000001,9.8867655,-0.5633331,-4.110996,2.1472602000000003,5.991598000000001,14.078666080680447,-3.4302814059318374,0.9187104001321658,5.999999766709047,21.849592,0.013647534,2.3952096000000003,1.0536393,0
-0.5399999999999991,5.165185500000001,-5.793773000000001,1.6111473,0.05429256,0.036013300000000005,-0.44743174,0.89194185,-8.470618,9.867992,-0.52192587,-4.004093,1.9560833999999998,5.99201,14.078666080680447,-3.4302814059318374,0.9187104001321658,5.999999766709047,21.849592,0.013647534,2.3952096000000003,1.0536393,0
-0.5299999999999991,5.0804973,-5.695183,1.6061355,0.04188148,0.05156676,-0.41918370000000005,0.90546775,-8.466138,9.850309,-0.48043665,-3.9139779000000003,1.7946551,5.992401999999999,14.078666080680447,-3.4302814059318374,0.9187104001321658,5.999999766709047,21.849592,0.013647534,2.3952096000000003,1.0536393,0
-0.5199999999999991,4.995883,-5.5967617,1.6015381000000002,0.029476441000000003,0.066204,-0.39041555,0.91778207,-8.455783,9.834211,-0.43906718,-3.8380141000000005,1.6583465,5.992775,14.489394364799733,-1.8083206969133496,-0.944732869463822,5.9999997346005225,19.196224,-0.72341204,2.4282253,0.6419878000000001,0
-0.5099999999999991,4.9114027,-5.498493,1.5973735,0.017424863,0.079108685,-0.3612355,0.92894953,-8.439489,9.819734,-0.39393115,-3.5199044,1.2536358,5.9931293,14.489394364799733,-1.8083206969133496,-0.944732869463822,5.9999997346005225,19.196224,-0.72341204,2.4282253,0.6419878000000001,0
-0.4999999999999991,4.827111,-5.400357700000001,1.5936581,0.006035465,0.089656346,-0.33175042,0.9390778000000001,-8.418324,9.8077545,-0.34920016,-3.251649,0.91184527,5.993466400000001,14.489394364799733,-1.8083206969133496,-0.944732869463822,5.9999997346005225,19.196224,-0.72341204,2.4282253,0.6419878000000001,0
-0.4899999999999989,4.743050599999999,-5.302328599999999,1.5903878,-0.004726234,0.098211676,-0.30199063,0.94822675,-8.393105499999999,9.798589,-0.30491853,-3.0254352000000004,0.6231933000000001,5.993787,14.489394364799733,-1.8083206969133496,-0.944732869463822,5.9999997346005225,19.196224,-0.72341204,2.4282253,0.6419878000000001,0
-0.47999999999999887,4.65926,-5.204375700000001,1.5875582000000001,-0.014898756499999999,0.105081625,-0.2719816,0.9564319,-8.364567,9.79246,-0.26110029999999995,-2.8346748,0.3794185,5.994092,14.868249521640356,-0.7258260534356411,-2.853838872617714,5.999999680780379,18.19121,-0.31550625,1.7151564,1.2325611,0
-0.46999999999999886,4.5757723,-5.106468700000001,1.5851826999999998,-0.024304053,0.10967927,-0.24178037,0.9638061,-8.332607000000001,9.789446,-0.21402916,-2.5038369,-0.123518415,5.994382,14.868249521640356,-0.7258260534356411,-2.853838872617714,5.999999680780379,18.19121,-0.31550625,1.7151564,1.2325611,0
-0.45999999999999885,4.492614,-5.008575,1.5832761999999998,-0.03277943,0.11156264,-0.21143287,0.97045124,-8.29895,9.78979,-0.16731039,-2.2248982999999996,-0.54822457,5.9946575,14.868249521640356,-0.7258260534356411,-2.853838872617714,5.999999680780379,18.19121,-0.31550625,1.7151564,1.2325611,0
-0.44999999999999885,4.4097957999999995,-4.910661,1.5818356000000002,-0.040391516,0.111163236,-0.18094535,0.9763556000000001,-8.264558000000001,9.793482000000001,-0.12081021,-1.9897178,-0.9068683000000001,5.99492,14.868249521640356,-0.7258260534356411,-2.853838872617714,5.999999680780379,18.19121,-0.31550625,1.7151564,1.2325611,0
-0.43999999999999884,4.327322000000001,-4.8126940000000005,1.5808594999999999,-0.0472069,0.10884356,-0.15032609,0.98149216,-8.2302685,9.800428,-0.07440531,-1.7914317,-1.2097255,5.995168700000001,14.91297308512604,-0.07463984597402318,-4.16996509492785,5.9999995858640185,15.460084,0.024608232,0.36798045,2.1379745,0
-0.4299999999999988,4.2451878,-4.714641599999999,1.5803497,-0.053106025,0.10435467,-0.11958891,0.98589486,-8.196741000000001,9.810497,-0.027545508,-1.5218996999999999,-1.6703241000000002,5.9954057,14.91297308512604,-0.07463984597402318,-4.16996509492785,5.9999995858640185,15.460084,0.024608232,0.36798045,2.1379745,0
-0.4199999999999988,4.163380999999999,-4.616474,1.5803091999999999,-0.05798437,0.09752081,-0.08874509,0.98957175,-8.1649475,9.823407000000001,0.019479375,-1.2946808,-2.0592575,5.9956307,14.91297308512604,-0.07463984597402318,-4.16996509492785,5.9999995858640185,15.460084,0.024608232,0.36798045,2.1379745,0
-0.4099999999999988,4.08188,-4.518165,1.5807402,-0.06192877,0.08872110400000001,-0.057805922,0.9924476999999999,-8.135698,9.838821000000001,0.06679419,-1.1031331,-2.3876755000000003,5.9958453,14.91297308512604,-0.07463984597402318,-4.16996509492785,5.9999995858640185,15.460084,0.024608232,0.36798045,2.1379745,0
-0.3999999999999988,4.000655999999999,-4.419690599999999,1.5816462,-0.0650216,0.07827556,-0.026788842,0.9944485999999999,-8.1096735,9.856353,0.11448075,-0.94165653,-2.664994,5.9960494,14.805797542527714,0.1418731474710549,-4.762711244002514,5.999999402309395,17.23614,-0.24835005,-1.9210669999999999,3.6686392,0
-0.3899999999999988,3.9196727,-4.321033,1.583026,-0.067256875,0.06621786,0.0042921286,0.99552685,-8.087612,9.875437,0.16153155,-0.77140504,-2.9914691,5.996243499999999,14.805797542527714,0.1418731474710549,-4.762711244002514,5.999999402309395,17.23614,-0.24835005,-1.9210669999999999,3.6686392,0
-0.3799999999999988,3.838889,-4.2221775,1.5848784,-0.06863147,0.052592705999999996,0.035417777000000004,0.99562526,-8.069884,9.895717,0.20901279999999997,-0.62790275,-3.2671347,5.9964275,14.805797542527714,0.1418731474710549,-4.762711244002514,5.999999402309395,17.23614,-0.24835005,-1.9210669999999999,3.6686392,0
-0.3699999999999988,3.7582587999999997,-4.1231155,1.5872077,-0.069224864,0.03766621,0.066554524,0.99466574,-8.056967,9.916675,0.2569029,-0.50694704,-3.4998980000000004,5.9966025,14.805797542527714,0.1418731474710549,-4.762711244002514,5.999999402309395,17.23614,-0.24835005,-1.9210669999999999,3.6686392,0
-0.35999999999999877,3.6777318,-4.023843299999999,1.5900176000000001,-0.06911108,0.021665782,0.09766423,0.99258053,-8.049227,9.937777,0.30513722,-0.40499562,-3.6964360000000003,5.996769400000001,14.805797542527714,0.1418731474710549,-4.762711244002514,5.999999402309395,17.844620000000003,-1.1571303999999998,-3.4537277000000004,4.601197,0
-0.34999999999999876,3.5972552,-3.9243615,1.5933111999999998,-0.06835865,0.004786523,0.12870517,0.9893126,-8.046934,9.958484,0.35361364,-0.31906304,-3.8623862,5.996928700000001,14.805797542527714,0.1418731474710549,-4.762711244002514,5.999999402309395,17.844620000000003,-1.1571303999999998,-3.4537277000000004,4.601197,0
-0.33999999999999875,3.5167735,-3.824677,1.5970902,-0.06703079,-0.012803446999999999,0.15963285,0.984815,-8.050267999999999,9.978259,0.4021982,-0.24663246,-4.0025096,5.9970794000000005,14.805797542527714,0.1418731474710549,-4.762711244002514,5.999999402309395,17.844620000000003,-1.1571303999999998,-3.4537277000000004,4.601197,0
-0.32999999999999874,3.4362302000000002,-3.7248012999999998,1.6013549999999999,-0.06518553,-0.030958606,0.19040081,0.9790506999999999,-8.059324,9.996571000000001,0.45073040000000003,-0.18558267,-4.1208243,5.9972234,14.805797542527714,0.1418731474710549,-4.762711244002514,5.999999402309395,17.844620000000003,-1.1571303999999998,-3.4537277000000004,4.601197,0
-0.31999999999999873,3.3555672,-3.6247523,1.6061039,-0.06287609,-0.049552374,0.22096127,0.9719916,-8.074127,10.0129,0.4990286,-0.13412555,-4.220726,5.9973598,14.574223944752976,0.20461523694168304,-4.674755282922846,5.999999235326352,17.22764,-1.432086,-2.9135444,4.327945,0
-0.3099999999999987,3.2747295,-3.524553,1.6113224,-0.06013505,-0.06843415,0.251265,0.96362174,-8.094303,10.026530000000001,0.54461205,-0.08102279,-4.2913246,5.997489,14.574223944752976,0.20461523694168304,-4.674755282922846,5.999999235326352,17.22764,-1.432086,-2.9135444,4.327945,0
-0.2999999999999987,3.1936622000000003,-3.4242315000000003,1.6169938999999998,-0.056995705,-0.08747469,0.2812638,0.9539344000000001,-8.119958,10.037243,0.5895672,-0.03624448,-4.3509459999999995,5.997612,14.574223944752976,0.20461523694168304,-4.674755282922846,5.999999235326352,17.22764,-1.432086,-2.9135444,4.327945,0
-0.2899999999999987,3.1123118,-3.3238199,1.623111,-0.053504877,-0.1065991,0.3109107,0.9429257,-8.150905,10.044591,0.6336851,0.0015147468,-4.401296599999999,5.9977293,14.574223944752976,0.20461523694168304,-4.674755282922846,5.999999235326352,17.22764,-1.432086,-2.9135444,4.327945,0
-0.2799999999999987,3.0306268,-3.223353,1.6296642,-0.049704567000000005,-0.12574063,0.34015885,0.93059725,-8.186909,10.048156,0.67675394,0.03335479,-4.443818,5.997841,14.134043749006665,0.1999754579421633,-4.000266338132767,5.999998890717743,17.031660000000002,-1.6582462,-3.8399558,4.444930599999999,0
-0.2699999999999989,2.9485633,-3.122871,1.6366206,-0.04572964,-0.14459094,0.36894970000000005,0.9169944999999999,-8.226445,10.04758,0.71433955,0.059069287000000005,-4.3745456,5.997946700000001,14.134043749006665,0.1999754579421633,-4.000266338132767,5.999998890717743,17.031660000000002,-1.6582462,-3.8399558,4.444930599999999,0
-0.2599999999999989,2.8660831,-3.0224159999999998,1.6439462,-0.04170045,-0.16290624,0.39723516,0.90217924,-8.27022,10.042707,0.7505312,0.08081574,-4.316092,5.9980474,14.134043749006665,0.1999754579421633,-4.000266338132767,5.999998890717743,17.031660000000002,-1.6582462,-3.8399558,4.444930599999999,0
-0.2499999999999989,2.783146,-2.9220324,1.6516259999999998,-0.037630606000000004,-0.18071686,0.42498377,0.8861798000000001,-8.317816,10.033328,0.78517455,0.09920636599999999,-4.266767,5.998143,14.134043749006665,0.1999754579421633,-4.000266338132767,5.999998890717743,17.031660000000002,-1.6582462,-3.8399558,4.444930599999999,0
-0.23999999999999888,2.6997153999999997,-2.8217659999999998,1.6596438000000002,-0.03353102,-0.19804563,0.4521638,0.8690235999999999,-8.36882,10.019259,0.81812793,0.11475897,-4.225146,5.9982343,13.339037215647442,0.619637230302587,-3.046158840489618,5.999997953283132,16.991820999999998,-1.8603196,-3.8326957000000004,3.7089714999999996,0
-0.22999999999999865,2.6157744,-2.721659,1.6679456999999998,-0.029443182000000002,-0.21450338,0.47876734,0.8508254000000001,-8.419757,10.001419,0.84200245,0.19277588,-4.040978,5.998321,13.339037215647442,0.619637230302587,-3.046158840489618,5.999997953283132,16.991820999999998,-1.8603196,-3.8326957000000004,3.7089714999999996,0
-0.21999999999999864,2.5313125,-2.6217532,1.6764778000000002,-0.025415992000000002,-0.22978777,0.5047963,0.8317048,-8.472980499999998,9.978982,0.8641295,0.25873843,-3.8855782,5.998403,13.339037215647442,0.619637230302587,-3.046158840489618,5.999997953283132,16.991820999999998,-1.8603196,-3.8326957000000004,3.7089714999999996,0
-0.20999999999999863,2.4463089,-2.522095,1.6852223000000002,-0.021463897000000003,-0.24403057,0.5302316,0.81169176,-8.527978,9.951961500000001,0.8845037,0.31450891,-3.754453,5.9984813,13.339037215647442,0.619637230302587,-3.046158840489618,5.999997953283132,16.991820999999998,-1.8603196,-3.8326957000000004,3.7089714999999996,0
-0.19999999999999862,2.3607485,-2.4227297,1.6941618999999999,-0.017595733,-0.25734153,0.5550514,0.79081243,-8.584272,9.92039,0.9031305000000001,0.36166194,-3.6438097999999997,5.9985557,12.325801242457187,1.2235264184692305,-2.2689537872867547,5.999988417986304,17.806735999999997,-2.1240103,-4.588938,4.4170504,0
-0.18999999999999884,2.2746419999999996,-2.3236892000000005,1.7032353,-0.013803333000000001,-0.2694328,0.57929254,0.76917887,-8.637069,9.887068,0.91129947,0.49523103,-3.4288792999999997,5.998626,12.325801242457187,1.2235264184692305,-2.2689537872867547,5.999988417986304,17.806735999999997,-2.1240103,-4.588938,4.4170504,0
-0.17999999999999883,2.188006,-2.2250023,1.7123827,-0.010093144,-0.2800844,0.6029904,0.74689627,-8.690166,9.849728,0.91797274,0.6081009,-3.2475476000000003,5.998693,12.325801242457187,1.2235264184692305,-2.2689537872867547,5.999988417986304,17.806735999999997,-2.1240103,-4.588938,4.4170504,0
-0.16999999999999882,2.1008391,-2.1267080000000003,1.7215898999999997,-0.006485164,-0.28947140000000005,0.6261181,0.72397584,-8.743115,9.808533,0.9232693000000001,0.7034794,-3.0945632,5.998757,12.325801242457187,1.2235264184692305,-2.2689537872867547,5.999988417986304,17.806735999999997,-2.1240103,-4.588938,4.4170504,0
-0.1599999999999988,2.0131457,-2.028844,1.7308438000000002,-0.0029917520000000003,-0.29774076,0.64864725,0.70042765,-8.795514,9.763659,0.92730576,0.7840771,-2.9654946,5.998817,12.325801242457187,1.2235264184692305,-2.2689537872867547,5.999988417986304,16.980968,-1.6644621,-4.677119,3.78209,0
-0.1499999999999988,1.9249322,-1.9314468,1.7401321,0.0003804093,-0.30501577,0.6705489,0.6762619000000001,-8.847013,9.715281,0.9301950999999999,0.85218424,-2.856603,5.9988747,12.325801242457187,1.2235264184692305,-2.2689537872867547,5.999988417986304,16.980968,-1.6644621,-4.677119,3.78209,0
-0.1399999999999988,1.8362096999999997,-1.8345499,1.7494439999999998,0.0036287792,-0.31139973,0.6917941,0.6514897,-8.897299,9.663581,0.93204546,0.9097364,-2.7647342999999998,5.998929,12.325801242457187,1.2235264184692305,-2.2689537872867547,5.999988417986304,16.980968,-1.6644621,-4.677119,3.78209,0
-0.12999999999999878,1.7469915,-1.7381859,1.7587698,0.0067537744,-0.31697896,0.7123545,0.62612355,-8.946091000000001,9.608747,0.93296075,0.95836955,-2.6872272,5.998981,12.325801242457187,1.2235264184692305,-2.2689537872867547,5.999988417986304,16.980968,-1.6644621,-4.677119,3.78209,0
-0.11999999999999877,1.6572939999999998,-1.6423851000000003,1.7681004,0.009757849,-0.32182586,0.73220235,0.6001779,-8.993141,9.550965,0.93304044,0.99946547,-2.6218367000000002,5.99903,11.53718982692151,1.861396177212319,-1.6713617986335945,4.725045068070886,16.269807999999998,-1.5830187,-4.712686,3.5122862,0
-0.10999999999999877,1.5671502,-1.5471569,1.7773968999999998,0.012668937,-0.32567090000000004,0.75130594,0.5738625,-9.035333,9.494314,0.92615646,1.133202,-2.4731332999999998,5.9365153,11.53718982692151,1.861396177212319,-1.6713617986335945,4.725045068070886,16.269807999999998,-1.5830187,-4.712686,3.5122862,0
-0.09999999999999876,1.4765947,-1.4525069,1.7866218,0.015506057,-0.32830998,0.76964235,0.54737884,-9.075445,9.435359,0.9187492,1.2461879999999999,-2.3477082,5.877068,11.53718982692151,1.861396177212319,-1.6713617986335945,4.725045068070886,16.269807999999998,-1.5830187,-4.712686,3.5122862,0
-0.08999999999999875,1.3856493,-1.3584566,1.7957706000000002,0.01826362,-0.32988712,0.7871989,0.5207299,-9.113274,9.37438,0.91098493,1.3416423000000002,-2.2419157000000003,5.820538,11.53718982692151,1.861396177212319,-1.6713617986335945,4.725045068070886,16.269807999999998,-1.5830187,-4.712686,3.5122862,0
-0.07999999999999874,1.2943377,-1.2650253999999999,1.8048408,0.020939888,-0.3305243,0.80396444,0.49392018,-9.148653,9.311648,0.9030132,1.4222841999999998,-2.1526818,5.766782,10.840370152364674,2.2411313917013183,-1.2845037145918674,3.1067427467468205,14.891982999999998,-1.1521965,-4.2484503,2.8497615,0
-0.06999999999999873,1.2026733,-1.1722516,1.8138628,0.02358525,-0.33011281,0.8199166999999999,0.46712570000000003,-9.183655,9.243132000000001,0.901016,1.5631774999999999,-2.0306861,5.6499394999999994,10.840370152364674,2.2411313917013183,-1.2845037145918674,3.1067427467468205,14.891982999999998,-1.1521965,-4.2484503,2.8497615,0
-0.05999999999999872,1.1106774,-1.0801610000000001,1.8228533,0.026233517,-0.3285789,0.8350356,0.44052672,-9.214967999999999,9.175088,0.89674246,1.6796103999999998,-1.9252523000000001,5.535991,10.840370152364674,2.2411313917013183,-1.2845037145918674,3.1067427467468205,14.891982999999998,-1.1521965,-4.2484503,2.8497615,0
-0.04999999999999871,1.0183864,-0.98874706,1.8317907,0.028866082,-0.32606640000000003,0.8493174000000001,0.41413537,-9.242661,9.107849,0.89040697,1.7755157,-1.833909,5.4248652,10.840370152364674,2.2411313917013183,-1.2845037145918674,3.1067427467468205,14.891982999999998,-1.1521965,-4.2484503,2.8497615,0
