time-since-start [s],throttle_mpc,roll_mpc,pitch_mpc,yaw_mpc,throttle_nw,roll_nw,pitch_nw,yaw_nw,position_x [m],position_y [m],position_z [m],rotation_w [quaternion],rotation_x [quaternion],rotation_y [quaternion],rotation_z [quaternion],velocity_x [m/s],velocity_y [m/s],velocity_z [m/s],omega_x [rad/s],omega_y [rad/s],omega_z [rad/s],network_used
0.0,9.70717745377175,5.999999716428176,-5.999999929655886,-4.6671619750906075,9.319511,1.9502968,-4.821821,-1.3646718,18.842709,-9.765314,2.172248,0.06605699,0.47877654,-0.22579773,-0.84582794,-9.8401785,-5.644128,-0.34359255,1.4827403,-0.19695507,0.052497607,0
0.01,9.70717745377175,5.999999716428176,-5.999999929655886,-4.6671619750906075,16.952988,1.5931246,-5.3016624,-1.6039783,18.74358,-9.821478,2.1687012,0.062204413,0.47819358,-0.23188773,-0.84480155,-9.985059,-5.588188,-0.36606354,1.3989855,-0.31389636,-0.10862402,0
0.02,9.70717745377175,5.999999716428176,-5.999999929655886,-4.6671619750906075,16.952988,1.5931246,-5.3016624,-1.6039783,18.643015,-9.877072,2.164921,0.057696395,0.4772427,-0.23735075,-0.8441417,-10.1274605,-5.5306973,-0.39022657,1.3522359,-0.4365522,-0.26398104,0
0.03,9.70717745377175,5.999999716428176,-5.999999929655886,-4.6671619750906075,16.952988,1.5931246,-5.3016624,-1.6039783,18.54104,-9.932085,2.1608915,0.05246481,0.47590938,-0.24234493,-0.8438167,-10.26721,-5.4717646,-0.41590643,1.3374616,-0.56478345,-0.41392285,0
0.04,9.70717745377175,5.999999716428176,-5.999999929655886,-4.6671619750906075,18.896563,3.3423028,-5.41984,-1.8401436,18.437681,-9.986502,2.156598,0.046451394,0.47417465,-0.24700609,-0.84379417,-10.404136,-5.411445,-0.44294387,1.3502892,-0.6983423,-0.55876994,0
0.05,9.70717745377175,5.999999716428176,-5.999999929655886,-4.6671619750906075,18.896563,3.3423028,-5.41984,-1.8401436,18.332968,-10.040309,2.1520286,0.039606716,0.47201604,-0.25145033,-0.84404075,-10.538068,-5.349755,-0.47119376,1.3869116,-0.836902,-0.698817,0
0.060000000000000005,9.70717745377175,5.999999716428176,-5.999999929655886,-4.6671619750906075,18.896563,3.3423028,-5.41984,-1.8401436,18.22693,-10.0934925,2.1471708,0.031889297,0.46940833,-0.25577644,-0.8445218,-10.668836,-5.2866797,-0.5005232,1.4440113,-0.9800804,-0.83433473,0
0.07,9.70717745377175,5.999999716428176,-5.999999929655886,-4.6671619750906075,18.896563,3.3423028,-5.41984,-1.8401436,18.119602,-10.146038,2.1420147,0.023264842,0.4663239,-0.26006776,-0.8452013,-10.796266,-5.2221837,-0.5308102,1.5186944,-1.1274598,-0.96557224,0
0.08,11.889654367782539,5.999999843486426,-5.999999960221902,-4.605642210533016,16.342667,5.1138105,-6.2090173,-4.2906175,18.011019,-10.197931,2.1365519,0.013705606,0.46273327,-0.26439396,-0.84604114,-10.920184,-5.1562166,-0.5619417,1.6084336,-1.2786024,-1.0927589,0
0.09,11.889654367782539,5.999999843486426,-5.999999960221902,-4.605642210533016,16.342667,5.1138105,-6.2090173,-4.2906175,17.901154,-10.249124,2.130807,0.003059343,0.45846352,-0.26895475,-0.84703296,-11.05247,-5.081935,-0.58716255,1.7784969,-1.5006503,-1.2191188,0
0.09999999999999999,11.889654367782539,5.999999843486426,-5.999999960221902,-4.605642210533016,16.342667,5.1138105,-6.2090173,-4.2906175,17.789988,-10.299564,2.1248057,-0.008809491,0.45334885,-0.27391973,-0.8481539,-11.180203,-5.0059285,-0.61317927,1.9544913,-1.720583,-1.342182,0
0.10999999999999999,11.889654367782539,5.999999843486426,-5.999999960221902,-4.605642210533016,16.342667,5.1138105,-6.2090173,-4.2906175,17.677567,-10.349236,2.118541,-0.021895627,0.44736686,-0.27929744,-0.8493387,-11.30312,-4.9280334,-0.63985044,2.1351752,-1.9384105,-1.462082,0
0.11999999999999998,11.889654367782539,5.999999843486426,-5.999999960221902,-4.605642210533016,16.342667,5.1138105,-6.2090173,-4.2906175,17.563942,-10.398118,2.1120067,-0.03618961,0.44049257,-0.28508878,-0.850518,-11.420947,-4.848118,-0.66704905,2.319474,-2.154116,-1.5789431,0
0.12999999999999998,15.459361293848167,5.999999922363029,-5.9999999837943125,-4.187069557584193,17.308191,4.1932764,-5.9859023,-2.8783274,17.449165,-10.44619,2.1051981,-0.051677693,0.43269843,-0.29128745,-0.8516179,-11.533409,-4.766087,-0.6946616,2.5064585,-2.367661,-1.6928813,0
0.13999999999999999,15.459361293848167,5.999999922363029,-5.9999999837943125,-4.187069557584193,17.308191,4.1932764,-5.9859023,-2.8783274,17.33322,-10.493375,2.09816,-0.06861042,0.42359012,-0.29819766,-0.852609,-11.654748,-4.670388,-0.71301913,2.8499947,-2.7340033,-1.7972976,0
0.15,15.459361293848167,5.999999922363029,-5.9999999837943125,-4.187069557584193,17.308191,4.1932764,-5.9859023,-2.8783274,17.216097,-10.53959,2.090936,-0.087201506,0.4127933,-0.30606303,-0.8534184,-11.7686825,-4.5723667,-0.7318639,3.1814005,-3.0847156,-1.9002982,0
0.16,18.978466346777786,5.99999994271984,-5.9999999871325755,-3.593707491913898,17.985718,4.076131,-5.9086113,-2.6381588,17.097874,-10.584813,2.0835218,-0.10737529,0.40030587,-0.31477872,-0.853897,-11.874709,-4.4718666,-0.7510291,3.501322,-3.4209843,-2.001841,0
0.17,18.978466346777786,5.99999994271984,-5.9999999871325755,-3.593707491913898,17.985718,4.076131,-5.9086113,-2.6381588,16.978548,-10.628934,2.07598,-0.12916306,0.3858881,-0.32442117,-0.8539075,-11.9888115,-4.3513927,-0.75705457,3.890271,-3.8238847,-2.0799544,0
0.18000000000000002,18.978466346777786,5.99999994271984,-5.9999999871325755,-3.593707491913898,17.985718,4.076131,-5.9086113,-2.6381588,16.858124,-10.671821,2.0683877,-0.1524572,0.36945355,-0.3349296,-0.8532777,-12.094732,-4.2251487,-0.7610662,4.218621,-4.1638966,-2.1542346,0
0.19000000000000003,18.978466346777786,5.99999994271984,-5.9999999871325755,-3.593707491913898,17.985718,4.076131,-5.9086113,-2.6381588,16.736687,-10.713416,2.060766,-0.17699027,0.35121012,-0.34602252,-0.85181814,-12.191351,-4.093165,-0.7629746,4.49582,-4.4508314,-2.22487,0
0.20000000000000004,20.999999534808584,5.999999908298255,-5.999999966523672,-3.1653984120065295,19.756939,4.765147,-5.7416887,-1.8976473,16.614334,-10.753664,2.0531359,-0.20252196,0.3313429,-0.35745898,-0.8493642,-12.277622,-3.9556913,-0.76276577,4.7298403,-4.6929693,-2.2920394,0
0.21000000000000005,20.999999534808584,5.999999908298255,-5.999999966523672,-3.1653984120065295,19.756939,4.765147,-5.7416887,-1.8976473,16.491135,-10.792438,2.0455713,-0.22879025,0.31000027,-0.36905047,-0.8457874,-12.360565,-3.7979906,-0.74980277,4.92748,-4.8972325,-2.3348954,0
0.22000000000000006,20.999999534808584,5.999999908298255,-5.999999966523672,-3.1653984120065295,19.756939,4.765147,-5.7416887,-1.8976473,16.367172,-10.829608,2.0381472,-0.25555655,0.2873173,-0.38063654,-0.84098464,-12.430028,-3.635387,-0.7346866,5.094343,-5.0695972,-2.3756485,0
0.23000000000000007,20.999999534808584,5.999999908298255,-5.999999966523672,-3.1653984120065295,19.756939,4.765147,-5.7416887,-1.8976473,16.242586,-10.865131,2.0308843,-0.28264618,0.26343682,-0.3920641,-0.83486384,-12.485163,-3.4687254,-0.717609,5.235224,-5.215043,-2.4144018,0
0.24000000000000007,20.999999534808584,5.999999908298255,-5.999999966523672,-3.1653984120065295,20.003572,4.2759495,-5.0320644,-0.64637625,16.117523,-10.8989725,2.0238008,-0.3098996,0.23849185,-0.40320233,-0.82735205,-12.525249,-3.2989902,-0.69881624,5.3541694,-5.337772,-2.4512537,0
0.25000000000000006,20.999999534808584,5.999999908298255,-5.999999966523672,-3.1653984120065295,20.003572,4.2759495,-5.0320644,-0.64637625,15.992138,-10.931105,2.0169125,-0.33717054,0.21260706,-0.4139395,-0.8183936,-12.5497,-3.127282,-0.67860186,5.4545965,-5.4413304,-2.4862971,0
0.26000000000000006,20.999999534808584,5.999999908298255,-5.999999966523672,-3.1653984120065295,20.003572,4.2759495,-5.0320644,-0.64637625,15.866587,-10.9615135,2.0102322,-0.36432433,0.18589982,-0.42418027,-0.8079479,-12.558075,-2.9547942,-0.6572986,5.539391,-5.5287123,-2.5196207,0
0.2700000000000001,20.999999534808584,5.999999908298255,-5.999999966523672,-3.1653984120065295,20.003572,4.2759495,-5.0320644,-0.64637625,15.741033,-10.9902,2.003769,-0.39123687,0.15848117,-0.43384334,-0.795988,-12.55008,-2.7827935,-0.63527143,5.610986,-5.6024423,-2.551309,0
0.2800000000000001,20.999999894620856,4.32111499843536,-5.794763993746966,-0.9699195282359369,20.0185,3.3667998,-3.296647,-0.51882654,15.615642,-11.017175,1.9975278,-0.41779336,0.13045642,-0.44285953,-0.7824991,-12.525573,-2.6125977,-0.6129102,5.671438,-5.6646533,-2.5814428,0
0.2900000000000001,20.999999894620856,4.32111499843536,-5.794763993746966,-0.9699195282359369,20.0185,3.3667998,-3.296647,-0.51882654,15.490578,-11.042462,1.9915104,-0.44356462,0.1021581,-0.45072454,-0.7678939,-12.484618,-2.4455652,-0.5905907,5.461115,-5.6843085,-2.502365,0
0.3000000000000001,20.999999894620856,4.32111499843536,-5.794763993746966,-0.9699195282359369,20.0185,3.3667998,-3.296647,-0.51882654,15.366004,-11.066102,1.9857153,-0.46822247,0.07386974,-0.4570748,-0.75259095,-12.427725,-2.2830896,-0.56850946,5.2835846,-5.700985,-2.4271677,0
0.3100000000000001,20.999999894620856,4.32111499843536,-5.794763993746966,-0.9699195282359369,20.0185,3.3667998,-3.296647,-0.51882654,15.242075,-11.088145,1.980139,-0.49180225,0.045614943,-0.46204355,-0.73659015,-12.355584,-2.1264837,-0.54681987,5.1337323,-5.715133,-2.35566,0
0.3200000000000001,20.999999570239623,2.7127311336327495,-3.667263999941545,-0.6042336252046729,20.378414,2.2988958,-1.8282197,-0.36696935,15.118941,-11.108657,1.974777,-0.51432943,0.017415648,-0.46574238,-0.7198927,-12.268939,-1.9769529,-0.5257017,5.007241,-5.7271357,-2.287661,0
0.3300000000000001,20.999999570239623,2.7127311336327495,-3.667263999941545,-0.6042336252046729,20.378414,2.2988958,-1.8282197,-0.36696935,14.996743,-11.127712,1.9696223,-0.53540045,-0.009784021,-0.4682633,-0.7028369,-12.168662,-1.8355448,-0.5053567,4.6501846,-5.4051166,-2.2050548,0
0.34000000000000014,20.999999570239623,2.7127311336327495,-3.667263999941545,-0.6042336252046729,20.378414,2.2988958,-1.8282197,-0.36696935,14.87561,-11.145397,1.9646664,-0.554763,-0.035239667,-0.46976352,-0.6857973,-12.056089,-1.7028415,-0.48598114,4.3486934,-5.133443,-2.126502,0
0.35000000000000014,20.999999570239623,2.7127311336327495,-3.667263999941545,-0.6042336252046729,20.378414,2.2988958,-1.8282197,-0.36696935,14.755659,-11.1618,1.9598986,-0.57263255,-0.059205964,-0.470405,-0.6688088,-11.932582,-1.5791763,-0.4677298,4.0941224,-4.90424,-2.0518038,0
0.36000000000000015,20.716518712409364,0.6988353594680559,-1.3791354891583474,-0.128960244924482,20.74357,1.0492816,-0.16979818,-0.3222626,14.636992,-11.177013,1.9553074,-0.58918583,-0.081901915,-0.47031382,-0.6518869,-11.799343,-1.4647897,-0.45072353,3.879172,-4.710867,-1.9807711,0
0.37000000000000016,20.716518712409364,0.6988353594680559,-1.3791354891583474,-0.128960244924482,20.74357,1.0492816,-0.16979818,-0.3222626,14.519693,-11.191136,1.9508718,-0.6041854,-0.10247362,-0.46961883,-0.6355445,-11.659436,-1.3611885,-0.43657956,3.3841212,-4.190445,-1.8899024,0
0.38000000000000017,20.716518712409364,0.6988353594680559,-1.3791354891583474,-0.128960244924482,20.74357,1.0492816,-0.16979818,-0.3222626,14.403829,-11.204268,1.9465714,-0.61751664,-0.12027298,-0.46848997,-0.62026143,-11.512458,-1.2663721,-0.42370254,2.9661052,-3.75134,-1.8034924,0
0.3900000000000002,20.716518712409364,0.6988353594680559,-1.3791354891583474,-0.128960244924482,20.74357,1.0492816,-0.16979818,-0.3222626,14.289464,-11.216492,1.9423937,-0.6294653,-0.13575104,-0.46705538,-0.6059734,-11.359686,-1.1797048,-0.41198614,2.6131425,-3.38084,-1.7213227,0
0.4000000000000002,19.329740199126704,-1.774013974270685,1.3231523863828316,1.9723724547630275,21.644049,0.43180934,1.0384922,0.4778043,14.176651,-11.227888,1.9383279,-0.6402594,-0.1492894,-0.4654047,-0.5926031,-11.202145,-1.1005841,-0.40130895,2.3151147,-3.0682223,-1.643185,0
0.4100000000000002,19.329740199126704,-1.774013974270685,1.3231523863828316,1.9723724547630275,21.644049,0.43180934,1.0384922,0.4778043,14.065384,-11.23855,1.9343307,-0.6496055,-0.160058,-0.46365306,-0.580878,-11.051059,-1.0329574,-0.3984163,1.6722741,-2.388655,-1.4663366,0
0.4200000000000002,19.329740199126704,-1.774013974270685,1.3231523863828316,1.9723724547630275,21.644049,0.43180934,1.0384922,0.4778043,13.955637,-11.248566,1.9303569,-0.65727997,-0.16744912,-0.46197796,-0.5714189,-10.8978615,-0.9707881,-0.39638066,1.135583,-1.8091598,-1.2975981,0
0.4300000000000002,19.329740199126704,-1.774013974270685,1.3231523863828316,1.9723724547630275,21.644049,0.43180934,1.0384922,0.4778043,13.847431,-11.25798,1.9264022,-0.6635603,-0.1720476,-0.4604305,-0.5639951,-10.742962,-0.9125864,-0.3945717,0.68238693,-1.3202204,-1.1371398,0
0.4400000000000002,19.329740199126704,-1.774013974270685,1.3231523863828316,1.9723724547630275,21.130953,-1.7771983,3.0459926,1.8134712,13.740781,-11.266828,1.9224656,-0.6686622,-0.17433898,-0.4590221,-0.55838597,-10.587045,-0.8572418,-0.39271927,0.29971066,-0.90767276,-0.9845551,0
0.45000000000000023,19.329740199126704,-1.774013974270685,1.3231523863828316,1.9723724547630275,21.130953,-1.7771983,3.0459926,1.8134712,13.635692,-11.275131,1.9185487,-0.67275155,-0.17472662,-0.45774654,-0.5543857,-10.430642,-0.803793,-0.39059278,-0.023407735,-0.55956995,-0.8394578,0
0.46000000000000024,19.329740199126704,-1.774013974270685,1.3231523863828316,1.9723724547630275,21.130953,-1.7771983,3.0459926,1.8134712,13.532168,-11.282907,1.9146553,-0.6759573,-0.17354584,-0.45658764,-0.5518067,-10.274178,-0.75141406,-0.38800043,-0.29622796,-0.26583666,-0.7014804,0
0.47000000000000025,19.329740199126704,-1.774013974270685,1.3231523863828316,1.9723724547630275,21.130953,-1.7771983,3.0459926,1.8134712,13.430208,-11.290161,1.9107909,-0.6783812,-0.17107545,-0.45552456,-0.5504806,-10.117993,-0.6993999,-0.38478622,-0.5265719,-0.017973408,-0.5702737,0
0.48000000000000026,20.667056159081046,-4.0799010184923326,3.801343461989433,2.2943083199379948,20.72067,-3.511276,3.3257551,1.7283801,13.329805,-11.296894,1.9069623,-0.68010426,-0.16754746,-0.4545348,-0.5502576,-9.962373,-0.6471516,-0.38082615,-0.72104704,0.191189,-0.44550538,1
0.49000000000000027,20.667056159081046,-4.0799010184923326,3.801343461989433,2.2943083199379948,20.72067,-3.511276,3.3257551,1.7283801,13.231012,-11.303082,1.9032143,-0.6809578,-0.16222656,-0.45376274,-0.5514324,-9.79646,-0.5902617,-0.36860496,-1.1560851,0.68007034,-0.33883223,1
0.5000000000000002,20.667056159081046,-4.0799010184923326,3.801343461989433,2.2943083199379948,20.72067,-3.511276,3.3257551,1.7283801,13.133871,-11.308693,1.899594,-0.68079543,-0.15453112,-0.45331144,-0.55420727,-9.631948,-0.5314515,-0.35530043,-1.5233555,1.092645,-0.23739351,1
0.5100000000000002,20.667056159081046,-4.0799010184923326,3.801343461989433,2.2943083199379948,20.72067,-3.511276,3.3257551,1.7283801,13.038366,-11.313701,1.8961126,-0.67969877,-0.14484432,-0.45309857,-0.5583285,-9.469368,-0.46968096,-0.34077328,-1.8334062,1.4408311,-0.14093241,1
0.5200000000000002,20.999999089372317,-5.176388938073605,4.8491865708475315,2.396042493182246,21.764267,-4.0338492,3.9109323,1.698772,12.944475,-11.318072,1.892783,-0.67772776,-0.13348751,-0.45304793,-0.56357163,-9.309212,-0.40409067,-0.32494265,-2.095145,1.7346836,-0.049204703,0
0.5300000000000002,20.999999089372317,-5.176388938073605,4.8491865708475315,2.396042493182246,21.764267,-4.0338492,3.9109323,1.698772,12.852181,-11.321762,1.8896263,-0.6746852,-0.119971566,-0.45311219,-0.57017136,-9.149876,-0.33296445,-0.30621037,-2.5758193,2.2202046,0.07078429,0
0.5400000000000003,20.999999089372317,-5.176388938073605,4.8491865708475315,2.396042493182246,21.764267,-4.0338492,3.9109323,1.698772,12.761464,-11.324712,1.8866639,-0.6703677,-0.10392142,-0.45322135,-0.57827085,-8.9942875,-0.25615978,-0.28603593,-2.9815898,2.6299543,0.18488538,0
0.5500000000000003,20.999999089372317,-5.176388938073605,4.8491865708475315,2.396042493182246,21.764267,-4.0338492,3.9109323,1.698772,12.67228,-11.326862,1.8839107,-0.66480374,-0.08574177,-0.45327777,-0.5875567,-8.843296,-0.17273462,-0.26440224,-3.3241181,2.9757674,0.29338753,0
0.5600000000000003,20.99999954371103,-5.465363144919684,4.994441767177444,2.1896407103510485,22.227825,-4.8437605,4.986939,1.6954752,12.584579,-11.328142,1.8813807,-0.658012,-0.065777704,-0.45319468,-0.59775203,-8.697745,-0.08197494,-0.24138246,-3.613253,3.2676287,0.39656538,0
0.5700000000000003,20.99999954371103,-5.465363144919684,4.994441767177444,2.1896407103510485,22.227825,-4.8437605,4.986939,1.6954752,12.498303,-11.328476,1.8790872,-0.6500013,-0.04420293,-0.45286614,-0.6086511,-8.5584755,0.016633786,-0.21712539,-3.9023602,3.5366268,0.48455212,0
0.5800000000000003,20.99999954371103,-5.465363144919684,4.994441767177444,2.1896407103510485,22.227825,-4.8437605,4.986939,1.6954752,12.413385,-11.327782,1.8770417,-0.64077485,-0.021174675,-0.45219773,-0.6200613,-8.42637,0.12345761,-0.19182944,-4.146386,3.76367,0.5682213,0
0.5900000000000003,20.99999954371103,-5.465363144919684,4.994441767177444,2.1896407103510485,22.227825,-4.8437605,4.986939,1.6954752,12.329747,-11.325978,1.8752533,-0.6303409,0.003052122,-0.45113665,-0.6317724,-8.302311,0.23869136,-0.16575482,-4.3523555,3.9553072,0.6477848,0
0.6000000000000003,20.99999955319628,-4.935110342718853,4.211577874967593,2.0121553655506985,21.297497,-4.533271,4.454485,1.3934695,12.247307,-11.32298,1.8737283,-0.61871094,0.02825485,-0.44963992,-0.6436008,-8.187154,0.36235714,-0.13922158,-4.526199,4.117064,0.72344416,1
0.6100000000000003,20.99999955319628,-4.935110342718853,4.211577874967593,2.0121553655506985,21.297497,-4.533271,4.454485,1.3934695,12.1659775,-11.318693,1.8724781,-0.6060803,0.053913604,-0.44778302,-0.65517175,-8.08019,0.49616867,-0.110837854,-4.527416,4.169587,0.75632256,1
0.6200000000000003,20.99999955319628,-4.935110342718853,4.211577874967593,2.0121553655506985,21.297497,-4.533271,4.454485,1.3934695,12.085667,-11.313028,1.8715103,-0.59265363,0.07961028,-0.44564718,-0.66619974,-7.983594,0.6379691,-0.0828157,-4.5284367,4.213924,0.7875875,1
0.6300000000000003,20.99999955319628,-4.935110342718853,4.211577874967593,2.0121553655506985,21.297497,-4.533271,4.454485,1.3934695,12.0062685,-11.305908,1.870819,-0.5784582,0.10530018,-0.44320816,-0.6766566,-7.8978004,0.78724456,-0.055612225,-4.529292,4.251351,0.8173183,1
0.6400000000000003,20.99999955319628,-4.935110342718853,4.211577874967593,2.0121553655506985,20.229923,-4.790519,4.7673073,2.0306902,11.927672,-11.29726,1.8703936,-0.5635203,0.13094117,-0.4404465,-0.6865171,-7.823203,0.9434321,-0.029674869,-4.530009,4.2829456,0.84559023,1
0.6500000000000004,20.99999955319628,-4.935110342718853,4.211577874967593,2.0121553655506985,20.229923,-4.790519,4.7673073,2.0306902,11.849749,-11.287059,1.8701888,-0.5477403,0.15660207,-0.4373548,-0.6958281,-7.7633266,1.0977857,-0.011575809,-4.570842,4.358286,0.9037434,1
0.6600000000000004,20.99999955319628,-4.935110342718853,4.211577874967593,2.0121553655506985,20.229923,-4.790519,4.7673073,2.0306902,11.7723675,-11.275287,1.8701552,-0.5310251,0.1823235,-0.43392187,-0.70461464,-7.714808,1.2575601,0.004473931,-4.6052966,4.4218864,0.959043,1
0.6700000000000004,20.99999955319628,-4.935110342718853,4.211577874967593,2.0121553655506985,20.229923,-4.790519,4.7673073,2.0306902,11.695414,-11.261891,1.87027,-0.5134111,0.20802818,-0.43012995,-0.7128261,-7.677997,1.4221365,0.018049167,-4.634369,4.475578,1.011629,1
0.6800000000000004,20.999999128676617,-3.7215778750804906,2.8600968241988283,1.7651323697294228,19.765232,-5.650829,3.2272706,2.5931244,11.618767,-11.246829,1.8705065,-0.49493474,0.23364602,-0.4259658,-0.7204178,-7.653186,1.5908401,0.028738458,-4.6588974,4.520905,1.0616347,0
0.6900000000000004,20.999999128676617,-3.7215778750804906,2.8600968241988283,1.7651323697294228,19.765232,-5.650829,3.2272706,2.5931244,11.54231,-11.23003,1.8708539,-0.47609252,0.25837106,-0.42135647,-0.7273504,-7.640064,1.7694718,0.04020344,-4.51264,4.261903,1.0961554,0
0.7000000000000004,20.999999128676617,-3.7215778750804906,2.8600968241988283,1.7651323697294228,19.765232,-5.650829,3.2272706,2.5931244,11.465922,-11.211431,1.8712986,-0.45732936,0.2815817,-0.4162927,-0.73366314,-7.6393175,1.9506663,0.048193477,-4.3892055,4.043286,1.1289823,0
0.7100000000000004,20.999999128676617,-3.7215778750804906,2.8600968241988283,1.7651323697294228,19.765232,-5.650829,3.2272706,2.5931244,11.3894825,-11.19101,1.8718058,-0.4386045,0.3034685,-0.41084546,-0.73941773,-7.6505594,2.1335151,0.052699443,-4.2850327,3.8587575,1.1601983,0
0.7200000000000004,19.65792866589168,-2.14640911605937,0.7553400485358459,1.4115869033889783,19.05363,-4.636369,1.3267667,1.8321447,11.31287,-11.168757,1.8723406,-0.41988105,0.3241924,-0.40507007,-0.74465907,-7.6734214,2.317203,0.053720064,-4.197117,3.703002,1.1898826,0
0.7300000000000004,19.65792866589168,-2.14640911605937,0.7553400485358459,1.4115869033889783,19.05363,-4.636369,1.3267667,1.8321447,11.235984,-11.144725,1.8728375,-0.40171513,0.3430235,-0.39912516,-0.7494389,-7.7052913,2.4892387,0.045189448,-3.8769777,3.2435362,1.2007617,0
0.7400000000000004,19.65792866589168,-2.14640911605937,0.7553400485358459,1.4115869033889783,19.05363,-4.636369,1.3267667,1.8321447,11.158731,-11.118974,1.8732343,-0.3845847,0.35942543,-0.39318082,-0.7538677,-7.746786,2.6607184,0.03374417,-3.6068125,2.8556902,1.2111069,0
0.7500000000000004,19.65792866589168,-2.14640911605937,0.7553400485358459,1.4115869033889783,19.05363,-4.636369,1.3267667,1.8321447,11.081018,-11.091514,1.8735036,-0.36834514,0.37378043,-0.38728064,-0.7580392,-7.797012,2.8311303,0.019754862,-3.3788216,2.5282996,1.2209445,0
0.7600000000000005,18.020933611325166,-0.31050773590735176,-1.2114359822913112,0.9893900466667221,17.061844,-2.8714085,-0.34712726,1.1154022,11.002763,-11.062357,1.8736218,-0.35286558,0.38640794,-0.3814501,-0.7620172,-7.8552,3.0000803,0.0035590916,-3.1864216,2.2519407,1.2302994,0
0.7700000000000005,18.020933611325166,-0.31050773590735176,-1.2114359822913112,0.9893900466667221,17.061844,-2.8714085,-0.34712726,1.1154022,10.923916,-11.031589,1.8735349,-0.33865935,0.39674348,-0.37597412,-0.7658639,-7.9151583,3.1533551,-0.021166047,-2.7374787,1.7122097,1.2184778,0
0.7800000000000005,18.020933611325166,-0.31050773590735176,-1.2114359822913112,0.9893900466667221,17.061844,-2.8714085,-0.34712726,1.1154022,10.84444,-10.999296,1.8731942,-0.32614726,0.40437993,-0.37110108,-0.7696677,-7.980707,3.304913,-0.047109567,-2.3586228,1.2565868,1.2072364,0
0.7900000000000005,18.020933611325166,-0.31050773590735176,-1.2114359822913112,0.9893900466667221,17.061844,-2.8714085,-0.34712726,1.1154022,10.764286,-10.965496,1.8725903,-0.3150885,0.40976697,-0.36678168,-0.77348626,-8.050836,3.454753,-0.07376786,-2.0389118,0.87196547,1.1965467,0
0.8000000000000005,17.13455245074079,1.2106453475303864,-2.7379004928371695,0.6539504730586424,17.041012,-0.73201156,-3.1766415,-0.034538142,10.683411,-10.930206,1.8717179,-0.30527085,0.41327527,-0.36296114,-0.7773494,-8.124698,3.6029234,-0.100704774,-1.7691114,0.5472821,1.1863815,0
0.8100000000000005,17.13455245074079,1.2106453475303864,-2.7379004928371695,0.6539504730586424,17.041012,-0.73201156,-3.1766415,-0.034538142,10.6018,-10.893478,1.870559,-0.29701588,0.4145682,-0.35985783,-0.7812917,-8.197745,3.7423105,-0.13102588,-1.3040235,0.035341524,1.160255,0
0.8200000000000005,17.13455245074079,1.2106453475303864,-2.7379004928371695,0.6539504730586424,17.041012,-0.73201156,-3.1766415,-0.034538142,10.519449,-10.855364,1.8690994,-0.2905713,0.41339868,-0.3576443,-0.7853407,-8.272662,3.880414,-0.1607604,-0.9115418,-0.3968325,1.1354104,0
0.8300000000000005,17.13455245074079,1.2106453475303864,-2.7379004928371695,0.6539504730586424,17.041012,-0.73201156,-3.1766415,-0.034538142,10.436344,-10.815874,1.8673474,-0.28566223,0.41016233,-0.35619912,-0.78948456,-8.3485365,4.017478,-0.1894661,-0.5803294,-0.76166666,1.111785,0
0.8400000000000005,17.13455245074079,1.2106453475303864,-2.7379004928371695,0.6539504730586424,16.609806,0.3047472,-4.927468,-0.37854254,10.352478,-10.775018,1.865315,-0.28205124,0.40518427,-0.35540995,-0.7936979,-8.424595,4.153727,-0.21678075,-0.30082032,-1.0696523,1.089319,0
0.8500000000000005,17.13455245074079,1.2106453475303864,-2.7379004928371695,0.6539504730586424,16.609806,0.3047472,-4.927468,-0.37854254,10.267854,-10.732802,1.8630177,-0.27953455,0.39873335,-0.35517508,-0.797949,-8.500175,4.2893543,-0.24241312,-0.06494199,-1.3296463,1.0679553,0
0.8600000000000005,17.13455245074079,1.2106453475303864,-2.7379004928371695,0.6539504730586424,16.609806,0.3047472,-4.927468,-0.37854254,10.182479,-10.689233,1.8604734,-0.2779381,0.3910327,-0.35540384,-0.8022043,-8.574712,4.4245243,-0.2661342,0.13411742,-1.549126,1.0476398,0
0.8700000000000006,17.13455245074079,1.2106453475303864,-2.7379004928371695,0.6539504730586424,16.609806,0.3047472,-4.927468,-0.37854254,10.096366,-10.644313,1.8577023,-0.27711368,0.38226855,-0.35601622,-0.80643106,-8.647712,4.5593677,-0.28776896,0.30210605,-1.7344037,1.0283214,0
0.8800000000000006,17.163828903995167,2.2401234388299573,-3.6745547943871126,0.2663932178753203,17.246363,0.3926128,-5.388279,-0.7355989,10.009532,-10.598046,1.8547256,-0.27693537,0.3725969,-0.3569424,-0.8105988,-8.718747,4.6939855,-0.30718905,0.44387442,-1.8908089,1.0099509,0
0.8900000000000006,17.163828903995167,2.2401234388299573,-3.6745547943871126,0.2663932178753203,17.246363,0.3926128,-5.388279,-0.7355989,9.921998,-10.550433,1.851567,-0.27762043,0.36174652,-0.35833365,-0.8146553,-8.78752,4.8286943,-0.32415682,0.72413003,-2.1688159,0.97346425,0
0.9000000000000006,17.163828903995167,2.2401234388299573,-3.6745547943871126,0.2663932178753203,17.246363,0.3926128,-5.388279,-0.7355989,9.833791,-10.501472,1.8482509,-0.2793324,0.34950453,-0.36030006,-0.8185376,-8.85332,4.9633956,-0.33868507,0.96064293,-2.4035068,0.9387681,0
0.9100000000000006,17.163828903995167,2.2401234388299573,-3.6745547943871126,0.2663932178753203,17.246363,0.3926128,-5.388279,-0.7355989,9.744943,-10.451165,1.844802,-0.28189936,0.33606994,-0.36272782,-0.8222033,-8.915552,5.0981984,-0.35068473,1.1602424,-2.6016288,0.9057745,0
0.9200000000000006,17.290706125347054,2.9658320333497286,-4.282087861444644,-0.0709393184712954,17.429691,0.05328033,-5.436668,-0.78830874,9.655494,-10.399508,1.841246,-0.28517506,0.3216108,-0.36551836,-0.82561374,-8.973696,5.233163,-0.36011893,1.3286915,-2.7688787,0.87439984,0
0.9300000000000006,17.290706125347054,2.9658320333497286,-4.282087861444644,-0.0709393184712954,17.429691,0.05328033,-5.436668,-0.78830874,9.565484,-10.346497,1.8376118,-0.28924948,0.30599982,-0.36874273,-0.8286903,-9.027658,5.3693123,-0.3663175,1.5840465,-3.004765,0.82801175,0
0.9400000000000006,17.290706125347054,2.9658320333497286,-4.282087861444644,-0.0709393184712954,17.429691,0.05328033,-5.436668,-0.78830874,9.474959,-10.292122,1.8339283,-0.2941829,0.28914025,-0.37244466,-0.8313478,-9.076421,5.5056725,-0.36996067,1.7995504,-3.2038982,0.78389996,0
0.9500000000000006,17.290706125347054,2.9658320333497286,-4.282087861444644,-0.0709393184712954,17.429691,0.05328033,-5.436668,-0.78830874,9.383976,-10.2363825,1.8302212,-0.29981944,0.27120605,-0.37650758,-0.83354515,-9.119408,5.6422276,-0.371116,1.9814249,-3.3720024,0.7419527,0
0.9600000000000006,17.404635970166037,2.8194143135743324,-3.8991553889537425,-0.3734986302437512,16.901981,0.103830434,-4.942277,-0.8762791,9.292593,-10.179276,1.8265142,-0.30602607,0.2523465,-0.38083142,-0.8352464,-9.156122,5.7789063,-0.36989814,2.13492,-3.5139105,0.7020638,0
0.9700000000000006,17.404635970166037,2.8194143135743324,-3.8991553889537425,-0.3734986302437512,16.901981,0.103830434,-4.942277,-0.8762791,9.200875,-10.1208,1.8228341,-0.31264815,0.23285131,-0.3853204,-0.8363967,-9.186339,5.916493,-0.3657983,2.2415707,-3.5740178,0.6492856,0
0.9800000000000006,17.404635970166037,2.8194143135743324,-3.8991553889537425,-0.3734986302437512,16.901981,0.103830434,-4.942277,-0.8762791,9.1088915,-10.060947,1.8192052,-0.3195641,0.21296482,-0.38989782,-0.8369613,-9.20952,6.053941,-0.35969377,2.331588,-3.624761,0.5990973,0
0.9900000000000007,17.404635970166037,2.8194143135743324,-3.8991553889537425,-0.3734986302437512,16.901981,0.103830434,-4.942277,-0.8762791,9.016711,-9.999722,1.8156463,-0.32671303,0.19274545,-0.39451063,-0.83694017,-9.225438,6.191078,-0.35183325,2.407567,-3.6675978,0.55137175,0
1.0000000000000007,17.630175833997257,2.17938526701235,-3.0281079096474457,-0.6437983851758521,17.598513,-0.7441344,-4.0328097,-1.0376576,8.924409,-9.937127,1.8121737,-0.33404234,0.17224474,-0.3991139,-0.8363344,-9.233906,6.327711,-0.34247485,2.4716976,-3.7037594,0.5059881,0
1.0100000000000007,17.630175833997257,2.17938526701235,-3.0281079096474457,-0.6437983851758521,17.598513,-0.7441344,-4.0328097,-1.0376576,8.83206,-9.87316,1.8088082,-0.34135452,0.15190034,-0.4035699,-0.8351853,-9.234817,6.46539,-0.33047888,2.4259443,-3.5984962,0.4495678,0
1.0200000000000007,17.630175833997257,2.17938526701235,-3.0281079096474457,-0.6437983851758521,17.598513,-0.7441344,-4.0328097,-1.0376576,8.739739,-9.807822,1.8055674,-0.34850648,0.13207068,-0.4077813,-0.8335554,-9.228168,6.6021423,-0.31752715,2.3873446,-3.5096395,0.395916,0
1.0300000000000007,17.630175833997257,2.17938526701235,-3.0281079096474457,-0.6437983851758521,17.598513,-0.7441344,-4.0328097,-1.0376576,8.647523,-9.741121,1.8024598,-0.3555279,0.11269011,-0.41176713,-0.83147365,-9.214129,6.7377763,-0.30389383,2.3547802,-3.4346316,0.34489688,0
1.0400000000000007,17.630175833997257,2.17938526701235,-3.0281079096474457,-0.6437983851758521,16.791862,-2.0008578,-3.0038538,-0.9140562,8.555484,-9.673071,1.799491,-0.36244193,0.09370279,-0.4155431,-0.8289628,-9.192862,6.8721094,-0.2898313,2.3273065,-3.3713143,0.2963813,0
1.0500000000000007,17.630175833997257,2.17938526701235,-3.0281079096474457,-0.6437983851758521,16.791862,-2.0008578,-3.0038538,-0.9140562,8.463692,-9.603683,1.796664,-0.36926624,0.07506141,-0.4191223,-0.82604146,-9.164511,7.0049634,-0.27557373,2.3041282,-3.3178654,0.2502464,0
1.0600000000000007,17.630175833997257,2.17938526701235,-3.0281079096474457,-0.6437983851758521,16.791862,-2.0008578,-3.0038538,-0.9140562,8.372219,-9.532976,1.7939795,-0.37601405,0.05672596,-0.42251557,-0.82272476,-9.129222,7.1361666,-0.2613403,2.2845733,-3.2727463,0.20637538,0
1.0700000000000007,17.630175833997257,2.17938526701235,-3.0281079096474457,-0.6437983851758521,16.791862,-2.0008578,-3.0038538,-0.9140562,8.281132,-9.460965,1.7914364,-0.38269484,0.03866276,-0.4257319,-0.81902504,-9.087129,7.265548,-0.24733746,2.2680762,-3.2346592,0.1646571,0
1.0800000000000007,16.932042816170252,1.1408717220223354,-2.151338673806411,-0.7314857883621656,15.096523,-2.886606,-2.5008998,-0.19838953,8.1905,-9.3876705,1.7890314,-0.38931513,0.020843541,-0.42877877,-0.8149527,-9.038364,7.3929415,-0.23376094,2.2541585,-3.2025075,0.12498597,0
1.0900000000000007,16.932042816170252,1.1408717220223354,-2.151338673806411,-0.7314857883621656,15.096523,-2.886606,-2.5008998,-0.19838953,8.100377,-9.313138,1.7867373,-0.39573327,0.0036975406,-0.43146428,-0.81069106,-8.9852915,7.513229,-0.22518283,2.0804453,-3.0386496,0.08295865,0
1.1000000000000008,16.932042816170252,1.1408717220223354,-2.151338673806411,-0.7314857883621656,15.096523,-2.886606,-2.5008998,-0.19838953,8.010815,-9.237413,1.7845256,-0.4018545,-0.012434265,-0.4336526,-0.80641407,-8.926353,7.631351,-0.21726383,1.933836,-2.9003325,0.042993627,0
1.1100000000000008,16.932042816170252,1.1408717220223354,-2.151338673806411,-0.7314857883621656,15.096523,-2.886606,-2.5008998,-0.19838953,7.921869,-9.160519,1.7823896,-0.40774274,-0.027693864,-0.435423,-0.80211323,-8.861954,7.747232,-0.21004908,1.8101014,-2.7835755,0.0049896976,0
1.1200000000000008,16.111049811676576,-0.259208586090004,-1.4864277062777245,-0.645265687066543,14.117689,-4.3749285,-1.8787963,0.3307553,7.8335934,-9.082477,1.7803222,-0.41344878,-0.04220239,-0.43684056,-0.7977777,-8.792441,7.860807,-0.20357573,1.7056717,-2.6850193,-0.031149369,0
1.1300000000000008,16.111049811676576,-0.259208586090004,-1.4864277062777245,-0.645265687066543,14.117689,-4.3749285,-1.8787963,0.3307553,7.7460194,-9.003337,1.7782904,-0.4189163,-0.0556234,-0.4376251,-0.793662,-8.721757,7.9666314,-0.20288482,1.3992041,-2.4981213,-0.06128423,0
1.1400000000000008,16.111049811676576,-0.259208586090004,-1.4864277062777245,-0.645265687066543,14.117689,-4.3749285,-1.8787963,0.3307553,7.659173,-8.923152,1.7762625,-0.42411575,-0.06769602,-0.4375686,-0.7899853,-8.647023,8.070186,-0.20276895,1.140538,-2.3403597,-0.089940354,0
1.1500000000000008,16.111049811676576,-0.259208586090004,-1.4864277062777245,-0.645265687066543,14.117689,-4.3749285,-1.8787963,0.3307553,7.5730915,-8.841942,1.7742337,-0.42911583,-0.07861823,-0.43681455,-0.78668404,-8.568726,8.171464,-0.20305488,0.9222166,-2.2071936,-0.11719033,0
1.1600000000000008,15.94241659030632,-1.473443681015458,-0.03656184731971968,-0.4627426085012783,14.563122,-5.0134892,-1.0671492,0.5162804,7.487809,-8.75973,1.7722006,-0.4339697,-0.0885584,-0.43548068,-0.7836991,-8.487273,8.270469,-0.20358855,0.7379471,-2.094789,-0.14310314,0
1.1700000000000008,15.94241659030632,-1.473443681015458,-0.03656184731971968,-0.4627426085012783,14.563122,-5.0134892,-1.0671492,0.5162804,7.4033513,-8.676546,1.7701564,-0.43849483,-0.09700404,-0.4335362,-0.78125465,-8.403936,8.366217,-0.20523843,0.39309353,-1.7737818,-0.15878798,0
1.1800000000000008,15.94241659030632,-1.473443681015458,-0.03656184731971968,-0.4627426085012783,14.563122,-5.0134892,-1.0671492,0.5162804,7.319738,-8.592414,1.7680962,-0.44255584,-0.10355933,-0.43097034,-0.77954113,-8.318449,8.459912,-0.20675357,0.10202138,-1.5028346,-0.1737031,0
1.1900000000000008,15.94241659030632,-1.473443681015458,-0.03656184731971968,-0.4627426085012783,14.563122,-5.0134892,-1.0671492,0.5162804,7.2369876,-8.507355,1.7660227,-0.44624886,-0.108513266,-0.4278944,-0.7784557,-8.231385,8.551753,-0.20789605,-0.14365773,-1.2741414,-0.18788636,0
1.2000000000000008,15.593232534020135,-2.5820924223311077,1.130278375739731,-0.17574805768227023,13.996658,-5.8677287,-0.68712646,1.2827762,7.1551137,-8.421385,1.7639403,-0.44964892,-0.11210988,-0.42439723,-0.77790374,-8.143224,8.641918,-0.20845771,-0.351023,-1.0811133,-0.20137364,0
1.2100000000000009,15.593232534020135,-2.5820924223311077,1.130278375739731,-0.17574805768227023,13.996658,-5.8677287,-0.68712646,1.2827762,7.074116,-8.334531,1.7618454,-0.4526401,-0.114007205,-0.42041188,-0.77805734,-8.056351,8.728638,-0.21039529,-0.6989113,-0.73620296,-0.2001162,0
1.2200000000000009,15.593232534020135,-2.5820924223311077,1.130278375739731,-0.17574805768227023,13.996658,-5.8677287,-0.68712646,1.2827762,6.993988,-8.246816,1.759736,-0.455129,-0.11394536,-0.41588703,-0.7790457,-7.969409,8.814143,-0.21131225,-0.9925542,-0.4450888,-0.19892044,0
1.2300000000000009,15.593232534020135,-2.5820924223311077,1.130278375739731,-0.17574805768227023,13.996658,-5.8677287,-0.68712646,1.2827762,6.9147267,-8.15825,1.7576236,-0.45719597,-0.112224564,-0.41090563,-0.7807268,-7.882959,8.898687,-0.21095814,-1.24041,-0.19938001,-0.19778337,0
1.2400000000000009,15.593232534020135,-2.5820924223311077,1.130278375739731,-0.17574805768227023,14.881371,-6.0751896,-0.43525976,1.4883018,6.836325,-8.068843,1.7555219,-0.45890337,-0.109097965,-0.40553337,-0.782974,-7.7974777,8.982481,-0.20912828,-1.4496179,0.0080052875,-0.1967021,0
1.2500000000000009,15.593232534020135,-2.5820924223311077,1.130278375739731,-0.17574805768227023,14.881371,-6.0751896,-0.43525976,1.4883018,6.758772,-7.9786015,1.7534467,-0.4603001,-0.104779266,-0.3998231,-0.78567606,-7.7133756,9.0657,-0.20565987,-1.6262043,0.18304476,-0.19567387,0
1.260000000000001,15.593232534020135,-2.5820924223311077,1.130278375739731,-0.17574805768227023,14.881371,-6.0751896,-0.43525976,1.4883018,6.6820517,-7.8875303,1.7514148,-0.46142468,-0.0994491,-0.3938176,-0.78873634,-7.6310086,9.148479,-0.20042779,-1.7752556,0.3307831,-0.1946961,0
1.270000000000001,15.593232534020135,-2.5820924223311077,1.130278375739731,-0.17574805768227023,14.881371,-6.0751896,-0.43525976,1.4883018,6.6061454,-7.795633,1.7494444,-0.46230802,-0.09326036,-0.38755196,-0.79207164,-7.550687,9.230931,-0.1933402,-1.9010657,0.45547885,-0.19376631,0
1.280000000000001,15.105190767816651,-3.2473287272342293,1.5587845699068708,0.16403405070221785,15.118298,-5.054115,-1.0242682,1.1857771,6.53103,-7.7029123,1.7475545,-0.46297485,-0.08634263,-0.3810554,-0.7956106,-7.472682,9.313136,-0.18433468,-2.0072587,0.5607257,-0.19288217,0
1.290000000000001,15.105190767816651,-3.2473287272342293,1.5587845699068708,0.16403405070221785,15.118298,-5.054115,-1.0242682,1.1857771,6.4566708,-7.6093836,1.7457474,-0.46336818,-0.07856168,-0.37421525,-0.79942554,-7.399613,9.392593,-0.17677806,-2.2006354,0.71637154,-0.17536817,0
1.300000000000001,15.105190767816651,-3.2473287272342293,1.5587845699068708,0.16403405070221785,15.118298,-5.054115,-1.0242682,1.1857771,6.3830285,-7.5150614,1.7440258,-0.4634329,-0.06981776,-0.36693874,-0.8035618,-7.3293686,9.471941,-0.16724269,-2.3638608,0.8477385,-0.15871362,0
1.310000000000001,15.105190767816651,-3.2473287272342293,1.5587845699068708,0.16403405070221785,15.118298,-5.054115,-1.0242682,1.1857771,6.3100734,-7.4199457,1.7424097,-0.46318984,-0.060259223,-0.35927537,-0.8079266,-7.2622766,9.551226,-0.15567003,-2.5016356,0.95861435,-0.1428763,0
1.320000000000001,13.875856052963472,-3.6377466855439815,1.3237232498739282,0.37598053856246105,15.373724,-4.8073196,-1.7591147,0.8862604,6.2377715,-7.324037,1.7409196,-0.46265614,-0.050012123,-0.35126704,-0.81244063,-7.198629,9.630472,-0.14203681,-2.6179276,1.0521958,-0.12781613,0
1.330000000000001,13.875856052963472,-3.6377466855439815,1.3237232498739282,0.37598053856246105,15.373724,-4.8073196,-1.7591147,0.8862604,6.1660633,-7.227369,1.7395298,-0.46186447,-0.039197166,-0.34277743,-0.8170978,-7.1435657,9.703228,-0.13560346,-2.7769818,1.0945089,-0.10309469,0
1.340000000000001,13.875856052963472,-3.6377466855439815,1.3237232498739282,0.37598053856246105,15.373724,-4.8073196,-1.7591147,0.8862604,6.0948877,-7.129973,1.7382139,-0.46083355,-0.02791794,-0.33369893,-0.8218871,-7.0921426,9.775878,-0.12726024,-2.9112325,1.1302192,-0.07958633,0
1.350000000000001,13.875856052963472,-3.6377466855439815,1.3237232498739282,0.37598053856246105,15.373724,-4.8073196,-1.7591147,0.8862604,6.0242076,-7.0318522,1.7369909,-0.4595587,-0.016250651,-0.32410416,-0.82673967,-7.0445766,9.848332,-0.117007785,-3.024547,1.160358,-0.057231523,0
1.360000000000001,13.737578750506046,-3.5948685605507498,1.2081333547021655,0.7715522236562522,15.388174,-4.338976,-2.66568,0.9744537,5.953983,-6.9330077,1.73588,-0.4580368,-0.0042603416,-0.31405556,-0.831597,-7.00106,9.920496,-0.104876354,-3.1201909,1.1857951,-0.035973687,0
1.370000000000001,13.737578750506046,-3.5948685605507498,1.2081333547021655,0.7715522236562522,15.388174,-4.338976,-2.66568,0.9744537,5.88417,-6.833447,1.7348939,-0.4562403,0.007935715,-0.30360004,-0.8364264,-6.9621525,9.991554,-0.09203789,-3.1942472,1.189198,0.0036518332,0
1.380000000000001,13.737578750506046,-3.5948685605507498,1.2081333547021655,0.7715522236562522,15.388174,-4.338976,-2.66568,0.9744537,5.814725,-6.733178,1.7340451,-0.45414245,0.020239282,-0.29278022,-0.84120446,-6.9275527,10.062114,-0.07746776,-3.256753,1.1920708,0.041332923,0
1.390000000000001,13.737578750506046,-3.5948685605507498,1.2081333547021655,0.7715522236562522,15.388174,-4.338976,-2.66568,0.9744537,5.745604,-6.6322074,1.7333502,-0.45174393,0.032624636,-0.2816403,-0.84589714,-6.897371,10.132058,-0.061256204,-3.3095098,1.194497,0.07716498,0
1.400000000000001,13.740129963999765,-3.4575477973917548,0.9338283741585077,1.1297830385014658,14.2900715,-3.514987,-2.8411317,1.131661,5.6767626,-6.53054,1.7328253,-0.44904682,0.045069724,-0.2702187,-0.85047495,-6.871703,10.201272,-0.043507513,-3.354038,1.1965468,0.11123876,0
1.410000000000001,13.740129963999765,-3.4575477973917548,0.9338283741585077,1.1297830385014658,14.2900715,-3.514987,-2.8411317,1.131661,5.6081543,-6.4281845,1.732485,-0.44604892,0.05742564,-0.25854897,-0.854924,-6.85062,10.269649,-0.024315357,-3.3702152,1.155465,0.16121903,0
1.420000000000001,13.740129963999765,-3.4575477973917548,0.9338283741585077,1.1297830385014658,14.2900715,-3.514987,-2.8411317,1.131661,5.5397344,-6.32515,1.7323434,-0.44274554,0.06957194,-0.24666312,-0.85924006,-6.834151,10.337037,-0.003820655,-3.3838658,1.1207948,0.20874673,0
1.430000000000001,13.740129963999765,-3.4575477973917548,0.9338283741585077,1.1297830385014658,14.2900715,-3.514987,-2.8411317,1.131661,5.4714556,-6.221447,1.7324128,-0.43913692,0.081529684,-0.23459019,-0.86341137,-6.822299,10.403302,0.017853342,-3.3953848,1.0915359,0.25394225,0
1.440000000000001,13.740129963999765,-3.4575477973917548,0.9338283741585077,1.1297830385014658,13.948051,-3.2765746,-3.0050035,1.2049443,5.403272,-6.117088,1.7327042,-0.43522498,0.09331674,-0.22235537,-0.8674268,-6.8150654,10.46831,0.040578935,-3.4051049,1.0668443,0.29692,0
1.450000000000001,13.740129963999765,-3.4575477973917548,0.9338283741585077,1.1297830385014658,13.948051,-3.2765746,-3.0050035,1.2049443,5.3351383,-6.012086,1.7332275,-0.43101293,0.10494824,-0.2099806,-0.871276,-6.8124437,10.531937,0.0642247,-3.4133072,1.046008,0.3377888,0
1.460000000000001,13.740129963999765,-3.4575477973917548,0.9338283741585077,1.1297830385014658,13.948051,-3.2765746,-3.0050035,1.2049443,5.2670074,-5.9064546,1.7339913,-0.4265049,0.11643692,-0.19748507,-0.87494904,-6.814424,10.594061,0.08865602,-3.4202287,1.0284255,0.37665215,0
1.470000000000001,13.740129963999765,-3.4575477973917548,0.9338283741585077,1.1297830385014658,13.948051,-3.2765746,-3.0050035,1.2049443,5.1988344,-5.8002105,1.7350028,-0.42170587,0.12779345,-0.18488558,-0.87843645,-6.8209906,10.654566,0.11373579,-3.4260695,1.0135891,0.4136085,0
1.480000000000001,13.334809117035062,-3.2591826743108765,0.3233148823457437,1.2963350122364505,13.556099,-3.4976265,-3.25896,1.2730371,5.1305723,-5.6933694,1.7362677,-0.41662136,0.13902672,-0.17219691,-0.8817294,-6.832122,10.713341,0.13932478,-3.4309983,1.0010707,0.44875136,0
1.490000000000001,13.334809117035062,-3.2591826743108765,0.3233148823457437,1.2963350122364505,13.556099,-3.4976265,-3.25896,1.2730371,5.0621786,-5.5859585,1.7377722,-0.41129234,0.14989217,-0.15940419,-0.88485116,-6.8473153,10.768587,0.16162759,-3.4041972,0.8952906,0.49034253,0
1.500000000000001,13.334809117035062,-3.2591826743108765,0.3233148823457437,1.2963350122364505,13.556099,-3.4976265,-3.25896,1.2730371,4.9936113,-5.478005,1.7395012,-0.40575007,0.16019674,-0.14650035,-0.8878298,-6.8667846,10.821894,0.18418951,-3.3815749,0.80601126,0.52989274,0
1.5100000000000011,13.334809117035062,-3.2591826743108765,0.3233148823457437,1.2963350122364505,13.556099,-3.4976265,-3.25896,1.2730371,4.9248285,-5.3695283,1.7414566,-0.39998806,0.17001672,-0.13350777,-0.89066255,-6.8903966,10.873112,0.20691648,-3.36248,0.7306591,0.56750226,0
1.5200000000000011,12.927367585110652,-3.0217448671560825,-0.3378703296779522,1.3084378998651347,13.347479,-3.5707731,-3.4150276,1.2703995,4.855789,-5.2605505,1.7436398,-0.39400235,0.1794167,-0.120445274,-0.8933448,-6.9180293,10.922108,0.22971272,-3.346363,0.66706187,0.6032663,0
1.5300000000000011,12.927367585110652,-3.0217448671560825,-0.3378703296779522,1.3084378998651347,13.347479,-3.5707731,-3.4150276,1.2703995,4.786459,-5.151101,1.7460325,-0.3878385,0.18817756,-0.10731058,-0.8959103,-6.948589,10.967329,0.2487939,-3.2956893,0.5102887,0.6378693,0
1.5400000000000011,12.927367585110652,-3.0217448671560825,-0.3378703296779522,1.3084378998651347,13.347479,-3.5707731,-3.4150276,1.2703995,4.7168055,-5.041212,1.7486155,-0.38153306,0.19612959,-0.09410564,-0.8983931,-6.9827247,11.010121,0.2678,-3.2529216,0.37796676,0.67077434,0
1.5500000000000012,12.927367585110652,-3.0217448671560825,-0.3378703296779522,1.3084378998651347,13.347479,-3.5707731,-3.4150276,1.2703995,4.6467934,-4.9309077,1.7513881,-0.3750728,0.20338985,-0.08085022,-0.9007866,-7.0202327,11.050342,0.28668606,-3.2168264,0.26628244,0.70206463,0
1.5600000000000012,12.89907395511049,-2.857175850988688,-1.0081939883269315,1.2724803659435733,14.201839,-4.276597,-3.8113885,1.2026776,4.5763903,-4.8202147,1.7543486,-0.3684482,0.21005724,-0.06756051,-0.9030824,-7.0609293,11.087865,0.30540243,-3.186364,0.1720173,0.7318195,0
1.5700000000000012,12.89907395511049,-2.857175850988688,-1.0081939883269315,1.2724803659435733,14.201839,-4.276597,-3.8113885,1.2026776,4.505565,-4.709161,1.7574941,-0.3616879,0.21594921,-0.05421033,-0.90532273,-7.1045394,11.122498,0.32364672,-3.1349397,-0.012065709,0.7583499,0
1.5800000000000012,12.89907395511049,-2.857175850988688,-1.0081939883269315,1.2724803659435733,14.201839,-4.276597,-3.8113885,1.2026776,4.43429,-4.5977755,1.7608209,-0.3548136,0.22092585,-0.040781654,-0.90754396,-7.1509156,11.154179,0.34166235,-3.0915432,-0.16744086,0.7835784,0
1.5900000000000012,12.89907395511049,-2.857175850988688,-1.0081939883269315,1.2724803659435733,14.201839,-4.276597,-3.8113885,1.2026776,4.3625383,-4.486088,1.7643267,-0.3478106,0.22512168,-0.02729714,-0.9097269,-7.199822,11.182772,0.35944164,-3.0549223,-0.298585,0.80756897,0
1.6000000000000012,12.918025060827432,-2.7333284327269456,-1.707950934371651,1.2209673292497667,13.64632,-4.507065,-4.203553,1.2462322,4.290286,-4.3741307,1.7680088,-0.3406681,0.22865023,-0.013775363,-0.9118523,-7.251044,11.208159,0.3769667,-3.0240195,-0.40927678,0.8303823,0
1.6100000000000012,12.918025060827432,-2.7333284327269456,-1.707950934371651,1.2209673292497667,13.64632,-4.507065,-4.203553,1.2462322,4.21751,-4.2619367,1.7718658,-0.3333985,0.23133512,-0.00018077204,-0.91396356,-7.304454,11.230265,0.39438722,-2.9785695,-0.61181694,0.84954846,0
1.6200000000000012,12.918025060827432,-2.7333284327269456,-1.707950934371651,1.2209673292497667,13.64632,-4.507065,-4.203553,1.2462322,4.1441913,-4.149538,1.7758956,-0.32600918,0.23304117,0.01351201,-0.9160934,-7.3597155,11.248917,0.41154584,-2.9402204,-0.7827722,0.8677741,0
1.6300000000000012,12.918025060827432,-2.7333284327269456,-1.707950934371651,1.2209673292497667,13.64632,-4.507065,-4.203553,1.2462322,4.0703106,-4.036971,1.7800957,-0.3184876,0.2339122,0.027275655,-0.91820836,-7.4165688,11.263985,0.4284545,-2.9078636,-0.927068,0.88510543,0
1.6400000000000012,12.918025060827432,-2.7333284327269456,-1.707950934371651,1.2209673292497667,12.894083,-4.100952,-4.5678277,1.0610306,3.9958549,-3.9242716,1.7844636,-0.31082496,0.23406965,0.041087538,-0.9202776,-7.474777,11.275362,0.44510925,-2.8805637,-1.0488615,0.90158623,0
1.6500000000000012,12.918025060827432,-2.7333284327269456,-1.707950934371651,1.2209673292497667,12.894083,-4.100952,-4.5678277,1.0610306,3.9208112,-3.811477,1.7889969,-0.3030156,0.23361605,0.05492884,-0.92227316,-7.5341253,11.282961,0.46149233,-2.8575304,-1.151662,0.9172584,0
1.6600000000000013,12.918025060827432,-2.7333284327269456,-1.707950934371651,1.2209673292497667,12.894083,-4.100952,-4.5678277,1.0610306,3.845169,-3.6986256,1.7936926,-0.29505643,0.23263812,0.06878378,-0.9241698,-7.594414,11.286707,0.47757396,-2.8380973,-1.238431,0.93216145,0
1.6700000000000013,12.918025060827432,-2.7333284327269456,-1.707950934371651,1.2209673292497667,12.894083,-4.100952,-4.5678277,1.0610306,3.7689202,-3.5857563,1.7985474,-0.2869465,0.23120916,0.08263909,-0.92594516,-7.6554613,11.286545,0.49331403,-2.8217022,-1.3116684,0.9463332,0
1.6800000000000013,12.99113876144422,-2.681056411226479,-2.320278738598448,1.174065354951997,13.367979,-3.778233,-4.6602902,1.3748655,3.6920576,-3.4729083,1.8035576,-0.27868643,0.22939119,0.09648349,-0.9275797,-7.7170925,11.282428,0.5086638,-2.8078701,-1.3734845,0.9598096,0
1.6900000000000013,12.99113876144422,-2.681056411226479,-2.320278738598448,1.174065354951997,13.367979,-3.778233,-4.6602902,1.3748655,3.614575,-3.3601217,1.8087224,-0.2702634,0.22700275,0.11035663,-0.9291117,-7.779487,11.27427,0.5242123,-2.7879913,-1.5211432,0.9703232,0
1.7000000000000013,12.99113876144422,-2.681056411226479,-2.320278738598448,1.174065354951997,13.367979,-3.778233,-4.6602902,1.3748655,3.536467,-3.247437,1.8140403,-0.2616643,0.22390167,0.12428649,-0.93056566,-7.8420677,11.262027,0.5392908,-2.7712257,-1.6457753,0.9803209,0
1.7100000000000013,12.99113876144422,-2.681056411226479,-2.320278738598448,1.174065354951997,13.367979,-3.778233,-4.6602902,1.3748655,3.4577336,-3.1348956,1.8195065,-0.25289184,0.22018953,0.13824855,-0.9319063,-7.9046,11.245635,0.55387014,-2.7570858,-1.7509718,0.98982793,0
1.7200000000000013,13.220189368665029,-2.5723148952360946,-2.5829178584802657,1.068443838597727,13.10351,-2.867055,-4.900828,1.1491675,3.378376,-3.022539,1.8251159,-0.2439502,0.21595234,0.15222204,-0.9331029,-7.966867,11.225052,0.56790745,-2.745161,-1.8397633,0.9988684,0
1.7300000000000013,13.220189368665029,-2.5723148952360946,-2.5829178584802657,1.068443838597727,13.10351,-2.867055,-4.900828,1.1491675,3.2983925,-2.9104111,1.8308725,-0.23484962,0.21115239,0.16617665,-0.93415487,-8.029749,11.199812,0.58331794,-2.718126,-1.9556463,1.0022824,0
1.7400000000000013,13.220189368665029,-2.5723148952360946,-2.5829178584802657,1.068443838597727,13.10351,-2.867055,-4.900828,1.1491675,3.2177837,-2.7985573,1.8367801,-0.22559969,0.2057636,0.18008615,-0.93505865,-8.091917,11.170261,0.59807914,-2.695319,-2.05346,1.005529,0
1.7500000000000013,13.220189368665029,-2.5723148952360946,-2.5829178584802657,1.068443838597727,13.10351,-2.867055,-4.900828,1.1491675,3.1365576,-2.6870208,1.8428317,-0.21620525,0.19986904,0.1939397,-0.93578553,-8.153144,11.1363945,0.61213994,-2.6760783,-2.1360214,1.0086163,0
1.7600000000000013,12.879616502179768,-2.281345156780951,-2.7215985032005734,0.8132063446648088,12.856672,-2.0768833,-4.9603405,0.7287501,3.0547247,-2.5758445,1.8490202,-0.20667209,0.19353922,0.20772786,-0.9363107,-8.21322,11.098224,0.62543803,-2.6598463,-2.2057092,1.011552,0
1.7700000000000014,12.879616502179768,-2.281345156780951,-2.7215985032005734,0.8132063446648088,12.856672,-2.0768833,-4.9603405,0.7287501,2.9723055,-2.465066,1.8553233,-0.1970468,0.18675199,0.22135083,-0.93664265,-8.270432,11.056872,0.635058,-2.6007805,-2.286106,1.0018191,0
1.7800000000000014,12.879616502179768,-2.281345156780951,-2.7215985032005734,0.8132063446648088,12.856672,-2.0768833,-4.9603405,0.7287501,2.889321,-2.3547213,1.8617184,-0.18737102,0.17949365,0.23472928,-0.9367901,-8.326122,11.011419,0.6438205,-2.5509346,-2.3539732,0.99256384,0
1.7900000000000014,12.879616502179768,-2.281345156780951,-2.7215985032005734,0.8132063446648088,12.856672,-2.0768833,-4.9603405,0.7287501,2.8057888,-2.2448516,1.8681966,-0.17764449,0.17183076,0.24788314,-0.9367337,-8.380089,10.961945,0.65167624,-2.508869,-2.4112625,0.9837627,0
1.8000000000000014,12.345045789988498,-2.0342572605425957,-2.891936940360868,0.5078972488416457,10.650328,-1.5262295,-5.315731,0.08856613,2.721726,-2.1354961,1.8747486,-0.16786817,0.16381977,0.26082903,-0.9364566,-8.432155,10.908532,0.65856737,-2.4733691,-2.459623,0.9753934,0
1.8100000000000014,12.345045789988498,-2.0342572605425957,-2.891936940360868,0.5078972488416457,10.650328,-1.5262295,-5.315731,0.08856613,2.6371634,-2.0266824,1.8813429,-0.15807715,0.15541874,0.27350533,-0.9359759,-8.480069,10.853648,0.6601185,-2.4048848,-2.5269628,0.95245326,0
1.8200000000000014,12.345045789988498,-2.0342572605425957,-2.891936940360868,0.5078972488416457,10.650328,-1.5262295,-5.315731,0.08856613,2.5521324,-1.9184355,1.8879474,-0.14830355,0.14659648,0.28586388,-0.9353057,-8.525822,10.795185,0.6606456,-2.347087,-2.5838113,0.93063873,0
1.8300000000000014,12.345045789988498,-2.0342572605425957,-2.891936940360868,0.5078972488416457,10.650328,-1.5262295,-5.315731,0.08856613,2.4666553,-1.8107907,1.894552,-0.13854544,0.13741189,0.29793495,-0.93442893,-8.569243,10.733259,0.6601067,-2.298308,-2.6318023,0.9098947,0
1.8400000000000014,12.345045789988498,-2.0342572605425957,-2.891936940360868,0.5078972488416457,10.010513,-0.75764173,-5.3444347,-0.3689381,2.3807561,-1.7037818,1.9011456,-0.12880187,0.12791497,0.30974382,-0.9333307,-8.610185,10.667986,0.6584523,-2.2571394,-2.6723166,0.89016855,0
1.8500000000000014,12.345045789988498,-2.0342572605425957,-2.891936940360868,0.5078972488416457,10.010513,-0.75764173,-5.3444347,-0.3689381,2.2944605,-1.5974422,1.9077169,-0.119072735,0.11814821,0.32131147,-0.9319985,-8.648511,10.599484,0.6556264,-2.2223945,-2.706519,0.8714104,0
1.8600000000000014,12.345045789988498,-2.0342572605425957,-2.891936940360868,0.5078972488416457,10.010513,-0.75764173,-5.3444347,-0.3689381,2.2077954,-1.4918029,1.9142537,-0.109358504,0.10814789,0.33265516,-0.9304219,-8.6841,10.527873,0.65156794,-2.19307,-2.7353928,0.8535728,0
1.8700000000000014,12.345045789988498,-2.0342572605425957,-2.891936940360868,0.5078972488416457,10.010513,-0.75764173,-5.3444347,-0.3689381,2.1207886,-1.386895,1.9207436,-0.09966009,0.09794509,0.343789,-0.92859215,-8.716842,10.453273,0.64621145,-2.1683204,-2.7597682,0.83661044,0
1.8800000000000014,11.869445095570708,-1.5731521108236652,-2.836096829047534,0.13704474463302246,9.376417,-0.41400513,-4.8512487,-0.39101148,2.033469,-1.2827474,1.9271731,-0.08997872,0.08756647,0.3547246,-0.926502,-8.746637,10.375807,0.63948846,-2.1474314,-2.7803462,0.82048035,0
1.8900000000000015,11.869445095570708,-1.5731521108236652,-2.836096829047534,0.13704474463302246,9.376417,-0.41400513,-4.8512487,-0.39101148,1.9458718,-1.1793728,1.933511,-0.080382004,0.077023625,0.3653029,-0.92420745,-8.772367,10.2986965,0.6278694,-2.057929,-2.7889473,0.786944,0
1.9000000000000015,11.869445095570708,-1.5731521108236652,-2.836096829047534,0.13704474463302246,9.376417,-0.41400513,-4.8512487,-0.39101148,1.8580321,-1.0767817,1.9397258,-0.070928395,0.0663269,0.37540114,-0.92176104,-8.795102,10.219125,0.6148489,-1.9823828,-2.79622,0.7550532,0
1.9100000000000015,11.869445095570708,-1.5731521108236652,-2.836096829047534,0.13704474463302246,9.376417,-0.41400513,-4.8512487,-0.39101148,1.7699803,-0.97499806,1.9458032,-0.061606865,0.05549577,0.3850761,-0.9191522,-8.814781,10.137266,0.6004092,-1.9186158,-2.8023694,0.72472733,0
1.9200000000000015,11.269489521047296,-0.9461513509834205,-2.3850803935670615,-0.26229023694660614,9.189764,0.09985132,-4.4986725,-0.8868429,1.6817472,-0.8740437,1.9517289,-0.052408136,0.044546787,0.3943753,-0.9163714,-8.831347,10.053284,0.5845263,-1.8647909,-2.8075688,0.6958896,0
1.9300000000000015,11.269489521047296,-0.9461513509834205,-2.3850803935670615,-0.26229023694660614,9.189764,0.09985132,-4.4986725,-0.8868429,1.5933677,-0.7739175,1.9574683,-0.043451812,0.03362767,0.40310317,-0.91350335,-8.844083,9.971686,0.56309867,-1.7216436,-2.7415643,0.6488714,0
1.9400000000000015,11.269489521047296,-0.9461513509834205,-2.3850803935670615,-0.26229023694660614,9.189764,0.09985132,-4.4986725,-0.8868429,1.5048758,-0.6746158,1.9629864,-0.03483767,0.022855476,0.41111398,-0.9106309,-8.853846,9.888429,0.54031175,-1.600808,-2.6858728,0.6041605,0
1.9500000000000015,11.269489521047296,-0.9461513509834205,-2.3850803935670615,-0.26229023694660614,9.189764,0.09985132,-4.4986725,-0.8868429,1.4163009,-0.57615405,1.96827,-0.026531313,0.012201589,0.41851023,-0.9077421,-8.860667,9.803708,0.5162053,-1.4988064,-2.6388826,0.5616435,0
1.9600000000000015,10.861744165766435,-0.37285588310434953,-1.8537660608939233,-0.6564577258695803,9.513859,0.49851653,-4.2821255,-1.0128132,1.3276724,-0.47854608,1.9733061,-0.018503072,0.0016416437,0.42537755,-0.9048249,-8.86458,9.717697,0.49081022,-1.412703,-2.5992336,0.5212128,0
1.9700000000000015,10.861744165766435,-0.37285588310434953,-1.8537660608939233,-0.6564577258695803,9.513859,0.49851653,-4.2821255,-1.0128132,1.2390194,-0.38178825,1.9780691,-0.01086196,-0.008677171,0.43157792,-0.9019681,-8.865585,9.633709,0.46157327,-1.2506727,-2.4828756,0.46342424,0
1.9800000000000015,10.861744165766435,-0.37285588310434953,-1.8537660608939233,-0.6564577258695803,9.513859,0.49851653,-4.2821255,-1.0128132,1.1503698,-0.28587502,1.9825338,-0.0036974447,-0.018641416,0.4370117,-0.8992546,-8.863917,9.548812,0.43119946,-1.1138928,-2.3846848,0.4084713,0
1.9900000000000015,10.861744165766435,-0.37285588310434953,-1.8537660608939233,-0.6564577258695803,9.513859,0.49851653,-4.2821255,-1.0128132,1.0617499,-0.19081458,1.9866894,0.0030410406,-0.028315777,0.44179517,-0.8966634,-8.859675,9.463172,0.3997694,-0.9984291,-2.3018231,0.35621494,0
2.0000000000000013,,,,,9.716145,1.1631604,-3.9036655,-1.492048,0.97318476,-0.09661366,1.9905258,0.009397139,-0.037754904,0.44602522,-0.8941739,-8.852949,9.376929,0.36735106,-0.90095997,-2.231897,0.30652282,0
2.010000000000001,,,,,9.716145,1.1631604,-3.9036655,-1.492048,0.884697,-0.0032568797,1.9940177,0.015230217,-0.04672726,0.44952494,-0.8919143,-8.844264,9.294366,0.33091137,-0.7049286,-2.0439625,0.24046409,0
2.020000000000001,,,,,9.716145,1.1631604,-3.9036655,-1.492048,0.7963068,0.0892726,1.9971415,0.020427618,-0.055054266,0.45216477,-0.8899989,-8.833461,9.2114935,0.29371977,-0.5394445,-1.8853577,0.1776469,0
2.0300000000000007,,,,,9.716145,1.1631604,-3.9036655,-1.492048,0.7080345,0.18097238,1.99989,0.02506235,-0.0628497,0.454081,-0.8883871,-8.820709,9.128444,0.25590634,-0.3997492,-1.7515037,0.11791219,0
2.0400000000000005,,,,,9.716145,1.1631604,-3.9036655,-1.492048,0.6198989,0.27184123,2.0022578,0.029196993,-0.070209295,0.4553864,-0.8870405,-8.8061495,9.045321,0.21758285,-0.28182483,-1.6385365,0.061108656,0
2.0500000000000003,,,,,8.551844,1.9390287,-3.4780126,-2.050703,0.53191733,0.36187887,2.0042403,0.03288528,-0.07721345,0.4561746,-0.8859237,-8.789903,8.962214,0.17884462,-0.18227944,-1.5431954,0.007092489,1
2.06,,,,,8.551844,1.9390287,-3.4780126,-2.050703,0.4441085,0.45107546,2.005841,0.03630969,-0.084345095,0.45642605,-0.8850097,-8.771658,8.87735,0.14108822,-0.06178196,-1.6346924,-0.075076014,1
2.07,,,,,8.551844,1.9390287,-3.4780126,-2.050703,0.35648876,0.5394317,2.0070577,0.039638888,-0.09205041,0.45606115,-0.8842868,-8.752076,8.794164,0.102013886,0.05924467,-1.7312618,-0.15494023,1
2.0799999999999996,,,,,8.551844,1.9390287,-3.4780126,-2.050703,0.26907167,0.6269648,2.007877,0.04289777,-0.1003408,0.45506987,-0.8837434,-8.731122,8.71275,0.061707236,0.18061848,-1.8320129,-0.23260444,1
2.0899999999999994,,,,,8.082699,2.749033,-2.9331284,-2.0020993,0.18187113,0.713693,2.0082877,0.046108626,-0.10922371,0.45344216,-0.8833651,-8.708761,8.633198,0.02024693,0.30215806,-1.936166,-0.30816528,1
2.099999999999999,,,,,8.082699,2.749033,-2.9331284,-2.0020993,0.09489757,0.7996479,2.0082693,0.04921453,-0.11845692,0.45093143,-0.88329285,-8.6857395,8.558095,-0.024072487,0.53413594,-1.9421909,-0.37790617,1
2.109999999999999,,,,,8.082699,2.749033,-2.9331284,-2.0020993,0.00816091,0.88486195,2.0078032,0.052177276,-0.12784512,0.44734356,-0.8836382,-8.661388,8.485038,-0.06932302,0.7486698,-1.9660275,-0.44589984,1
2.1199999999999988,,,,,8.082699,2.749033,-2.9331284,-2.0020993,-0.07832579,0.96935606,2.0068803,0.055039745,-0.13745375,0.44273862,-0.8843411,-8.635755,8.414132,-0.11536772,0.9482698,-2.004687,-0.5122133,1
2.1299999999999986,,,,,8.541435,2.9062853,-1.8470972,-1.9072863,-0.16454989,1.0531523,2.0054934,0.057837535,-0.1473353,0.43716526,-0.8853436,-8.608872,8.345474,-0.16209438,1.1350393,-2.055632,-0.57690895,1
2.1399999999999983,,,,,8.541435,2.9062853,-1.8470972,-1.9072863,-0.25050104,1.1362784,2.0036328,0.060510356,-0.15727322,0.43048477,-0.88672775,-8.581178,8.280106,-0.21013045,1.3962334,-2.0083027,-0.64083886,1
2.149999999999998,,,,,8.541435,2.9062853,-1.8470972,-1.9072863,-0.33616933,1.218762,2.0012896,0.06301275,-0.16708975,0.4225949,-0.88855135,-8.552253,8.216893,-0.2584185,1.6306006,-1.982271,-0.70288515,1
2.159999999999998,,,,,8.541435,2.9062853,-1.8470972,-1.9072863,-0.42154053,1.3006207,1.9984664,0.065366864,-0.17683452,0.41362464,-0.89071375,-8.521735,8.155054,-0.30612224,1.829477,-1.9613516,-0.7619854,1
2.1699999999999977,,,,,8.344281,2.5734055,-0.89664966,-1.8721403,-0.5065985,1.381868,1.9951698,0.067573264,-0.18651868,0.40371463,-0.8931175,-8.489611,8.094652,-0.35308734,1.9973421,-1.9436897,-0.8181857,1
2.1799999999999975,,,,,8.344281,2.5734055,-0.89664966,-1.8721403,-0.5913311,1.462526,1.9914014,0.069458224,-0.19581737,0.39313138,-0.89570004,-8.456695,8.0371685,-0.4004483,2.0872056,-1.7805223,-0.8699035,1
