time-since-start [s],throttle_mpc,roll_mpc,pitch_mpc,yaw_mpc,throttle_nw,roll_nw,pitch_nw,yaw_nw,position_x [m],position_y [m],position_z [m],rotation_w [quaternion],rotation_x [quaternion],rotation_y [quaternion],rotation_z [quaternion],velocity_x [m/s],velocity_y [m/s],velocity_z [m/s],omega_x [rad/s],omega_y [rad/s],omega_z [rad/s],network_used
0.0,7.628857501570858,-0.6878014517316812,-5.444545841173624,0.12776816775732386,9.105006,0.95070106,-0.5236961,-0.75099194,13.21693,-12.155018,1.0673448,0.28637874,-0.44752774,0.21027036,0.8206659,-1.4196247,1.4252394,0.20125002,0.025093222,0.070338935,-0.013706389,0
0.01,7.628857501570858,-0.6878014517316812,-5.444545841173624,0.12776816775732386,8.9696665,0.34209794,-0.7972609,-0.36949587,13.202483,-12.14052,1.0690755,0.28678304,-0.44614002,0.20973723,0.8214164,-1.4694211,1.474021,0.14465159,-0.036119588,-0.7397349,-0.011259533,0
0.02,7.628857501570858,-0.6878014517316812,-5.444545841173624,0.12776816775732386,8.9696665,0.34209794,-0.7972609,-0.36949587,13.187549,-12.125545,1.0702336,0.28780198,-0.44171438,0.20781328,0.82393694,-1.5170469,1.5207161,0.08683463,-0.12118332,-1.4568812,-0.0059450353,0
0.03,7.628857501570858,-0.6878014517316812,-5.444545841173624,0.12776816775732386,8.9696665,0.34209794,-0.7972609,-0.36949587,13.172147,-12.11011,1.0708122,0.2892792,-0.4346226,0.20455728,0.8279959,-1.5632684,1.5660676,0.029066097,-0.20954075,-2.0787556,0.00061631226,0
0.04,7.628857501570858,-0.6878014517316812,-5.444545841173624,0.12776816775732386,7.792621,-0.02339311,-1.1581516,0.106062144,13.156285,-12.094225,1.0708194,0.29110664,-0.42522585,0.20012887,0.8332997,-1.6088969,1.6108478,-0.027410809,-0.2841146,-2.6036499,0.00685569,0
0.05,7.628857501570858,-0.6878014517316812,-5.444545841173624,0.12776816775732386,7.792621,-0.02339311,-1.1581516,0.106062144,13.139972,-12.077896,1.0702697,0.29319623,-0.4138384,0.19469056,0.839565,-1.6537578,1.6548641,-0.08227134,-0.34705582,-3.0466876,0.012788895,0
0.060000000000000005,7.628857501570858,-0.6878014517316812,-5.444545841173624,0.12776816775732386,7.792621,-0.02339311,-1.1581516,0.106062144,13.123214,-12.0611315,1.0691805,0.29546973,-0.40072244,0.18837813,0.8465417,-1.6976844,1.6979343,-0.13526149,-0.40017942,-3.4206343,0.018430956,0
0.07,7.628857501570858,-0.6878014517316812,-5.444545841173624,0.12776816775732386,7.792621,-0.02339311,-1.1581516,0.106062144,13.106021,-12.0439415,1.0675716,0.2978587,-0.38609916,0.18130606,0.8540116,-1.7405142,1.7398846,-0.18619005,-0.44501707,-3.7362645,0.023796165,0
0.08,10.244119665068862,-0.5934955411362047,-4.8971681737076915,0.11661809703347925,8.940937,-0.31757337,-0.7339836,0.30444983,13.0884075,-12.02634,1.0654643,0.3003037,-0.37015665,0.17357168,0.86178577,-1.7820894,1.7805479,-0.23492146,-0.48286176,-4.002672,0.0288981,0
0.09,10.244119665068862,-0.5934955411362047,-4.8971681737076915,0.11661809703347925,8.940937,-0.31757337,-0.7339836,0.30444983,13.070314,-12.008269,1.0629689,0.30273226,-0.35323554,0.16535683,0.86961776,-1.8360301,1.8332125,-0.26366964,-0.50010085,-4.1421704,0.033202544,0
0.09999999999999999,10.244119665068862,-0.5934955411362047,-4.8971681737076915,0.11661809703347925,8.940937,-0.31757337,-0.7339836,0.30444983,13.051693,-11.989683,1.0602013,0.3050891,-0.33562362,0.15681438,0.87731797,-1.8879138,1.8837682,-0.28934774,-0.5146519,-4.259914,0.03729575,0
0.10999999999999999,10.244119665068862,-0.5934955411362047,-4.8971681737076915,0.11661809703347925,8.940937,-0.31757337,-0.7339836,0.30444983,13.032563,-11.970603,1.0571922,0.3073506,-0.31739965,0.14798264,0.88481313,-1.9375863,1.9320631,-0.31199646,-0.5269342,-4.3592954,0.04118814,0
0.11999999999999998,10.244119665068862,-0.5934955411362047,-4.8971681737076915,0.11661809703347925,8.940937,-0.31757337,-0.7339836,0.30444983,13.01295,-11.951051,1.0539714,0.30949706,-0.298633,0.13889524,0.89204144,-1.9848996,1.9779527,-0.33168602,-0.5373015,-4.4431777,0.04488951,0
0.12999999999999998,13.05970285283582,-0.25098139331109165,-3.0834454953175485,-0.04461580061431515,11.435076,-0.16957124,0.44094205,0.35326067,12.992876,-11.931052,1.0505682,0.3115119,-0.27938512,0.12958182,0.898951,-2.0297122,2.0213,-0.3485127,-0.5460525,-4.513979,0.048409246,0
0.13999999999999999,13.05970285283582,-0.25098139331109165,-3.0834454953175485,-0.04461580061431515,11.435076,-0.16957124,0.44094205,0.35326067,12.972306,-11.910577,1.0471253,0.31334838,-0.26032734,0.120414615,0.9052861,-2.0835063,2.0731838,-0.33952773,-0.50005615,-4.290885,0.043844484,0
0.15,13.05970285283582,-0.25098139331109165,-3.0834454953175485,-0.04461580061431515,11.435076,-0.16957124,0.44094205,0.35326067,12.951217,-11.889601,1.0437883,0.31498992,-0.24201286,0.11169821,0.91089773,-2.1339622,2.1217217,-0.3273941,-0.46123022,-4.102583,0.039503712,0
0.16,14.850609191395433,0.06131835843055509,-0.6248546517894928,-0.07455018330884543,11.801409,-0.5359686,0.9651618,0.4964678,12.929639,-11.8681555,1.0405871,0.31646267,-0.22432987,0.10336437,0.91588396,-2.1811235,2.1669965,-0.3124481,-0.42845672,-3.9436471,0.035375934,0
0.17,14.850609191395433,0.06131835843055509,-0.6248546517894928,-0.07455018330884543,11.801409,-0.5359686,0.9651618,0.4964678,12.907575,-11.846243,1.037627,0.31772286,-0.2080483,0.09578146,0.92010546,-2.2310915,2.2148926,-0.27916783,-0.35210052,-3.4260802,0.029981826,0
0.18000000000000002,14.850609191395433,0.06131835843055509,-0.6248546517894928,-0.07455018330884543,11.801409,-0.5359686,0.9651618,0.4964678,12.885029,-11.823869,1.0350119,0.3187569,-0.19378532,0.089243725,0.92351335,-2.277714,2.2595522,-0.24353655,-0.28764668,-2.9892287,0.024852421,0
0.19000000000000003,14.850609191395433,0.06131835843055509,-0.6248546517894928,-0.07455018330884543,11.801409,-0.5359686,0.9651618,0.4964678,12.862031,-11.801062,1.0327629,0.3196195,-0.1812414,0.08359499,0.9262866,-2.321353,2.3013682,-0.2059911,-0.23324016,-2.6205041,0.019974714,0
0.20000000000000004,16.035770701637563,0.27951124550691847,1.2110276786509195,-0.09406239287577149,11.935598,-0.6098575,2.0675175,0.5776632,12.838611,-11.77785,1.0308974,0.32035178,-0.17015862,0.07870117,0.92856175,-2.3623264,2.340684,-0.16687436,-0.18731488,-2.3092825,0.015336347,0
0.21000000000000005,16.035770701637563,0.27951124550691847,1.2110276786509195,-0.09406239287577149,11.935598,-0.6098575,2.0675175,0.5776632,12.814776,-11.754242,1.0294849,0.32094657,-0.16097179,0.07476416,0.930318,-2.404025,2.3807926,-0.11542092,-0.11452532,-1.7602912,0.0099681225,0
0.22000000000000006,16.035770701637563,0.27951124550691847,1.2110276786509195,-0.09406239287577149,11.935598,-0.6098575,2.0675175,0.5776632,12.790538,-11.730242,1.0285923,0.32140496,-0.15401568,0.07193882,0.93155926,-2.4436703,2.4190648,-0.062930174,-0.053082995,-1.2969153,0.004863321,0
0.23000000000000007,16.035770701637563,0.27951124550691847,1.2110276786509195,-0.09406239287577149,11.935598,-0.6098575,2.0675175,0.5776632,12.765909,-11.705866,1.0282286,0.32176262,-0.14894924,0.0700548,0.93240285,-2.4817545,2.456007,-0.009705425,-0.0012193769,-0.90580285,9.014853e-06,0
0.24000000000000007,16.035770701637563,0.27951124550691847,1.2110276786509195,-0.09406239287577149,12.559486,-0.29101163,2.5099785,0.53695774,12.740906,-11.681125,1.0284,0.32204485,-0.14548185,0.068967015,0.93293387,-2.5186992,2.4920516,0.044017937,0.04255877,-0.5756843,-0.0046070926,0
0.25000000000000006,16.035770701637563,0.27951124550691847,1.2110276786509195,-0.09406239287577149,12.559486,-0.29101163,2.5099785,0.53695774,12.715537,-11.656027,1.0291102,0.3222697,-0.14336647,0.0685522,0.9332142,-2.5548635,2.5275671,0.09805388,0.079511315,-0.29704788,-0.008996681,0
0.26000000000000006,16.035770701637563,0.27951124550691847,1.2110276786509195,-0.09406239287577149,12.559486,-0.29101163,2.5099785,0.53695774,12.68981,-11.630574,1.0303617,0.32245013,-0.14239344,0.0687058,0.93328947,-2.590552,2.5628655,0.15225264,0.11070241,-0.06186489,-0.013170883,0
0.2700000000000001,16.035770701637563,0.27951124550691847,1.2110276786509195,-0.09406239287577149,12.559486,-0.29101163,2.5099785,0.53695774,12.663727,-11.60477,1.0321554,0.32259545,-0.14238508,0.06933916,0.9331937,-2.626023,2.5982118,0.20649122,0.1370301,0.1366414,-0.01714025,0
0.2800000000000001,16.715419122563986,0.44123418562178973,2.6462346545459274,-0.10555928667202572,12.922739,-0.20162852,2.3085077,1.1942165,12.637289,-11.578609,1.0344914,0.32271242,-0.14319092,0.07037727,0.93295217,-2.6614945,2.6338289,0.2606665,0.15925254,0.3041907,-0.020914843,0
0.2900000000000001,16.715419122563986,0.44123418562178973,2.6462346545459274,-0.10555928667202572,12.922739,-0.20162852,2.3085077,1.1942165,12.610489,-11.552083,1.0374006,0.32277566,-0.14519854,0.07200207,0.93249595,-2.69869,2.6714635,0.32112426,0.20323396,0.66942996,-0.025068352,0
0.3000000000000001,16.715419122563986,0.44123418562178973,2.6462346545459274,-0.10555928667202572,12.922739,-0.20162852,2.3085077,1.1942165,12.583314,-11.525176,1.0409126,0.32276213,-0.14870708,0.07435394,0.9317629,-2.7364595,2.70996,0.3812388,0.24035744,0.97771025,-0.029018072,0
0.3100000000000001,16.715419122563986,0.44123418562178973,2.6462346545459274,-0.10555928667202572,12.922739,-0.20162852,2.3085077,1.1942165,12.555757,-11.497878,1.0450234,0.32267833,-0.15347941,0.07731783,0.9307763,-2.7751553,2.7496724,0.44082776,0.27169207,1.2379143,-0.03277398,0
0.3200000000000001,17.52249459125405,0.5167278169726491,3.5438794851669133,-0.10163891877452809,13.651621,-0.10482986,2.0938036,1.5986543,12.527806,-11.470178,1.0497268,0.32252818,-0.15931451,0.080796145,0.92955166,-2.8150713,2.7908955,0.499723,0.2981401,1.4575397,-0.036345582,0
0.3300000000000001,17.52249459125405,0.5167278169726491,3.5438794851669133,-0.10163891877452809,13.651621,-0.10482986,2.0938036,1.5986543,12.499439,-11.442045,1.0550528,0.3222885,-0.16636568,0.08484995,0.9280371,-2.8584676,2.8359668,0.5652949,0.3322402,1.7829018,-0.039549544,0
0.34000000000000014,17.52249459125405,0.5167278169726491,3.5438794851669133,-0.10163891877452809,13.651621,-0.10482986,2.0938036,1.5986543,12.47063,-11.413451,1.061029,0.32193604,-0.17474282,0.08952207,0.9261791,-2.903753,2.8832245,0.6297336,0.361022,2.0575237,-0.04259629,0
0.35000000000000014,17.52249459125405,0.5167278169726491,3.5438794851669133,-0.10163891877452809,13.651621,-0.10482986,2.0938036,1.5986543,12.441357,-11.384373,1.0676427,0.32147244,-0.18422958,0.094711095,0.923983,-2.951239,2.9329722,0.6927945,0.3853149,2.2893188,-0.04549354,0
0.36000000000000015,17.795980784312672,0.5073176048111622,3.7360372990805195,-0.08606799221019987,14.302375,0.022799417,1.6881928,1.8417027,12.411595,-11.354783,1.0748792,0.3208983,-0.19464211,0.100330755,0.92145115,-3.001179,2.9854555,0.7542374,0.405819,2.4849653,-0.048248608,0
0.37000000000000016,17.795980784312672,0.5073176048111622,3.7360372990805195,-0.08606799221019987,14.302375,0.022799417,1.6881928,1.8417027,12.381318,-11.324649,1.0827333,0.32020327,-0.20589581,0.106329106,0.91856986,-3.0545979,3.041737,0.8162836,0.42165697,2.6800683,-0.050104417,0
0.38000000000000017,17.795980784312672,0.5073176048111622,3.7360372990805195,-0.08606799221019987,14.302375,0.022799417,1.6881928,1.8417027,12.3504925,-11.293937,1.0911974,0.31937742,-0.21791364,0.1126603,0.91532457,-3.1109042,3.101172,0.8761862,0.43502432,2.8447452,-0.05186916,0
0.3900000000000002,17.795980784312672,0.5073176048111622,3.7360372990805195,-0.08606799221019987,14.302375,0.022799417,1.6881928,1.8417027,12.31909,-11.262614,1.1002487,0.3184215,-0.23056105,0.11926451,0.9117154,-3.1702495,3.1638973,0.93368566,0.4463063,2.9837408,-0.053547304,0
0.4000000000000002,17.26662677560221,0.382884226790395,3.2210058042133594,-0.06671772741880036,13.850508,0.13026242,1.2887883,1.6884421,12.287077,-11.230648,1.1098619,0.3173365,-0.24372338,0.12609059,0.9077429,-3.2327447,3.2300112,0.9885257,0.4558283,3.1010602,-0.055143114,0
0.4100000000000002,17.26662677560221,0.382884226790395,3.2210058042133594,-0.06671772741880036,13.850508,0.13026242,1.2887883,1.6884421,12.254434,-11.198012,1.1199868,0.316136,-0.25713205,0.13298523,0.90346867,-3.2965014,3.297499,1.0359999,0.44445458,3.1197655,-0.055711076,0
0.4200000000000002,17.26662677560221,0.382884226790395,3.2210058042133594,-0.06671772741880036,13.850508,0.13026242,1.2887883,1.6884421,12.221137,-11.164686,1.1305716,0.31483462,-0.27057153,0.13982607,0.89895403,-3.3633685,3.3682902,1.0804787,0.43485427,3.1355543,-0.056251187,0
0.4300000000000002,17.26662677560221,0.382884226790395,3.2210058042133594,-0.06671772741880036,13.850508,0.13026242,1.2887883,1.6884421,12.187156,-11.130635,1.1415856,0.3134347,-0.28402275,0.14661431,0.8941999,-3.4333067,3.4423172,1.1218058,0.42675093,3.1488807,-0.05676479,0
0.4400000000000002,17.26662677560221,0.382884226790395,3.2210058042133594,-0.06671772741880036,13.42098,0.10351722,1.032783,1.5429308,12.15246,-11.095828,1.1529964,0.31193832,-0.29746914,0.15335073,0.8892073,-3.5062678,3.5195086,1.1598285,0.41991153,3.1601288,-0.05725318,0
0.45000000000000023,17.26662677560221,0.382884226790395,3.2210058042133594,-0.06671772741880036,13.42098,0.10351722,1.032783,1.5429308,12.117021,-11.060234,1.1647702,0.31034753,-0.31089616,0.16003563,0.8839774,-3.5821965,3.5997884,1.1943983,0.4141386,3.1696227,-0.0577176,0
0.46000000000000024,17.26662677560221,0.382884226790395,3.2210058042133594,-0.06671772741880036,13.42098,0.10351722,1.032783,1.5429308,12.080807,-11.023822,1.1768719,0.30866423,-0.32429087,0.166669,0.8785116,-3.6610303,3.683077,1.22537,0.40926546,3.177636,-0.05815922,0
0.47000000000000025,17.26662677560221,0.382884226790395,3.2210058042133594,-0.06671772741880036,13.42098,0.10351722,1.032783,1.5429308,12.04379,-10.986563,1.1892648,0.30689016,-0.33764207,0.17325057,0.8728115,-3.7426996,3.7692914,1.2526032,0.40515244,3.1843994,-0.05857919,0
0.48000000000000026,16.316310169720392,0.17707331968110449,2.1634153324280985,-0.0496445217731709,13.472094,-0.16072555,0.07607283,1.4874586,12.005942,-10.948426,1.2019107,0.30502704,-0.35093957,0.17977986,0.8668786,-3.8271308,3.8583446,1.2759614,0.40168068,3.1901083,-0.05897857,0
0.49000000000000027,16.316310169720392,0.17707331968110449,2.1634153324280985,-0.0496445217731709,13.472094,-0.16072555,0.07607283,1.4874586,11.967261,-10.90941,1.2147378,0.3031237,-0.3638346,0.18605764,0.86088467,-3.9094365,3.9450774,1.2888716,0.3666464,3.0299976,-0.058520544,0
0.5000000000000002,16.316310169720392,0.17707331968110449,2.1634153324280985,-0.0496445217731709,13.472094,-0.16072555,0.07607283,1.4874586,11.927746,-10.869515,1.2276752,0.30122605,-0.37605906,0.19193079,0.854988,-3.9940999,4.034198,1.2980561,0.33707657,2.8948557,-0.058085002,0
0.5100000000000002,16.316310169720392,0.17707331968110449,2.1634153324280985,-0.0496445217731709,13.472094,-0.16072555,0.07607283,1.4874586,11.887373,-10.828718,1.2406862,0.29933056,-0.38771257,0.19746032,0.8491696,-4.080952,4.125504,1.3035915,0.31211922,2.7807891,-0.057670828,0
0.5200000000000002,15.292789318722738,-0.10038319459112234,0.8137321338339502,-0.04060209310889989,12.167457,-0.15238519,-0.8360954,1.4804327,11.84612,-10.786998,1.2537347,0.29743367,-0.3988784,0.20269735,0.84341127,-4.1698465,4.2188225,1.305542,0.29105458,2.6845107,-0.057276983,0
0.5300000000000002,15.292789318722738,-0.10038319459112234,0.8137321338339502,-0.04060209310889989,12.167457,-0.15238519,-0.8360954,1.4804327,11.803997,-10.744365,1.2667546,0.29559812,-0.40920636,0.20743233,0.8379399,-4.2549434,4.308013,1.2979364,0.229998,2.3927662,-0.056458738,0
0.5400000000000003,15.292789318722738,-0.10038319459112234,0.8137321338339502,-0.04060209310889989,12.167457,-0.15238519,-0.8360954,1.4804327,11.761015,-10.700832,1.2796831,0.2938795,-0.41843238,0.21150666,0.83295476,-4.341629,4.39869,1.2872956,0.17846508,2.1465187,-0.055680662,0
0.5500000000000003,15.292789318722738,-0.10038319459112234,0.8137321338339502,-0.04060209310889989,12.167457,-0.15238519,-0.8360954,1.4804327,11.717159,-10.656386,1.2924911,0.29226375,-0.42673486,0.21502751,0.8283973,-4.429722,4.4906244,1.2738947,0.13497043,1.9386733,-0.054940745,0
0.5600000000000003,13.692422129345383,-0.38431057934507595,-0.5896143487848468,-0.051422080411328154,10.864843,-0.38493973,-1.5303445,1.4006541,11.672417,-10.611016,1.3051523,0.2907374,-0.43426242,0.21808428,0.82421285,-4.5190735,4.5836267,1.2579725,0.09826009,1.7632407,-0.05423713,0
0.5700000000000003,13.692422129345383,-0.38431057934507595,-0.5896143487848468,-0.051422080411328154,10.864843,-0.38493973,-1.5303445,1.4006541,11.6268215,-10.564761,1.3176007,0.28936335,-0.44071156,0.22049513,0.820624,-4.600084,4.6676974,1.2314081,0.02299034,1.396317,-0.05409899,0
0.5800000000000003,13.692422129345383,-0.38431057934507595,-0.5896143487848468,-0.051422080411328154,10.864843,-0.38493973,-1.5303445,1.4006541,11.580411,-10.517661,1.3297749,0.28819385,-0.4458536,0.22212273,0.8178142,-4.6819453,4.7523594,1.2031593,-0.040539075,1.0866143,-0.053967644,0
0.5900000000000003,13.692422129345383,-0.38431057934507595,-0.5896143487848468,-0.051422080411328154,10.864843,-0.38493973,-1.5303445,1.4006541,11.533179,-10.469712,1.3416595,0.2872012,-0.449901,0.22309425,0.81567955,-4.764511,4.837412,1.1735942,-0.09415946,0.8252093,-0.053842742,0
0.6000000000000003,12.69406495040677,-0.6232179330146512,-1.7430817647105645,-0.04153968517514811,10.980335,-1.316945,-2.3728976,1.6133758,11.485119,-10.420911,1.3532434,0.2863602,-0.45303032,0.22351551,0.8141265,-4.8476644,4.922693,1.1430286,-0.13941625,0.60457,-0.053723972,0
0.6100000000000003,12.69406495040677,-0.6232179330146512,-1.7430817647105645,-0.04153968517514811,10.980335,-1.316945,-2.3728976,1.6133758,11.4362545,-10.371289,1.3644933,0.28570735,-0.45503995,0.22326545,0.81330323,-4.9252033,5.001832,1.1068846,-0.21487771,0.23845756,-0.053126086,0
0.6200000000000003,12.69406495040677,-0.6232179330146512,-1.7430817647105645,-0.04153968517514811,10.980335,-1.316945,-2.3728976,1.6133758,11.386612,-10.320875,1.3753802,0.28526923,-0.45577687,0.22225249,0.8133218,-5.00307,5.080875,1.0704528,-0.2785688,-0.07056027,-0.052557535,0
0.6300000000000003,12.69406495040677,-0.6232179330146512,-1.7430817647105645,-0.04153968517514811,10.980335,-1.316945,-2.3728976,1.6133758,11.336191,-10.269672,1.3859028,0.28501055,-0.4554395,0.22059643,0.814052,-5.081149,5.159654,1.0340896,-0.33232558,-0.33138734,-0.0520169,0
0.6400000000000003,12.69406495040677,-0.6232179330146512,-1.7430817647105645,-0.04153968517514811,11.826721,-1.3814794,-3.3368847,1.9748886,11.284988,-10.217684,1.3960632,0.2849002,-0.45419276,0.21839705,0.81537914,-5.1593432,5.238028,0.9980949,-0.3776975,-0.55153894,-0.051502783,0
0.6500000000000004,12.69406495040677,-0.6232179330146512,-1.7430817647105645,-0.04153968517514811,11.826721,-1.3814794,-3.3368847,1.9748886,11.233004,-10.164913,1.4058667,0.28491092,-0.45217407,0.21573766,0.81720334,-5.2375684,5.315875,0.9627208,-0.41599217,-0.7373582,-0.051013883,0
0.6600000000000004,12.69406495040677,-0.6232179330146512,-1.7430817647105645,-0.04153968517514811,11.826721,-1.3814794,-3.3368847,1.9748886,11.180237,-10.111368,1.4153205,0.2850194,-0.44949844,0.21268798,0.819438,-5.31575,5.3930893,0.92817706,-0.4483137,-0.89419925,-0.05054898,0
0.6700000000000004,12.69406495040677,-0.6232179330146512,-1.7430817647105645,-0.04153968517514811,11.826721,-1.3814794,-3.3368847,1.9748886,11.126688,-10.0570545,1.4244337,0.28520554,-0.4462623,0.20930657,0.8220086,-5.3938227,5.469577,0.89463764,-0.47559407,-1.0265812,-0.050106887,0
0.6800000000000004,12.383498739714064,-0.7961760512110666,-2.5065724941267122,-0.02526732845278449,12.726108,-1.552642,-3.8184402,2.1914034,11.072361,-10.00198,1.4332172,0.28545225,-0.4425467,0.2056426,0.8248516,-5.471727,5.545255,0.86224574,-0.49861938,-1.1383184,-0.049686495,0
0.6900000000000004,12.383498739714064,-0.7961760512110666,-2.5065724941267122,-0.02526732845278449,12.726108,-1.552642,-3.8184402,2.1914034,11.017264,-9.946161,1.4416747,0.28577495,-0.43818632,0.20159371,0.828061,-5.547502,5.6182113,0.8294944,-0.54502904,-1.3516959,-0.048488237,0
0.7000000000000004,12.383498739714064,-0.7961760512110666,-2.5065724941267122,-0.02526732845278449,12.726108,-1.552642,-3.8184402,2.1914034,10.961411,-9.889618,1.4498119,0.286182,-0.43304983,0.19707946,0.8317013,-5.62297,5.6901774,0.7981788,-0.58419985,-1.5317975,-0.047348775,0
0.7100000000000004,12.383498739714064,-0.7961760512110666,-2.5065724941267122,-0.02526732845278449,12.726108,-1.552642,-3.8184402,2.1914034,10.904806,-9.832361,1.457644,0.2866505,-0.4272458,0.19216749,0.8356816,-5.6980424,5.7610316,0.76847863,-0.61726075,-1.6838125,-0.04626522,0
0.7200000000000004,13.254173296279014,-0.8964294501683587,-2.8764381856017764,-0.00044088512221884026,13.836504,-1.6207813,-4.0926847,2.4560366,10.847452,-9.774402,1.4651877,0.28716105,-0.42086574,0.18691483,0.8399244,-5.772636,5.8306613,0.74053717,-0.64516515,-1.812121,-0.045234837,0
0.7300000000000004,13.254173296279014,-0.8964294501683587,-2.8764381856017764,-0.00044088512221884026,13.836504,-1.6207813,-4.0926847,2.4560366,10.789329,-9.715728,1.4724864,0.2877049,-0.41387305,0.18129458,0.8444329,-5.851874,5.903761,0.71953815,-0.68435174,-1.9781004,-0.04303679,0
0.7400000000000004,13.254173296279014,-0.8964294501683587,-2.8764381856017764,-0.00044088512221884026,13.836504,-1.6207813,-4.0926847,2.4560366,10.730416,-9.656331,1.4795858,0.2882721,-0.4062404,0.1752871,0.8492008,-5.930413,5.9753003,0.70068717,-0.7174262,-2.1181958,-0.040946588,0
0.7500000000000004,13.254173296279014,-0.8964294501683587,-2.8764381856017764,-0.00044088512221884026,13.836504,-1.6207813,-4.0926847,2.4560366,10.670722,-9.596228,1.486508,0.28884587,-0.39805192,0.16894697,0.8541541,-6.0081506,6.0451474,0.68410224,-0.745342,-2.2364433,-0.038958956,0
0.7600000000000005,14.179545467228309,-0.9326289532248989,-2.8774383468253975,0.03742774358626036,14.146651,-1.6949344,-4.296019,2.2562292,10.610256,-9.535435,1.493276,0.28941205,-0.3893791,0.16232048,0.85923,-6.084991,6.1131797,0.66986924,-0.7689036,-2.3362505,-0.03706887,0
0.7700000000000005,14.179545467228309,-0.9326289532248989,-2.8774383468253975,0.03742774358626036,14.146651,-1.6949344,-4.296019,2.2562292,10.548999,-9.473948,1.4999436,0.28994942,-0.38028607,0.15543632,0.8643789,-6.166136,6.1838975,0.66406995,-0.7944328,-2.4206495,-0.033413302,0
0.7800000000000005,14.179545467228309,-0.9326289532248989,-2.8774383468253975,0.03742774358626036,14.146651,-1.6949344,-4.296019,2.2562292,10.486936,-9.411764,1.5065664,0.29044008,-0.37082714,0.14831969,0.8695589,-6.246128,6.252433,0.660886,-0.8159803,-2.491887,-0.029937122,0
0.7900000000000005,14.179545467228309,-0.9326289532248989,-2.8774383468253975,0.03742774358626036,14.146651,-1.6949344,-4.296019,2.2562292,10.424079,-9.3489065,1.5131704,0.290878,-0.36104587,0.14100258,0.87473065,-6.3248773,6.3186755,0.6603323,-0.83416724,-2.5520148,-0.02663152,0
0.8000000000000005,14.241695274843112,-0.8407738531231934,-2.537885491948755,0.05477084800116005,14.133101,-1.4074063,-4.016015,1.8856801,10.360441,-9.285399,1.519782,0.29125825,-0.35097975,0.13351226,0.8798613,-6.4022975,6.3825226,0.6624049,-0.84951794,-2.6027658,-0.023488108,0
0.8100000000000005,14.241695274843112,-0.8407738531231934,-2.537885491948755,0.05477084800116005,14.133101,-1.4074063,-4.016015,1.8856801,10.296035,-9.221264,1.5264297,0.29157034,-0.34077033,0.12594517,0.88487273,-6.47864,6.444153,0.6675276,-0.8481475,-2.5926497,-0.01964792,0
0.8200000000000005,14.241695274843112,-0.8407738531231934,-2.537885491948755,0.05477084800116005,14.133101,-1.4074063,-4.016015,1.8856801,10.230874,-9.156525,1.5331414,0.2918079,-0.33053443,0.118380144,0.8897083,-6.5535083,6.5032353,0.6751884,-0.8469912,-2.5841115,-0.015996177,0
0.8300000000000005,14.241695274843112,-0.8407738531231934,-2.537885491948755,0.05477084800116005,14.133101,-1.4074063,-4.016015,1.8856801,10.164971,-9.0912075,1.539942,0.29197273,-0.32026872,0.11081531,0.8943709,-6.6268544,6.5597324,0.68530035,-0.8460156,-2.5769045,-0.012523615,0
0.8400000000000005,14.241695274843112,-0.8407738531231934,-2.537885491948755,0.05477084800116005,14.395421,-1.5885073,-4.0400724,1.8884006,10.098342,-9.025338,1.5468556,0.29206648,-0.30997056,0.10324921,0.89886296,-6.69863,6.6136084,0.69777656,-0.8451925,-2.5708213,-0.009221457,0
0.8500000000000005,14.241695274843112,-0.8407738531231934,-2.537885491948755,0.05477084800116005,14.395421,-1.5885073,-4.0400724,1.8884006,10.031005,-8.958944,1.5539054,0.29209054,-0.29963803,0.09568077,0.903186,-6.7687874,6.6648283,0.7125301,-0.84449804,-2.5656867,-0.0060813357,0
0.8600000000000005,14.241695274843112,-0.8407738531231934,-2.537885491948755,0.05477084800116005,14.395421,-1.5885073,-4.0400724,1.8884006,9.962973,-8.892051,1.5611137,0.29204622,-0.28926975,0.088109255,0.90734136,-6.83728,6.7133584,0.7294739,-0.84391254,-2.5613527,-0.0030952846,0
0.8700000000000006,14.241695274843112,-0.8407738531231934,-2.537885491948755,0.05477084800116005,14.395421,-1.5885073,-4.0400724,1.8884006,9.894264,-8.824686,1.5685021,0.29193458,-0.27886492,0.08053419,0.91133,-6.9040613,6.7591667,0.7485203,-0.8434183,-2.5576944,-0.0002557821,0
0.8800000000000006,13.673229228888365,-0.6808060260835922,-2.042153653740105,0.06860203542397053,15.123459,-1.7671851,-4.691765,1.9587581,9.824897,-8.756877,1.576091,0.29175666,-0.26842305,0.07295537,0.91515255,-6.969086,6.8022237,0.76958114,-0.8430014,-2.554607,0.0024443953,0
0.8900000000000006,13.673229228888365,-0.6808060260835922,-2.042153653740105,0.06860203542397053,15.123459,-1.7671851,-4.691765,1.9587581,9.754901,-8.688659,1.5838763,0.29151535,-0.25810757,0.065489896,0.9187546,-7.029793,6.840902,0.7877283,-0.8177018,-2.4746916,0.0056907744,0
0.9000000000000006,13.673229228888365,-0.6808060260835922,-2.042153653740105,0.06860203542397053,15.123459,-1.7671851,-4.691765,1.9587581,9.684306,-8.620068,1.5918515,0.29121587,-0.24805096,0.058231425,0.92210245,-7.0887766,6.8769565,0.80759335,-0.79634845,-2.4072392,0.0087778475,0
0.9100000000000006,13.673229228888365,-0.6808060260835922,-2.042153653740105,0.06860203542397053,15.123459,-1.7671851,-4.691765,1.9587581,9.613131,-8.551128,1.6000335,0.29086193,-0.23821099,0.05114823,0.92522347,-7.1460466,6.910435,0.8290511,-0.7783257,-2.3503056,0.01171344,0
0.9200000000000006,12.145654439121074,-0.4531514402283249,-1.374420758657736,0.069709434507282,12.80938,-1.6978005,-4.3870325,1.5161809,9.541391,-8.481867,1.6084377,0.29045644,-0.22855191,0.04421345,0.9281401,-7.2016096,6.941379,0.85198843,-0.76311386,-2.3022506,0.014504976,0
0.9300000000000006,12.145654439121074,-0.4531514402283249,-1.374420758657736,0.069709434507282,12.80938,-1.6978005,-4.3870325,1.5161809,9.469135,-8.412325,1.6170096,0.2900116,-0.2192657,0.037566755,0.9308084,-7.249459,6.9666557,0.8626201,-0.71477294,-2.1575568,0.017213874,0
0.9400000000000006,12.145654439121074,-0.4531514402283249,-1.374420758657736,0.069709434507282,12.80938,-1.6978005,-4.3870325,1.5161809,9.396408,-8.342541,1.6256937,0.28954065,-0.21050553,0.03131805,0.9332056,-7.2958546,6.989825,0.87434614,-0.67397106,-2.0354276,0.019789848,0
0.9500000000000006,12.145654439121074,-0.4531514402283249,-1.374420758657736,0.069709434507282,12.80938,-1.6978005,-4.3870325,1.5161809,9.323223,-8.272534,1.6345,0.28904644,-0.20219056,0.025406156,0.93537456,-7.3408575,7.010997,0.8870509,-0.6395325,-1.9323446,0.022239434,0
0.9600000000000006,10.735692549852564,-0.23485759479279167,-0.8502165439121685,0.059952839550274174,11.646258,-1.443345,-4.2060847,1.0069079,9.249595,-8.202328,1.6434379,0.28853098,-0.19425197,0.01977925,0.93734986,-7.384519,7.030266,0.9006364,-0.610465,-1.8453372,0.02456882,0
0.9700000000000006,10.735692549852564,-0.23485759479279167,-0.8502165439121685,0.059952839550274174,11.646258,-1.443345,-4.2060847,1.0069079,9.175562,-8.131947,1.6524504,0.28801012,-0.18680318,0.0145356925,0.9391184,-7.4219704,7.0456953,0.9019574,-0.5518899,-1.6901484,0.026305124,0
0.9800000000000006,10.735692549852564,-0.23485759479279167,-0.8502165439121685,0.059952839550274174,11.646258,-1.443345,-4.2060847,1.0069079,9.10116,-8.061419,1.6614791,0.28749833,-0.17993213,0.009751167,0.94067734,-7.458348,7.059642,0.9038944,-0.50244933,-1.5591612,0.027956238,0
0.9900000000000007,10.735692549852564,-0.23485759479279167,-0.8502165439121685,0.059952839550274174,11.646258,-1.443345,-4.2060847,1.0069079,9.026399,-7.9907584,1.67053,0.28699464,-0.17355025,0.005354569,0.9420645,-7.4937215,7.0722237,0.9063712,-0.46071905,-1.4486014,0.029526327,0
1.0000000000000007,9.952103854840844,-0.04585431811475401,-0.36525754828518614,0.042998628080323655,11.570156,-0.65552026,-4.187143,0.5228392,8.951289,-7.919978,1.6796081,0.28649765,-0.16758221,0.0012857628,0.9433099,-7.5281506,7.083542,0.9093248,-0.42549646,-1.3552833,0.03101937,0
1.0100000000000007,9.952103854840844,-0.04585431811475401,-0.36525754828518614,0.042998628080323655,11.570156,-0.65552026,-4.187143,0.5228392,8.875852,-7.8490944,1.6886809,0.28602064,-0.16212581,-0.0023794859,0.94440544,-7.5592427,7.0929484,0.9052942,-0.36629423,-1.2008883,0.031607192,0
1.0200000000000007,9.952103854840844,-0.04585431811475401,-0.36525754828518614,0.042998628080323655,11.570156,-0.65552026,-4.187143,0.5228392,8.800107,-7.778122,1.697715,0.28557536,-0.15725575,-0.005583874,0.9453497,-7.5895844,7.101387,0.9016002,-0.31632408,-1.0705712,0.03216618,0
1.0300000000000007,9.952103854840844,-0.04585431811475401,-0.36525754828518614,0.042998628080323655,11.570156,-0.65552026,-4.187143,0.5228392,8.724063,-7.7070694,1.7067139,0.285158,-0.15288179,-0.008399187,0.946172,-7.6192474,7.1089706,0.8981941,-0.27414647,-0.96057683,0.032697726,0
1.0400000000000007,9.952103854840844,-0.04585431811475401,-0.36525754828518614,0.042998628080323655,11.07458,-0.23212887,-3.2399561,0.19300327,8.647725,-7.6359453,1.7156799,0.28476495,-0.14892736,-0.010886053,0.9468955,-7.648293,7.1157956,0.8950368,-0.23854625,-0.8677365,0.033203203,0
1.0500000000000007,9.952103854840844,-0.04585431811475401,-0.36525754828518614,0.042998628080323655,11.07458,-0.23212887,-3.2399561,0.19300327,8.571099,-7.564756,1.7246153,0.28439274,-0.14532766,-0.013095663,0.9475385,-7.6767745,7.121943,0.8920967,-0.20849746,-0.7893746,0.03368387,0
1.0600000000000007,9.952103854840844,-0.04585431811475401,-0.36525754828518614,0.042998628080323655,11.07458,-0.23212887,-3.2399561,0.19300327,8.494192,-7.4935083,1.7335224,0.28403836,-0.14202777,-0.0150712365,0.94811565,-7.7047358,7.127481,0.889348,-0.18313457,-0.72323316,0.034140963,0
1.0700000000000007,9.952103854840844,-0.04585431811475401,-0.36525754828518614,0.042998628080323655,11.07458,-0.23212887,-3.2399561,0.19300327,8.417006,-7.422208,1.7424029,0.28369907,-0.13898122,-0.016849257,0.9486387,-7.732215,7.132468,0.8867697,-0.16172683,-0.66740674,0.03457561,0
1.0800000000000007,9.751883436428102,0.09836808842438931,-0.07526482560217058,0.015492586305462892,11.593098,-0.9068567,-2.866482,0.81531477,8.339548,-7.35086,1.7512584,0.28337237,-0.13614874,-0.018460516,0.94911695,-7.759244,7.1369534,0.8843446,-0.14365746,-0.6202863,0.034988925,0
1.0900000000000007,9.751883436428102,0.09836808842438931,-0.07526482560217058,0.015492586305462892,11.593098,-0.9068567,-2.866482,0.81531477,8.261826,-7.279471,1.7600808,0.2830695,-0.13359083,-0.01984381,0.94954276,-7.785319,7.140902,0.88012975,-0.105916,-0.5352895,0.034032226,0
1.1000000000000008,9.751883436428102,0.09836808842438931,-0.07526482560217058,0.015492586305462892,11.593098,-0.9068567,-2.866482,0.81531477,8.183844,-7.208044,1.7688615,0.28279987,-0.13135391,-0.020952059,0.94991124,-7.8110228,7.144471,0.8760323,-0.074059874,-0.4635481,0.03312247,0
1.1100000000000008,9.751883436428102,0.09836808842438931,-0.07526482560217058,0.015492586305462892,11.593098,-0.9068567,-2.866482,0.81531477,8.105607,-7.136583,1.7776017,0.28255907,-0.12938818,-0.021828258,0.9502329,-7.836396,7.1477256,0.8720361,-0.04717132,-0.40299505,0.032257367,0
1.1200000000000008,10.020158090760214,0.24988662382105653,0.3795851213525552,-0.021955948872480917,11.619977,-0.96698064,-2.6594443,0.9208311,8.027118,-7.06509,1.7863026,0.28234315,-0.12765154,-0.022508683,0.95051605,-7.861472,7.150721,0.86812806,-0.024475746,-0.35188517,0.031434715,0
1.1300000000000008,10.020158090760214,0.24988662382105653,0.3795851213525552,-0.021955948872480917,11.619977,-0.96698064,-2.6594443,0.9208311,7.948375,-6.9935684,1.7949777,0.28216505,-0.12626423,-0.022915512,0.9507445,-7.8869677,7.1535883,0.86688936,0.018308194,-0.23781185,0.028814824,0
1.1400000000000008,10.020158090760214,0.24988662382105653,0.3795851213525552,-0.021955948872480917,11.619977,-0.96698064,-2.6594443,0.9208311,7.8693795,-6.922019,1.8036406,0.28203556,-0.12531978,-0.022988757,0.95090616,-7.9122515,7.1563287,0.8657098,0.054420613,-0.14152846,0.026323494,0
1.1500000000000008,10.020158090760214,0.24988662382105653,0.3795851213525552,-0.021955948872480917,11.619977,-0.96698064,-2.6594443,0.9208311,7.790132,-6.850442,1.8122919,0.28194842,-0.12474926,-0.022780646,0.951012,-7.937384,7.159027,0.8645706,0.084901996,-0.0602607,0.023954408,0
1.1600000000000008,10.12797254459232,0.326848259694784,0.4380581867474666,-0.07369787207344707,11.212296,-0.6983214,-1.9890552,0.6782445,7.710633,-6.778838,1.820932,0.2818982,-0.1244944,-0.02233523,0.9510709,-7.9624157,7.1617556,0.86345667,0.1106302,0.0083333105,0.021701578,0
1.1700000000000008,10.12797254459232,0.326848259694784,0.4380581867474666,-0.07369787207344707,11.212296,-0.6983214,-1.9890552,0.6782445,7.630882,-6.7072067,1.8295664,0.2818905,-0.12451941,-0.021654582,0.9510856,-7.9876595,7.164606,0.8633986,0.14434853,0.07534861,0.017020304,0
1.1800000000000008,10.12797254459232,0.326848259694784,0.4380581867474666,-0.07369787207344707,11.212296,-0.6983214,-1.9890552,0.6782445,7.550879,-6.6355457,1.8382001,0.28193033,-0.12479329,-0.020742353,0.95105827,-8.012882,7.1676116,0.86334115,0.17280887,0.13191272,0.012568735,0
1.1900000000000008,10.12797254459232,0.326848259694784,0.4380581867474666,-0.07369787207344707,11.212296,-0.6983214,-1.9890552,0.6782445,7.4706244,-6.5638537,1.8468331,0.28201222,-0.12527712,-0.019634947,0.9509939,-8.038117,7.17083,0.86327404,0.19683143,0.1796557,0.008335612,0
1.2000000000000008,10.095627663159886,0.3761245040412999,0.3198414095957232,-0.13052161568731765,10.713854,-0.3312437,-1.3637259,0.3144845,7.3901167,-6.4921284,1.8554655,0.2821314,-0.12593798,-0.018363077,0.9508966,-8.063389,7.1743083,0.8631882,0.21710783,0.21995282,0.00431021,0
1.2100000000000009,10.095627663159886,0.3761245040412999,0.3198414095957232,-0.13052161568731765,10.713854,-0.3312437,-1.3637259,0.3144845,7.3093567,-6.4203672,1.8640953,0.28229207,-0.12669747,-0.016948137,0.9507744,-8.088638,7.1780744,0.86276335,0.24190742,0.23552945,-0.0023060204,0
1.2200000000000009,10.095627663159886,0.3761245040412999,0.3198414095957232,-0.13052161568731765,10.713854,-0.3312437,-1.3637259,0.3144845,7.228344,-6.3485665,1.8727207,0.28249824,-0.12749197,-0.015408555,0.95063317,-8.113949,7.1821704,0.8623091,0.26283962,0.24867679,-0.008597592,0
1.2300000000000009,10.095627663159886,0.3761245040412999,0.3198414095957232,-0.13052161568731765,10.713854,-0.3312437,-1.3637259,0.3144845,7.1470776,-6.2767224,1.8813415,0.2827459,-0.12831587,-0.013764217,0.95047396,-8.13932,7.1866217,0.8618234,0.28050748,0.2597737,-0.014580445,0
1.2400000000000009,10.095627663159886,0.3761245040412999,0.3198414095957232,-0.13052161568731765,10.884971,-0.29681367,-1.5871089,0.36008537,7.0655575,-6.204832,1.8899571,0.28303137,-0.12916443,-0.012031896,0.9502976,-8.164753,7.1914506,0.8613039,0.2954199,0.26913995,-0.020269705,0
1.2500000000000009,10.095627663159886,0.3761245040412999,0.3198414095957232,-0.13052161568731765,10.884971,-0.29681367,-1.5871089,0.36008537,6.9837823,-6.1328917,1.8985674,0.28335142,-0.13003369,-0.010225732,0.95010483,-8.190247,7.1966743,0.86074847,0.30800688,0.2770457,-0.025679804,0
1.260000000000001,10.095627663159886,0.3761245040412999,0.3198414095957232,-0.13052161568731765,10.884971,-0.29681367,-1.5871089,0.36008537,6.901752,-6.060897,1.9071721,0.28370324,-0.13092025,-0.008357642,0.9498963,-8.215798,7.202308,0.86015487,0.31863087,0.2837185,-0.030824423,0
1.270000000000001,10.095627663159886,0.3761245040412999,0.3198414095957232,-0.13052161568731765,10.884971,-0.29681367,-1.5871089,0.36008537,6.819466,-5.9888434,1.9157705,0.28408423,-0.1318213,-0.0064376695,0.94967276,-8.241408,7.2083654,0.8595206,0.3275982,0.28935045,-0.035716586,0
1.280000000000001,9.759516329265407,0.3585495951672462,-0.04297227805857534,-0.1899393804427735,10.602443,-0.2542222,-1.7949731,0.27574202,6.7369237,-5.9167275,1.9243624,0.2844921,-0.13273443,-0.0044742795,0.9494347,-8.267076,7.2148566,0.85884345,0.33516684,0.2941044,-0.040368687,0
1.290000000000001,9.759516329265407,0.3585495951672462,-0.04297227805857534,-0.1899393804427735,10.602443,-0.2542222,-1.7949731,0.27574202,6.6541286,-5.844546,1.9329311,0.28493035,-0.13352183,-0.0025235887,0.94920003,-8.291938,7.221557,0.85488045,0.33881313,0.24153574,-0.047708184,0
1.300000000000001,9.759516329265407,0.3585495951672462,-0.04297227805857534,-0.1899393804427735,10.602443,-0.2542222,-1.7949731,0.27574202,6.5710845,-5.772295,1.94146,0.28540292,-0.13407423,-0.0006306394,0.9489833,-8.316816,7.228665,0.85088336,0.34189066,0.19716522,-0.054687504,0
1.310000000000001,9.759516329265407,0.3585495951672462,-0.04297227805857534,-0.1899393804427735,10.602443,-0.2542222,-1.7949731,0.27574202,6.487792,-5.699971,1.9499489,0.28590843,-0.13442834,0.0012129364,0.9487805,-8.341674,7.2361593,0.8468621,0.34448808,0.15971431,-0.061324354,0
1.320000000000001,9.153803843608703,0.3422117260178744,-0.4076828330901208,-0.25493914634256465,9.2957735,0.27739817,-1.7961342,-0.15039966,6.404251,-5.6275706,1.9583973,0.2864454,-0.13461514,0.0030142425,0.94858795,-8.366476,7.2440214,0.84282494,0.34668022,0.12810397,-0.06763553,0
1.330000000000001,9.153803843608703,0.3422117260178744,-0.4076828330901208,-0.25493914634256465,9.2957735,0.27739817,-1.7961342,-0.15039966,6.3204703,-5.555092,1.9667761,0.2870196,-0.1345242,0.004730189,0.9484203,-8.389659,7.251723,0.832943,0.3459801,0.04454638,-0.076826565,0
1.340000000000001,9.153803843608703,0.3422117260178744,-0.4076828330901208,-0.25493914634256465,9.2957735,0.27739817,-1.7961342,-0.15039966,6.2364583,-5.482535,1.9750562,0.28763676,-0.13406943,0.0063267266,0.9482884,-8.412709,7.2597165,0.8230699,0.34538877,-0.025980392,-0.0855666,0
1.350000000000001,9.153803843608703,0.3422117260178744,-0.4076828330901208,-0.25493914634256465,9.2957735,0.27739817,-1.7961342,-0.15039966,6.1522164,-5.4098964,1.9832376,0.28829506,-0.13330765,0.007821645,0.94818467,-8.435575,7.2679653,0.81322134,0.34488952,-0.085508466,-0.09387777,0
1.360000000000001,8.436606339556416,0.31441806122260274,-0.9128440391811156,-0.3119091576165617,8.330089,0.49529988,-2.2611058,-0.4032133,6.067747,-5.337174,1.9913207,0.28899267,-0.13228679,0.00923002,0.9481026,-8.45821,7.276439,0.80341077,0.34446827,-0.1357532,-0.1017811,0
1.370000000000001,8.436606339556416,0.31441806122260274,-0.9128440391811156,-0.3119091576165617,8.330089,0.49529988,-2.2611058,-0.4032133,5.983062,-5.2643695,1.9992714,0.28973475,-0.13085882,0.010494679,0.9480611,-8.47882,7.284427,0.78672993,0.33977222,-0.25694212,-0.11209215,0
1.380000000000001,8.436606339556416,0.31441806122260274,-0.9128440391811156,-0.3119091576165617,8.330089,0.49529988,-2.2611058,-0.4032133,5.8981714,-5.1914845,2.0070555,0.2905261,-0.1289085,0.011570728,0.9480736,-8.499108,7.2925425,0.770117,0.33580843,-0.3592315,-0.121897236,0
1.390000000000001,8.436606339556416,0.31441806122260274,-0.9128440391811156,-0.3119091576165617,8.330089,0.49529988,-2.2611058,-0.4032133,5.813081,-5.1185184,2.0146742,0.29136395,-0.12651712,0.012486569,0.94812703,-8.519006,7.300734,0.75359255,0.33246306,-0.44556883,-0.13122118,0
1.400000000000001,7.879655221011619,0.32905600908860616,-1.1913234063789149,-0.3693212236985218,7.476946,0.85605395,-2.5936797,-0.6414119,5.727793,-5.0454698,2.0221276,0.29224554,-0.12375323,0.013266263,0.9482099,-8.538456,7.308957,0.73717296,0.32963958,-0.51844174,-0.14008759,0
1.410000000000001,7.879655221011619,0.32905600908860616,-1.1913234063789149,-0.3693212236985218,7.476946,0.85605395,-2.5936797,-0.6414119,5.64232,-4.972342,2.0293906,0.2931769,-0.12056732,0.013902273,0.9483237,-8.556154,7.3166304,0.7154719,0.32953447,-0.6233797,-0.15133615,0
1.420000000000001,7.879655221011619,0.32905600908860616,-1.1913234063789149,-0.3693212236985218,7.476946,0.85605395,-2.5936797,-0.6414119,5.5566726,-4.899138,2.0364373,0.29416314,-0.116923,0.014389529,0.9484673,-8.573322,7.324253,0.69389653,0.3294463,-0.7119526,-0.16203275,0
1.430000000000001,7.879655221011619,0.32905600908860616,-1.1913234063789149,-0.3693212236985218,7.476946,0.85605395,-2.5936797,-0.6414119,5.4708557,-4.8258576,2.043269,0.29519996,-0.11289126,0.014750233,0.9486281,-8.589904,7.331784,0.6724595,0.32937223,-0.78671247,-0.17220445,0
1.440000000000001,7.879655221011619,0.32905600908860616,-1.1913234063789149,-0.3693212236985218,6.764723,0.9335515,-2.8175313,-0.52439296,5.3848767,-4.7525024,2.049887,0.29628327,-0.108532,0.015003231,0.9487952,-8.605849,7.3391886,0.65116954,0.32931036,-0.8498134,-0.18187705,0
1.450000000000001,7.879655221011619,0.32905600908860616,-1.1913234063789149,-0.3693212236985218,6.764723,0.9335515,-2.8175313,-0.52439296,5.298741,-4.6790743,2.0562928,0.29740927,-0.1038958,0.01516453,0.9489593,-8.621117,7.3464365,0.63003206,0.32925904,-0.90307367,-0.19107501,0
1.460000000000001,7.879655221011619,0.32905600908860616,-1.1913234063789149,-0.3693212236985218,6.764723,0.9335515,-2.8175313,-0.52439296,5.212456,-4.6055746,2.0624883,0.29857436,-0.09902539,0.015247729,0.9491128,-8.635671,7.353502,0.60904944,0.32921633,-0.94802797,-0.19982162,0
1.470000000000001,7.879655221011619,0.32905600908860616,-1.1913234063789149,-0.3693212236985218,6.764723,0.9335515,-2.8175313,-0.52439296,5.1260304,-4.5320053,2.0684745,0.29977527,-0.09395684,0.015264385,0.94924927,-8.649483,7.360362,0.58822185,0.32918113,-0.9859716,-0.20813902,0
1.480000000000001,7.563415042040256,0.38595604667312505,-1.3305293412388293,-0.4299013615546264,6.804565,1.0449864,-2.6487553,-0.51839733,5.03947,-4.4583683,2.074253,0.30100888,-0.08872065,0.015224334,0.94936335,-8.662526,7.366997,0.5675473,0.32915193,-1.0179977,-0.21604829,0
1.490000000000001,7.563415042040256,0.38595604667312505,-1.3305293412388293,-0.4299013615546264,6.804565,1.0449864,-2.6487553,-0.51839733,4.9527855,-4.384668,2.0798101,0.30228224,-0.08328294,0.015140102,0.94945264,-8.674284,7.3731327,0.54390913,0.3379963,-1.0667404,-0.2265421,0
1.500000000000001,7.563415042040256,0.38595604667312505,-1.3305293412388293,-0.4299013615546264,6.804565,1.0449864,-2.6487553,-0.51839733,4.865987,-4.310907,2.0851316,0.30360118,-0.07761812,0.015021976,0.9495136,-8.685251,7.379019,0.5204116,0.3454624,-1.1078814,-0.23652099,0
1.5100000000000011,7.563415042040256,0.38595604667312505,-1.3305293412388293,-0.4299013615546264,6.804565,1.0449864,-2.6487553,-0.51839733,4.7790833,-4.237088,2.090219,0.30496117,-0.071761206,0.014874709,0.94954085,-8.695398,7.3846393,0.49705067,0.35176486,-1.1426064,-0.24601023,0
1.5200000000000011,7.324605687715282,0.5180635872295917,-1.2276492020364522,-0.5229058585625167,6.8450484,1.1095976,-2.3691266,-0.5561725,4.692082,-4.1632156,2.0950732,0.30635822,-0.0657418,0.01470239,0.94952965,-8.704699,7.3899794,0.47382018,0.35708526,-1.1719157,-0.2550338,0
1.5300000000000011,7.324605687715282,0.5180635872295917,-1.2276492020364522,-0.5229058585625167,6.8450484,1.1095976,-2.3691266,-0.5561725,4.604994,-4.089291,2.099684,0.30780235,-0.059607998,0.0145706395,0.9494695,-8.712865,7.394869,0.44834462,0.38217825,-1.1806147,-0.26817834,0
1.5400000000000011,7.324605687715282,0.5180635872295917,-1.2276492020364522,-0.5229058585625167,6.8450484,1.1095976,-2.3691266,-0.5561725,4.517828,-4.015319,2.1040404,0.30930245,-0.053399216,0.014531754,0.9493521,-8.720175,7.39948,0.4229785,0.40335846,-1.1879568,-0.2806779,0
1.5500000000000012,7.324605687715282,0.5180635872295917,-1.2276492020364522,-0.5229058585625167,6.8450484,1.1095976,-2.3691266,-0.5561725,4.4305935,-3.941302,2.1081438,0.31085333,-0.047126923,0.014571059,0.949177,-8.726614,7.403819,0.39771128,0.4212364,-1.1941533,-0.29256412,0
1.5600000000000012,7.561257756742337,0.6969035206875366,-0.974307007783747,-0.6220500249800714,7.314743,1.1813694,-1.920641,-0.7709969,4.3432994,-3.8672433,2.1119947,0.31245044,-0.040800877,0.014676211,0.948944,-8.732171,7.4078918,0.37253213,0.43632668,-1.199383,-0.3038671,1
1.5700000000000012,7.561257756742337,0.6969035206875366,-0.974307007783747,-0.6220500249800714,7.314743,1.1813694,-1.920641,-0.7709969,4.2559543,-3.7931452,2.115594,0.31413254,-0.0340835,0.015000611,0.9486486,-8.736816,7.4116974,0.3473321,0.55247384,-1.311894,-0.32678932,1
1.5800000000000012,7.561257756742337,0.6969035206875366,-0.974307007783747,-0.6220500249800714,7.314743,1.1813694,-1.920641,-0.7709969,4.1685667,-3.71901,2.1189413,0.31593,-0.026707243,0.01566467,0.94827724,-8.740467,7.415255,0.32220107,0.65050966,-1.4068578,-0.34858668,1
1.5900000000000012,7.561257756742337,0.6969035206875366,-0.974307007783747,-0.6220500249800714,7.314743,1.1813694,-1.920641,-0.7709969,4.0811486,-3.6448407,2.122038,0.31782728,-0.018774314,0.016614545,0.94781715,-8.743022,7.4185753,0.29712763,0.73325866,-1.4870105,-0.36931446,1
1.6000000000000012,7.972168949576831,0.8103054881633643,-0.32972193107906334,-0.707913630343135,7.412805,1.1717023,-1.6712261,-0.9751432,3.9937105,-3.5706391,2.1248841,0.3198108,-0.010371326,0.017804934,0.94725734,-8.744397,7.4216676,0.2720959,0.8031051,-1.554662,-0.38902515,0
1.6100000000000012,7.972168949576831,0.8103054881633643,-0.32972193107906334,-0.707913630343135,7.412805,1.1717023,-1.6712261,-0.9751432,3.9062645,-3.4964066,2.127513,0.3218497,-0.002222147,0.01926142,0.9465922,-8.744555,7.424805,0.25365478,0.8042624,-1.3636417,-0.40467313,0
1.6200000000000012,7.972168949576831,0.8103054881633643,-0.32972193107906334,-0.707913630343135,7.412805,1.1717023,-1.6712261,-0.9751432,3.8188238,-3.4221435,2.1299574,0.3239224,0.0050957,0.021004215,0.9458368,-8.743444,7.427777,0.23521256,0.8052356,-1.2024106,-0.4195532,0
1.6300000000000012,7.972168949576831,0.8103054881633643,-0.32972193107906334,-0.707913630343135,7.412805,1.1717023,-1.6712261,-0.9751432,3.7314,-3.3478513,2.1322172,0.32602966,0.011711717,0.022990592,0.94500744,-8.74117,7.430658,0.21674904,0.8060536,-1.0663229,-0.4337031,0
1.6400000000000012,7.972168949576831,0.8103054881633643,-0.32972193107906334,-0.707913630343135,7.6553946,0.6161807,-0.85430896,-0.92431986,3.644004,-3.2735305,2.1342924,0.32817158,0.017735235,0.02518423,0.9441159,-8.737819,7.433512,0.19824857,0.8067407,-0.9514578,-0.4471587,1
1.6500000000000012,7.972168949576831,0.8103054881633643,-0.32972193107906334,-0.707913630343135,7.6553946,0.6161807,-0.85430896,-0.92431986,3.556646,-3.1991816,2.1361663,0.33037972,0.023430377,0.02741234,0.94315904,-8.733635,7.4362717,0.17653778,0.7770132,-0.93631077,-0.47057313,1
1.6600000000000013,7.972168949576831,0.8103054881633643,-0.32972193107906334,-0.707913630343135,7.6553946,0.6161807,-0.85430896,-0.92431986,3.4693346,-3.124805,2.137823,0.3326828,0.029010514,0.029535998,0.94212973,-8.7285185,7.4390492,0.15476957,0.7519221,-0.9235259,-0.4928386,1
1.6700000000000013,7.972168949576831,0.8103054881633643,-0.32972193107906334,-0.707913630343135,7.6553946,0.6161807,-0.85430896,-0.92431986,3.382079,-3.0504005,2.1392617,0.33507589,0.034492444,0.031572394,0.9410302,-8.72249,7.4418316,0.13293464,0.73074424,-0.9127349,-0.5140115,1
1.6800000000000013,8.173213193005251,0.8315472791148266,0.3712351110902952,-0.7706917088516115,7.481899,0.3783641,-0.47109982,-0.8061317,3.2948878,-2.9759684,2.1404815,0.33755425,0.039890364,0.033536017,0.93986243,-8.715568,7.4446063,0.11102406,0.7128693,-0.90362686,-0.5341454,1
1.6900000000000013,8.173213193005251,0.8315472791148266,0.3712351110902952,-0.7706917088516115,7.481899,0.3783641,-0.47109982,-0.8061317,3.2077696,-2.9015088,2.1414733,0.3400984,0.0450405,0.035401024,0.93864334,-8.70795,7.4473,0.08730506,0.6607196,-0.83616215,-0.5474919,1
1.7000000000000013,8.173213193005251,0.8315472791148266,0.3712351110902952,-0.7706917088516115,7.481899,0.3783641,-0.47109982,-0.8061317,3.1207316,-2.8270226,2.1422274,0.34269124,0.04981386,0.03714803,0.93739074,-8.699531,7.449971,0.063500546,0.6167001,-0.77922034,-0.56018347,1
1.7100000000000013,8.173213193005251,0.8315472791148266,0.3712351110902952,-0.7706917088516115,7.481899,0.3783641,-0.47109982,-0.8061317,3.0337815,-2.7525096,2.142743,0.34533125,0.054268397,0.038796827,0.9361069,-8.690367,7.452618,0.039608747,0.57954353,-0.73116016,-0.5722522,1
1.7200000000000013,8.574475659808066,0.8500953415626384,1.185705756091475,-0.7808662194326365,8.062358,0.11740039,0.14372014,-0.45269263,2.9469266,-2.6779702,2.1430192,0.34801665,0.05845307,0.040363975,0.93479323,-8.680506,7.455238,0.015628424,0.5481795,-0.6905964,-0.5837288,0
1.7300000000000013,8.574475659808066,0.8500953415626384,1.185705756091475,-0.7808662194326365,8.062358,0.11740039,0.14372014,-0.45269263,2.860181,-2.6034029,2.1431093,0.35070455,0.061855897,0.04227109,0.93348455,-8.668464,7.458229,0.0023704926,0.5953716,-0.39800966,-0.5934024,0
1.7400000000000013,8.574475659808066,0.8500953415626384,1.185705756091475,-0.7808662194326365,8.062358,0.11740039,0.14372014,-0.45269263,2.7735593,-2.5288053,2.143066,0.35335848,0.06407509,0.044854693,0.93221265,-8.655816,7.4613533,-0.01098061,0.63518995,-0.1510494,-0.6026013,0
1.7500000000000013,8.574475659808066,0.8500953415626384,1.185705756091475,-0.7808662194326365,8.062358,0.11740039,0.14372014,-0.45269263,2.6870663,-2.454175,2.142889,0.35598454,0.06529667,0.048012305,0.93097067,-8.642698,7.464777,-0.024414636,0.66878635,0.057399802,-0.6113488,0
1.7600000000000013,9.015460789862894,0.7999216208581648,1.6988163338541313,-0.7217146877587176,8.379535,0.087417886,0.46876785,-0.3603497,2.6007063,-2.3795083,2.1425774,0.35858688,0.06567718,0.051656812,0.92974925,-8.629225,7.4686413,-0.03792336,0.69713247,0.23334351,-0.61966705,0
1.7700000000000014,9.015460789862894,0.7999216208581648,1.6988163338541313,-0.7217146877587176,8.379535,0.087417886,0.46876785,-0.3603497,2.514486,-2.304799,2.142152,0.3611519,0.065150656,0.05576887,0.9285552,-8.614793,7.473299,-0.04715357,0.71325594,0.46187434,-0.6246745,0
1.7800000000000014,9.015460789862894,0.7999216208581648,1.6988163338541313,-0.7217146877587176,8.379535,0.087417886,0.46876785,-0.3603497,2.428411,-2.2300396,2.141634,0.36366618,0.06367158,0.060329355,0.9273907,-8.600221,7.4786906,-0.056448314,0.7268518,0.654767,-0.62943625,0
1.7900000000000014,9.015460789862894,0.7999216208581648,1.6988163338541313,-0.7217146877587176,8.379535,0.087417886,0.46876785,-0.3603497,2.3424819,-2.155222,2.1410227,0.36613226,0.061388813,0.06526985,0.926239,-8.585626,7.484946,-0.06580348,0.73831606,0.81757903,-0.63396436,0
1.8000000000000014,9.60144861411356,0.6352802398244918,2.09773403599006,-0.5823209579590811,9.068343,-0.084009364,0.73476034,-0.10505661,2.256698,-2.080337,2.1403177,0.36855197,0.058427732,0.070532024,0.9250845,-8.571106,7.492174,-0.07522034,0.74798274,0.9550014,-0.6382703,0
1.8100000000000014,9.60144861411356,0.6352802398244918,2.09773403599006,-0.5823209579590811,9.068343,-0.084009364,0.73476034,-0.10505661,2.1710637,-2.0053718,2.1395469,0.37090284,0.054723285,0.07606322,0.9239325,-8.555816,7.501012,-0.0789445,0.73047894,1.1332186,-0.63552487,0
1.8200000000000014,9.60144861411356,0.6352802398244918,2.09773403599006,-0.5823209579590811,9.068343,-0.084009364,0.73476034,-0.10505661,2.0855808,-1.9303123,2.1387382,0.3731629,0.05022953,0.08181903,0.9227852,-8.540817,7.5110903,-0.08274662,0.71569276,1.2836416,-0.6329142,0
1.8300000000000014,9.60144861411356,0.6352802398244918,2.09773403599006,-0.5823209579590811,9.068343,-0.084009364,0.73476034,-0.10505661,2.0002458,-1.8551453,2.1378913,0.37533423,0.045069713,0.087764315,0.921624,-8.526219,7.5225024,-0.08663793,0.7032024,1.4106053,-0.63043153,0
1.8400000000000014,9.60144861411356,0.6352802398244918,2.09773403599006,-0.5823209579590811,9.7413645,-0.27163345,1.2230253,0.15110257,1.9150546,-1.7798573,2.1370049,0.37741888,0.03934791,0.09386892,0.92043245,-8.512116,7.5353274,-0.090635866,0.6926515,1.5177681,-0.6280707,1
1.8500000000000014,9.60144861411356,0.6352802398244918,2.09773403599006,-0.5823209579590811,9.7413645,-0.27163345,1.2230253,0.15110257,1.8300025,-1.7044326,2.1360848,0.37938344,0.033345424,0.099637404,0.91925466,-8.498386,7.5498176,-0.093390554,0.54221636,1.4718785,-0.5898365,1
1.8600000000000014,9.60144861411356,0.6352802398244918,2.09773403599006,-0.5823209579590811,9.7413645,-0.27163345,1.2230253,0.15110257,1.7450846,-1.6288562,2.1351366,0.38119408,0.027290756,0.10467648,0.91814464,-8.4853,7.5657005,-0.09627638,0.41524807,1.4331287,-0.55347836,1
1.8700000000000014,9.60144861411356,0.6352802398244918,2.09773403599006,-0.5823209579590811,9.7413645,-0.27163345,1.2230253,0.15110257,1.660294,-1.5531144,2.134159,0.3828524,0.021193994,0.10909989,0.9171001,-8.472915,7.582861,-0.09929025,0.308086,1.400409,-0.51890445,1
1.8800000000000014,10.4376545523228,0.3798102070455435,2.210437346439092,-0.38790198168373596,10.300903,-0.34767967,1.1885114,0.37900254,1.5756235,-1.4771949,2.1331506,0.38436073,0.015063743,0.11300367,0.91611713,-8.461277,7.6012025,-0.102430254,0.2176402,1.3727813,-0.486027,0
1.8900000000000015,10.4376545523228,0.3798102070455435,2.210437346439092,-0.38790198168373596,10.300903,-0.34767967,1.1885114,0.37900254,1.4910696,-1.4010797,2.132144,0.3857337,0.008638287,0.11686049,0.9151388,-8.4496565,7.6220565,-0.09892135,0.24296728,1.503406,-0.481212,0
1.9000000000000015,10.4376545523228,0.3798102070455435,2.210437346439092,-0.38790198168373596,10.300903,-0.34767967,1.1885114,0.37900254,1.4066272,-1.3247495,2.1311715,0.3869894,0.0017100868,0.12104798,0.91410285,-8.438951,7.644178,-0.09558038,0.2643376,1.6136612,-0.47663322,0
1.9100000000000015,10.4376545523228,0.3798102070455435,2.210437346439092,-0.38790198168373596,10.300903,-0.34767967,1.1885114,0.37900254,1.3222871,-1.2481912,2.1302316,0.38813514,-0.005641096,0.12551275,0.9129985,-8.42922,7.667664,-0.09244821,0.2823694,1.7067235,-0.4722792,0
1.9200000000000015,11.508911019995363,0.19487915043206788,2.2819288819849506,-0.1670499317846914,11.637732,-0.42115337,1.2299461,0.3758376,1.2380391,-1.1713911,2.1293218,0.38917708,-0.013347803,0.1302094,0.9118163,-8.420519,7.6925964,-0.089568764,0.29758456,1.7852736,-0.46813878,0
1.9300000000000015,11.508911019995363,0.19487915043206788,2.2819288819849506,-0.1670499317846914,11.637732,-0.42115337,1.2299461,0.3758376,1.1538769,-1.0943207,2.128491,0.3900907,-0.021404272,0.13504347,0.91056836,-8.41211,7.7217555,-0.07665435,0.28157344,1.8627342,-0.45336428,0
1.9400000000000015,11.508911019995363,0.19487915043206788,2.2819288819849506,-0.1670499317846914,11.637732,-0.42115337,1.2299461,0.3758376,1.0697926,-1.01695,2.1277874,0.3908525,-0.029802173,0.1399383,0.90926546,-8.404948,7.7526326,-0.06411778,0.26805502,1.9281138,-0.43931472,0
1.9500000000000015,11.508911019995363,0.19487915043206788,2.2819288819849506,-0.1670499317846914,11.637732,-0.42115337,1.2299461,0.3758376,0.98577344,-0.9392619,2.1272073,0.39146924,-0.038485277,0.14488223,0.9078987,-8.399095,7.7852654,-0.052009244,0.25664192,1.9832966,-0.4259546,0
1.9600000000000015,11.991892359584039,-0.15841352681948553,1.7540800625445865,0.07059297903240054,12.119219,-0.9208186,1.0112834,0.6111231,0.90180606,-0.86123854,2.1267457,0.39194718,-0.047405925,0.14986522,0.9064605,-8.394598,7.819684,-0.040381353,0.2470062,2.0298731,-0.41325006,1
1.9700000000000015,11.991892359584039,-0.15841352681948553,1.7540800625445865,0.07059297903240054,12.119219,-0.9208186,1.0112834,0.6111231,0.81787753,-0.7828525,2.126427,0.39226103,-0.056223895,0.15427999,0.905079,-8.391332,7.8577976,-0.02348654,0.06478028,1.8710762,-0.36298376,1
1.9800000000000015,11.991892359584039,-0.15841352681948553,1.7540800625445865,0.07059297903240054,12.119219,-0.9208186,1.0112834,0.6111231,0.7339742,-0.7040768,2.1262743,0.39238283,-0.064666554,0.1576493,0.90388095,-8.389561,7.897569,-0.007121511,-0.089009404,1.737026,-0.31518406,1
1.9900000000000015,11.991892359584039,-0.15841352681948553,1.7540800625445865,0.07059297903240054,12.119219,-0.9208186,1.0112834,0.6111231,0.6500811,-0.6248962,2.1262827,0.39231473,-0.07278759,0.16013993,0.9028547,-8.389305,7.938753,0.008756709,-0.21880113,1.623867,-0.2697299,1
2.0000000000000013,,,,,12.793945,-1.5530568,0.36628908,0.8506266,0.56618285,-0.5452976,2.1264477,0.39205936,-0.08063234,0.16189238,0.9019861,-8.390583,7.981141,0.024185717,-0.3283402,1.5283452,-0.22650617,0
2.010000000000001,,,,,12.793945,-1.5530568,0.36628908,0.8506266,0.48226392,-0.46526632,2.126774,0.3916593,-0.088215336,0.1631684,0.9012199,-8.393451,8.025271,0.0410347,-0.3629023,1.4600937,-0.19954227,0
2.020000000000001,,,,,12.793945,-1.5530568,0.36628908,0.8506266,0.39830852,-0.38478893,2.1272666,0.39115533,-0.09555112,0.16418037,0.9005068,-8.397869,8.070346,0.057467744,-0.3920695,1.4024847,-0.17390148,0
2.0300000000000007,,,,,12.793945,-1.5530568,0.36628908,0.8506266,0.31430128,-0.30385643,2.1279218,0.39054844,-0.10267508,0.16497095,0.89984137,-8.403813,8.116283,0.07348794,-0.41668433,1.3538586,-0.1495189,0
2.0400000000000005,,,,,12.793945,-1.5530568,0.36628908,0.8506266,0.23022705,-0.22246054,2.1287348,0.38984,-0.109617166,0.16557613,0.8992183,-8.4112625,8.163015,0.08909622,-0.4374572,1.312815,-0.12633279,0
2.0500000000000003,,,,,13.458984,-1.4795992,-0.31535423,0.96309865,0.1460709,-0.14059359,2.1297019,0.3890319,-0.11640271,0.16602618,0.89863235,-8.4201975,8.210485,0.1042915,-0.45498794,1.2781715,-0.10428439,1
2.06,,,,,13.458984,-1.4795992,-0.31535423,0.96309865,0.061813317,-0.05822627,2.1308715,0.3881051,-0.12267937,0.16580307,0.89823925,-8.431563,8.263072,0.12955934,-0.614828,1.0296525,-0.0519076,1
2.07,,,,,13.458984,-1.4795992,-0.31535423,0.96309865,-0.022565685,0.024669312,2.1322918,0.38703415,-0.1281677,0.16450113,0.89817435,-8.444474,8.316084,0.15449311,-0.7497227,0.8198798,-0.0021009399,1
2.0799999999999996,,,,,13.458984,-1.4795992,-0.31535423,0.96309865,-0.10708127,0.10809578,2.1339602,0.3858123,-0.13298558,0.16229443,0.898401,-8.458873,8.369204,0.17921484,-0.863567,0.64281446,0.04526167,1
2.0899999999999994,,,,,14.143934,-1.5653701,-1.4348986,1.0463574,-0.19174808,0.19205283,2.1358755,0.38443437,-0.13723238,0.15932897,0.8988837,-8.474711,8.422164,0.20382799,-0.9596472,0.4933577,0.090300195,1
2.099999999999999,,,,,14.143934,-1.5653701,-1.4348986,1.0463574,-0.27658457,0.2765511,2.138068,0.3829537,-0.14060088,0.15552601,0.8996608,-8.492807,8.477397,0.23467353,-1.054098,0.1926094,0.1372142,1
2.109999999999999,,,,,14.143934,-1.5653701,-1.4348986,1.0463574,-0.36160865,0.36159816,2.1405694,0.38141018,-0.14285146,0.15082996,0.9007609,-8.512201,8.531871,0.26565254,-1.1338067,-0.061239507,0.18182611,1
2.1199999999999988,,,,,14.143934,-1.5653701,-1.4348986,1.0463574,-0.44683248,0.4471848,2.1433818,0.37978187,-0.14415257,0.14538433,0.9021359,-8.532729,8.585264,0.2969067,-1.2010761,-0.27550206,0.2242489,1
2.1299999999999986,,,,,16.398949,-2.5572953,-3.9667437,2.538377,-0.5322667,0.53329885,2.1465087,0.37805086,-0.14464635,0.13930932,0.9037411,-8.554249,8.637306,0.3285503,-1.2578495,-0.45635056,0.26459002,1
2.1399999999999983,,,,,16.398949,-2.5572953,-3.9667437,2.538377,-0.61794287,0.6199767,2.150086,0.37613046,-0.14374799,0.13219672,0.90575194,-8.581044,8.697716,0.38651612,-1.4036312,-0.94719875,0.37106273,1
2.149999999999998,,,,,16.398949,-2.5572953,-3.9667437,2.538377,-0.7038877,0.7072399,2.1542296,0.3739042,-0.14092283,0.12356466,0.9083327,-8.607912,8.754287,0.44187182,-1.5655537,-1.4004531,0.47579157,1
2.159999999999998,,,,,16.398949,-2.5572953,-3.9667437,2.538377,-0.7901012,0.79504955,2.1589217,0.37131742,-0.13636914,0.113455504,0.9114027,-8.634809,8.80709,0.49667656,-1.7199739,-1.8008255,0.57700324,1
2.1699999999999977,,,,,17.80409,-2.428966,-5.532818,2.783744,-0.8765839,0.88336873,2.164168,0.36833256,-0.13032262,0.102063976,0.9148389,-8.661712,8.856095,0.5527379,-1.8502939,-2.1387637,0.6732484,1
