time-since-start [s],throttle_mpc,roll_mpc,pitch_mpc,yaw_mpc,throttle_nw,roll_nw,pitch_nw,yaw_nw,position_x [m],position_y [m],position_z [m],rotation_w [quaternion],rotation_x [quaternion],rotation_y [quaternion],rotation_z [quaternion],velocity_x [m/s],velocity_y [m/s],velocity_z [m/s],omega_x [rad/s],omega_y [rad/s],omega_z [rad/s],network_used
0.0,11.58646197886889,5.999999730361018,-5.999999917004621,-3.939365517118517,11.809055,-1.830928,-3.7314365,-0.15067239,17.107893,-10.418956,2.5647836,0.062529005,-0.4285124,0.28448647,0.85529804,-10.223792,-4.586938,-0.15919648,1.5559855,0.0016125233,-0.4509335,0
0.01,11.58646197886889,5.999999730361018,-5.999999917004621,-3.939365517118517,14.3957,-2.2601504,-4.509172,-0.78537947,17.00506,-10.46436,2.5631027,0.06843903,-0.42793486,0.29023406,0.8532011,-10.342337,-4.493954,-0.17737453,1.6795453,-0.36515656,-0.57119,0
0.02,11.58646197886889,5.999999730361018,-5.999999917004621,-3.939365517118517,14.3957,-2.2601504,-4.509172,-0.78537947,16.901058,-10.508833,2.5612278,0.0756487,-0.42593175,0.2961442,0.8515622,-10.457173,-4.4004664,-0.19795081,1.8192242,-0.71018595,-0.6887134,0
0.03,11.58646197886889,5.999999730361018,-5.999999917004621,-3.939365517118517,14.3957,-2.2601504,-4.509172,-0.78537947,16.795929,-10.552368,2.5591369,0.084153034,-0.42257136,0.30227134,0.8502846,-10.567912,-4.306309,-0.22053356,1.9718769,-1.0362307,-0.8035809,0
0.04,11.58646197886889,5.999999730361018,-5.999999917004621,-3.939365517118517,13.792046,-0.84169096,-4.3669996,-1.200144,16.689716,-10.594957,2.5568116,0.0939419,-0.41790643,0.3086541,0.84927136,-10.674187,-4.211335,-0.24478738,2.1348562,-1.345624,-0.9158666,0
0.05,11.58646197886889,5.999999730361018,-5.999999917004621,-3.939365517118517,13.792046,-0.84169096,-4.3669996,-1.200144,16.582462,-10.636592,2.5542367,0.10500028,-0.41197667,0.3153172,0.8484252,-10.775649,-4.115424,-0.27042654,2.3059354,-1.6403426,-1.0256419,0
0.060000000000000005,11.58646197886889,5.999999730361018,-5.999999917004621,-3.939365517118517,13.792046,-0.84169096,-4.3669996,-1.200144,16.474218,-10.677262,2.5513992,0.11730833,-0.40481073,0.3222734,0.84764796,-10.871961,-4.0184865,-0.29720932,2.4832423,-1.9220619,-1.1329751,0
0.07,11.58646197886889,5.999999730361018,-5.999999917004621,-3.939365517118517,13.792046,-0.84169096,-4.3669996,-1.200144,16.36504,-10.716958,2.5482895,0.13084148,-0.39642835,0.3295248,0.84684044,-10.962799,-3.92047,-0.32493326,2.6652036,-2.192204,-1.237932,0
0.08,13.85437660578948,5.999999855283063,-5.999999950551941,-3.631153898142629,15.0201235,-1.0565726,-5.4678397,-0.122165814,16.254982,-10.755668,2.5448985,0.14557034,-0.38684186,0.33706412,0.84590226,-11.04785,-3.821362,-0.35343128,2.8504977,-2.451975,-1.3405756,0
0.09,13.85437660578948,5.999999855283063,-5.999999950551941,-3.631153898142629,15.0201235,-1.0565726,-5.4678397,-0.122165814,16.144068,-10.793338,2.5412493,0.16163847,-0.3757874,0.34506333,0.8447416,-11.133693,-3.7124205,-0.376532,3.1422057,-2.8067627,-1.4351575,0
0.09999999999999999,13.85437660578948,5.999999855283063,-5.999999950551941,-3.631153898142629,15.0201235,-1.0565726,-5.4678397,-0.122165814,16.032331,-10.829913,2.5373652,0.17916015,-0.3630157,0.35365084,0.8432393,-11.212207,-3.6026175,-0.40038,3.4260578,-3.1439059,-1.5284655,0
0.10999999999999999,13.85437660578948,5.999999855283063,-5.999999950551941,-3.631153898142629,15.0201235,-1.0565726,-5.4678397,-0.122165814,15.91985,-10.865387,2.5332396,0.19805442,-0.34855264,0.36274368,0.84125066,-11.282962,-3.4919965,-0.4248418,3.7021403,-3.4650128,-1.62046,0
0.11999999999999998,13.85437660578948,5.999999855283063,-5.999999950551941,-3.631153898142629,15.0201235,-1.0565726,-5.4678397,-0.122165814,15.806701,-10.899752,2.5288668,0.21823522,-0.33241948,0.37225464,0.83862823,-11.345557,-3.3806913,-0.4498287,3.9705846,-3.7715,-1.7111087,0
0.12999999999999998,18.16641602644031,5.999999899096787,-5.999999963123969,-3.2243863431555524,16.13368,1.1182315,-4.8167377,-1.0557722,15.692968,-10.933001,2.5242417,0.23961073,-0.31463507,0.3820923,0.8352227,-11.399624,-3.2689242,-0.4752945,4.231556,-4.0646186,-1.8003856,0
0.13999999999999999,18.16641602644031,5.999999899096787,-5.999999963123969,-3.2243863431555524,16.13368,1.1182315,-4.8167377,-1.0557722,15.578671,-10.964969,2.519463,0.26209342,-0.2951253,0.39221504,0.8308884,-11.457984,-3.1243603,-0.48018655,4.5067916,-4.3669677,-1.8702618,0
0.15,18.16641602644031,5.999999899096787,-5.999999963123969,-3.2243863431555524,16.13368,1.1182315,-4.8167377,-1.0557722,15.463845,-10.995476,2.5146432,0.28549728,-0.2739471,0.40250537,0.82549006,-11.505542,-2.9768186,-0.48362407,4.7391467,-4.6221256,-1.936709,0
0.16,20.687422640494272,4.647422249084076,-5.9999951958493725,-1.4900017365779148,16.733707,-0.5074577,-5.089938,0.030431973,15.348601,-11.024496,2.5097954,0.3095942,-0.25130093,0.4127766,0.8189108,-11.541479,-2.8268933,-0.48569775,4.935306,-4.837455,-1.9998957,0
0.17,20.687422640494272,4.647422249084076,-5.9999951958493725,-1.4900017365779148,16.733707,-0.5074577,-5.089938,0.030431973,15.23304,-11.051903,2.5050008,0.3338746,-0.22745363,0.4224853,0.8113562,-11.56842,-2.6543047,-0.47303566,4.890257,-5.018614,-1.9748751,0
0.18000000000000002,20.687422640494272,4.647422249084076,-5.9999951958493725,-1.4900017365779148,16.733707,-0.5074577,-5.089938,0.030431973,15.117281,-11.077579,2.5003395,0.35791814,-0.20264648,0.43121645,0.80304515,-11.580983,-2.480952,-0.45901367,4.85227,-5.171536,-1.9510821,0
0.19000000000000003,20.687422640494272,4.647422249084076,-5.9999951958493725,-1.4900017365779148,16.733707,-0.5074577,-5.089938,0.030431973,15.00147,-11.101522,2.495825,0.38165215,-0.17701289,0.43899658,0.7939082,-11.578968,-2.3080003,-0.44369575,4.8202386,-5.300622,-1.9284568,0
0.20000000000000004,19.645388992260965,3.4226519653181198,-4.631495343034468,-1.0882251174644881,16.924683,-1.2341274,-4.0274124,0.19104426,14.885753,-11.123744,2.4914696,0.4050077,-0.15067206,0.44584915,0.78389114,-11.562288,-2.1366193,-0.42720932,4.793227,-5.4095874,-1.9069417,0
0.21000000000000005,19.645388992260965,3.4226519653181198,-4.631495343034468,-1.0882251174644881,16.924683,-1.2341274,-4.0274124,0.19104426,14.7702675,-11.144307,2.487255,0.42757356,-0.12434135,0.45165434,0.773129,-11.532608,-1.9764535,-0.41556057,4.5797763,-5.2878585,-1.8667669,0
0.22000000000000006,19.645388992260965,3.4226519653181198,-4.631495343034468,-1.0882251174644881,16.924683,-1.2341274,-4.0274124,0.19104426,14.655146,-11.163284,2.4831607,0.4490519,-0.09861073,0.45637116,0.76180947,-11.4896145,-1.8198341,-0.40319976,4.399577,-5.18517,-1.8285636,0
0.23000000000000007,19.645388992260965,3.4226519653181198,-4.631495343034468,-1.0882251174644881,16.924683,-1.2341274,-4.0274124,0.19104426,14.540518,-11.180718,2.4791927,0.46953368,-0.073404014,0.4601203,0.74995947,-11.433967,-1.6676044,-0.39034995,4.24745,-5.098543,-1.792235,0
0.24000000000000007,19.645388992260965,3.4226519653181198,-4.631495343034468,-1.0882251174644881,16.482801,-2.1119018,-2.7098136,0.08016716,14.426507,-11.196654,2.4753547,0.4890927,-0.048655786,0.46300045,0.73759836,-11.366305,-1.520525,-0.37722626,4.1190214,-5.025465,-1.757689,0
0.25000000000000006,19.645388992260965,3.4226519653181198,-4.631495343034468,-1.0882251174644881,16.482801,-2.1119018,-2.7098136,0.08016716,14.31323,-11.211148,2.4716485,0.50778866,-0.024310788,0.46509236,0.7247404,-11.28726,-1.3792862,-0.36403826,4.0106,-4.9638157,-1.7248383,0
0.26000000000000006,19.645388992260965,3.4226519653181198,-4.631495343034468,-1.0882251174644881,16.482801,-2.1119018,-2.7098136,0.08016716,14.200797,-11.224262,2.4680736,0.5256692,-0.00032308558,0.46646202,0.7113963,-11.197449,-1.2445182,-0.3509919,3.919068,-4.911808,-1.6935995,0
0.2700000000000001,19.645388992260965,3.4226519653181198,-4.631495343034468,-1.0882251174644881,16.482801,-2.1119018,-2.7098136,0.08016716,14.089315,-11.236064,2.4646273,0.54277277,0.023344822,0.4671636,0.6975748,-11.097485,-1.116798,-0.33829063,3.841795,-4.867934,-1.6638936,0
0.2800000000000001,18.609487623008167,1.9196953503901815,-2.784445834238688,-0.7010484118042659,15.646387,-2.3429773,-1.8891398,0.17011349,13.978881,-11.246625,2.4613056,0.55912966,0.04672288,0.46724156,0.6832833,-10.987974,-0.99665564,-0.32613626,3.776559,-4.830921,-1.6356453,0
0.2900000000000001,18.609487623008167,1.9196953503901815,-2.784445834238688,-0.7010484118042659,15.646387,-2.3429773,-1.8891398,0.17011349,13.869555,-11.256054,2.458073,0.5744291,0.069016956,0.46674892,0.6688894,-10.875831,-0.89043254,-0.3204958,3.4874578,-4.511362,-1.5897843,0
0.3000000000000001,18.609487623008167,1.9196953503901815,-2.784445834238688,-0.7010484118042659,15.646387,-2.3429773,-1.8891398,0.17011349,13.76139,-11.264459,2.4548926,0.5884796,0.089608304,0.46578425,0.65475714,-10.756207,-0.79183304,-0.31568137,3.243366,-4.241705,-1.5461736,0
0.3100000000000001,18.609487623008167,1.9196953503901815,-2.784445834238688,-0.7010484118042659,15.646387,-2.3429773,-1.8891398,0.17011349,13.654454,-11.271915,2.451756,0.60145754,0.10875685,0.46443343,0.64087605,-10.630021,-0.700753,-0.31177396,3.037278,-4.0141563,-1.504703,0
0.3200000000000001,17.395900313396115,-0.2814731517643321,-0.6461278527464529,1.0221850489918904,15.986763,-3.6497462,-0.15990706,0.9016484,13.54881,-11.2785,2.4486537,0.6135066,0.12668343,0.46276054,0.6272267,-10.49806,-0.61707705,-0.3088315,2.8632782,-3.8221395,-1.4652674,0
0.3300000000000001,17.395900313396115,-0.2814731517643321,-0.6461278527464529,1.0221850489918904,15.986763,-3.6497462,-0.15990706,0.9016484,13.444467,-11.2843075,2.4455433,0.62434363,0.14259945,0.46077487,0.6144483,-10.370002,-0.5455978,-0.31339654,2.3735955,-3.3261838,-1.3432075,0
0.34000000000000014,17.395900313396115,-0.2814731517643321,-0.6461278527464529,1.0221850489918904,15.986763,-3.6497462,-0.15990706,0.9016484,13.341423,-11.289433,2.4423833,0.6337927,0.15591545,0.4585275,0.60311645,-10.238147,-0.48025882,-0.31874374,1.9601265,-2.907719,-1.2271371,0
0.35000000000000014,17.395900313396115,-0.2814731517643321,-0.6461278527464529,1.0221850489918904,15.986763,-3.6497462,-0.15990706,0.9016484,13.239713,-11.293932,2.4391663,0.642093,0.16707058,0.45610365,0.5931047,-10.103319,-0.42036232,-0.32468596,1.6110176,-2.5546288,-1.1167623,0
0.36000000000000015,18.312356823254774,-3.0075538579221353,2.6589823928125305,2.2006882035190984,18.410686,-4.750562,2.28839,2.8220506,13.139363,-11.297856,2.4358878,0.6494332,0.17643322,0.4535599,0.58428663,-9.96617,-0.36528188,-0.33104607,1.3162568,-2.2566938,-1.0118035,0
0.37000000000000016,18.312356823254774,-3.0075538579221353,2.6589823928125305,2.2006882035190984,18.410686,-4.750562,2.28839,2.8220506,13.040431,-11.301239,2.4325686,0.65548277,0.18290004,0.45114106,0.57737446,-9.819956,-0.31166318,-0.33281544,0.6426237,-1.4895831,-0.8541656,0
0.38000000000000017,18.312356823254774,-3.0075538579221353,2.6589823928125305,2.2006882035190984,18.410686,-4.750562,2.28839,2.8220506,12.942967,-11.304101,2.429232,0.66000366,0.18562864,0.44906288,0.57295674,-9.672723,-0.26107767,-0.33449328,0.07382643,-0.84229,-0.7042631,0
0.3900000000000002,18.312356823254774,-3.0075538579221353,2.6589823928125305,2.2006882035190984,18.410686,-4.750562,2.28839,2.8220506,12.846978,-11.306466,2.4258804,0.6632313,0.18524626,0.44729844,0.5707293,-9.525223,-0.21213004,-0.335732,-0.4064324,-0.2960836,-0.5617164,0
0.4000000000000002,20.610827250650885,-4.7916936521903475,5.109803295920727,2.422898750614054,19.575333,-6.0220127,4.6360445,3.4491587,12.752461,-11.308345,2.4225202,0.66533643,0.1822726,0.44580242,0.5704069,-9.378059,-0.16362591,-0.3362383,-0.81191933,0.1648356,-0.42616445,0
0.4100000000000002,20.610827250650885,-4.7916936521903475,5.109803295920727,2.422898750614054,19.575333,-6.0220127,4.6360445,3.4491587,12.659505,-11.309706,2.4192212,0.6661174,0.1761155,0.44476056,0.5722401,-9.213413,-0.108290635,-0.3233892,-1.4324301,0.9360453,-0.28636009,0
0.4200000000000002,20.610827250650885,-4.7916936521903475,5.109803295920727,2.422898750614054,19.575333,-6.0220127,4.6360445,3.4491587,12.568186,-11.310502,2.4160573,0.665381,0.16631676,0.4442928,0.57637703,-9.050541,-0.050583646,-0.30914128,-1.9563183,1.5868711,-0.15341595,0
0.4300000000000002,20.610827250650885,-4.7916936521903475,5.109803295920727,2.422898750614054,19.575333,-6.0220127,4.6360445,3.4491587,12.478484,-11.310703,2.4130437,0.6632351,0.15345082,0.44424853,0.5824216,-8.890259,0.01104809,-0.29327166,-2.3986118,2.1361187,-0.026995448,0
0.4400000000000002,20.610827250650885,-4.7916936521903475,5.109803295920727,2.422898750614054,20.001408,-6.7931314,5.4262447,2.7698321,12.390369,-11.310263,2.4101977,0.65974927,0.13799883,0.44448555,0.5900166,-8.733346,0.07787661,-0.27566084,-2.772005,2.5996537,0.093221575,0
0.45000000000000023,20.610827250650885,-4.7916936521903475,5.109803295920727,2.422898750614054,20.001408,-6.7931314,5.4262447,2.7698321,12.303804,-11.309124,2.4075365,0.6549693,0.120367035,0.44487464,0.5988434,-8.580574,0.1509218,-0.25628653,-3.0872192,2.9908624,0.2075395,0
0.46000000000000024,20.610827250650885,-4.7916936521903475,5.109803295920727,2.422898750614054,20.001408,-6.7931314,5.4262447,2.7698321,12.218741,-11.30722,2.4050777,0.6489272,0.100900926,0.44530147,0.60862046,-8.432712,0.23097646,-0.23521468,-3.3533096,3.3210375,0.3162478,0
0.47000000000000025,20.610827250650885,-4.7916936521903475,5.109803295920727,2.422898750614054,20.001408,-6.7931314,5.4262447,2.7698321,12.13513,-11.304479,2.4028375,0.641648,0.07989651,0.445667,0.6191002,-8.290531,0.31862813,-0.21258916,-3.5779238,3.599708,0.41962174,0
0.48000000000000026,20.465548239052946,-5.091564239298461,5.547608618113222,2.237195000835672,19.526981,-6.5083203,5.509365,2.3482814,12.052908,-11.300819,2.4008307,0.63315314,0.057609066,0.44588682,0.63006586,-8.154802,0.41427806,-0.18862136,-3.7675197,3.8349142,0.5179231,0
0.49000000000000027,20.465548239052946,-5.091564239298461,5.547608618113222,2.237195000835672,19.526981,-6.5083203,5.509365,2.3482814,11.972003,-11.296166,2.3990648,0.62340367,0.034063004,0.44592386,0.6413729,-8.027205,0.5174414,-0.16444904,-3.974318,4.10172,0.6022883,0
0.5000000000000002,20.465548239052946,-5.091564239298461,5.547608618113222,2.237195000835672,19.526981,-6.5083203,5.509365,2.3482814,11.892336,-11.290441,2.3975444,0.6123628,0.009292847,0.4457351,0.65287465,-7.90761,0.6289672,-0.13953839,-4.148866,4.3269205,0.68251365,0
0.5100000000000002,20.465548239052946,-5.091564239298461,5.547608618113222,2.237195000835672,19.526981,-6.5083203,5.509365,2.3482814,11.813821,-11.283558,2.3962753,0.60005635,-0.01647878,0.44524813,0.6643904,-7.796841,0.7488919,-0.11426863,-4.296188,4.517008,0.7588023,0
0.5200000000000002,19.02104971101583,-4.469301856048773,4.79689492746515,1.94105347104115,19.547062,-6.696699,5.454524,1.9866683,11.736365,-11.2754345,2.3952587,0.5865119,-0.043055605,0.44440353,0.67576265,-7.695694,0.87709147,-0.08906038,-4.4205265,4.6774592,0.83134747,0
0.5300000000000002,19.02104971101583,-4.469301856048773,4.79689492746515,1.94105347104115,19.547062,-6.696699,5.454524,1.9866683,11.659838,-11.266035,2.3944488,0.57193553,-0.069931485,0.4431501,0.68674374,-7.6113014,1.0036625,-0.07302923,-4.42831,4.695924,0.8858011,0
0.5400000000000003,19.02104971101583,-4.469301856048773,4.79689492746515,1.94105347104115,19.547062,-6.696699,5.454524,1.9866683,11.584104,-11.255337,2.3937953,0.55653,-0.09669425,0.44146907,0.697158,-7.5369964,1.1371601,-0.057880193,-4.4348702,4.711517,0.93758255,0
0.5500000000000003,19.02104971101583,-4.469301856048773,4.79689492746515,1.94105347104115,19.547062,-6.696699,5.454524,1.9866683,11.509061,-11.243271,2.393287,0.54031926,-0.123309,0.43935964,0.7069743,-7.4731526,1.2769978,-0.044008877,-4.4403996,4.7246857,0.9868232,0
0.5600000000000003,16.335071403421907,-3.2349443791921937,3.1640952091182113,1.584020401239824,18.875614,-6.7187138,4.6887035,2.370742,11.434604,-11.229776,2.3929093,0.5233281,-0.14974223,0.43682215,0.71616405,-7.420101,1.4225518,-0.03180133,-4.445059,4.735808,1.0336477,0
0.5700000000000003,16.335071403421907,-3.2349443791921937,3.1640952091182113,1.584020401239824,18.875614,-6.7187138,4.6887035,2.370742,11.360591,-11.214908,2.3925674,0.50598586,-0.17525832,0.43387622,0.7245784,-7.3840027,1.5518713,-0.03690492,-4.256256,4.490752,1.0606546,0
0.5800000000000003,16.335071403421907,-3.2349443791921937,3.1640952091182113,1.584020401239824,18.875614,-6.7187138,4.6887035,2.370742,11.286892,-11.198727,2.392165,0.48868927,-0.19928853,0.4305832,0.7321643,-7.3572216,1.6847796,-0.043934226,-4.096912,4.283902,1.0863364,0
0.5900000000000003,16.335071403421907,-3.2349443791921937,3.1640952091182113,1.584020401239824,18.875614,-6.7187138,4.6887035,2.370742,11.213414,-11.181202,2.3916817,0.4714118,-0.22202906,0.4269946,0.73901916,-7.339509,1.8205692,-0.053018466,-3.9624305,4.1093006,1.1107578,0
0.6000000000000003,14.440134105817666,-1.5935255497980068,1.311319526991448,1.2427045784740594,16.216978,-5.804826,4.4075146,2.0359182,11.14007,-11.162308,2.3910968,0.45412695,-0.24364582,0.42314884,0.7452182,-7.330631,1.9586068,-0.064264596,-3.848933,3.96192,1.1339809,0
0.6100000000000003,14.440134105817666,-1.5935255497980068,1.311319526991448,1.2427045784740594,16.216978,-5.804826,4.4075146,2.0359182,11.0667715,-11.142106,2.3903394,0.43732664,-0.26345256,0.41923046,0.7507221,-7.3303375,2.082102,-0.08755799,-3.4969108,3.5488079,1.1393158,0
0.6200000000000003,14.440134105817666,-1.5935255497980068,1.311319526991448,1.2427045784740594,16.216978,-5.804826,4.4075146,2.0359182,10.99344,-11.120664,2.3893394,0.42144185,-0.2809409,0.41542697,0.75556546,-7.3370194,2.2065556,-0.11275643,-3.199831,3.2000823,1.1443893,0
0.6300000000000003,14.440134105817666,-1.5935255497980068,1.311319526991448,1.2427045784740594,16.216978,-5.804826,4.4075146,2.0359182,10.920009,-11.097974,2.3880785,0.40635726,-0.29647735,0.41175848,0.759888,-7.350052,2.3315425,-0.13974321,-2.9491189,2.905708,1.1492136,0
0.6400000000000003,14.440134105817666,-1.5935255497980068,1.311319526991448,1.2427045784740594,14.421816,-4.8052735,3.916397,1.1712725,10.846418,-11.074033,2.3865392,0.3919653,-0.3103691,0.4082314,0.7637939,-7.3688946,2.4567294,-0.16840088,-2.7375371,2.6572144,1.1538012,0
0.6500000000000004,14.440134105817666,-1.5935255497980068,1.311319526991448,1.2427045784740594,14.421816,-4.8052735,3.916397,1.1712725,10.772614,-11.0488405,2.3847053,0.3781683,-0.32287347,0.4048432,0.76736116,-7.3930836,2.5818539,-0.19861674,-2.5589788,2.4474497,1.1581638,0
0.6600000000000004,14.440134105817666,-1.5935255497980068,1.311319526991448,1.2427045784740594,14.421816,-4.8052735,3.916397,1.1712725,10.698541,-11.022397,2.3825617,0.36487886,-0.33420575,0.4015858,0.7706481,-7.42222,2.7067049,-0.23028582,-2.4082897,2.2703779,1.1623123,0
0.6700000000000004,14.440134105817666,-1.5935255497980068,1.311319526991448,1.2427045784740594,14.421816,-4.8052735,3.916397,1.1712725,10.624153,-10.994708,2.3800948,0.3520198,-0.3445461,0.39844778,0.7736984,-7.4559627,2.831111,-0.26331228,-2.28112,2.1209035,1.1662571,0
0.6800000000000004,14.620296477437766,-0.08492998169455739,-0.3706239196133632,0.8548861858387874,13.954255,-3.9633322,3.304639,0.39198965,10.549406,-10.965777,2.3772914,0.33952352,-0.35404536,0.39541617,0.7765446,-7.4940176,2.9549305,-0.29760978,-2.1737988,1.9947251,1.1700084,0
0.6900000000000004,14.620296477437766,-0.08492998169455739,-0.3706239196133632,0.8548861858387874,13.954255,-3.9633322,3.304639,0.39198965,10.474256,-10.935604,2.3741426,0.32785267,-0.36212596,0.39270756,0.7792034,-7.5366035,3.0795882,-0.33229873,-1.8477434,1.6261173,1.1545453,0
0.7000000000000004,14.620296477437766,-0.08492998169455739,-0.3706239196133632,0.8548861858387874,13.954255,-3.9633322,3.304639,0.39198965,10.398663,-10.904188,2.370642,0.3173879,-0.36835536,0.39051017,0.7817166,-7.5826697,3.2034996,-0.3679629,-1.5725869,1.3149486,1.1398408,0
0.7100000000000004,14.620296477437766,-0.08492998169455739,-0.3706239196133632,0.8548861858387874,13.954255,-3.9633322,3.304639,0.39198965,10.322594,-10.871537,2.3667808,0.30796003,-0.37304077,0.38876656,0.7841311,-7.631627,3.3266757,-0.40437368,-1.340383,1.0522691,1.1258581,0
0.7200000000000004,14.8932134095839,1.1813493705055147,-1.9078445438144023,0.5253298448294017,13.615674,-2.6456835,1.9485959,-0.5822129,10.246023,-10.837657,2.3625526,0.29942122,-0.37643677,0.38742152,0.7864774,-7.68298,3.4491484,-0.44133338,-1.1444259,0.8305234,1.1125613,0
0.7300000000000004,14.8932134095839,1.1813493705055147,-1.9078445438144023,0.5253298448294017,13.615674,-2.6456835,1.9485959,-0.5822129,10.168923,-10.802546,2.3579583,0.29210567,-0.3781373,0.38662615,0.7888006,-7.737262,3.573247,-0.47751787,-0.78140545,0.40375426,1.0837457,0
0.7400000000000004,14.8932134095839,1.1813493705055147,-1.9078445438144023,0.5253298448294017,13.615674,-2.6456835,1.9485959,-0.5822129,10.091273,-10.766193,2.3530016,0.2862765,-0.37783656,0.38650113,0.7911396,-7.7928457,3.6968105,-0.51378614,-0.47505966,0.043486662,1.0563442,0
0.7500000000000004,14.8932134095839,1.1813493705055147,-1.9078445438144023,0.5253298448294017,13.615674,-2.6456835,1.9485959,-0.5822129,10.013063,-10.728609,2.347683,0.28171593,-0.3758597,0.38695207,0.79349446,-7.849076,3.8199854,-0.5498628,-0.21653846,-0.2606408,1.030287,0
0.7600000000000005,15.557645998163999,2.025311205667207,-3.1218335505148715,0.19985234977818142,12.51243,-1.146231,1.0095423,-1.1419287,9.934292,-10.689795,2.3420055,0.27823603,-0.3724755,0.38789272,0.7958553,-7.905397,3.9429078,-0.58552223,0.0016254634,-0.5173749,1.0055085,0
0.7700000000000005,15.557645998163999,2.025311205667207,-3.1218335505148715,0.19985234977818142,12.51243,-1.146231,1.0095423,-1.1419287,9.854945,-10.649725,2.3359885,0.27602088,-0.36744153,0.38936475,0.79824436,-7.9637976,4.071183,-0.61775273,0.3174607,-0.9233398,0.9659748,0
0.7800000000000005,15.557645998163999,2.025311205667207,-3.1218335505148715,0.19985234977818142,12.51243,-1.146231,1.0095423,-1.1419287,9.77502,-10.608372,2.3296535,0.27520734,-0.36057335,0.39139104,0.80066264,-8.021103,4.199483,-0.64907736,0.5839839,-1.26604,0.9283809,0
0.7900000000000005,15.557645998163999,2.025311205667207,-3.1218335505148715,0.19985234977818142,12.51243,-1.146231,1.0095423,-1.1419287,9.69453,-10.565735,2.323011,0.27558023,-0.352152,0.39387107,0.8030628,-8.076674,4.327945,-0.67925954,0.80889714,-1.5553327,0.8926318,0
0.8000000000000005,16.542713876807788,2.2624579718231965,-3.7430316696745844,-0.13282697144023328,11.68235,-0.008678829,0.38260356,-1.2848641,9.613494,-10.5218115,2.316073,0.27695498,-0.34241155,0.3967154,0.8053986,-8.129957,4.4566717,-0.7081223,0.9986985,-1.7995394,0.858637,0
0.8100000000000005,16.542713876807788,2.2624579718231965,-3.7430316696745844,-0.13282697144023328,11.68235,-0.008678829,0.38260356,-1.2848641,9.531923,-10.476558,2.308876,0.27933717,-0.33133692,0.39983845,0.8076606,-8.183654,4.5938997,-0.73105377,1.1958842,-2.1025531,0.8099856,0
0.8200000000000005,16.542713876807788,2.2624579718231965,-3.7430316696745844,-0.13282697144023328,11.68235,-0.008678829,0.38260356,-1.2848641,9.449833,-10.429931,2.3014581,0.28272343,-0.3189243,0.40316093,0.80982447,-8.233836,4.731512,-0.7522815,1.3622799,-2.3583379,0.76372147,0
0.8300000000000005,16.542713876807788,2.2624579718231965,-3.7430316696745844,-0.13282697144023328,11.68235,-0.008678829,0.38260356,-1.2848641,9.367261,-10.381926,2.2938366,0.28695437,-0.30536994,0.406618,0.81183,-8.279989,4.869502,-0.77168524,1.5026962,-2.574253,0.7197275,0
0.8400000000000005,16.542713876807788,2.2624579718231965,-3.7430316696745844,-0.13282697144023328,12.963525,0.20124254,-0.48008987,-1.1752651,9.284248,-10.33254,2.2860305,0.29189327,-0.29083967,0.41015336,0.8136244,-8.321661,5.0078254,-0.789198,1.6211914,-2.7565122,0.6778924,0
0.8500000000000005,16.542713876807788,2.2624579718231965,-3.7430316696745844,-0.13282697144023328,12.963525,0.20124254,-0.48008987,-1.1752651,9.200845,-10.281768,2.278059,0.2974227,-0.27547443,0.4137187,0.8151627,-8.358457,5.146403,-0.8047984,1.7211893,-2.9103596,0.63811016,0
0.8600000000000005,16.542713876807788,2.2624579718231965,-3.7430316696745844,-0.13282697144023328,12.963525,0.20124254,-0.48008987,-1.1752651,9.117099,-10.229611,2.2699409,0.30344188,-0.25939453,0.41727272,0.81640726,-8.390035,5.2851253,-0.81850374,1.805579,-3.0402236,0.60028005,0
0.8700000000000006,16.542713876807788,2.2624579718231965,-3.7430316696745844,-0.13282697144023328,12.963525,0.20124254,-0.48008987,-1.1752651,9.033065,-10.176066,2.2616954,0.30986416,-0.24270293,0.42078048,0.81732684,-8.416097,5.423858,-0.83036405,1.876798,-3.149842,0.56430626,0
0.8800000000000006,16.632499891356172,1.870840486296105,-3.8071458654814285,-0.3249904285018357,13.785127,-0.0852584,-0.7428301,-1.0004938,8.948797,-10.121135,2.25334,0.31661502,-0.22548822,0.42421252,0.8178959,-8.436388,5.5624447,-0.8404573,1.9369034,-3.2423708,0.5300978,0
0.8900000000000006,16.632499891356172,1.870840486296105,-3.8071458654814285,-0.3249904285018357,13.785127,-0.0852584,-0.7428301,-1.0004938,8.864357,-10.0648155,2.2448945,0.32362634,-0.20786601,0.42740282,0.81815916,-8.450777,5.701455,-0.84839034,1.9265403,-3.3305035,0.48813838,0
0.9000000000000006,16.632499891356172,1.870840486296105,-3.8071458654814285,-0.3249904285018357,13.785127,-0.0852584,-0.7428301,-1.0004938,8.779803,-10.007109,2.2363777,0.33084667,-0.18993692,0.43021983,0.81815356,-8.459016,5.8399086,-0.8547103,1.9177891,-3.4048884,0.4482379,0
0.9100000000000006,16.632499891356172,1.870840486296105,-3.8071458654814285,-0.3249904285018357,13.785127,-0.0852584,-0.7428301,-1.0004938,8.695198,-9.94802,2.2278056,0.33823776,-0.17175151,0.43268746,0.8178497,-8.461003,5.9775624,-0.85949326,1.9104002,-3.4676697,0.4102954,0
0.9200000000000006,16.917502324597677,0.9540454904928263,-3.3539820021267426,-0.4432211991453881,14.042273,-0.74938077,-0.57838076,-0.79529524,8.610604,-9.887561,2.2191927,0.34576526,-0.15335351,0.43482652,0.81722385,-8.456662,6.114174,-0.8628355,1.9041623,-3.5206575,0.3742147,0
0.9300000000000006,16.917502324597677,0.9540454904928263,-3.3539820021267426,-0.4432211991453881,14.042273,-0.74938077,-0.57838076,-0.79529524,8.526087,-9.825729,2.2105618,0.35327896,-0.13506368,0.4364184,0.8163887,-8.445782,6.251815,-0.86319417,1.7558945,-3.494747,0.33410287,0
0.9400000000000006,16.917502324597677,0.9540454904928263,-3.3539820021267426,-0.4432211991453881,14.042273,-0.74938077,-0.57838076,-0.79529524,8.44171,-9.762529,2.2019334,0.3606716,-0.11714518,0.43730092,0.81545115,-8.428589,6.3878746,-0.8622543,1.6307558,-3.4728625,0.29595938,0
0.9500000000000006,16.917502324597677,0.9540454904928263,-3.3539820021267426,-0.4432211991453881,14.042273,-0.74938077,-0.57838076,-0.79529524,8.357536,-9.697977,2.193321,0.36797062,-0.09955415,0.43756658,0.8143843,-8.40528,6.5220985,-0.86006695,1.5251377,-3.4543798,0.25968757,0
0.9600000000000006,16.77051211473109,-0.25420414817458575,-2.5798994132910633,-0.39443826967131373,14.880275,-1.821071,-0.25137886,-0.5833038,8.273624,-9.632093,2.184736,0.375196,-0.08225271,0.4372934,0.8131646,-8.376034,6.654252,-0.85669243,1.4359963,-3.43877,0.22519565,0
0.9700000000000006,16.77051211473109,-0.25420414817458575,-2.5798994132910633,-0.39443826967131373,14.880275,-1.821071,-0.25137886,-0.5833038,8.190033,-9.564906,2.1761863,0.38218683,-0.065640315,0.43627435,0.8119661,-8.341353,6.78299,-0.85307807,1.1723251,-3.3048918,0.19479002,0
0.9800000000000006,16.77051211473109,-0.25420414817458575,-2.5798994132910633,-0.39443826967131373,14.880275,-1.821071,-0.25137886,-0.5833038,8.106815,-9.496443,2.1676784,0.388831,-0.05003551,0.43436104,0.8109483,-8.3014,6.909273,-0.84832495,0.9497838,-3.191876,0.16587642,0
0.9900000000000007,16.77051211473109,-0.25420414817458575,-2.5798994132910633,-0.39443826967131373,14.880275,-1.821071,-0.25137886,-0.5833038,8.024021,-9.426729,2.1592238,0.39520365,-0.035297338,0.4316916,0.81006813,-8.256611,7.0329432,-0.84239453,0.76195663,-3.0964725,0.13838163,0
1.0000000000000007,16.504812444289037,-1.5033691757190952,-1.501384309501273,-0.2271054462999831,15.426618,-3.2424457,-0.0017522154,-0.18991266,7.9416976,-9.355794,2.1508348,0.40136373,-0.021304756,0.42838064,0.8092856,-8.207358,7.1538653,-0.8352573,0.60342824,-3.015938,0.112236015,0
1.0100000000000007,16.504812444289037,-1.5033691757190952,-1.501384309501273,-0.2271054462999831,15.426618,-3.2424457,-0.0017522154,-0.18991266,7.859884,-9.283672,2.1425147,0.4071497,-0.008496058,0.424296,0.8087829,-8.154858,7.270062,-0.82856685,0.27482685,-2.7797716,0.09558442,0
1.0200000000000007,16.504812444289037,-1.5033691757190952,-1.501384309501273,-0.2271054462999831,15.426618,-3.2424457,-0.0017522154,-0.18991266,7.7786126,-9.2104025,2.1342683,0.41244692,0.0027861872,0.4193468,0.8087199,-8.098903,7.3834114,-0.8205531,-0.002520986,-2.5804253,0.07974994,0
1.0300000000000007,16.504812444289037,-1.5033691757190952,-1.501384309501273,-0.2271054462999831,15.426618,-3.2424457,-0.0017522154,-0.18991266,7.697916,-9.136013,2.126109,0.41735598,0.012768103,0.41367397,0.80902696,-8.040068,7.49391,-0.81109774,-0.23660995,-2.4121592,0.06469246,0
1.0400000000000007,16.504812444289037,-1.5033691757190952,-1.501384309501273,-0.2271054462999831,15.818968,-4.096289,0.29132512,0.26513344,7.6178193,-9.0605345,2.1180515,0.421956,0.021642383,0.4073928,0.8096392,-7.978838,7.601556,-0.8000976,-0.43418756,-2.2701287,0.05037385,0
1.0500000000000007,16.504812444289037,-1.5033691757190952,-1.501384309501273,-0.2271054462999831,15.818968,-4.096289,0.29132512,0.26513344,7.5383453,-8.983992,2.1101122,0.42630917,0.029573046,0.4005983,0.8104978,-7.915624,7.706352,-0.7874658,-0.600949,-2.1502435,0.036757864,0
1.0600000000000007,16.504812444289037,-1.5033691757190952,-1.501384309501273,-0.2271054462999831,15.818968,-4.096289,0.29132512,0.26513344,7.4595118,-8.906416,2.1023078,0.43046436,0.036699586,0.39336902,0.81155044,-7.8507752,7.808299,-0.773132,-0.74170077,-2.0490515,0.023810022,0
1.0700000000000007,16.504812444289037,-1.5033691757190952,-1.501384309501273,-0.2271054462999831,15.818968,-4.096289,0.29132512,0.26513344,7.3813343,-8.827835,2.0946555,0.43446,0.043140583,0.38577017,0.8127512,-7.7845893,7.9073935,-0.75704116,-0.8604997,-1.963638,0.011497526,0
1.0800000000000007,16.401619445838598,-2.375290532885769,-0.5099029856879645,-0.012231836765817855,15.886868,-4.319817,0.44212332,0.36375582,7.303824,-8.748278,2.087173,0.43832636,0.048996806,0.37785608,0.8140601,-7.7173214,8.003631,-0.7391526,-0.9607697,-1.891543,-0.00021080207,0
1.0900000000000007,16.401619445838598,-2.375290532885769,-0.5099029856879645,-0.012231836765817855,15.886868,-4.319817,0.44212332,0.36375582,7.2269883,-8.667775,2.079875,0.44193462,0.053887375,0.3695614,0.81560653,-7.6496525,8.096431,-0.7201659,-1.1813642,-1.6760767,-0.00080068747,0
1.1000000000000008,16.401619445838598,-2.375290532885769,-0.5099029856879645,-0.012231836765817855,15.886868,-4.319817,0.44212332,0.36375582,7.150832,-8.586358,2.072776,0.44518656,0.05751458,0.3608382,0.81749403,-7.58158,8.186474,-0.6992756,-1.3675568,-1.4942119,-0.0013616228,0
1.1100000000000008,16.401619445838598,-2.375290532885769,-0.5099029856879645,-0.012231836765817855,15.886868,-4.319817,0.44212332,0.36375582,7.075357,-8.504055,2.065896,0.44814205,0.060069874,0.35175025,0.8196535,-7.5135307,8.273851,-0.67640066,-1.5247126,-1.3407089,-0.0018950272,0
1.1200000000000008,16.32366359769462,-2.996642604577036,0.4871215144800361,0.2052741490898855,15.997927,-4.7517266,1.0343685,0.8161447,7.0005608,-8.420891,2.059255,0.4508482,0.061715465,0.34235004,0.82202387,-7.4458675,8.358634,-0.6514802,-1.6573598,-1.2111444,-0.002402255,0
1.1300000000000008,16.32366359769462,-2.996642604577036,0.4871215144800361,0.2052741490898855,15.997927,-4.7517266,1.0343685,0.8161447,6.926436,-8.336893,2.0528703,0.45320025,0.06215734,0.33265495,0.8246735,-7.379248,8.440501,-0.6250617,-1.8662136,-0.94631284,0.007788486,0
1.1400000000000008,16.32366359769462,-2.996642604577036,0.4871215144800361,0.2052741490898855,15.997927,-4.7517266,1.0343685,0.8161447,6.852972,-8.252089,2.0467608,0.45511565,0.061169114,0.32268003,0.82765055,-7.3138146,8.520006,-0.5965019,-2.0425,-0.72278327,0.01747916,0
1.1500000000000008,16.32366359769462,-2.996642604577036,0.4871215144800361,0.2052741490898855,15.997927,-4.7517266,1.0343685,0.8161447,6.7801547,-8.166501,2.0409477,0.45665592,0.05896907,0.31246108,0.83087647,-7.2500224,8.597298,-0.5657546,-2.191297,-0.534114,0.026694307,0
1.1600000000000008,16.14002489009126,-3.257149948494836,1.1840703953398648,0.4204871054595553,16.473051,-4.7534866,1.2584202,1.4586508,6.7079654,-8.080151,2.0354533,0.4578697,0.055742074,0.30202737,0.8342824,-7.1882606,8.672495,-0.53279704,-2.3168907,-0.3748684,0.03545727,0
1.1700000000000008,16.14002489009126,-3.257149948494836,1.1840703953398648,0.4204871054595553,16.473051,-4.7534866,1.2584202,1.4586508,6.636379,-7.9930625,2.0302918,0.45869547,0.05137196,0.2914422,0.8378666,-7.129552,8.744875,-0.4991273,-2.4635274,-0.13178636,0.054350805,0
1.1800000000000008,16.14002489009126,-3.257149948494836,1.1840703953398648,0.4204871054595553,16.473051,-4.7534866,1.2584202,1.4586508,6.5653653,-7.9052596,2.0254781,0.45908263,0.045774817,0.28075564,0.8416197,-7.0736027,8.815435,-0.463288,-2.5873003,0.073386185,0.07231721,0
1.1900000000000008,16.14002489009126,-3.257149948494836,1.1840703953398648,0.4204871054595553,16.473051,-4.7534866,1.2584202,1.4586508,6.494896,-7.816759,2.0210335,0.45908,0.0391391,0.26997215,0.84547514,-7.020793,8.8843155,-0.42531672,-2.6917737,0.24656194,0.08940199,0
1.2000000000000008,16.04260881189522,-3.1352988570368563,1.5990524486752706,0.5771447316040915,16.868254,-4.605723,1.3699493,2.225259,6.4249377,-7.7275777,2.016979,0.45872664,0.03162475,0.25909555,0.8493755,-6.9714513,8.951619,-0.3852712,-2.7799566,0.39273125,0.10564843,0
1.2100000000000009,16.04260881189522,-3.1352988570368563,1.5990524486752706,0.5771447316040915,16.868254,-4.605723,1.3699493,2.225259,6.3554525,-7.6377335,2.0133307,0.45799375,0.023253722,0.24824636,0.8532727,-6.9261417,9.017035,-0.34407753,-2.8353937,0.5808098,0.1287849,0
1.2200000000000009,16.04260881189522,-3.1352988570368563,1.5990524486752706,0.5771447316040915,16.868254,-4.605723,1.3699493,2.225259,6.2864013,-7.5472417,2.0101037,0.45685947,0.014050987,0.23752114,0.85712606,-6.88484,9.081091,-0.30101913,-2.8821874,0.73955894,0.15078604,0
1.2300000000000009,16.04260881189522,-3.1352988570368563,1.5990524486752706,0.5771447316040915,16.868254,-4.605723,1.3699493,2.225259,6.217742,-7.4561157,2.007316,0.45536128,0.0041465154,0.2268909,0.8609,-6.847788,9.143898,-0.25623077,-2.921685,0.8735528,0.17170759,0
1.2400000000000009,16.04260881189522,-3.1352988570368563,1.5990524486752706,0.5771447316040915,16.963362,-4.398825,1.2729319,2.6327376,6.1494308,-7.364368,2.0049844,0.4535299,-0.006349014,0.21633165,0.86456364,-6.815196,9.205535,-0.20985544,-2.9550235,0.98665196,0.1916025,0
1.2500000000000009,16.04260881189522,-3.1352988570368563,1.5990524486752706,0.5771447316040915,16.963362,-4.398825,1.2729319,2.6327376,6.081422,-7.27201,2.003124,0.4513906,-0.017341249,0.20582372,0.8680908,-6.787243,9.266056,-0.16204327,-2.9831626,1.0821152,0.21052116,0
1.260000000000001,16.04260881189522,-3.1352988570368563,1.5990524486752706,0.5771447316040915,16.963362,-4.398825,1.2729319,2.6327376,6.0136695,-7.1790514,2.0017483,0.4489644,-0.028749652,0.19535127,0.8714595,-6.764083,9.325492,-0.11295114,-3.0069127,1.1626928,0.22851148,0
1.270000000000001,16.04260881189522,-3.1352988570368563,1.5990524486752706,0.5771447316040915,16.963362,-4.398825,1.2729319,2.6327376,5.9461236,-7.085504,2.000869,0.44626895,-0.040505394,0.1849016,0.8746508,-6.7458453,9.383853,-0.062741436,-3.026958,1.2307061,0.24561903,0
1.280000000000001,15.239444851918828,-2.6851143242254074,1.44436937062643,0.6396774403971278,16.161867,-3.949031,1.3128189,2.2755487,5.878735,-6.9913783,2.0004966,0.44331914,-0.05254957,0.17446469,0.8776492,-6.7326393,9.441136,-0.011581451,-3.0438764,1.2881145,0.26188707,0
1.290000000000001,15.239444851918828,-2.6851143242254074,1.44436937062643,0.6396774403971278,16.161867,-3.949031,1.3128189,2.2755487,5.811451,-6.8966994,2.0006022,0.4401426,-0.06469643,0.16416451,0.8804193,-6.7249465,9.494515,0.032844067,-2.987948,1.3124558,0.28042537,0
1.300000000000001,15.239444851918828,-2.6851143242254074,1.44436937062643,0.6396774403971278,16.161867,-3.949031,1.3128189,2.2755487,5.7442193,-6.8014917,2.0011554,0.43676654,-0.076796405,0.15410188,0.8829435,-6.722093,9.546857,0.077832356,-2.94074,1.3330022,0.29805398,0
1.310000000000001,15.239444851918828,-2.6851143242254074,1.44436937062643,0.6396774403971278,16.161867,-3.949031,1.3128189,2.2755487,5.6769924,-6.7057657,2.00216,0.43320173,-0.08885153,0.14423831,0.8852323,-6.7240396,9.59816,0.12321206,-2.9008934,1.3503457,0.31481752,0
1.320000000000001,14.460955653022033,-2.1403561161419757,0.7403795964683259,0.6676761298133342,16.395485,-3.6386507,0.11352424,2.507827,5.6097217,-6.6095324,2.0036201,0.42945728,-0.100863084,0.1345415,0.8872942,-6.7307477,9.648412,0.16881995,-2.86726,1.3649857,0.33075848,0
1.330000000000001,14.460955653022033,-2.1403561161419757,0.7403795964683259,0.6676761298133342,16.395485,-3.6386507,0.11352424,2.507827,5.5423636,-6.512814,2.0054998,0.42559907,-0.11248818,0.1250582,0.88914096,-6.7415733,9.695078,0.20715822,-2.7538927,1.2675735,0.34729114,0
1.340000000000001,14.460955653022033,-2.1403561161419757,0.7403795964683259,0.6676761298133342,16.395485,-3.6386507,0.11352424,2.507827,5.4748755,-6.4156346,2.007763,0.42168456,-0.12345664,0.11582764,0.8907996,-6.7566776,9.740673,0.24545266,-2.6582055,1.1853523,0.36301252,0
1.350000000000001,14.460955653022033,-2.1403561161419757,0.7403795964683259,0.6676761298133342,16.395485,-3.6386507,0.11352424,2.507827,5.407216,-6.3180046,2.0104084,0.41770905,-0.13386713,0.106814094,0.89229417,-6.775858,9.78514,0.28360757,-2.5774417,1.1159531,0.37796247,0
1.360000000000001,13.441184696739201,-1.5520337907878616,-0.4237921802018961,0.6020896755063148,17.421074,-3.2979581,-2.1774337,3.0883646,5.3393455,-6.219936,2.0134344,0.41366827,-0.14380291,0.09798689,0.8936427,-6.798938,9.828429,0.32153732,-2.5092738,1.0573761,0.39217883,0
1.370000000000001,13.441184696739201,-1.5520337907878616,-0.4237921802018961,0.6020896755063148,17.421074,-3.2979581,-2.1774337,3.0883646,5.271234,-6.121455,2.0167902,0.4096463,-0.15282185,0.08933742,0.89490426,-6.8238444,9.8675165,0.3496014,-2.3599393,0.82641107,0.40247926,0
1.380000000000001,13.441184696739201,-1.5520337907878616,-0.4237921802018961,0.6020896755063148,17.421074,-3.2979581,-2.1774337,3.0883646,5.2028575,-6.02259,2.020425,0.4057133,-0.16057959,0.08086055,0.8961427,-6.8518972,9.905348,0.3773883,-2.2339,0.6314614,0.4122742,0
1.390000000000001,13.441184696739201,-1.5520337907878616,-0.4237921802018961,0.6020896755063148,17.421074,-3.2979581,-2.1774337,3.0883646,5.1341863,-5.923353,2.0243368,0.40184656,-0.16727224,0.07253563,0.8973724,-6.882777,9.941813,0.4049167,-2.1275222,0.46691075,0.42158848,0
1.400000000000001,12.42304811918514,-1.0640053207764621,-1.6690226637730567,0.47759037982592967,18.57236,-3.3154743,-4.029134,3.327658,5.065193,-5.823759,2.0285225,0.3980263,-0.17306508,0.06434414,0.89860034,-6.916213,9.976822,0.4322054,-2.037739,0.32801896,0.43044573,0
1.410000000000001,12.42304811918514,-1.0640053207764621,-1.6690226637730567,0.47759037982592967,18.57236,-3.3154743,-4.029134,3.327658,4.9958673,-5.723835,2.0329325,0.39431491,-0.17757314,0.056245066,0.89989954,-6.9492393,10.0077505,0.4498009,-1.8857985,0.016621105,0.43275914,0
1.420000000000001,12.42304811918514,-1.0640053207764621,-1.6690226637730567,0.47759037982592967,18.57236,-3.3154743,-4.029134,3.327658,4.9262023,-5.623609,2.0375178,0.39076102,-0.18049924,0.048206594,0.901333,-6.9840393,10.037113,0.46728432,-1.7575659,-0.24622038,0.43495902,0
1.430000000000001,12.42304811918514,-1.0640053207764621,-1.6690226637730567,0.47759037982592967,18.57236,-3.3154743,-4.029134,3.327658,4.856182,-5.523098,2.0422778,0.3873296,-0.18208945,0.040225036,0.9028845,-7.020267,10.064776,0.48474863,-1.649342,-0.4680773,0.437051,0
1.440000000000001,12.42304811918514,-1.0640053207764621,-1.6690226637730567,0.47759037982592967,17.776402,-2.9172595,-4.3416104,2.9069953,4.7857933,-5.42232,2.047213,0.38399044,-0.18255073,0.032296214,0.9045345,-7.0576267,10.090629,0.502272,-1.5580051,-0.65534014,0.43904027,0
1.450000000000001,12.42304811918514,-1.0640053207764621,-1.6690226637730567,0.47759037982592967,17.776402,-2.9172595,-4.3416104,2.9069953,4.7150264,-5.3212924,2.052324,0.3807178,-0.18205728,0.024415832,0.90626276,-7.0958657,10.114576,0.5199181,-1.4809201,-0.813403,0.44093192,0
1.460000000000001,12.42304811918514,-1.0640053207764621,-1.6690226637730567,0.47759037982592967,17.776402,-2.9172595,-4.3416104,2.9069953,4.6438737,-5.220035,2.0576122,0.37749025,-0.18075581,0.016579697,0.90804887,-7.134768,10.136541,0.5377364,-1.415863,-0.94681937,0.44273078,0
1.470000000000001,12.42304811918514,-1.0640053207764621,-1.6690226637730567,0.47759037982592967,17.776402,-2.9172595,-4.3416104,2.9069953,4.5723295,-5.1185684,2.0630794,0.37428987,-0.17876996,0.008783851,0.9098738,-7.174145,10.156458,0.5557638,-1.3609574,-1.0594323,0.44444135,0
1.480000000000001,11.647687030094197,-0.7084628562691372,-2.594623623897506,0.35994843016868233,18.19217,-3.030091,-4.3536587,2.9974494,4.50039,-5.0169134,2.068728,0.371102,-0.17620404,0.0010246423,0.91172004,-7.213837,10.1742735,0.57402545,-1.314619,-1.1544856,0.446068,0
1.490000000000001,11.647687030094197,-0.7084628562691372,-2.594623623897506,0.35994843016868233,18.19217,-3.030091,-4.3536587,2.9974494,4.4280643,-4.9150953,2.0745242,0.36795208,-0.17275526,-0.0067109517,0.9136306,-7.2511964,10.188955,0.5852655,-1.2200278,-1.3790436,0.44184205,0
1.500000000000001,11.647687030094197,-0.7084628562691372,-2.594623623897506,0.35994843016868233,18.19217,-3.030091,-4.3536587,2.9974494,4.3553658,-4.8131413,2.0804343,0.36485645,-0.16818705,-0.014432182,0.9156329,-7.288467,10.20153,0.5967979,-1.1401992,-1.5685868,0.43782353,0
1.5100000000000011,11.647687030094197,-0.7084628562691372,-2.594623623897506,0.35994843016868233,18.19217,-3.030091,-4.3536587,2.9974494,4.282296,-4.711072,2.0864613,0.3617921,-0.16266972,-0.022137275,0.9176895,-7.3254113,10.211912,0.6086696,-1.0728288,-1.7285748,0.43400216,0
1.5200000000000011,10.367085462219077,-0.49831673661664855,-3.5426584716699194,0.22151119354309926,16.427872,-1.957976,-3.8486514,2.3468168,4.20886,-4.60891,2.0926087,0.35874003,-0.15634695,-0.029824961,0.9197667,-7.361823,10.220031,0.62090856,-1.0159723,-1.8636162,0.43036833,0
1.5300000000000011,10.367085462219077,-0.49831673661664855,-3.5426584716699194,0.22151119354309926,16.427872,-1.957976,-3.8486514,2.3468168,4.1350822,-4.5066824,2.0988197,0.35570043,-0.14896,-0.037555087,0.92188764,-7.3935814,10.225183,0.62135845,-0.93518484,-2.125433,0.42011964,0
1.5400000000000011,10.367085462219077,-0.49831673661664855,-3.5426584716699194,0.22151119354309926,16.427872,-1.957976,-3.8486514,2.3468168,4.0609913,-4.4044137,2.105037,0.3526678,-0.14030811,-0.04537335,0.9240559,-7.4244514,10.228158,0.6221793,-0.86700976,-2.3464243,0.41037387,0
1.5500000000000012,10.367085462219077,-0.49831673661664855,-3.5426584716699194,0.22151119354309926,16.427872,-1.957976,-3.8486514,2.3468168,3.9865968,-4.3021264,2.1112642,0.3496207,-0.13058172,-0.05325982,0.92621607,-7.454194,10.228858,0.6233867,-0.8094776,-2.5329564,0.4011063,0
1.5600000000000012,9.536771290019711,-0.41382795167526015,-4.076024174262898,0.1021741632166876,14.074399,-1.6731292,-3.9848475,1.6432194,3.9119117,-4.199844,2.1175058,0.34654137,-0.119942196,-0.061197527,0.9283194,-7.4826007,10.227201,0.6249728,-0.76092654,-2.6904018,0.3922935,0
1.5700000000000012,9.536771290019711,-0.41382795167526015,-4.076024174262898,0.1021741632166876,14.074399,-1.6731292,-3.9848475,1.6432194,3.8369608,-4.097589,2.1237247,0.343419,-0.108315416,-0.06921583,0.9303437,-7.507327,10.223446,0.6188996,-0.70676833,-2.9064684,0.37805727,0
1.5800000000000012,9.536771290019711,-0.41382795167526015,-4.076024174262898,0.1021741632166876,14.074399,-1.6731292,-3.9848475,1.6432194,3.7617705,-3.9953828,2.1298845,0.3402417,-0.09564917,-0.07733557,0.932258,-7.530448,10.217379,0.6131194,-0.66106665,-3.088843,0.36451963,0
1.5900000000000012,9.536771290019711,-0.41382795167526015,-4.076024174262898,0.1021741632166876,14.074399,-1.6731292,-3.9848475,1.6432194,3.6863582,-3.8932493,2.135988,0.33699554,-0.08210019,-0.085531615,0.9340112,-7.5517735,10.208932,0.6075836,-0.6225004,-3.242779,0.35164624,0
1.6000000000000012,9.142210473895505,-0.5061269001326013,-4.055036862582438,0.06072391119369477,13.537518,-1.8711165,-3.8225992,1.1629615,3.610742,-3.7912126,2.1420372,0.33366945,-0.0678022,-0.093782246,0.93555945,-7.5711374,10.198052,0.6022244,-0.58995533,-3.372711,0.33940458,0
1.6100000000000012,9.142210473895505,-0.5061269001326013,-4.055036862582438,0.06072391119369477,13.537518,-1.8711165,-3.8225992,1.1629615,3.5349462,-3.689294,2.1480138,0.33025807,-0.052889198,-0.10210073,0.93686014,-7.587681,10.185253,0.5931171,-0.57688963,-3.479111,0.32572964,0
1.6200000000000012,9.142210473895505,-0.5061269001326013,-4.055036862582438,0.06072391119369477,13.537518,-1.8711165,-3.8225992,1.1629615,3.4589953,-3.5875158,2.1538997,0.32675904,-0.037474535,-0.11049612,0.93787736,-7.6020894,10.1700535,0.5840032,-0.56586546,-3.5689194,0.31272575,0
1.6300000000000012,9.142210473895505,-0.5061269001326013,-4.055036862582438,0.06072391119369477,13.537518,-1.8711165,-3.8225992,1.1629615,3.3829117,-3.4859016,2.1596937,0.32316843,-0.021636613,-0.118945025,0.9385868,-7.614266,10.152435,0.57477635,-0.5565632,-3.644723,0.30035996,0
1.6400000000000012,9.142210473895505,-0.5061269001326013,-4.055036862582438,0.06072391119369477,12.611121,-1.6900324,-3.8224478,1.255692,3.3067179,-3.3844757,2.1653943,0.3194835,-0.0054430827,-0.1274271,0.93896854,-7.624127,10.132391,0.5653223,-0.5487135,-3.7087052,0.28860095,0
1.6500000000000012,9.142210473895505,-0.5061269001326013,-4.055036862582438,0.06072391119369477,12.611121,-1.6900324,-3.8224478,1.255692,3.230437,-3.2832623,2.1709988,0.31570232,0.0110475095,-0.13592462,0.93900657,-7.631599,10.109924,0.55552006,-0.54208934,-3.7627103,0.27741894,0
1.6600000000000013,9.142210473895505,-0.5061269001326013,-4.055036862582438,0.06072391119369477,12.611121,-1.6900324,-3.8224478,1.255692,3.154094,-3.1822855,2.176503,0.31182367,0.027784342,-0.14442201,0.938688,-7.6366205,10.085049,0.545244,-0.53649896,-3.8082938,0.26678568,0
1.6700000000000013,9.142210473895505,-0.5061269001326013,-4.055036862582438,0.06072391119369477,12.611121,-1.6900324,-3.8224478,1.255692,3.0777133,-3.0815697,2.1819015,0.30784696,0.044723146,-0.15290558,0.9380025,-7.6391406,10.057786,0.5343644,-0.53178114,-3.846769,0.25667417,0
1.6800000000000013,8.879186614161897,-0.5565520804770896,-3.2499582442375896,0.08501181647567183,11.35482,-1.8802627,-3.4066632,1.3209703,3.0013201,-2.981138,2.1871874,0.30377203,0.061825223,-0.1613632,0.93694234,-7.6391177,10.028164,0.5227491,-0.5277992,-3.8792443,0.24705882,0
1.6900000000000013,8.879186614161897,-0.5565520804770896,-3.2499582442375896,0.08501181647567183,11.35482,-1.8802627,-3.4066632,1.3209703,2.9249396,-2.8810098,2.192341,0.29965165,0.078748554,-0.1697065,0.9355245,-7.636604,9.997148,0.507804,-0.53231865,-3.7811055,0.23910713,0
1.7000000000000013,8.879186614161897,-0.5565520804770896,-3.2499582442375896,0.08501181647567183,11.35482,-1.8802627,-3.4066632,1.3209703,2.8485966,-2.7812026,2.1973403,0.2955359,0.09522113,-0.17786874,0.9337843,-7.631645,9.963965,0.49190786,-0.5361291,-3.6982713,0.23154563,0
1.7100000000000013,8.879186614161897,-0.5565520804770896,-3.2499582442375896,0.08501181647567183,11.35482,-1.8802627,-3.4066632,1.3209703,2.7723153,-2.6817377,2.2021754,0.29142028,0.111305945,-0.18586884,0.93173873,-7.6243076,9.928707,0.4749634,-0.5393417,-3.6283553,0.22435515,0
1.7200000000000013,8.608450774862845,-0.567987721683369,-2.0847223849113625,0.16728680022460177,9.932867,-1.9307115,-2.8428187,1.1392014,2.6961188,-2.5826354,2.2068355,0.28730017,0.12705573,-0.19372226,0.92940104,-7.6146474,9.8914585,0.45687842,-0.5420503,-3.5693424,0.21751752,0
1.7300000000000013,8.608450774862845,-0.567987721683369,-2.0847223849113625,0.16728680022460177,9.932867,-1.9307115,-2.8428187,1.1392014,2.6200287,-2.4839091,2.2112968,0.2832554,0.142079,-0.20131502,0.9268502,-7.6030955,9.8535,0.43516925,-0.5461333,-3.3378162,0.21505268,0
1.7400000000000013,8.608450774862845,-0.567987721683369,-2.0847223849113625,0.16728680022460177,9.932867,-1.9307115,-2.8428187,1.1392014,2.5440645,-2.3855715,2.2155347,0.279357,0.15607142,-0.20856376,0.92417616,-7.5894995,9.813823,0.41224062,-0.5495735,-3.1423967,0.21270879,0
1.7500000000000013,8.608450774862845,-0.567987721683369,-2.0847223849113625,0.16728680022460177,9.932867,-1.9307115,-2.8428187,1.1392014,2.4682457,-2.2876384,2.2195375,0.2755873,0.16919114,-0.21552072,0.9213988,-7.574008,9.772551,0.38807708,-0.5524723,-2.9774525,0.21047993,0
1.7600000000000013,8.507829634556568,-0.467185691082578,-0.6212851926402259,0.2673343214149437,9.527657,-1.942456,-1.731515,1.203834,2.3925908,-2.1901257,2.2232924,0.2719296,0.1815714,-0.22222926,0.9185311,-7.55675,9.729791,0.36266682,-0.55491495,-2.8382313,0.20836043,0
1.7700000000000014,8.507829634556568,-0.467185691082578,-0.6212851926402259,0.2673343214149437,9.527657,-1.942456,-1.731515,1.203834,2.317115,-2.0930448,2.2267823,0.26848242,0.1927962,-0.22853321,0.9157066,-7.538072,9.686163,0.33517557,-0.54127574,-2.492499,0.2112543,0
1.7800000000000014,8.507829634556568,-0.467185691082578,-0.6212851926402259,0.2673343214149437,9.527657,-1.942456,-1.731515,1.203834,2.2418337,-1.9964063,2.2299917,0.26532903,0.20254657,-0.23431766,0.9130552,-7.5179734,9.641313,0.30651882,-0.52975756,-2.2006836,0.21400614,0
1.7900000000000014,8.507829634556568,-0.467185691082578,-0.6212851926402259,0.2673343214149437,9.527657,-1.942456,-1.731515,1.203834,2.1667597,-1.9002221,2.232909,0.26243246,0.21105589,-0.23966973,0.91057247,-7.496655,9.595377,0.2767815,-0.52003044,-1.9543767,0.21662298,0
1.8000000000000014,8.594640716835299,-0.2405013726282512,0.9467281142432694,0.34877858225329156,8.874516,-1.422013,0.025294822,0.996856,2.0919044,-1.804502,2.235524,0.25975886,0.21852027,-0.24466139,0.9082479,-7.474286,9.5484705,0.24604183,-0.5118158,-1.7464815,0.2191114,0
1.8100000000000014,8.594640716835299,-0.2405013726282512,0.9467281142432694,0.34877858225329156,8.874516,-1.422013,0.025294822,0.996856,2.0172787,-1.7092581,2.2378302,0.25740412,0.22455671,-0.24911056,0.90623426,-7.450787,9.500207,0.2150622,-0.4695588,-1.3264728,0.2254742,0
1.8200000000000014,8.594640716835299,-0.2405013726282512,0.9467281142432694,0.34877858225329156,8.874516,-1.422013,0.025294822,0.996856,1.9428911,-1.6145005,2.2398226,0.25544524,0.22887291,-0.25288016,0.9046634,-7.4266133,9.451218,0.18331274,-0.4338856,-0.9719647,0.23152477,0
1.8300000000000014,8.594640716835299,-0.2405013726282512,0.9467281142432694,0.34877858225329156,8.874516,-1.422013,0.025294822,0.996856,1.8687478,-1.5202358,2.2414947,0.25382656,0.23174134,-0.2560837,0.9034869,-7.401988,9.401645,0.15096113,-0.40376997,-0.6727426,0.23727843,0
1.8400000000000014,8.594640716835299,-0.2405013726282512,0.9467281142432694,0.34877858225329156,8.414775,-1.197275,1.4819734,0.8748091,1.7948523,-1.4264692,2.2428403,0.25249833,0.23339015,-0.2588147,0.9026561,-7.377098,9.351604,0.11815387,-0.37834567,-0.4201843,0.24274977,1
1.8500000000000014,8.594640716835299,-0.2405013726282512,0.9467281142432694,0.34877858225329156,8.414775,-1.197275,1.4819734,0.8748091,1.7212036,-1.3331997,2.2438498,0.2515031,0.23370388,-0.26145706,0.9020911,-7.352638,9.302237,0.08365743,-0.5061013,-0.12357408,0.2737651,1
1.8600000000000014,8.594640716835299,-0.2405013726282512,0.9467281142432694,0.34877858225329156,8.414775,-1.197275,1.4819734,0.8748091,1.647799,-1.2404257,2.244513,0.25086308,0.23259732,-0.26431933,0.90172106,-7.3283105,9.252521,0.048939865,-0.61393625,0.12677908,0.30325848,1
1.8700000000000014,8.594640716835299,-0.2405013726282512,0.9467281142432694,0.34877858225329156,8.414775,-1.197275,1.4819734,0.8748091,1.5746361,-1.1481504,2.2448282,0.25050992,0.23028702,-0.26737016,0.90151274,-7.304334,9.20246,0.014084618,-0.7049553,0.33809024,0.33130464,1
1.8800000000000014,8.977107601948248,-0.003058400306966643,2.2106834019411967,0.3891212766004115,9.1594305,-1.0534562,2.4190655,0.8860431,1.5017105,-1.0563775,2.2447944,0.25038517,0.2269548,-0.27058154,0.9014343,-7.2808948,9.152059,-0.020840542,-0.7817796,0.516448,0.35797456,0
1.8900000000000015,8.977107601948248,-0.003058400306966643,2.2106834019411967,0.3891212766004115,9.1594305,-1.0534562,2.4190655,0.8860431,1.4290236,-0.9651272,2.2444324,0.25046468,0.22262676,-0.27341157,0.9016375,-7.2566257,9.097947,-0.05154774,-0.66040087,0.7806908,0.35950294,0
1.9000000000000015,8.977107601948248,-0.003058400306966643,2.2106834019411967,0.3891212766004115,9.1594305,-1.0534562,2.4190655,0.8860431,1.3565751,-0.8744193,2.243764,0.25073788,0.21733403,-0.27542725,0.9022392,-7.233225,9.043616,-0.08212478,-0.5579418,1.0037208,0.36095634,0
1.9100000000000015,8.977107601948248,-0.003058400306966643,2.2106834019411967,0.3891212766004115,9.1594305,-1.0534562,2.4190655,0.8860431,1.2843559,-0.78425515,2.242791,0.25117552,0.21122403,-0.27675197,0.90316266,-7.2107997,8.989205,-0.112435624,-0.4714533,1.1919657,0.36233842,0
1.9200000000000015,9.410641406232248,0.42290695691468394,3.0063889566227555,0.35444016644212084,9.728829,-0.44778362,3.2227478,0.39276683,1.2123556,-0.69463503,2.2415166,0.25175142,0.20442073,-0.27748907,0.90434086,-7.1894436,8.9348345,-0.1423701,-0.39844608,1.3508509,0.36365268,1
1.9300000000000015,9.410641406232248,0.42290695691468394,3.0063889566227555,0.35444016644212084,9.728829,-0.44778362,3.2227478,0.39276683,1.1405716,-0.6055806,2.2399738,0.25258973,0.1966166,-0.27778363,0.9057459,-7.167565,8.876068,-0.16608806,-0.40621093,1.6427699,0.3650813,1
1.9400000000000015,9.410641406232248,0.42290695691468394,3.0063889566227555,0.35444016644212084,9.728829,-0.44778362,3.2227478,0.39276683,1.068999,-0.51711273,2.2381968,0.25378278,0.18757068,-0.27775192,0.9073392,-7.1471505,8.817561,-0.18918791,-0.41275433,1.8891647,0.36643985,1
1.9500000000000015,9.410641406232248,0.42290695691468394,3.0063889566227555,0.35444016644212084,9.728829,-0.44778362,3.2227478,0.39276683,0.9976226,-0.4292282,2.2361925,0.25526568,0.17746887,-0.27743432,0.9090508,-7.128408,8.759409,-0.21157883,-0.41826838,2.0971346,0.36773172,1
1.9600000000000015,9.513825196610563,0.8335508795763608,3.1759852613355593,0.2742392391283818,9.718256,-0.404869,3.4517126,0.31833267,0.9264245,-0.34192297,2.2339683,0.25698274,0.16646843,-0.27686405,0.9108202,-7.1115174,8.701702,-0.2331988,-0.42291516,2.272672,0.3689602,0
1.9700000000000015,9.513825196610563,0.8335508795763608,3.1759852613355593,0.2742392391283818,9.718256,-0.404869,3.4517126,0.31833267,0.85538375,-0.25518593,2.231523,0.25881124,0.15485595,-0.27560416,0.9127309,-7.0969505,8.645801,-0.25571004,-0.22699645,2.4135907,0.3643122,0
1.9800000000000015,9.513825196610563,0.8335508795763608,3.1759852613355593,0.2742392391283818,9.718256,-0.404869,3.4517126,0.31833267,0.78447866,-0.16900451,2.2288573,0.26066032,0.14286809,-0.2733091,0.91484755,-7.0843806,8.590607,-0.27734804,-0.061625455,2.5325248,0.3598923,0
1.9900000000000015,9.513825196610563,0.8335508795763608,3.1759852613355593,0.2742392391283818,9.718256,-0.404869,3.4517126,0.31833267,0.71368927,-0.0833707,2.2259793,0.26252705,0.13056056,-0.27012783,0.9170951,-7.0738244,8.536308,-0.29804638,0.077960506,2.6329048,0.3556893,0
2.0000000000000013,,,,,9.354788,0.21259889,3.3979313,0.2821505,0.64299524,0.0017253067,2.2228992,0.26440692,0.117980674,-0.2661862,0.9194093,-7.0652995,8.48307,-0.31776333,0.19578195,2.7176247,0.3516925,1
2.010000000000001,,,,,9.354788,0.21259889,3.3979313,0.2821505,0.5723756,0.08629923,2.2196207,0.26634523,0.105020896,-0.26179594,0.92167926,-7.058939,8.431908,-0.33780882,0.19838665,2.823718,0.34828004,1
2.020000000000001,,,,,9.354788,0.21259889,3.3979313,0.2821505,0.5018092,0.17036785,2.2161465,0.26837128,0.09159762,-0.25720972,0.92381215,-7.0546737,8.382021,-0.3568921,0.20058897,2.9132662,0.34503502,1
2.0300000000000007,,,,,9.354788,0.21259889,3.3979313,0.2821505,0.43127462,0.2539443,2.212486,0.27045906,0.07778089,-0.25244662,0.92578167,-7.0525837,8.333483,-0.37505305,0.20245089,2.9888496,0.34194922,1
2.0400000000000005,,,,,9.354788,0.21259889,3.3979313,0.2821505,0.36074978,0.33704242,2.2086482,0.2725865,0.0636308,-0.24752308,0.9275662,-7.052736,8.286364,-0.39234266,0.20402521,3.0526457,0.3390149,1
2.0500000000000003,,,,,8.743325,0.36398068,3.2183952,0.2742539,0.290212,0.4196767,2.2046416,0.27473485,0.04919901,-0.24245335,0.9291477,-7.0551863,8.240729,-0.4088213,0.20535608,3.1064928,0.33622456,1
2.06,,,,,8.743325,0.36398068,3.2183952,0.2742539,0.21963947,0.50187683,2.200447,0.27686942,0.034613788,-0.2372134,0.9305235,-7.0596647,8.199524,-0.42994046,0.23009603,3.123949,0.33318365,1
2.07,,,,,8.743325,0.36398068,3.2183952,0.2742539,0.14901115,0.58367234,2.1960447,0.27896416,0.019980295,-0.23178598,0.93169415,-7.066342,8.1598215,-0.4504317,0.2509779,3.1386821,0.33029193,1
2.0799999999999996,,,,,8.743325,0.36398068,3.2183952,0.2742539,0.078305066,0.6650786,2.1914403,0.2810159,0.005308724,-0.22619183,0.93265116,-7.075218,8.1216755,-0.47036487,0.26860368,3.1511166,0.32754213,1
2.0899999999999994,,,,,8.736742,0.7846531,2.6050148,-0.026474608,0.0074992366,0.7461114,2.186639,0.28302163,-0.009391711,-0.22044878,0.93338734,-7.0862904,8.085134,-0.489813,0.2834808,3.1616116,0.32492727,1
2.099999999999999,,,,,8.736742,0.7846531,2.6050148,-0.026474608,-0.06342821,0.82678705,2.1816452,0.28496262,-0.023827625,-0.21448562,0.9339291,-7.0995326,8.050269,-0.5089095,0.36169133,3.0748234,0.30768389,1
2.109999999999999,,,,,8.736742,0.7846531,2.6050148,-0.026474608,-0.13449864,0.9071225,2.1764622,0.28683588,-0.037764445,-0.20825024,0.9343072,-7.114871,8.017093,-0.5276588,0.42769894,3.001566,0.29128665,1
2.1199999999999988,,,,,8.736742,0.7846531,2.6050148,-0.026474608,-0.20573252,0.9871348,2.1710932,0.28865838,-0.05127397,-0.20178254,0.93452144,-7.1322107,7.985638,-0.5461191,0.4834075,2.9397297,0.275694,1
2.1299999999999986,,,,,8.950443,0.6722898,1.7621108,0.038848776,-0.27714947,1.0668412,2.165541,0.29044288,-0.06441693,-0.19511616,0.93457067,-7.1514688,7.955936,-0.56434745,0.5304239,2.8875344,0.2608665,1
2.1399999999999983,,,,,8.950443,0.6722898,1.7621108,0.038848776,-0.3487708,1.1462561,2.159817,0.29212406,-0.07694424,-0.18841988,0.9344733,-7.173078,7.9273214,-0.58044267,0.5525971,2.712025,0.249972,1
2.149999999999998,,,,,8.950443,0.6722898,1.7621108,0.038848776,-0.42061707,1.2253938,2.1539328,0.2936539,-0.08866251,-0.18183169,0.9342606,-7.1964355,7.9004855,-0.5964159,0.5713045,2.5638857,0.23961213,1
2.159999999999998,,,,,8.950443,0.6722898,1.7621108,0.038848776,-0.4927051,1.3042718,2.1478891,0.29506332,-0.09969431,-0.17533594,0.9339461,-7.2214084,7.8753777,-0.6123176,0.5870883,2.438848,0.22976062,1
2.1699999999999977,,,,,9.041818,0.5841985,0.8274296,0.10209669,-0.5650505,1.3829073,2.1416867,0.29637697,-0.110143304,-0.168919,0.9335388,-7.2478843,7.8519564,-0.62819153,0.6004055,2.3333094,0.22039253,1
2.1799999999999975,,,,,9.041818,0.5841985,0.8274296,0.10209669,-0.637669,1.4613155,2.1353295,0.29754165,-0.11976006,-0.16271245,0.93308645,-7.276039,7.829953,-0.6432358,0.59791964,2.0984657,0.21458773,1
2.1899999999999973,,,,,9.041818,0.5841985,0.8274296,0.10209669,-0.7105755,1.5395117,2.1288216,0.29851943,-0.12835324,-0.15682168,0.9326402,-7.3054447,7.809509,-0.6583148,0.5958146,1.900246,0.20906776,1
2.199999999999997,,,,,9.041818,0.5841985,0.8274296,0.10209669,-0.78378165,1.6175107,2.1221628,0.2993479,-0.13608183,-0.15119976,0.9322073,-7.3359475,7.7905197,-0.6734437,0.5940317,1.7329385,0.20381865,1
