time-since-start [s],throttle_mpc,roll_mpc,pitch_mpc,yaw_mpc,throttle_nw,roll_nw,pitch_nw,yaw_nw,position_x [m],position_y [m],position_z [m],rotation_w [quaternion],rotation_x [quaternion],rotation_y [quaternion],rotation_z [quaternion],velocity_x [m/s],velocity_y [m/s],velocity_z [m/s],omega_x [rad/s],omega_y [rad/s],omega_z [rad/s],network_used
0.0,8.958865450143643,5.999998801270981,-5.9999999139856195,-4.001724415194122,-2.7145083,-27.00608,-148.95102,-731.0083,18.738045,-9.672027,1.8576523,-0.036974903,-0.41522726,0.29246926,0.8606282,-10.424685,-3.841196,-0.28784183,1.454921,-0.022805013,-0.022108879,0
0.01,8.958865450143643,5.999998801270981,-5.9999999139856195,-4.001724415194122,-5.4690137,-63.514088,-181.4329,-686.4696,18.633472,-9.71022,1.8545011,0.0015025456,-0.39591977,0.31076068,0.8641024,-10.488913,-3.7966104,-0.34225738,5.9999986,-6.0,-4.0017242,0
0.02,8.958865450143643,5.999998801270981,-5.9999999139856195,-4.001724415194122,-5.4690137,-63.514088,-181.4329,-686.4696,18.528284,-9.74794,1.8508099,0.039976686,-0.37574124,0.32836843,0.8656757,-10.548185,-3.7463245,-0.39586407,5.9999986,-6.0,-4.0017242,0
0.03,8.958865450143643,5.999998801270981,-5.9999999139856195,-4.001724415194122,-5.4690137,-63.514088,-181.4329,-686.4696,18.422527,-9.78513,1.8465866,0.07836288,-0.35473612,0.3452538,0.8653445,-10.601984,-3.690825,-0.44872004,5.9999986,-6.0,-4.0017242,0
0.04,8.958865450143643,5.999998801270981,-5.9999999139856195,-4.001724415194122,9.128552,-51.45943,-92.81435,-223.71913,18.316265,-9.82174,1.841838,0.11657668,-0.33295062,0.36137962,0.86310965,-10.649841,-3.6306438,-0.5008901,5.9999986,-6.0,-4.0017242,0
0.05,8.958865450143643,5.999998801270981,-5.9999999139856195,-4.001724415194122,9.128552,-51.45943,-92.81435,-223.71913,18.209555,-9.857728,1.836571,0.15453403,-0.31043264,0.3767104,0.85897607,-10.691338,-3.5663543,-0.5524449,5.9999986,-6.0,-4.0017242,0
0.060000000000000005,8.958865450143643,5.999998801270981,-5.9999999139856195,-4.001724415194122,9.128552,-51.45943,-92.81435,-223.71913,18.102463,-9.893055,1.8307911,0.1921514,-0.2872317,0.39121252,0.8529527,-10.726112,-3.4985654,-0.60346067,5.9999986,-6.0,-4.0017242,0
0.07,8.958865450143643,5.999998801270981,-5.9999999139856195,-4.001724415194122,9.128552,-51.45943,-92.81435,-223.71913,17.995056,-9.92769,1.8245034,0.22934605,-0.26339892,0.40485394,0.8450529,-10.753866,-3.4279175,-0.65401834,5.9999986,-6.0,-4.0017242,0
0.08,16.372489081875322,5.381444857366843,-5.999999835200413,-1.210609245987917,15.02342,-0.6999036,-2.7495177,-0.52476525,17.887411,-9.961605,1.8177121,0.26603615,-0.23898664,0.41760474,0.83529407,-10.774356,-3.355076,-0.70420283,5.9999986,-6.0,-4.0017242,0
0.09,16.372489081875322,5.381444857366843,-5.999999835200413,-1.210609245987917,15.02342,-0.6999036,-2.7495177,-0.52476525,17.779535,-9.994478,1.8106202,0.28982335,-0.20910712,0.4303022,0.8289249,-10.798454,-3.219359,-0.7140289,5.381445,-6.0,-1.2106092,0
0.09999999999999999,16.372489081875322,5.381444857366843,-5.999999835200413,-1.210609245987917,15.02342,-0.6999036,-2.7495177,-0.52476525,17.671486,-10.025988,1.8034339,0.3131293,-0.17888038,0.4422852,0.8211794,-10.809442,-3.082405,-0.7231617,5.381445,-6.0,-1.2106092,0
0.10999999999999999,16.372489081875322,5.381444857366843,-5.999999835200413,-1.210609245987917,15.02342,-0.6999036,-2.7495177,-0.52476525,17.563393,-10.056125,1.7961578,0.33591536,-0.14835663,0.4535338,0.8120703,-10.807244,-2.9451904,-0.73204505,5.381445,-6.0,-1.2106092,0
0.11999999999999998,16.372489081875322,5.381444857366843,-5.999999835200413,-1.210609245987917,15.02342,-0.6999036,-2.7495177,-0.52476525,17.455385,-10.084893,1.7887923,0.35814363,-0.11758655,0.46402937,0.80161285,-10.79188,-2.808693,-0.7411244,5.381445,-6.0,-1.2106092,0
0.12999999999999998,20.661178880134592,2.1082091784628734,-5.999999443444795,1.0569926127401867,16.466541,-1.6035585,-1.3214756,-0.10144058,17.347599,-10.112304,1.7813331,0.37977725,-0.08662123,0.47375444,0.7898244,-10.763452,-2.673886,-0.7508436,5.381445,-6.0,-1.2106092,0
0.13999999999999999,20.661178880134592,2.1082091784628734,-5.999999443444795,1.0569926127401867,16.466541,-1.6035585,-1.3214756,-0.10144058,17.240208,-10.138208,1.7738913,0.39052957,-0.056379713,0.4708988,0.789026,-10.713038,-2.5077171,-0.73704517,2.1082091,-5.9999995,1.0569927,0
0.15,20.661178880134592,2.1082091784628734,-5.999999443444795,1.0569926127401867,16.466541,-1.6035585,-1.3214756,-0.10144058,17.133377,-10.162478,1.7666014,0.40087616,-0.026079614,0.46755394,0.7874079,-10.6511545,-2.3473573,-0.72055876,2.1082091,-5.9999995,1.0569927,0
0.16,20.636186485931788,-0.14432572742433128,-4.465700927074719,1.3816077784772847,17.399769,-2.793867,-0.13863063,-0.3898123,17.027225,-10.185176,1.7594874,0.41080627,0.004247579,0.46372333,0.78497165,-10.577995,-2.1933959,-0.7019603,2.1082091,-5.9999995,1.0569927,0
0.17,20.636186485931788,-0.14432572742433128,-4.465700927074719,1.3816077784772847,17.399769,-2.793867,-0.13863063,-0.3898123,16.921852,-10.206368,1.7525693,0.4156282,0.024678769,0.45382896,0.78783447,-10.495786,-2.0461783,-0.6811183,-0.14432573,-4.465701,1.3816078,0
0.18000000000000002,20.636186485931788,-0.14432572742433128,-4.465700927074719,1.3816077784772847,17.399769,-2.793867,-0.13863063,-0.3898123,16.81733,-10.226121,1.7458767,0.42022285,0.045096464,0.44368646,0.7902665,-10.407735,-1.9052413,-0.65689784,-0.14432573,-4.465701,1.3816078,0
0.19000000000000003,20.636186485931788,-0.14432572742433128,-4.465700927074719,1.3816077784772847,17.399769,-2.793867,-0.13863063,-0.3898123,16.713717,-10.244495,1.7394418,0.42458776,0.06548951,0.43330133,0.79226637,-10.313935,-1.7708372,-0.6296357,-0.14432573,-4.465701,1.3816078,0
0.20000000000000004,18.9172406186941,-0.7786758223402067,-1.0548115422480855,1.078972914843353,16.810465,-3.1182568,2.7065456,-0.51870257,16.611069,-10.26156,1.7332933,0.4287205,0.085846744,0.4226793,0.7938331,-10.214492,-1.6432049,-0.5996751,-0.14432573,-4.465701,1.3816078,0
0.21000000000000005,18.9172406186941,-0.7786758223402067,-1.0548115422480855,1.078972914843353,16.810465,-3.1182568,2.7065456,-0.51870257,16.509396,-10.277431,1.7274017,0.42698592,0.09064144,0.41684923,0.7973102,-10.120021,-1.5308994,-0.57840824,-0.7786758,-1.0548116,1.0789729,0
0.22000000000000006,18.9172406186941,-0.7786758223402067,-1.0548115422480855,1.078972914843353,16.810465,-3.1182568,2.7065456,-0.51870257,16.408669,-10.292187,1.7217305,0.42522058,0.0954296,0.4109891,0.8007298,-10.0252075,-1.4205241,-0.5556222,-0.7786758,-1.0548116,1.0789729,0
0.23000000000000007,18.9172406186941,-0.7786758223402067,-1.0548115422480855,1.078972914843353,16.810465,-3.1182568,2.7065456,-0.51870257,16.308891,-10.305849,1.7162945,0.42342457,0.10021088,0.40509936,0.80409175,-9.930044,-1.3121039,-0.53135043,-0.7786758,-1.0548116,1.0789729,0
0.24000000000000007,18.9172406186941,-0.7786758223402067,-1.0548115422480855,1.078972914843353,15.949147,-3.0961995,4.9088764,-0.56064415,16.210068,-10.318436,1.7111086,0.42159805,0.10498495,0.39918044,0.80739576,-9.834526,-1.2056626,-0.50562686,-0.7786758,-1.0548116,1.0789729,0
0.25000000000000006,18.9172406186941,-0.7786758223402067,-1.0548115422480855,1.078972914843353,15.949147,-3.0961995,4.9088764,-0.56064415,16.112202,-10.329968,1.7061869,0.41974112,0.10975144,0.39323273,0.8106415,-9.7386465,-1.1012241,-0.4784857,-0.7786758,-1.0548116,1.0789729,0
0.26000000000000006,18.9172406186941,-0.7786758223402067,-1.0548115422480855,1.078972914843353,15.949147,-3.0961995,4.9088764,-0.56064415,16.015297,-10.340467,1.7015437,0.41785395,0.11451003,0.38725665,0.8138289,-9.642399,-0.9988111,-0.44996175,-0.7786758,-1.0548116,1.0789729,0
0.2700000000000001,18.9172406186941,-0.7786758223402067,-1.0548115422480855,1.078972914843353,15.949147,-3.0961995,4.9088764,-0.56064415,15.919356,-10.349952,1.6971923,0.41593665,0.119260356,0.38125268,0.8169576,-9.545776,-0.8984465,-0.42009002,-0.7786758,-1.0548116,1.0789729,0
0.2800000000000001,17.312147121923665,-1.1961939888887372,1.3117563419937073,0.8229568614984885,15.684224,-2.6313975,5.125041,-0.45017132,15.824384,-10.358444,1.6931463,0.41398937,0.12400209,0.37522122,0.8200275,-9.448774,-0.8001517,-0.3889061,-0.7786758,-1.0548116,1.0789729,0
0.2900000000000001,17.312147121923665,-1.1961939888887372,1.3117563419937073,0.8229568614984885,15.684224,-2.6313975,5.125041,-0.45017132,15.730339,-10.366,1.6893635,0.40887606,0.11768577,0.3725038,0.8247491,-9.360774,-0.7110297,-0.36749274,-1.1961939,1.3117564,0.82295686,0
0.3000000000000001,17.312147121923665,-1.1961939888887372,1.3117563419937073,0.8229568614984885,15.684224,-2.6313975,5.125041,-0.45017132,15.63716,-10.372662,1.6858007,0.40372363,0.11135819,0.36975068,0.8293917,-9.2754345,-0.6209747,-0.34485576,-1.1961939,1.3117564,0.82295686,0
0.3100000000000001,17.312147121923665,-1.1961939888887372,1.3117563419937073,0.8229568614984885,15.684224,-2.6313975,5.125041,-0.45017132,15.544821,-10.378417,1.6824704,0.39853254,0.10501995,0.36696216,0.83395505,-9.192781,-0.53003544,-0.3210181,-1.1961939,1.3117564,0.82295686,0
0.3200000000000001,15.941221997016648,-1.5085646479779604,4.014753771959885,0.5312656767326907,15.242479,-2.6301408,5.7346516,-0.33918518,15.453294,-10.383258,1.6793845,0.3933033,0.09867166,0.36413854,0.8384385,-9.112841,-0.43826076,-0.29600313,-1.1961939,1.3117564,0.82295686,0
0.3300000000000001,15.941221997016648,-1.5085646479779604,4.014753771959885,0.5312656767326907,15.242479,-2.6301408,5.7346516,-0.33918518,15.362519,-10.387211,1.676505,0.38441965,0.07982012,0.36536223,0.8440144,-9.04296,-0.35194227,-0.2797601,-1.5085646,4.014754,0.5312657,0
0.34000000000000014,15.941221997016648,-1.5085646479779604,4.014753771959885,0.5312656767326907,15.242479,-2.6301408,5.7346516,-0.33918518,15.272414,-10.390284,1.6737918,0.37535653,0.06093132,0.3664153,0.84919626,-8.978909,-0.2621267,-0.26279858,-1.5085646,4.014754,0.5312657,0
0.35000000000000014,15.941221997016648,-1.5085646479779604,4.014753771959885,0.5312656767326907,15.242479,-2.6301408,5.7346516,-0.33918518,15.1829195,-10.392442,1.6712508,0.3661181,0.04201407,0.36729732,0.8539816,-8.920815,-0.16900323,-0.24530531,-1.5085646,4.014754,0.5312657,0
0.36000000000000015,15.264434661771292,-1.5335881822958866,4.410530791573553,0.2636515441249266,14.391664,-2.505479,5.547653,-0.508413,15.093977,-10.393653,1.6688868,0.3567088,0.023077201,0.3680078,0.8583683,-8.868798,-0.07276711,-0.227468,-1.5085646,4.014754,0.5312657,0
0.37000000000000016,15.264434661771292,-1.5335881822958866,4.410530791573553,0.2636515441249266,14.391664,-2.505479,5.547653,-0.508413,15.005512,-10.393908,1.6666772,0.34754196,0.0018934319,0.3691611,0.86193424,-8.8250885,0.022304635,-0.21445027,-1.5335882,4.4105306,0.26365155,0
0.38000000000000017,15.264434661771292,-1.5335881822958866,4.410530791573553,0.2636515441249266,14.391664,-2.505479,5.547653,-0.508413,14.917453,-10.393197,1.6645972,0.33818507,-0.019291373,0.3701125,0.8650289,-8.787871,0.1203093,-0.20161657,-1.5335882,4.4105306,0.26365155,0
0.3900000000000002,15.264434661771292,-1.5335881822958866,4.410530791573553,0.2636515441249266,14.391664,-2.505479,5.547653,-0.508413,14.829732,-10.391492,1.6626436,0.32864323,-0.040465634,0.37086156,0.8676505,-8.757234,0.2210209,-0.18919587,-1.5335882,4.4105306,0.26365155,0
0.4000000000000002,14.892563880973274,-1.342484034209738,3.017146416357162,0.009568416039077975,14.18958,-2.3403025,4.4222403,-0.87901855,14.742285,-10.388767,1.6608111,0.3189217,-0.06161776,0.37140784,0.86979765,-8.733249,0.3242075,-0.17741624,-1.5335882,4.4105306,0.26365155,0
0.4100000000000002,14.892563880973274,-1.342484034209738,3.017146416357162,0.009568416039077975,14.18958,-2.3403025,4.4222403,-0.87901855,14.655044,-10.385014,1.6590796,0.3128203,-0.07685318,0.37033293,0.8712578,-8.7157135,0.42673647,-0.16894571,-1.342484,3.0171463,0.009568416,0
0.4200000000000002,14.892563880973274,-1.342484034209738,3.017146416357162,0.009568416039077975,14.18958,-2.3403025,4.4222403,-0.87901855,14.567954,-10.380229,1.6574305,0.30663365,-0.09206763,0.36915705,0.8724804,-8.702941,0.5304133,-0.16090949,-1.342484,3.0171463,0.009568416,0
0.4300000000000002,14.892563880973274,-1.342484034209738,3.017146416357162,0.009568416039077975,14.18958,-2.3403025,4.4222403,-0.87901855,14.480968,-10.374401,1.6558594,0.3003634,-0.10725699,0.36788052,0.8734651,-8.694944,0.63512474,-0.15342295,-1.342484,3.0171463,0.009568416,0
0.4400000000000002,14.892563880973274,-1.342484034209738,3.017146416357162,0.009568416039077975,13.861496,-2.3465831,3.4519868,-0.9891877,14.394038,-10.367522,1.6543598,0.29401127,-0.122417115,0.3665037,0.8742117,-8.691732,0.74075615,-0.1466009,-1.342484,3.0171463,0.009568416,0
0.45000000000000023,14.892563880973274,-1.342484034209738,3.017146416357162,0.009568416039077975,13.861496,-2.3465831,3.4519868,-0.9891877,14.3071165,-10.359583,1.6529247,0.28757897,-0.13754384,0.36502698,0.87472004,-8.693308,0.84719205,-0.14055744,-1.342484,3.0171463,0.009568416,0
0.46000000000000024,14.892563880973274,-1.342484034209738,3.017146416357162,0.009568416039077975,13.861496,-2.3465831,3.4519868,-0.9891877,14.220156,-10.350575,1.6515456,0.28106827,-0.15263309,0.3634507,0.8749898,-8.699671,0.9543161,-0.1354058,-1.342484,3.0171463,0.009568416,0
0.47000000000000025,14.892563880973274,-1.342484034209738,3.017146416357162,0.009568416039077975,13.861496,-2.3465831,3.4519868,-0.9891877,14.133106,-10.340494,1.650213,0.27448094,-0.16768071,0.36177534,0.87502104,-8.710814,1.0620111,-0.13125823,-1.342484,3.0171463,0.009568416,0
0.48000000000000026,14.814538181924627,-1.1356996082943656,1.9786674009080512,-0.13191822734913067,13.787372,-2.3239899,2.8541229,-1.188808,14.045921,-10.329334,1.6489165,0.2678188,-0.18268263,0.36000133,0.8748137,-8.726726,1.1701595,-0.12822591,-1.342484,3.0171463,0.009568416,0
0.49000000000000027,14.814538181924627,-1.1356996082943656,1.9786674009080512,-0.13191822734913067,13.787372,-2.3239899,2.8541229,-1.188808,13.958557,-10.317094,1.6476423,0.26377946,-0.19308357,0.35753936,0.87481683,-8.746756,1.2779555,-0.12670185,-1.1356996,1.9786674,-0.13191822,0
0.5000000000000002,14.814538181924627,-1.1356996082943656,1.9786674009080512,-0.13191822734913067,13.787372,-2.3239899,2.8541229,-1.188808,13.870976,-10.303776,1.6463801,0.25970566,-0.2034593,0.35503075,0.8747058,-8.7701,1.3856883,-0.12583299,-1.1356996,1.9786674,-0.13191822,0
0.5100000000000002,14.814538181924627,-1.1356996082943656,1.9786674009080512,-0.13191822734913067,13.787372,-2.3239899,2.8541229,-1.188808,13.783144,-10.289381,1.6451231,0.25559795,-0.21380846,0.3524758,0.87448055,-8.796746,1.4933047,-0.12567401,-1.1356996,1.9786674,-0.13191822,0
0.5200000000000002,14.544309310239308,-0.8008527874267342,0.32174105772927847,-0.2419227054300075,13.967232,-2.209107,1.869764,-1.2248983,13.695029,-10.2739105,1.6438639,0.25145686,-0.22412972,0.3498748,0.87414116,-8.826682,1.6007516,-0.12627925,-1.1356996,1.9786674,-0.13191822,0
0.5300000000000002,14.544309310239308,-0.8008527874267342,0.32174105772927847,-0.2419227054300075,13.967232,-2.209107,1.869764,-1.2248983,13.606605,-10.257377,1.6425871,0.2510514,-0.22696383,0.3465044,0.8748687,-8.858478,1.7058846,-0.12903936,-0.8008528,0.32174104,-0.2419227,0
0.5400000000000003,14.544309310239308,-0.8008527874267342,0.32174105772927847,-0.2419227054300075,13.967232,-2.209107,1.869764,-1.2248983,13.517857,-10.239795,1.6412842,0.2506409,-0.22979335,0.34312707,0.8755786,-8.891328,1.810412,-0.13149208,-0.8008528,0.32174104,-0.2419227,0
0.5500000000000003,14.544309310239308,-0.8008527874267342,0.32174105772927847,-0.2419227054300075,13.967232,-2.209107,1.869764,-1.2248983,13.428775,-10.221171,1.6399583,0.25022534,-0.23261826,0.33974284,0.87627095,-8.925235,1.9143277,-0.13364674,-0.8008528,0.32174104,-0.2419227,0
0.5600000000000003,14.579579216758694,-0.5268476001323842,-0.40554466251643956,-0.28827671910275987,13.993775,-2.031156,1.2692877,-1.1012802,13.339349,-10.201511,1.6386123,0.24980475,-0.2354385,0.33635178,0.8769457,-8.960195,2.0176256,-0.13551264,-0.8008528,0.32174104,-0.2419227,0
0.5700000000000003,14.579579216758694,-0.5268476001323842,-0.40554466251643956,-0.28827671910275987,13.993775,-2.031156,1.2692877,-1.1012802,13.249568,-10.18082,1.6372507,0.25112897,-0.23480159,0.3331936,0.8779432,-8.995901,2.1205342,-0.13670431,-0.5268476,-0.40554467,-0.28827673,0
0.5800000000000003,14.579579216758694,-0.5268476001323842,-0.40554466251643956,-0.28827671910275987,13.993775,-2.031156,1.2692877,-1.1012802,13.1594305,-10.159103,1.6358806,0.25244987,-0.23416162,0.33003104,0.8789293,-9.031614,2.2227745,-0.13719384,-0.5268476,-0.40554467,-0.28827673,0
0.5900000000000003,14.579579216758694,-0.5268476001323842,-0.40554466251643956,-0.28827671910275987,13.993775,-2.031156,1.2692877,-1.1012802,13.068935,-10.136368,1.6345092,0.25376743,-0.23351857,0.32686418,0.87990385,-9.067336,2.3243415,-0.13698606,-0.5268476,-0.40554467,-0.28827673,0
0.6000000000000003,14.29413317059294,-0.30571613079542886,-0.7111761940267204,-0.3046232077101625,13.796215,-1.8704381,0.7377106,-1.0285875,12.978084,-10.112619,1.6331433,0.25508165,-0.23287246,0.32369304,0.8808668,-9.103067,2.4252305,-0.13608582,-0.5268476,-0.40554467,-0.28827673,0
0.6100000000000003,14.29413317059294,-0.30571613079542886,-0.7111761940267204,-0.3046232077101625,13.796215,-1.8704381,0.7377106,-1.0285875,12.886878,-10.087875,1.6317801,0.25721616,-0.23062113,0.32108203,0.88179356,-9.137914,2.5235033,-0.13640901,-0.30571613,-0.7111762,-0.30462322,0
0.6200000000000003,14.29413317059294,-0.30571613079542886,-0.7111761940267204,-0.3046232077101625,13.796215,-1.8704381,0.7377106,-1.0285875,12.795327,-10.062153,1.6304177,0.2593462,-0.22836581,0.31846547,0.88270503,-9.17225,2.6211774,-0.13595457,-0.30571613,-0.7111762,-0.30462322,0
0.6300000000000003,14.29413317059294,-0.30571613079542886,-0.7111761940267204,-0.3046232077101625,13.796215,-1.8704381,0.7377106,-1.0285875,12.703435,-10.035456,1.6290637,0.26147175,-0.22610652,0.3158434,0.88360125,-9.206075,2.7182453,-0.13472778,-0.30571613,-0.7111762,-0.30462322,0
0.6400000000000003,14.29413317059294,-0.30571613079542886,-0.7111761940267204,-0.3046232077101625,13.604598,-1.6664462,0.43384963,-0.9256426,12.611207,-10.007791,1.6277257,0.26359278,-0.22384335,0.31321588,0.8844822,-9.23939,2.8146996,-0.13273399,-0.30571613,-0.7111762,-0.30462322,0
0.6500000000000004,14.29413317059294,-0.30571613079542886,-0.7111761940267204,-0.3046232077101625,13.604598,-1.6664462,0.43384963,-0.9256426,12.518649,-9.979164,1.6264116,0.26570928,-0.22157629,0.31058294,0.8853479,-9.272198,2.9105332,-0.12997855,-0.30571613,-0.7111762,-0.30462322,0
0.6600000000000004,14.29413317059294,-0.30571613079542886,-0.7111761940267204,-0.3046232077101625,13.604598,-1.6664462,0.43384963,-0.9256426,12.425765,-9.949582,1.6251287,0.26782116,-0.21930541,0.30794463,0.8861981,-9.304498,3.0057383,-0.12646697,-0.30571613,-0.7111762,-0.30462322,0
0.6700000000000004,14.29413317059294,-0.30571613079542886,-0.7111761940267204,-0.3046232077101625,13.604598,-1.6664462,0.43384963,-0.9256426,12.332561,-9.919052,1.6238848,0.26992843,-0.21703072,0.30530098,0.88703305,-9.336291,3.1003072,-0.12220472,-0.30571613,-0.7111762,-0.30462322,0
0.6800000000000004,14.404240952636357,-0.22213957475187693,-0.440697971440883,-0.3111644443802637,13.386137,-1.4557714,0.15832135,-0.8352219,12.239041,-9.887579,1.6226872,0.272031,-0.21475229,0.3026521,0.8878527,-9.367578,3.1942334,-0.11719733,-0.30571613,-0.7111762,-0.30462322,0
0.6900000000000004,14.404240952636357,-0.22213957475187693,-0.440697971440883,-0.3111644443802637,13.386137,-1.4557714,0.15832135,-0.8352219,12.145209,-9.855166,1.6215472,0.27383956,-0.21356802,0.30073115,0.88823515,-9.398681,3.2883098,-0.11074887,-0.22213958,-0.44069797,-0.31116444,0
0.7000000000000004,14.404240952636357,-0.22213957475187693,-0.440697971440883,-0.3111644443802637,13.386137,-1.4557714,0.15832135,-0.8352219,12.051068,-9.821815,1.620474,0.27564576,-0.21238193,0.29880762,0.88860995,-9.429499,3.3819454,-0.10382121,-0.22213958,-0.44069797,-0.31116444,0
0.7100000000000004,14.404240952636357,-0.22213957475187693,-0.440697971440883,-0.3111644443802637,13.386137,-1.4557714,0.15832135,-0.8352219,11.95662,-9.78753,1.6194725,0.27744964,-0.21119404,0.29688156,0.8889771,-9.460033,3.4751368,-0.096416645,-0.22213958,-0.44069797,-0.31116444,0
0.7200000000000004,14.033654593650557,0.008552783134737478,-0.6674378643051668,-0.32621624109764413,13.17755,-1.0766304,-0.15225157,-0.6693971,11.861868,-9.752315,1.6185473,0.2792512,-0.21000436,0.294953,0.8893368,-9.490286,3.5678804,-0.088537455,-0.22213958,-0.44069797,-0.31116444,0
0.7300000000000004,14.033654593650557,0.008552783134737478,-0.6674378643051668,-0.32621624109764413,13.17755,-1.0766304,-0.15225157,-0.6693971,11.766819,-9.716186,1.6176896,0.28169313,-0.20750418,0.29371452,0.88956344,-9.51932,3.6578357,-0.08291004,0.008552783,-0.66743785,-0.32621625,0
0.7400000000000004,14.033654593650557,0.008552783134737478,-0.6674378643051668,-0.32621624109764413,13.17755,-1.0766304,-0.15225157,-0.6693971,11.671484,-9.679159,1.6168907,0.2841312,-0.20500115,0.292472,0.8897777,-9.547638,3.7474446,-0.07678629,0.008552783,-0.66743785,-0.32621625,0
0.7500000000000004,14.033654593650557,0.008552783134737478,-0.6674378643051668,-0.32621624109764413,13.17755,-1.0766304,-0.15225157,-0.6693971,11.575869,-9.641238,1.6161556,0.28656533,-0.20249528,0.2912255,0.8899798,-9.575243,3.8367012,-0.07016958,0.008552783,-0.66743785,-0.32621625,0
0.7600000000000005,14.088646013819522,0.05517885845576257,-0.34194486338412916,-0.32518227442206116,12.898886,-0.7711867,-0.43963453,-0.5032467,11.47998,-9.602427,1.615489,0.2889955,-0.1999866,0.28997493,0.8901695,-9.602134,3.925599,-0.06306334,0.008552783,-0.66743785,-0.32621625,0
0.7700000000000005,14.088646013819522,0.05517885845576257,-0.34194486338412916,-0.32518227442206116,12.898886,-0.7711867,-0.43963453,-0.5032467,11.383827,-9.562725,1.6148977,0.29099298,-0.19885585,0.28940046,0.88995904,-9.62853,4.0145645,-0.055156432,0.05517886,-0.34194487,-0.3251823,0
0.7800000000000005,14.088646013819522,0.05517885845576257,-0.34194486338412916,-0.32518227442206116,12.898886,-0.7711867,-0.43963453,-0.5032467,11.287413,-9.522135,1.6143866,0.2929888,-0.19772395,0.28882432,0.88974357,-9.654513,4.103388,-0.047028854,0.05517886,-0.34194487,-0.3251823,0
0.7900000000000005,14.088646013819522,0.05517885845576257,-0.34194486338412916,-0.32518227442206116,12.898886,-0.7711867,-0.43963453,-0.5032467,11.19074,-9.480658,1.6139579,0.294983,-0.19659095,0.28824657,0.889523,-9.680085,4.192067,-0.03868112,0.05517886,-0.34194487,-0.3251823,0
0.8000000000000005,13.606937493694724,0.23800551327402084,-1.1828616623422594,-0.34410941514993426,12.876872,-0.51225114,-0.5396862,-0.4518356,11.093812,-9.438295,1.6136138,0.29697552,-0.19545683,0.2876672,0.8892975,-9.705247,4.280599,-0.030113755,0.05517886,-0.34194487,-0.3251823,1
0.8100000000000005,13.606937493694724,0.23800551327402084,-1.1828616623422594,-0.34410941514993426,12.876872,-0.51225114,-0.5396862,-0.4518356,10.996646,-9.395085,1.6133109,0.29925743,-0.19446579,0.28414384,0.8898824,-9.727975,4.3611608,-0.030363346,-0.51225114,-0.5396862,-0.4518356,1
0.8200000000000005,13.606937493694724,0.23800551327402084,-1.1828616623422594,-0.34410941514993426,12.876872,-0.51225114,-0.5396862,-0.4518356,10.899253,-9.351073,1.6130087,0.3015336,-0.19347107,0.2806151,0.8904504,-9.7506075,4.4409943,-0.02999671,-0.51225114,-0.5396862,-0.4518356,1
0.8300000000000005,13.606937493694724,0.23800551327402084,-1.1828616623422594,-0.34410941514993426,12.876872,-0.51225114,-0.5396862,-0.4518356,10.801634,-9.306267,1.6127131,0.30380407,-0.1924727,0.27708104,0.8910016,-9.7731495,4.520095,-0.029019622,-0.51225114,-0.5396862,-0.4518356,1
0.8400000000000005,13.606937493694724,0.23800551327402084,-1.1828616623422594,-0.34410941514993426,12.776886,-0.31902033,-0.700719,-0.42549416,10.70379,-9.2606735,1.6124303,0.3060688,-0.19147067,0.27354172,0.8915358,-9.795604,4.5984573,-0.0274379,-0.51225114,-0.5396862,-0.4518356,1
0.8500000000000005,13.606937493694724,0.23800551327402084,-1.1828616623422594,-0.34410941514993426,12.776886,-0.31902033,-0.700719,-0.42549416,10.605723,-9.214303,1.6121626,0.30861554,-0.18941541,0.27063727,0.8919832,-9.817683,4.675501,-0.026031053,-0.31902033,-0.700719,-0.42549416,1
0.8600000000000005,13.606937493694724,0.23800551327402084,-1.1828616623422594,-0.34410941514993426,12.776886,-0.31902033,-0.700719,-0.42549416,10.507438,-9.167165,1.6119119,0.31115627,-0.18735649,0.26772764,0.8924133,-9.839367,4.7518744,-0.024022305,-0.31902033,-0.700719,-0.42549416,1
0.8700000000000006,13.606937493694724,0.23800551327402084,-1.1828616623422594,-0.34410941514993426,12.776886,-0.31902033,-0.700719,-0.42549416,10.408938,-9.119267,1.6116841,0.313691,-0.18529394,0.2648128,0.89282626,-9.860659,4.8275704,-0.021417078,-0.31902033,-0.700719,-0.42549416,1
0.8800000000000006,14.00080078081618,0.5485414815568981,-0.6660549111988372,-0.3159532338678569,12.833092,0.1074473,-0.73924017,-0.3796415,10.310227,-9.070617,1.6114855,0.31621966,-0.18322779,0.26189286,0.8932218,-9.881561,4.902584,-0.018220834,-0.31902033,-0.700719,-0.42549416,0
0.8900000000000006,14.00080078081618,0.5485414815568981,-0.6660549111988372,-0.3159532338678569,12.833092,0.1074473,-0.73924017,-0.3796415,10.2113,-9.021182,1.6113701,0.31900212,-0.17979762,0.2629974,0.8926047,-9.903752,4.984338,-0.0048489925,0.5485415,-0.6660549,-0.31595322,0
0.9000000000000006,14.00080078081618,0.5485414815568981,-0.6660549111988372,-0.3159532338678569,12.833092,0.1074473,-0.73924017,-0.3796415,10.112157,-8.970929,1.6113894,0.32177782,-0.17636366,0.26409635,0.8919688,-9.924752,5.066155,0.008706919,0.5485415,-0.6660549,-0.31595322,0
0.9100000000000006,14.00080078081618,0.5485414815568981,-0.6660549111988372,-0.3159532338678569,12.833092,0.1074473,-0.73924017,-0.3796415,10.012809,-8.919859,1.6115448,0.32454675,-0.17292596,0.26518974,0.891314,-9.944558,5.148027,0.02244082,0.5485415,-0.6660549,-0.31595322,0
0.9200000000000006,13.599143205843692,0.8487952997486801,-1.7190489449945172,-0.31602485156584587,12.962703,0.51384246,-0.8711302,-0.35895726,9.913269,-8.8679695,1.6118387,0.32730883,-0.16948463,0.26627752,0.89064044,-9.963169,5.229944,0.03634661,0.5485415,-0.6660549,-0.31595322,1
0.9300000000000006,13.599143205843692,0.8487952997486801,-1.7190489449945172,-0.31602485156584587,12.962703,0.51384246,-0.8711302,-0.35895726,9.813556,-8.81529,1.612231,0.3304979,-0.16523989,0.26683208,0.8900943,-9.979232,5.3057613,0.042154495,0.51384246,-0.8711302,-0.35895726,1
0.9400000000000006,13.599143205843692,0.8487952997486801,-1.7190489449945172,-0.31602485156584587,12.962703,0.51384246,-0.8711302,-0.35895726,9.713688,-8.761854,1.6126828,0.33367744,-0.16099039,0.267379,0.88952243,-9.994022,5.38144,0.048251066,0.51384246,-0.8711302,-0.35895726,1
0.9500000000000006,13.599143205843692,0.8487952997486801,-1.7190489449945172,-0.31602485156584587,12.962703,0.51384246,-0.8711302,-0.35895726,9.61368,-8.707663,1.613197,0.33684734,-0.15673625,0.26791817,0.8889251,-10.007542,5.45697,0.054628283,0.51384246,-0.8711302,-0.35895726,1
0.9600000000000006,13.792722889285171,0.7215936978986365,-0.8021837422270124,-0.31634918588774513,12.95028,0.6267565,-0.89472485,-0.31730866,9.513542,-8.652716,1.6137762,0.34000754,-0.1524776,0.26844963,0.888302,-10.019789,5.5323396,0.061278056,0.51384246,-0.8711302,-0.35895726,1
0.9700000000000006,13.792722889285171,0.7215936978986365,-0.8021837422270124,-0.31634918588774513,12.95028,0.6267565,-0.89472485,-0.31730866,9.413289,-8.597016,1.6144229,0.34309012,-0.14786163,0.26946604,0.88758916,-10.030706,5.607493,0.06807617,0.6267565,-0.89472485,-0.31730866,1
0.9800000000000006,13.792722889285171,0.7215936978986365,-0.8021837422270124,-0.31634918588774513,12.95028,0.6267565,-0.89472485,-0.31730866,9.312933,-8.5405655,1.6151385,0.3461616,-0.14324087,0.27047375,0.88684744,-10.040231,5.682537,0.075087994,0.6267565,-0.89472485,-0.31730866,1
0.9900000000000007,13.792722889285171,0.7215936978986365,-0.8021837422270124,-0.31634918588774513,12.95028,0.6267565,-0.89472485,-0.31730866,9.212488,-8.483366,1.6159253,0.3492219,-0.13861547,0.2714727,0.8860771,-10.04836,5.75746,0.082303524,0.6267565,-0.89472485,-0.31730866,1
1.0000000000000007,13.430746152537184,0.6524606960064564,-1.8301063879954647,-0.31550712312407764,12.8742895,0.69356006,-0.92381454,-0.27710384,9.111969,-8.425419,1.6167853,0.35227087,-0.1339856,0.27246284,0.88527817,-10.055094,5.8322487,0.08971274,0.6267565,-0.89472485,-0.31730866,1
1.0100000000000007,13.430746152537184,0.6524606960064564,-1.8301063879954647,-0.31550712312407764,12.8742895,0.69356006,-0.92381454,-0.27710384,9.011391,-8.366725,1.6177171,0.3552144,-0.12905,0.2737152,0.8844485,-10.0603695,5.9064636,0.09667871,0.69356006,-0.92381454,-0.27710384,1
1.0200000000000007,13.430746152537184,0.6524606960064564,-1.8301063879954647,-0.31550712312407764,12.8742895,0.69356006,-0.92381454,-0.27710384,8.910767,-8.30729,1.6187193,0.35814536,-0.12410985,0.2749579,0.88358766,-10.064171,5.9805503,0.103798464,0.69356006,-0.92381454,-0.27710384,1
1.0300000000000007,13.430746152537184,0.6524606960064564,-1.8301063879954647,-0.31550712312407764,12.8742895,0.69356006,-0.92381454,-0.27710384,8.810112,-8.247115,1.6197937,0.3610637,-0.119165316,0.27619088,0.8826957,-10.066499,6.054497,0.111060284,0.69356006,-0.92381454,-0.27710384,1
1.0400000000000007,13.430746152537184,0.6524606960064564,-1.8301063879954647,-0.31550712312407764,12.852801,0.7499545,-0.8607973,-0.2632429,8.709441,-8.186201,1.6209412,0.36396927,-0.11421657,0.27741414,0.8817725,-10.067353,6.1282887,0.118452445,0.69356006,-0.92381454,-0.27710384,1
1.0500000000000007,13.430746152537184,0.6524606960064564,-1.8301063879954647,-0.31550712312407764,12.852801,0.7499545,-0.8607973,-0.2632429,8.608769,-8.124551,1.6221622,0.36674586,-0.10941984,0.27899894,0.8807297,-10.066739,6.2018237,0.12576367,0.7499545,-0.8607973,-0.2632429,1
1.0600000000000007,13.430746152537184,0.6524606960064564,-1.8301063879954647,-0.31550712312407764,12.852801,0.7499545,-0.8607973,-0.2632429,8.508111,-8.062165,1.6234566,0.3695099,-0.104619354,0.28057417,0.8796566,-10.06466,6.2752676,0.13311966,0.7499545,-0.8607973,-0.2632429,1
1.0700000000000007,13.430746152537184,0.6524606960064564,-1.8301063879954647,-0.31550712312407764,12.852801,0.7499545,-0.8607973,-0.2632429,8.40748,-7.999047,1.6248248,0.37226126,-0.09981527,0.2821398,0.87855333,-10.061117,6.3486075,0.14050888,0.7499545,-0.8607973,-0.2632429,1
1.0800000000000007,13.63608875330416,0.35690892569175986,-0.655125684056579,-0.32153984186527207,12.789555,0.689016,-0.78062785,-0.27387694,8.306893,-7.9351945,1.626267,0.3749998,-0.09500777,0.28369576,0.87741995,-10.056112,6.421831,0.14791974,0.7499545,-0.8607973,-0.2632429,1
1.0900000000000007,13.63608875330416,0.35690892569175986,-0.655125684056579,-0.32153984186527207,12.789555,0.689016,-0.78062785,-0.27387694,8.206363,-7.870612,1.6277807,0.37763047,-0.090678304,0.28512064,0.8762872,-10.049725,6.4945726,0.15481958,0.689016,-0.78062785,-0.27387694,1
1.1000000000000008,13.63608875330416,0.35690892569175986,-0.655125684056579,-0.32153984186527207,12.789555,0.689016,-0.78062785,-0.27387694,8.105904,-7.8053036,1.6293633,0.38025025,-0.08634622,0.28653726,0.87512904,-10.042012,6.5671935,0.16171426,0.689016,-0.78062785,-0.27387694,1
1.1100000000000008,13.63608875330416,0.35690892569175986,-0.655125684056579,-0.32153984186527207,12.789555,0.689016,-0.78062785,-0.27387694,8.0055275,-7.7392683,1.631015,0.38285896,-0.082011625,0.2879456,0.87394553,-10.032974,6.6396823,0.16859445,0.689016,-0.78062785,-0.27387694,1
1.1200000000000008,13.308409931765476,0.07143539664366072,-1.5075962080918834,-0.3135349089414059,12.702489,0.6116606,-0.67856,-0.27617848,7.905249,-7.6725097,1.6327354,0.38545662,-0.07767466,0.2893456,0.87273675,-10.022613,6.712028,0.17545088,0.689016,-0.78062785,-0.27387694,1
1.1300000000000008,13.308409931765476,0.07143539664366072,-1.5075962080918834,-0.3135349089414059,12.702489,0.6116606,-0.67856,-0.27617848,7.80508,-7.6050315,1.6345206,0.38787663,-0.07393348,0.29059634,0.87157315,-10.011067,6.7837396,0.18155919,0.6116606,-0.67856,-0.27617848,1
1.1400000000000008,13.308409931765476,0.07143539664366072,-1.5075962080918834,-0.3135349089414059,12.702489,0.6116606,-0.67856,-0.27617848,7.7050314,-7.536836,1.6363666,0.3902878,-0.070190616,0.2918405,0.87038976,-9.99837,6.8553185,0.18762475,0.6116606,-0.67856,-0.27617848,1
1.1500000000000008,13.308409931765476,0.07143539664366072,-1.5075962080918834,-0.3135349089414059,12.702489,0.6116606,-0.67856,-0.27617848,7.605116,-7.467926,1.638273,0.39269006,-0.06644615,0.293078,0.8691865,-9.984523,6.9267564,0.19364068,0.6116606,-0.67856,-0.27617848,1
1.1600000000000008,13.37168101203692,-0.27877641504704437,-0.4347375223205783,-0.2954367278513224,12.582298,0.46334934,-0.60609424,-0.28558832,7.505345,-7.398302,1.6402392,0.3950834,-0.06270018,0.29430884,0.8679635,-9.969526,6.9980445,0.19960012,0.6116606,-0.67856,-0.27617848,1
1.1700000000000008,13.37168101203692,-0.27877641504704437,-0.4347375223205783,-0.2954367278513224,12.582298,0.46334934,-0.60609424,-0.28558832,7.405729,-7.327969,1.64226,0.39735666,-0.059574284,0.29503042,0.86690027,-9.9536085,7.0684867,0.20453309,0.46334934,-0.60609424,-0.28558832,1
1.1800000000000008,13.37168101203692,-0.27877641504704437,-0.4347375223205783,-0.2954367278513224,12.582298,0.46334934,-0.60609424,-0.28558832,7.3062763,-7.2569327,1.6443299,0.3996233,-0.056447394,0.2957471,0.86582273,-9.936751,7.138729,0.20945357,0.46334934,-0.60609424,-0.28558832,1
1.1900000000000008,13.37168101203692,-0.27877641504704437,-0.4347375223205783,-0.2954367278513224,12.582298,0.46334934,-0.60609424,-0.28558832,7.206997,-7.1851954,1.646449,0.4018834,-0.053319566,0.29645887,0.8647309,-9.918958,7.208765,0.21435715,0.46334934,-0.60609424,-0.28558832,1
1.2000000000000008,13.082767188276664,-0.5749897586147402,-0.8236340051984697,-0.26548767892278985,12.2316,0.014767885,-0.7305534,-0.29418835,7.1079,-7.112758,1.6486169,0.4041368,-0.05019085,0.29716572,0.8636246,-9.9002285,7.278588,0.21923938,0.46334934,-0.60609424,-0.28558832,1
1.2100000000000009,13.082767188276664,-0.5749897586147402,-0.8236340051984697,-0.26548767892278985,12.2316,0.014767885,-0.7305534,-0.29418835,7.008992,-7.039634,1.6508197,0.4064932,-0.04744312,0.29567713,0.8631848,-9.881224,7.3461113,0.22134219,0.014767885,-0.7305534,-0.29418835,1
1.2200000000000009,13.082767188276664,-0.5749897586147402,-0.8236340051984697,-0.26548767892278985,12.2316,0.014767885,-0.7305534,-0.29418835,6.910278,-6.965838,1.6530447,0.40884328,-0.044694662,0.29418397,0.8627316,-9.861612,7.413042,0.22372498,0.014767885,-0.7305534,-0.29418835,1
1.2300000000000009,13.082767188276664,-0.5749897586147402,-0.8236340051984697,-0.26548767892278985,12.2316,0.014767885,-0.7305534,-0.29418835,6.8117623,-6.891376,1.655295,0.41118702,-0.041945502,0.29268622,0.862265,-9.841396,7.479376,0.22638361,0.014767885,-0.7305534,-0.29418835,1
1.2400000000000009,13.082767188276664,-0.5749897586147402,-0.8236340051984697,-0.26548767892278985,12.231747,-0.18436289,-0.8557024,-0.28833395,6.713452,-6.816253,1.6575732,0.41352436,-0.039195694,0.29118395,0.86178505,-9.820579,7.5451074,0.22931398,0.014767885,-0.7305534,-0.29418835,1
1.2500000000000009,13.082767188276664,-0.5749897586147402,-0.8236340051984697,-0.26548767892278985,12.231747,-0.18436289,-0.8557024,-0.28833395,6.615353,-6.740476,1.6598823,0.41597208,-0.036309116,0.2885607,0.8616159,-9.79919,7.610148,0.23257351,-0.18436289,-0.8557024,-0.28833395,1
1.260000000000001,13.082767188276664,-0.5749897586147402,-0.8236340051984697,-0.26548767892278985,12.231747,-0.18436289,-0.8557024,-0.28833395,6.51747,-6.664053,1.6622262,0.418411,-0.033421766,0.2859313,0.8614284,-9.777287,7.674351,0.23625591,-0.18436289,-0.8557024,-0.28833395,1
1.270000000000001,13.082767188276664,-0.5749897586147402,-0.8236340051984697,-0.26548767892278985,12.231747,-0.18436289,-0.8557024,-0.28833395,6.419809,-6.586992,1.6646088,0.42084098,-0.030533707,0.2832958,0.86122257,-9.754871,7.7377105,0.24035466,-0.18436289,-0.8557024,-0.28833395,1
1.280000000000001,13.128580389835921,-0.6331551081969201,-0.29000146441365826,-0.2227148412271264,12.429495,-0.18748161,-0.9920598,-0.30409256,6.322374,-6.5093017,1.6670346,0.42326206,-0.027644996,0.28065434,0.8609985,-9.731949,7.800221,0.2448631,-0.18436289,-0.8557024,-0.28833395,1
1.290000000000001,13.128580389835921,-0.6331551081969201,-0.29000146441365826,-0.2227148412271264,12.429495,-0.18748161,-0.9920598,-0.30409256,6.225173,-6.430986,1.669516,0.4259315,-0.02419731,0.2777018,0.8607433,-9.708105,7.862827,0.25145847,-0.18748161,-0.9920598,-0.30409256,1
1.300000000000001,13.128580389835921,-0.6331551081969201,-0.29000146441365826,-0.2227148412271264,12.429495,-0.18748161,-0.9920598,-0.30409256,6.1282134,-6.352049,1.6720654,0.4285891,-0.02074895,0.27474156,0.860464,-9.68365,7.924433,0.25850466,-0.18748161,-0.9920598,-0.30409256,1
1.310000000000001,13.128580389835921,-0.6331551081969201,-0.29000146441365826,-0.2227148412271264,12.429495,-0.18748161,-0.9920598,-0.30409256,6.0315022,-6.2725005,1.6746874,0.43123478,-0.017300017,0.27177367,0.8601608,-9.65859,7.985033,0.26599243,-0.18748161,-0.9920598,-0.30409256,1
1.320000000000001,12.904207854160205,-0.5728391747138127,-0.23704597754520743,-0.17865316688209973,12.471873,-0.17756814,-1.1416707,-0.3487702,5.9350443,-6.192352,1.6773866,0.43386847,-0.013850602,0.26879823,0.85983384,-9.632931,8.044619,0.27391258,-0.18748161,-0.9920598,-0.30409256,1
1.330000000000001,12.904207854160205,-0.5728391747138127,-0.23704597754520743,-0.17865316688209973,12.471873,-0.17756814,-1.1416707,-0.3487702,5.8388467,-6.111611,1.6801691,0.43688208,-0.009796089,0.26552913,0.8593793,-9.606543,8.103333,0.2826343,-0.17756814,-1.1416707,-0.3487702,1
1.340000000000001,12.904207854160205,-0.5728391747138127,-0.23704597754520743,-0.17865316688209973,12.471873,-0.17756814,-1.1416707,-0.3487702,5.742916,-6.0302887,1.683041,0.43987978,-0.005741219,0.2622504,0.85889345,-9.57944,8.160882,0.29181105,-0.17756814,-1.1416707,-0.3487702,1
1.350000000000001,12.904207854160205,-0.5728391747138127,-0.23704597754520743,-0.17865316688209973,12.471873,-0.17756814,-1.1416707,-0.3487702,5.64726,-5.948397,1.6860069,0.44286147,-0.0016861407,0.2589621,0.8583763,-9.551631,8.217255,0.30143052,-0.17756814,-1.1416707,-0.3487702,1
1.360000000000001,12.604569018699408,-0.501571065355479,0.4579063361370177,-0.10533832218022865,12.450352,-0.20648777,-1.3440773,-0.40119824,5.551886,-5.8659472,1.689071,0.44582704,0.0023689994,0.25566435,0.85782796,-9.523126,8.272442,0.31148037,-0.17756814,-1.1416707,-0.3487702,0
1.370000000000001,12.604569018699408,-0.501571065355479,0.4579063361370177,-0.10533832218022865,12.450352,-0.20648777,-1.3440773,-0.40119824,5.4568005,-5.7829475,1.6922433,0.4456968,-0.0008477586,0.2545335,0.8582347,-9.494191,8.3275175,0.3230023,-0.50157106,0.45790634,-0.10533832,0
1.380000000000001,12.604569018699408,-0.501571065355479,0.4579063361370177,-0.10533832218022865,12.450352,-0.20648777,-1.3440773,-0.40119824,5.362,-5.6993966,1.6955315,0.44556132,-0.0040645064,0.25339967,0.85863125,-9.466088,8.382735,0.33466884,-0.50157106,0.45790634,-0.10533832,0
1.390000000000001,12.604569018699408,-0.501571065355479,0.4579063361370177,-0.10533832218022865,12.450352,-0.20648777,-1.3440773,-0.40119824,5.2674766,-5.6152925,1.698937,0.4454206,-0.0072812065,0.25226283,0.8590177,-9.438818,8.438093,0.34647456,-0.50157106,0.45790634,-0.10533832,0
1.400000000000001,12.107411426507461,-0.24773267853365474,0.015634131914716465,-0.07914871207472768,12.63324,-0.389337,-1.7097086,-0.23442605,5.1732216,-5.5306344,1.7024614,0.44527462,-0.010497821,0.251123,0.859394,-9.412382,8.493591,0.3584139,-0.50157106,0.45790634,-0.10533832,0
1.410000000000001,12.107411426507461,-0.24773267853365474,0.015634131914716465,-0.07914871207472768,12.63324,-0.389337,-1.7097086,-0.23442605,5.0792217,-5.445431,1.706084,0.4455817,-0.011215917,0.25008893,0.8595273,-9.387581,8.546934,0.3661365,-0.24773268,0.015634133,-0.07914871,0
1.420000000000001,12.107411426507461,-0.24773267853365474,0.015634131914716465,-0.07914871207472768,12.63324,-0.389337,-1.7097086,-0.23442605,4.985469,-5.359696,1.7097845,0.445888,-0.011933994,0.24905445,0.85965914,-9.363022,8.600147,0.37398055,-0.24773268,0.015634133,-0.07914871,0
1.430000000000001,12.107411426507461,-0.24773267853365474,0.015634131914716465,-0.07914871207472768,12.63324,-0.389337,-1.7097086,-0.23442605,4.8919606,-5.273429,1.713564,0.4461936,-0.012652051,0.24801953,0.85978955,-9.338707,8.653232,0.38194534,-0.24773268,0.015634133,-0.07914871,0
1.440000000000001,12.107411426507461,-0.24773267853365474,0.015634131914716465,-0.07914871207472768,12.560234,-0.18317068,-2.0272593,-0.26851907,4.798694,-5.1866317,1.7174238,0.44649842,-0.0133700855,0.2469842,0.8599184,-9.314636,8.706187,0.39003018,-0.24773268,0.015634133,-0.07914871,0
1.450000000000001,12.107411426507461,-0.24773267853365474,0.015634131914716465,-0.07914871207472768,12.560234,-0.18317068,-2.0272593,-0.26851907,4.705667,-5.0993056,1.7213651,0.44680247,-0.014088098,0.24594845,0.86004585,-9.29081,8.759013,0.3982343,-0.24773268,0.015634133,-0.07914871,0
1.460000000000001,12.107411426507461,-0.24773267853365474,0.015634131914716465,-0.07914871207472768,12.560234,-0.18317068,-2.0272593,-0.26851907,4.6128774,-5.011452,1.7253889,0.44710577,-0.014806086,0.24491228,0.86017185,-9.267227,8.811709,0.40655702,-0.24773268,0.015634133,-0.07914871,0
1.470000000000001,12.107411426507461,-0.24773267853365474,0.015634131914716465,-0.07914871207472768,12.560234,-0.18317068,-2.0272593,-0.26851907,4.520322,-4.9230723,1.7294965,0.44740832,-0.015524049,0.2438757,0.8602964,-9.243889,8.864276,0.4149976,-0.24773268,0.015634133,-0.07914871,0
1.480000000000001,11.693019094302707,-0.059144865255262656,-0.23446112394816138,-0.0358079940875885,12.2605505,-0.28889117,-2.0776036,-0.1399476,4.4279985,-4.834167,1.7336891,0.4477101,-0.016241986,0.24283871,0.8604195,-9.220795,8.916713,0.4235553,-0.24773268,0.015634133,-0.07914871,0
1.490000000000001,11.693019094302707,-0.059144865255262656,-0.23446112394816138,-0.0358079940875885,12.2605505,-0.28889117,-2.0776036,-0.1399476,4.3359013,-4.744747,1.7379496,0.4481437,-0.015409176,0.24205631,0.8604295,-9.198596,8.967185,0.42856857,-0.059144866,-0.23446113,-0.035807993,0
1.500000000000001,11.693019094302707,-0.059144865255262656,-0.23446112394816138,-0.0358079940875885,12.2605505,-0.28889117,-2.0776036,-0.1399476,4.2440267,-4.654824,1.7422607,0.44857663,-0.014576343,0.24127355,0.8604383,-9.176287,9.017417,0.43367645,-0.059144866,-0.23446113,-0.035807993,0
1.5100000000000011,11.693019094302707,-0.059144865255262656,-0.23446112394816138,-0.0358079940875885,12.2605505,-0.28889117,-2.0776036,-0.1399476,4.1523757,-4.5643992,1.7466234,0.44900888,-0.013743488,0.24049044,0.86044574,-9.153868,9.067405,0.43887842,-0.059144866,-0.23446113,-0.035807993,0
1.5200000000000011,11.209229985839952,0.1244992345225176,-0.6220663687418282,0.007381667520395776,12.368164,-0.43762028,-2.7747974,-0.027780354,4.06095,-4.4734764,1.7510386,0.44944045,-0.012910613,0.23970696,0.86045194,-9.13134,9.117148,0.44417393,-0.059144866,-0.23446113,-0.035807993,0
1.5300000000000011,11.209229985839952,0.1244992345225176,-0.6220663687418282,0.007381667520395776,12.368164,-0.43762028,-2.7747974,-0.027780354,3.9697454,-4.382067,1.7554858,0.45016006,-0.00994564,0.23884395,0.86035514,-9.109481,9.164513,0.4452881,0.12449923,-0.6220664,0.0073816674,0
1.5400000000000011,11.209229985839952,0.1244992345225176,-0.6220663687418282,0.007381667520395776,12.368164,-0.43762028,-2.7747974,-0.027780354,3.878762,-4.2901874,1.7599447,0.45087513,-0.0069805672,0.23797855,0.86024964,-9.087099,9.211409,0.44650853,0.12449923,-0.6220664,0.0073816674,0
1.5500000000000012,11.209229985839952,0.1244992345225176,-0.6220663687418282,0.007381667520395776,12.368164,-0.43762028,-2.7747974,-0.027780354,3.788005,-4.1978407,1.7644162,0.45158565,-0.0040154234,0.23711076,0.86013556,-9.064195,9.257832,0.4478312,0.12449923,-0.6220664,0.0073816674,0
1.5600000000000012,10.809187923370745,0.16558492769244992,-0.7015240935253162,0.08368281446371245,11.590743,-0.46179295,-2.2292376,0.13256395,3.69748,-4.105032,1.7689016,0.4522916,-0.0010502394,0.2362406,0.8600128,-9.040769,9.3037815,0.4492521,0.12449923,-0.6220664,0.0073816674,0
1.5700000000000012,10.809187923370745,0.16558492769244992,-0.7015240935253162,0.08368281446371245,11.590743,-0.46179295,-2.2292376,0.13256395,3.6071877,-4.0117745,1.7733839,0.4527583,0.002439668,0.23536503,0.8600045,-9.017644,9.347618,0.44721207,0.16558492,-0.7015241,0.08368281,0
1.5800000000000012,10.809187923370745,0.16558492769244992,-0.7015240935253162,0.08368281446371245,11.590743,-0.46179295,-2.2292376,0.13256395,3.5171294,-3.9180813,1.7778462,0.45321906,0.0059295436,0.23448637,0.8599849,-8.993934,9.390948,0.4452583,0.16558492,-0.7015241,0.08368281,0
1.5900000000000012,10.809187923370745,0.16558492769244992,-0.7015240935253162,0.08368281446371245,11.590743,-0.46179295,-2.2292376,0.13256395,3.427311,-3.8239574,1.7822894,0.45367384,0.009419341,0.23360461,0.8599539,-8.969637,9.433771,0.44338548,0.16558492,-0.7015241,0.08368281,0
1.6000000000000012,10.499762286607192,0.11713336302666139,-0.8920729934709779,0.14038803485181206,12.168807,-0.48257297,-3.1037302,0.20020083,3.3377388,-3.7294078,1.7867142,0.45412263,0.012909013,0.23271981,0.8599116,-8.944756,9.476085,0.4415883,0.16558492,-0.7015241,0.08368281,0
1.6100000000000012,10.499762286607192,0.11713336302666139,-0.8920729934709779,0.14038803485181206,12.168807,-0.48257297,-3.1037302,0.20020083,3.2484145,-3.634444,1.7911077,0.45454478,0.017173704,0.23118642,0.86002755,-8.91999,9.5166235,0.43712446,0.117133364,-0.892073,0.14038804,0
1.6200000000000012,10.499762286607192,0.11713336302666139,-0.8920729934709779,0.14038803485181206,12.168807,-0.48257297,-3.1037302,0.20020083,3.159341,-3.5390778,1.7954571,0.4549575,0.021438038,0.2296482,0.8601257,-8.89458,9.55648,0.43278,0.117133364,-0.892073,0.14038804,0
1.6300000000000012,10.499762286607192,0.11713336302666139,-0.8920729934709779,0.14038803485181206,12.168807,-0.48257297,-3.1037302,0.20020083,3.070525,-3.4433165,1.7997637,0.45536077,0.025701929,0.22810525,0.86020607,-8.8685255,9.595655,0.42854676,0.117133364,-0.892073,0.14038804,0
1.6400000000000012,10.499762286607192,0.11713336302666139,-0.8920729934709779,0.14038803485181206,12.083625,-0.61493427,-3.1266882,0.38242552,2.9819725,-3.3471668,1.8040284,0.45575464,0.029965287,0.22655757,0.86026853,-8.84183,9.634144,0.42441654,0.117133364,-0.892073,0.14038804,0
1.6500000000000012,10.499762286607192,0.11713336302666139,-0.8920729934709779,0.14038803485181206,12.083625,-0.61493427,-3.1266882,0.38242552,2.89369,-3.2506359,1.8082525,0.45613903,0.034228023,0.2250052,0.8603132,-8.814494,9.671946,0.42038116,0.117133364,-0.892073,0.14038804,0
1.6600000000000013,10.499762286607192,0.11713336302666139,-0.8920729934709779,0.14038803485181206,12.083625,-0.61493427,-3.1266882,0.38242552,2.8056848,-3.1537302,1.8124365,0.45651394,0.038490053,0.22344814,0.86034,-8.786518,9.709058,0.4164325,0.117133364,-0.892073,0.14038804,0
1.6700000000000013,10.499762286607192,0.11713336302666139,-0.8920729934709779,0.14038803485181206,12.083625,-0.61493427,-3.1266882,0.38242552,2.717962,-3.056457,1.8165814,0.45687944,0.042751282,0.22188647,0.860349,-8.757904,9.745478,0.41256225,0.117133364,-0.892073,0.14038804,0
1.6800000000000013,10.22540362250295,0.0006428791432181557,-0.8758932917239936,0.2340513877787561,12.050808,-0.75888306,-3.4501917,0.41638872,2.630529,-2.958823,1.8206879,0.45723543,0.047011625,0.2203202,0.8603402,-8.728654,9.781204,0.40876234,0.117133364,-0.892073,0.14038804,0
1.6900000000000013,10.22540362250295,0.0006428791432181557,-0.8758932917239936,0.2340513877787561,12.050808,-0.75888306,-3.4501917,0.41638872,2.5433872,-2.8608398,1.8247445,0.45718864,0.05103826,0.21826324,0.86065984,-8.699586,9.815302,0.4025769,0.00064287917,-0.8758933,0.23405139,0
1.7000000000000013,10.22540362250295,0.0006428791432181557,-0.8758932917239936,0.2340513877787561,12.050808,-0.75888306,-3.4501917,0.41638872,2.456539,-2.7625196,1.8287399,0.45713246,0.05506385,0.2162018,0.8609618,-8.670002,9.848675,0.39649227,0.00064287917,-0.8758933,0.23405139,0
1.7100000000000013,10.22540362250295,0.0006428791432181557,-0.8758932917239936,0.2340513877787561,12.050808,-0.75888306,-3.4501917,0.41638872,2.369989,-2.663869,1.8326747,0.45706686,0.05908831,0.21413592,0.86124605,-8.6399,9.881322,0.39050043,0.00064287917,-0.8758933,0.23405139,0
1.7200000000000013,9.931465903535235,-0.19128955009796186,-0.895877088709794,0.31568353707943625,12.134171,-0.92686003,-3.7547257,0.47203603,2.2837427,-2.5648956,1.8365502,0.4569919,0.06311155,0.21206564,0.8615126,-8.609283,9.913241,0.38459346,0.00064287917,-0.8758933,0.23405139,0
1.7300000000000013,9.931465903535235,-0.19128955009796186,-0.895877088709794,0.31568353707943625,12.134171,-0.92686003,-3.7547257,0.47203603,2.1978006,-2.4656112,1.8403537,0.45663702,0.066867486,0.20909251,0.86214393,-8.579098,9.943495,0.37614182,-0.19128954,-0.89587706,0.31568354,0
1.7400000000000013,9.931465903535235,-0.19128955009796186,-0.895877088709794,0.31568353707943625,12.134171,-0.92686003,-3.7547257,0.47203603,2.112162,-2.3660283,1.8440735,0.4562714,0.07062185,0.20611449,0.86275506,-8.548546,9.972929,0.36783865,-0.19128954,-0.89587706,0.31568354,0
1.7500000000000013,9.931465903535235,-0.19128955009796186,-0.895877088709794,0.31568353707943625,12.134171,-0.92686003,-3.7547257,0.47203603,2.0268307,-2.2661552,1.8477111,0.45589507,0.07437455,0.20313163,0.8633459,-8.517628,10.001543,0.35967532,-0.19128954,-0.89587706,0.31568354,0
1.7600000000000013,9.709366178071654,-0.39138914526811847,-1.2308790134502887,0.44678471844106055,11.971408,-1.0981419,-3.7209194,0.51340663,1.9418106,-2.1660001,1.8512675,0.45550805,0.078125514,0.20014401,0.8639165,-8.486343,10.029333,0.35164312,-0.19128954,-0.89587706,0.31568354,0
1.7700000000000014,9.709366178071654,-0.39138914526811847,-1.2308790134502887,0.44678471844106055,11.971408,-1.0981419,-3.7209194,0.51340663,1.8571016,-2.065575,1.8547342,0.45495215,0.082996234,0.19547082,0.8648248,-8.455383,10.05556,0.34175164,-0.39138913,-1.2308791,0.4467847,0
1.7800000000000014,9.709366178071654,-0.39138914526811847,-1.2308790134502887,0.44678471844106055,11.971408,-1.0981419,-3.7209194,0.51340663,1.7727042,-1.9648931,1.858103,0.454375,0.08786308,0.19078852,0.8656927,-8.4240265,10.080613,0.3320605,-0.39138913,-1.2308791,0.4467847,0
1.7900000000000014,9.709366178071654,-0.39138914526811847,-1.2308790134502887,0.44678471844106055,11.971408,-1.0981419,-3.7209194,0.51340663,1.6886225,-1.8639667,1.861376,0.45377663,0.09272582,0.18609731,0.8665201,-8.392273,10.104491,0.3225527,-0.39138913,-1.2308791,0.4467847,0
1.8000000000000014,9.51954790552874,-0.6261960195352186,-0.42368936655024025,0.5297174057198945,12.057961,-1.2449665,-3.8332536,0.6559278,1.6048602,-1.7628074,1.8645549,0.45315707,0.09758423,0.18139742,0.86730707,-8.360123,10.1271925,0.31321138,-0.39138913,-1.2308791,0.4467847,0
1.8100000000000014,9.51954790552874,-0.6261960195352186,-0.42368936655024025,0.5297174057198945,12.057961,-1.2449665,-3.8332536,0.6559278,1.5214175,-1.6614285,1.8676323,0.4515449,0.09848216,0.17746155,0.8688593,-8.32844,10.148485,0.30231774,-0.626196,-0.42368937,0.5297174,0
1.8200000000000014,9.51954790552874,-0.6261960195352186,-0.42368936655024025,0.5297174057198945,12.057961,-1.2449665,-3.8332536,0.6559278,1.4382907,-1.5598398,1.870602,0.44992316,0.09937798,0.17352188,0.870393,-8.296972,10.169132,0.2916573,-0.626196,-0.42368937,0.5297174,0
1.8300000000000014,9.51954790552874,-0.6261960195352186,-0.42368936655024025,0.5297174057198945,12.057961,-1.2449665,-3.8332536,0.6559278,1.3554775,-1.458048,1.8734663,0.44829178,0.100271694,0.16957851,0.8719081,-8.265718,10.189131,0.28122416,-0.626196,-0.42368937,0.5297174,0
1.8400000000000014,9.51954790552874,-0.6261960195352186,-0.42368936655024025,0.5297174057198945,12.1698265,-1.270227,-3.725293,0.6909652,1.2729757,-1.3560594,1.8762273,0.44665086,0.10116326,0.16563152,0.8734047,-8.234678,10.208479,0.2710124,-0.626196,-0.42368937,0.5297174,0
1.8500000000000014,9.51954790552874,-0.6261960195352186,-0.42368936655024025,0.5297174057198945,12.1698265,-1.270227,-3.725293,0.6909652,1.1907831,-1.2538806,1.8788872,0.4450004,0.10205268,0.16168101,0.87488264,-8.20385,10.227173,0.26101613,-0.626196,-0.42368937,0.5297174,0
1.8600000000000014,9.51954790552874,-0.6261960195352186,-0.42368936655024025,0.5297174057198945,12.1698265,-1.270227,-3.725293,0.6909652,1.1088979,-1.1515182,1.8814481,0.44334054,0.10293992,0.15772705,0.876342,-8.173231,10.245211,0.2512294,-0.626196,-0.42368937,0.5297174,0
1.8700000000000014,9.51954790552874,-0.6261960195352186,-0.42368936655024025,0.5297174057198945,12.1698265,-1.270227,-3.725293,0.6909652,1.0273179,-1.0489787,1.8839124,0.4416712,0.10382497,0.15376972,0.87778264,-8.14282,10.262591,0.24164627,-0.626196,-0.42368937,0.5297174,0
1.8800000000000014,9.446322892282533,-0.7948982102627111,-1.0811651365449997,0.6796408321373558,11.972879,-1.2513728,-3.487779,0.7820668,0.9460408,-0.9462686,1.8862817,0.43999243,0.10470781,0.14980912,0.87920463,-8.112616,10.279311,0.23226073,-0.626196,-0.42368937,0.5297174,0
1.8900000000000015,9.446322892282533,-0.7948982102627111,-1.0811651365449997,0.6796408321373558,11.972879,-1.2513728,-3.487779,0.7820668,0.86506397,-0.843396,1.8885549,0.43821827,0.10821798,0.14357622,0.8807043,-8.082752,10.295024,0.22239064,-0.7948982,-1.0811652,0.6796408,0
1.9000000000000015,9.446322892282533,-0.7948982102627111,-1.0811651365449997,0.6796408321373558,11.972879,-1.2513728,-3.487779,0.7820668,0.78438604,-0.7403725,1.8907303,0.43641934,0.11172202,0.13733518,0.88215417,-8.05284,10.309485,0.21271783,-0.7948982,-1.0811652,0.6796408,0
1.9100000000000015,9.446322892282533,-0.7948982102627111,-1.0811651365449997,0.6796408321373558,11.972879,-1.2513728,-3.487779,0.7820668,0.7040074,-0.6372106,1.8928099,0.43459573,0.11521975,0.13108636,0.8835541,-8.022878,10.322692,0.20322365,-0.7948982,-1.0811652,0.6796408,0
1.9200000000000015,9.288527127862814,-1.0834074406416714,0.03399499893789633,0.7472637282167283,11.781578,-1.3072798,-3.1047833,0.8796691,0.62392867,-0.533923,1.8947952,0.4327475,0.118710965,0.12483016,0.8849041,-7.9928603,10.334641,0.19388936,-0.7948982,-1.0811652,0.6796408,0
1.9300000000000015,9.288527127862814,-1.0834074406416714,0.03399499893789633,0.7472637282167283,11.781578,-1.3072798,-3.1047833,0.8796691,0.544147,-0.4305223,1.8966807,0.4300537,0.11668019,0.11966395,0.88719815,-7.963595,10.345403,0.18328407,-1.0834074,0.033995,0.7472637,0
1.9400000000000015,9.288527127862814,-1.0834074406416714,0.03399499893789633,0.7472637282167283,11.781578,-1.3072798,-3.1047833,0.8796691,0.4646542,-0.32701692,1.8984618,0.42734128,0.11464436,0.11449255,0.88945377,-7.9350886,10.355584,0.17299812,-1.0834074,0.033995,0.7472637,0
1.9500000000000015,9.288527127862814,-1.0834074406416714,0.03399499893789633,0.7472637282167283,11.781578,-1.3072798,-3.1047833,0.8796691,0.3854426,-0.22341263,1.9001418,0.42461032,0.11260356,0.10931619,0.8916708,-7.9073405,10.365179,0.16302043,-1.0834074,0.033995,0.7472637,0
1.9600000000000015,9.277685558658192,-1.2901523173557807,0.07431368099028486,0.8668607760637778,12.762946,-1.303621,-3.4399061,0.7748542,0.30650473,-0.11971537,1.9017234,0.421861,0.110557884,0.104135096,0.89384925,-7.8803487,10.37418,0.15333997,-1.0834074,0.033995,0.7472637,0
1.9700000000000015,9.277685558658192,-1.2901523173557807,0.07431368099028486,0.8668607760637778,12.762946,-1.303621,-3.4399061,0.7748542,0.22783266,-0.01593124,1.9032092,0.41864854,0.10795247,0.09804355,0.8963635,-7.8542047,10.382537,0.14386317,-1.2901523,0.07431368,0.86686075,0
1.9800000000000015,9.277685558658192,-1.2901523173557807,0.07431368099028486,0.8668607760637778,12.762946,-1.303621,-3.4399061,0.7748542,0.14941746,0.08793296,1.9046018,0.41541076,0.10534051,0.09194607,0.8988234,-7.828976,10.390193,0.13471459,-1.2901523,0.07431368,0.86686075,0
1.9900000000000015,9.277685558658192,-1.2901523173557807,0.07431368099028486,0.8668607760637778,12.762946,-1.303621,-3.4399061,0.7748542,0.07124998,0.1918702,1.9059047,0.41214782,0.10272218,0.085843034,0.9012289,-7.8046627,10.3971405,0.1258784,-1.2901523,0.07431368,0.86686075,0
2.0000000000000013,,,,,12.091349,-1.2470348,-2.5186183,0.84404945,-0.006678935,0.2958733,1.9071205,0.4088599,0.100097634,0.079734795,0.9035799,-7.7812614,10.40337,0.11733863,-1.2901523,0.07431368,0.86686075,0
2.010000000000001,,,,,12.091349,-1.2470348,-2.5186183,0.84404945,-0.08437948,0.39993542,1.9082508,0.4051931,0.09351903,0.07439577,0.90638745,-7.759083,10.409014,0.10877244,-1.47418,0.8669695,0.89422154,0
2.020000000000001,,,,,12.091349,-1.2470348,-2.5186183,0.84404945,-0.16186577,0.5040525,1.9092973,0.40148854,0.08693172,0.06904981,0.90911067,-7.7384095,10.414358,0.100584015,-1.47418,0.8669695,0.89422154,0
2.0300000000000007,,,,,12.091349,-1.2470348,-2.5186183,0.84404945,-0.23915285,0.6082215,1.9102638,0.39774662,0.080336325,0.06369743,0.9117491,-7.7192445,10.41939,0.0927472,-1.47418,0.8669695,0.89422154,0
2.0400000000000005,,,,,12.091349,-1.2470348,-2.5186183,0.84404945,-0.31625587,0.7124391,1.9111534,0.39396766,0.073733434,0.058339115,0.9143027,-7.701591,10.424092,0.08523574,-1.47418,0.8669695,0.89422154,0
2.0500000000000003,,,,,11.729684,-1.1055048,-1.8910955,0.6753409,-0.3931899,0.8167021,1.9119694,0.390152,0.06712369,0.05297537,0.91677123,-7.685451,10.428451,0.07802325,-1.47418,0.8669695,0.89422154,1
2.06,,,,,11.729684,-1.1055048,-1.8910955,0.6753409,-0.46994734,0.9210101,1.912837,0.3879027,0.07380995,0.043988883,0.9176866,-7.6659384,10.432764,0.095503055,-1.1055048,-1.8910955,0.6753409,1
2.07,,,,,11.729684,-1.1055048,-1.8910955,0.6753409,-0.5465066,1.0253488,1.9138794,0.38560244,0.08048652,0.034996614,0.91848135,-7.6458154,10.434582,0.11294432,-1.1055048,-1.8910955,0.6753409,1
2.0799999999999996,,,,,11.729684,-1.1055048,-1.8910955,0.6753409,-0.6228615,1.1296932,1.9150956,0.38325152,0.08715251,0.025999751,0.9191555,-7.625075,10.433908,0.13028865,-1.1055048,-1.8910955,0.6753409,1
2.0899999999999994,,,,,12.546544,-1.2310138,-2.6204653,0.7687869,-0.69900596,1.2340183,1.9164846,0.38085026,0.09380706,0.016999472,0.91970885,-7.6037097,10.430748,0.14747769,-1.1055048,-1.8910955,0.6753409,1
2.099999999999999,,,,,12.546544,-1.2310138,-2.6204653,0.7687869,-0.77492535,1.3382969,1.9180845,0.37807247,0.103567675,0.005986493,0.9199452,-7.5799856,10.424429,0.17241342,-1.2310138,-2.6204653,0.7687869,1
2.109999999999999,,,,,12.546544,-1.2310138,-2.6204653,0.7687869,-0.8506015,1.4424953,1.9199313,0.37520987,0.11330506,-0.0050278287,0.9199751,-7.5550575,10.414715,0.19688895,-1.2310138,-2.6204653,0.7687869,1
2.1199999999999988,,,,,12.546544,-1.2310138,-2.6204653,0.7687869,-0.9260223,1.5465796,1.9220201,0.3722631,0.123017035,-0.016041024,0.91979873,-7.52892,10.401622,0.22079709,-1.2310138,-2.6204653,0.7687869,1
2.1299999999999986,,,,,12.023709,-1.2994983,-1.7147809,0.78222346,-1.0011756,1.6505162,1.9243449,0.36923283,0.13270141,-0.027050618,0.91941595,-7.5015697,10.385172,0.24403118,-1.2310138,-2.6204653,0.7687869,1
2.1399999999999983,,,,,12.023709,-1.2994983,-1.7147809,0.78222346,-1.0760562,1.7542762,1.9268733,0.36624306,0.1380707,-0.03670731,0.91948634,-7.474498,10.366465,0.2615755,-1.2994983,-1.7147809,0.78222346,1
2.149999999999998,,,,,12.023709,-1.2994983,-1.7147809,0.78222346,-1.1506644,1.8578366,1.9295747,0.36320528,0.1434219,-0.04635919,0.9194362,-7.4470654,10.345249,0.27860066,-1.2994983,-1.7147809,0.78222346,1
2.159999999999998,,,,,12.023709,-1.2994983,-1.7147809,0.78222346,-1.2249966,1.9611726,1.9324434,0.3601199,0.1487543,-0.056004997,0.9192656,-7.4192643,10.321539,0.29504934,-1.2994983,-1.7147809,0.78222346,1
2.1699999999999977,,,,,13.167793,-1.2446868,-2.3834405,0.7900859,-1.2990488,2.0642588,1.9354736,0.3569874,0.15406722,-0.06564347,0.9189746,-7.3910894,10.295349,0.3108646,-1.2994983,-1.7147809,0.78222346,1
