time-since-start [s],throttle_mpc,roll_mpc,pitch_mpc,yaw_mpc,throttle_nw,roll_nw,pitch_nw,yaw_nw,position_x [m],position_y [m],position_z [m],rotation_w [quaternion],rotation_x [quaternion],rotation_y [quaternion],rotation_z [quaternion],velocity_x [m/s],velocity_y [m/s],velocity_z [m/s],omega_x [rad/s],omega_y [rad/s],omega_z [rad/s],network_used
0.0,9.127999286250134,-5.6266862800201345,-5.999999978324909,5.999999586718732,6.8850675,-0.14520337,0.57376206,0.15302627,19.780336,-9.4559555,2.096834,0.08758204,0.48357797,-0.21206595,-0.8446951,-10.582685,-5.98996,-0.36935806,1.1471577,0.24454348,0.35477722,0
0.01,9.127999286250134,-5.6266862800201345,-5.999999978324909,5.999999586718732,10.3760605,-3.5747476,-3.7117963,2.969051,19.673685,-9.515589,2.0930758,0.0870248,0.48471224,-0.21778262,-0.8426455,-10.7471695,-5.9366302,-0.38279867,1.1068656,0.2869622,0.53750205,0
0.02,9.127999286250134,-5.6266862800201345,-5.999999978324909,5.999999586718732,10.3760605,-3.5747476,-3.7117963,2.969051,19.565407,-9.574687,2.0891669,0.087358035,0.4857719,-0.22374856,-0.8404349,-10.908252,-5.8827705,-0.39941943,1.0664457,0.31634378,0.71511453,0
0.03,9.127999286250134,-5.6266862800201345,-5.999999978324909,5.999999586718732,10.3760605,-3.5747476,-3.7117963,2.969051,19.455528,-9.633243,2.0850794,0.08855644,0.4866571,-0.2299153,-0.8381299,-11.067363,-5.8280716,-0.41848323,1.0081567,0.31693545,0.8863301,0
0.04,9.127999286250134,-5.6266862800201345,-5.999999978324909,5.999999586718732,9.633869,-0.029905394,-4.9238553,1.969586,19.344067,-9.691247,2.080789,0.09060325,0.48724294,-0.23620565,-0.83581847,-11.224497,-5.772685,-0.4399318,0.93298167,0.29141158,1.0514671,0
0.05,9.127999286250134,-5.6266862800201345,-5.999999978324909,5.999999586718732,9.633869,-0.029905394,-4.9238553,1.969586,19.231043,-9.748694,2.0762727,0.093481235,0.48741907,-0.24254984,-0.8335789,-11.379565,-5.7167892,-0.46368536,0.8427595,0.243042,1.2108951,0
0.060000000000000005,9.127999286250134,-5.6266862800201345,-5.999999978324909,5.999999586718732,9.633869,-0.029905394,-4.9238553,1.969586,19.11648,-9.805581,2.0715077,0.09717251,0.4870885,-0.2488854,-0.8314798,-11.532478,-5.660564,-0.48961285,0.73918796,0.17473443,1.364953,0
0.07,9.127999286250134,-5.6266862800201345,-5.999999978324909,5.999999586718732,9.633869,-0.029905394,-4.9238553,1.969586,19.000399,-9.861904,2.0664732,0.10165846,0.48616552,-0.2551567,-0.82958066,-11.683145,-5.6041813,-0.5175406,0.62382984,0.08907511,1.5139511,0
0.08,11.144000933589194,-5.99999920624123,-6.0,5.99999985456577,11.5060425,-1.034129,-6.5629735,1.2169265,18.882822,-9.9176655,2.0611503,0.10691967,0.48457423,-0.26131424,-0.8279319,-11.831472,-5.5478067,-0.54726017,0.4981197,-0.011635615,1.6581736,0
0.09,11.144000933589194,-5.99999920624123,-6.0,5.99999985456577,11.5060425,-1.034129,-6.5629735,1.2169265,18.763706,-9.972836,2.0555549,0.11303763,0.48213375,-0.26712233,-0.82668954,-11.991353,-5.486221,-0.57211447,0.26486236,-0.16580503,1.8014829,0
0.09999999999999999,11.144000933589194,-5.99999920624123,-6.0,5.99999985456577,11.5060425,-1.034129,-6.5629735,1.2169265,18.643007,-10.027393,2.0497034,0.120077215,0.4786724,-0.27237818,-0.8259932,-12.148192,-5.42517,-0.5983787,0.033225384,-0.33077106,1.9408705,0
0.10999999999999999,11.144000933589194,-5.99999920624123,-6.0,5.99999985456577,11.5060425,-1.034129,-6.5629735,1.2169265,18.520756,-10.081343,2.0435839,0.1279945,0.47413826,-0.277085,-0.8258538,-12.301892,-5.3648777,-0.6256044,-0.19684409,-0.50464714,2.0765111,0
0.11999999999999998,11.144000933589194,-5.99999920624123,-6.0,5.99999985456577,11.5060425,-1.034129,-6.5629735,1.2169265,18.396982,-10.134693,2.0371895,0.13674703,0.46848366,-0.28124398,-0.8262721,-12.452346,-5.3055296,-0.6533516,-0.4253436,-0.6857936,2.2085662,0
0.12999999999999998,14.163360168610186,-5.999999914601027,-6.0,5.999999897146513,12.760809,-1.3535681,-7.4082885,1.2929698,18.27172,-10.187456,2.0305169,0.14629331,0.46166426,-0.28485444,-0.827238,-12.599437,-5.2472734,-0.68119466,-0.65223,-0.87278557,2.337186,0
0.13999999999999999,14.163360168610186,-5.999999914601027,-6.0,5.999999897146513,12.760809,-1.3535681,-7.4082885,1.2929698,18.14491,-10.239605,2.0236135,0.15664253,0.45343095,-0.2877825,-0.82888186,-12.761943,-5.182712,-0.69940865,-0.9588407,-1.1460638,2.469793,0
0.15,14.163360168610186,-5.999999914601027,-6.0,5.999999897146513,12.760809,-1.3535681,-7.4082885,1.2929698,18.016497,-10.291117,2.0165317,0.16779745,0.4435483,-0.2899054,-0.8313027,-12.920033,-5.119734,-0.71678233,-1.2581742,-1.4173435,2.5995214,0
0.16,17.650481165511025,-5.999999998257229,-6.0,5.999999853218233,14.506716,-0.4106066,-8.566257,0.54650277,17.886524,-10.342006,2.0092826,0.17970671,0.43199384,-0.29123452,-0.8344278,-13.073468,-5.058417,-0.7327379,-1.5506091,-1.6861731,2.7264435,0
0.17,17.650481165511025,-5.999999998257229,-6.0,5.999999853218233,14.506716,-0.4106066,-8.566257,0.54650277,17.754934,-10.392248,2.0019433,0.19236659,0.41849354,-0.29162958,-0.83833814,-13.243202,-4.990283,-0.7347182,-1.9304631,-2.0465424,2.8590417,0
0.18000000000000002,17.650481165511025,-5.999999998257229,-6.0,5.999999853218233,14.506716,-0.4106066,-8.566257,0.54650277,17.621681,-10.441819,1.9945976,0.2057626,0.40278345,-0.2909585,-0.84307224,-13.406647,-4.924219,-0.73391825,-2.29768,-2.397391,2.9893034,0
0.19000000000000003,17.650481165511025,-5.999999998257229,-6.0,5.999999853218233,14.506716,-0.4106066,-8.566257,0.54650277,17.486828,-10.490739,1.9872764,0.21982351,0.3848535,-0.28923523,-0.8484744,-13.5633335,-4.8602095,-0.7297184,-2.6530616,-2.7390282,3.117238,0
0.20000000000000004,20.999997209202704,-6.0,-6.0,5.99999934566955,17.515692,0.35874537,-9.474158,-1.180111,17.350441,-10.539029,1.9800165,0.23447394,0.36469224,-0.28646702,-0.8543761,-13.7127495,-4.798198,-0.7216305,-2.9973288,-3.0717595,3.2428596,0
0.21000000000000005,20.999997209202704,-6.0,-6.0,5.99999934566955,17.515692,0.35874537,-9.474158,-1.180111,17.212505,-10.58667,1.9729306,0.24966583,0.34203058,-0.2825204,-0.8607349,-13.872887,-4.7302194,-0.69480157,-3.421376,-3.486561,3.3742635,0
0.22000000000000006,20.999997209202704,-6.0,-6.0,5.99999934566955,17.515692,0.35874537,-9.474158,-1.180111,17.073015,-10.63364,1.9661391,0.26533282,0.31662333,-0.27727228,-0.86744946,-14.023837,-4.6640677,-0.662322,-3.819494,-3.8768873,3.5028436,0
0.23000000000000007,20.999997209202704,-6.0,-6.0,5.99999934566955,17.515692,0.35874537,-9.474158,-1.180111,16.932055,-10.679953,1.9597127,0.28135017,0.2886544,-0.27081242,-0.87417483,-14.167087,-4.5985003,-0.6216074,-4.1584516,-4.2090898,3.6253796,0
0.24000000000000007,20.999997209202704,-6.0,-6.0,5.99999934566955,19.311712,0.26890662,-10.136843,-1.5838863,16.789701,-10.725612,1.9537367,0.29758817,0.2584041,-0.26326612,-0.8805452,-14.301597,-4.533289,-0.5722566,-4.4446397,-4.4893937,3.7419026,0
0.25000000000000006,20.999997209202704,-6.0,-6.0,5.99999934566955,19.311712,0.26890662,-10.136843,-1.5838863,16.646055,-10.770619,1.9482971,0.31392694,0.22613117,-0.25473645,-0.8862417,-14.426142,-4.4682627,-0.51432526,-4.686281,-4.7258987,3.8527079,0
0.26000000000000006,20.999997209202704,-6.0,-6.0,5.99999934566955,19.311712,0.26890662,-10.136843,-1.5838863,16.501219,-10.814977,1.9434786,0.33025536,0.19207525,-0.24530901,-0.8909896,-14.53954,-4.40322,-0.44812563,-4.890318,-4.9254417,3.9580762,0
0.2700000000000001,20.999997209202704,-6.0,-6.0,5.99999934566955,19.311712,0.26890662,-10.136843,-1.5838863,16.355307,-10.858683,1.9393611,0.34647033,0.15646078,-0.23505585,-0.89455444,-14.64068,-4.3379364,-0.37420306,-5.0626073,-5.093793,4.058274,0
0.2800000000000001,21.0,-6.0,-6.0,5.306929817496894,20.367998,0.1479023,-10.129048,-2.0224066,16.20845,-10.901733,1.9360183,0.3624756,0.11949953,-0.22403884,-0.8967377,-14.7285385,-4.2721705,-0.29331186,-5.2080936,-5.2358236,4.153555,0
0.2900000000000001,21.0,-6.0,-6.0,5.306929817496894,20.367998,0.1479023,-10.129048,-2.0224066,16.060787,-10.944124,1.9335155,0.37810487,0.08141174,-0.21230292,-0.8974057,-14.802195,-4.205665,-0.20639148,-5.331071,-5.3555264,4.210151,0
0.3000000000000001,21.0,-6.0,-6.0,5.306929817496894,20.367998,0.1479023,-10.129048,-2.0224066,15.912459,-10.985845,1.9319075,0.39320424,0.042406134,-0.19989301,-0.89645725,-14.86086,-4.138157,-0.114541546,-5.434922,-5.456507,4.2639704,0
0.3100000000000001,21.0,-6.0,-6.0,5.306929817496894,20.367998,0.1479023,-10.129048,-2.0224066,15.763623,-11.026884,1.9312373,0.40770513,0.0026625544,-0.1868615,-0.8937857,-14.903882,-4.069382,-0.018996712,-5.522625,-5.5416927,4.315149,0
0.3200000000000001,21.0,-5.9999998152379055,-5.999999997299867,4.512426210449269,20.671797,0.5997916,-9.46701,-2.8335319,15.614438,-11.067228,1.9315355,0.42154378,-0.037646968,-0.17325704,-0.88930655,-14.930759,-3.9990788,0.0788974,-5.596692,-5.613551,4.363816,0
0.3300000000000001,21.0,-5.9999998152379055,-5.999999997299867,4.512426210449269,20.671797,0.5997916,-9.46701,-2.8335319,15.465065,-11.10686,1.9328183,0.43457448,-0.078340925,-0.15913028,-0.88299817,-14.941152,-3.9269934,0.17770816,-5.659389,-5.6740227,4.371108,0
0.34000000000000014,21.0,-5.9999998152379055,-5.999999997299867,4.512426210449269,20.671797,0.5997916,-9.46701,-2.8335319,15.315672,-11.1457615,1.9350877,0.44666496,-0.11924791,-0.14453545,-0.87486017,-14.934882,-3.8528848,0.27594033,-5.712336,-5.725035,4.3780427,0
0.35000000000000014,21.0,-5.9999998152379055,-5.999999997299867,4.512426210449269,20.671797,0.5997916,-9.46701,-2.8335319,15.166426,-11.18391,1.9383299,0.45777816,-0.16022147,-0.12952279,-0.86486566,-14.911943,-3.7765305,0.37205973,-5.75705,-5.768068,4.384637,0
0.36000000000000015,21.0,-2.813451991994739,-5.999999925966688,-0.18736993151305165,20.49349,1.9210825,-8.782391,-3.825734,15.01749,-11.221284,1.9425163,0.46788087,-0.20112133,-0.11414038,-0.85300064,-14.872497,-3.6977305,0.46451542,-5.7948112,-5.8043694,4.390908,0
0.37000000000000016,21.0,-2.813451991994739,-5.999999925966688,-0.18736993151305165,20.49349,1.9210825,-8.782391,-3.825734,14.869048,-11.257829,1.9476662,0.4767375,-0.24104854,-0.099252254,-0.8395037,-14.813427,-3.6110528,0.5636979,-5.441817,-5.722191,4.178796,0
0.38000000000000017,21.0,-2.813451991994739,-5.999999925966688,-0.18736993151305165,20.49349,1.9210825,-8.782391,-3.825734,14.721271,-11.293502,1.9537524,0.4841975,-0.27931482,-0.08565326,-0.82474244,-14.739931,-3.5230706,0.6519289,-5.1243367,-5.6724415,3.9727554,0
0.3900000000000002,21.0,-2.813451991994739,-5.999999925966688,-0.18736993151305165,20.49349,1.9210825,-8.782391,-3.825734,14.574294,-11.328284,1.9606681,0.49036768,-0.31611004,-0.07338557,-0.8088442,-14.653432,-3.4329722,0.72945285,-4.82215,-5.664671,3.7737799,0
0.4000000000000002,21.0,-0.033606665455657124,-5.042912443148727,-5.999993719735035,19.674076,3.3528361,-7.4291043,-5.7061844,14.428241,-11.362154,1.9683018,0.49535656,-0.3516012,-0.06252115,-0.79189014,-14.555673,-3.3405313,0.79542834,-4.532322,-5.6928954,3.5814707,0
0.4100000000000002,21.0,-0.033606665455657124,-5.042912443148727,-5.999993719735035,19.674076,3.3528361,-7.4291043,-5.7061844,14.283583,-11.394757,1.9770713,0.4992477,-0.3849022,-0.053245183,-0.7744465,-14.37386,-3.1795769,0.9548949,-4.037691,-5.3844447,3.245447,0
0.4200000000000002,21.0,-0.033606665455657124,-5.042912443148727,-5.999993719735035,19.674076,3.3528361,-7.4291043,-5.7061844,14.140801,-11.425737,1.9873217,0.5021034,-0.41534185,-0.04558429,-0.7571697,-14.180997,-3.015907,1.0917323,-3.6211262,-5.123302,2.9177454,0
0.4300000000000002,21.0,-0.033606665455657124,-5.042912443148727,-5.999993719735035,19.674076,3.3528361,-7.4291043,-5.7061844,13.9999895,-11.455068,1.9988313,0.5039793,-0.44333774,-0.039385997,-0.7402066,-13.980256,-2.8498137,1.2068688,-3.2703977,-4.902113,2.5981596,0
0.4400000000000002,21.0,-0.033606665455657124,-5.042912443148727,-5.999993719735035,17.511116,5.1465707,-5.048078,-6.5212517,13.861215,-11.482727,2.0113883,0.50491625,-0.46924433,-0.03452518,-0.7236559,-13.774238,-2.6816227,1.3013327,-2.975288,-4.7145734,2.2864892,0
0.45000000000000023,21.0,-0.033606665455657124,-5.042912443148727,-5.999993719735035,17.511116,5.1465707,-5.048078,-6.5212517,13.724517,-11.508695,2.024791,0.5049446,-0.49336088,-0.030898873,-0.7075816,-13.565076,-2.5116823,1.3761849,-2.727256,-4.5552845,1.9825377,0
0.46000000000000024,21.0,-0.033606665455657124,-5.042912443148727,-5.999993719735035,17.511116,5.1465707,-5.048078,-6.5212517,13.589919,-11.532955,2.0388484,0.5040878,-0.515939,-0.028421873,-0.69202244,-13.354516,-2.340354,1.4324784,-2.5191584,-4.419627,1.686114,0
0.47000000000000025,21.0,-0.033606665455657124,-5.042912443148727,-5.999993719735035,17.511116,5.1465707,-5.048078,-6.5212517,13.457427,-11.555498,2.0533805,0.5023645,-0.5371893,-0.027023114,-0.67699915,-13.143982,-2.168008,1.471233,-2.345017,-4.3036537,1.3970317,0
0.48000000000000026,21.0,-0.30544154644845717,-3.746904399840136,-5.999998801611679,14.596357,5.8001857,-2.9088151,-6.3907623,13.327035,-11.576314,2.0682163,0.49978977,-0.5572873,-0.026642693,-0.66251934,-12.934636,-1.9950185,1.4934219,-2.1998267,-4.203994,1.1151088,0
0.49000000000000027,21.0,-0.30544154644845717,-3.746904399840136,-5.999998801611679,14.596357,5.8001857,-2.9088151,-6.3907623,13.198727,-11.595398,2.0831952,0.4964994,-0.57614356,-0.027261745,-0.6486944,-12.727437,-1.8217623,1.4999998,-1.9997474,-4.037702,0.84016824,0
0.5000000000000002,21.0,-0.30544154644845717,-3.746904399840136,-5.999998801611679,14.596357,5.8001857,-2.9088151,-6.3907623,13.072475,-11.612749,2.0981665,0.49261346,-0.5937051,-0.028858038,-0.6356211,-12.523233,-1.6486281,1.4920568,-1.8335919,-3.8946288,0.572037,0
0.5100000000000002,21.0,-0.30544154644845717,-3.746904399840136,-5.999998801611679,14.596357,5.8001857,-2.9088151,-6.3907623,12.948249,-11.628372,2.1129901,0.48812127,-0.6101519,-0.031380173,-0.62327236,-12.322702,-1.4759872,1.470655,-1.696225,-3.7709925,0.3105464,0
0.5200000000000002,21.0,-0.06789528174758497,-2.4847761322129087,-5.999999418864919,13.56892,4.9902964,-0.8376788,-6.574986,12.826008,-11.642272,2.1275365,0.4830124,-0.62563115,-0.034784228,-0.6116172,-12.126358,-1.3041879,1.4367551,-1.5833453,-3.6635685,0.05553209,0
0.5300000000000002,21.0,-0.06789528174758497,-2.4847761322129087,-5.999999418864919,13.56892,4.9902964,-0.8376788,-6.574986,12.705707,-11.65446,2.1416852,0.47747982,-0.63993907,-0.039070234,-0.6008039,-11.934593,-1.1335586,1.3912741,-1.3743753,-3.4527097,-0.19316646,0
0.5400000000000003,21.0,-0.06789528174758497,-2.4847761322129087,-5.999999418864919,13.56892,4.9902964,-0.8376788,-6.574986,12.587298,-11.664948,2.155326,0.47169074,-0.6529335,-0.044233974,-0.5909567,-11.747751,-0.9644014,1.3353081,-1.2012353,-3.271483,-0.43570557,0
0.5500000000000003,21.0,-0.06789528174758497,-2.4847761322129087,-5.999999418864919,13.56892,4.9902964,-0.8376788,-6.574986,12.470733,-11.673754,2.1683588,0.46559927,-0.6648033,-0.050234664,-0.58200604,-11.566075,-0.79697967,1.2699066,-1.058312,-3.1152885,-0.6722379,0
0.5600000000000003,20.999999663455124,0.6526495902476485,-1.0571029088861503,-5.999999668202744,14.469324,5.174478,1.7193309,-6.882689,12.355958,-11.680895,2.1806948,0.45916396,-0.675701,-0.05703701,-0.57388496,-11.389701,-0.63152367,1.1959798,-0.9409088,-2.980208,-0.902912,0
0.5700000000000003,20.999999663455124,0.6526495902476485,-1.0571029088861503,-5.999999668202744,14.469324,5.174478,1.7193309,-6.882689,12.242919,-11.686392,2.1922522,0.4526683,-0.6853105,-0.06466009,-0.56679857,-11.218698,-0.4682309,1.1143806,-0.677082,-2.695897,-1.1278732,0
0.5800000000000003,20.999999663455124,0.6526495902476485,-1.0571029088861503,-5.999999668202744,14.469324,5.174478,1.7193309,-6.882689,12.131564,-11.690268,2.2029598,0.4463525,-0.6934012,-0.07311993,-0.5609085,-11.05313,-0.30723155,1.0261984,-0.45650598,-2.4538028,-1.3472629,0
0.5900000000000003,20.999999663455124,0.6526495902476485,-1.0571029088861503,-5.999999668202744,14.469324,5.174478,1.7193309,-6.882689,12.021838,-11.692545,2.212757,0.44012013,-0.700194,-0.082383245,-0.5560901,-10.893014,-0.14860687,0.9324624,-0.27217168,-2.2476075,-1.561219,0
0.6000000000000003,20.999996061235077,1.0347704799867072,0.7537966005748209,-5.999999508062908,14.405912,5.191357,3.123252,-7.0693846,11.913686,-11.693248,2.2215927,0.4338854,-0.70586544,-0.092420354,-0.5522287,-10.738303,0.007588651,0.8340232,-0.11821364,-2.0719259,-1.769876,0
0.6100000000000003,20.999996061235077,1.0347704799867072,0.7537966005748209,-5.999999508062908,14.405912,5.191357,3.123252,-7.0693846,11.807064,-11.69239,2.2294235,0.42787907,-0.7101173,-0.10316873,-0.54955417,-10.586481,0.16383371,0.7315692,0.14375572,-1.7135494,-1.9700967,0
0.6200000000000003,20.999996061235077,1.0347704799867072,0.7537966005748209,-5.999999508062908,14.405912,5.191357,3.123252,-7.0693846,11.701943,-11.689973,2.2362134,0.42223674,-0.71271384,-0.114478186,-0.548316,-10.438259,0.31936222,0.6260076,0.3344162,-1.3805085,-2.16322,0
0.6300000000000003,20.999996061235077,1.0347704799867072,0.7537966005748209,-5.999999508062908,14.405912,5.191357,3.123252,-7.0693846,11.598288,-11.686005,2.241936,0.41675553,-0.71386117,-0.126201,-0.54844415,-10.293637,0.47404307,0.5182173,0.46417212,-1.0681298,-2.3496573,0
0.6400000000000003,20.999996061235077,1.0347704799867072,0.7537966005748209,-5.999999508062908,12.199656,3.4380212,6.061378,-4.058779,11.496062,-11.680493,2.2465725,0.41127,-0.71372426,-0.1382213,-0.54986376,-10.151809,0.6285302,0.40888146,0.5536956,-0.78440034,-2.528762,0
0.6500000000000004,20.999996061235077,1.0347704799867072,0.7537966005748209,-5.999999508062908,12.199656,3.4380212,6.061378,-4.058779,11.395247,-11.673431,2.25011,0.405702,-0.7124486,-0.15052813,-0.55241716,-10.01135,0.7841583,0.29849786,0.6290518,-0.5447124,-2.6990967,0
0.6600000000000004,20.999996061235077,1.0347704799867072,0.7537966005748209,-5.999999508062908,12.199656,3.4380212,6.061378,-4.058779,11.295831,-11.664807,2.2525403,0.40000662,-0.71015596,-0.16314057,-0.5559306,-9.8721695,0.9408869,0.18755592,0.69264174,-0.34239483,-2.8610728,0
0.6700000000000004,20.999996061235077,1.0347704799867072,0.7537966005748209,-5.999999508062908,12.199656,3.4380212,6.061378,-4.058779,11.1978,-11.654611,2.2538605,0.39414346,-0.70694417,-0.17606816,-0.5602511,-9.734216,1.0986844,0.07646324,0.7462966,-0.17161855,-3.015101,0
0.6800000000000004,20.28737443712362,1.6994090556629242,3.2157472650054295,-5.999999364905721,12.328814,0.43028083,7.4577103,-3.8559947,11.101142,-11.642831,2.2540703,0.38807663,-0.70289177,-0.1893125,-0.5652442,-9.597461,1.2575362,-0.034443468,0.79156363,-0.027464733,-3.1615708,0
0.6900000000000004,20.28737443712362,1.6994090556629242,3.2157472650054295,-5.999999364905721,12.328814,0.43028083,7.4577103,-3.8559947,11.005823,-11.629484,2.2531755,0.3821527,-0.69739926,-0.20264018,-0.571429,-9.466489,1.4120148,-0.14437753,0.93422294,0.4779358,-3.300853,0
0.7000000000000004,20.28737443712362,1.6994090556629242,3.2157472650054295,-5.999999364905721,12.328814,0.43028083,7.4577103,-3.8559947,10.911808,-11.614588,2.2511873,0.3766535,-0.68998045,-0.21586636,-0.57919025,-9.33663,1.567528,-0.25294906,1.0545461,0.90454775,-3.4333007,0
0.7100000000000004,20.28737443712362,1.6994090556629242,3.2157472650054295,-5.999999364905721,12.328814,0.43028083,7.4577103,-3.8559947,10.819086,-11.598131,2.2481244,0.3714556,-0.68084085,-0.22904484,-0.58823085,-9.207907,1.7241148,-0.35928866,1.1560193,1.2646577,-3.5592494,0
0.7200000000000004,20.309863731483976,1.8418990146684806,5.398439490419325,-5.999999324922804,15.566322,-1.1769936,7.6918283,-3.7814186,10.727646,-11.580103,2.2440116,0.36644807,-0.67014766,-0.24221075,-0.5982914,-9.080408,1.881826,-0.46267408,1.241586,1.5686349,-3.6790178,0
0.7300000000000004,20.309863731483976,1.8418990146684806,5.398439490419325,-5.999999324922804,15.566322,-1.1769936,7.6918283,-3.7814186,10.637475,-11.560491,2.238883,0.36178488,-0.65748805,-0.25509986,-0.6097098,-8.954135,2.0408854,-0.5624344,1.3367923,2.1655653,-3.792909,0
0.7400000000000004,20.309863731483976,1.8418990146684806,5.398439490419325,-5.999999324922804,15.566322,-1.1769936,7.6918283,-3.7814186,10.548558,-11.539283,2.232779,0.3575814,-0.6425121,-0.26749364,-0.6227052,-8.829398,2.2011304,-0.6575601,1.4169941,2.6694338,-3.9012115,0
0.7500000000000004,20.309863731483976,1.8418990146684806,5.398439490419325,-5.999999324922804,15.566322,-1.1769936,7.6918283,-3.7814186,10.460881,-11.516466,2.2257512,0.35368747,-0.62542963,-0.27946404,-0.6369015,-8.706458,2.3625548,-0.7470714,1.4845443,3.094751,-4.0041995,0
0.7600000000000005,19.686976499250765,1.0336050103471743,5.99999931452173,-5.999998977866433,16.589567,-3.214042,8.564553,-3.8987093,10.374422,-11.492029,2.2178597,0.34996828,-0.6064175,-0.29105952,-0.6519702,-8.58568,2.5251365,-0.83017343,1.5414284,3.4537642,-4.102134,0
0.7700000000000005,19.686976499250765,1.0336050103471743,5.99999931452173,-5.999998977866433,16.589567,-3.214042,8.564553,-3.8987093,10.289141,-11.465986,2.209169,0.34618133,-0.58558065,-0.30201358,-0.667864,-8.471119,2.6837928,-0.9068948,1.4635267,3.8509681,-4.1952624,0
0.7800000000000005,19.686976499250765,1.0336050103471743,5.99999931452173,-5.999998977866433,16.589567,-3.214042,8.564553,-3.8987093,10.204989,-11.438351,2.1997476,0.34213307,-0.563006,-0.31210056,-0.68451685,-8.359436,2.8433192,-0.9761774,1.3976364,4.1862082,-4.2838216,0
0.7900000000000005,19.686976499250765,1.0336050103471743,5.99999931452173,-5.999998977866433,16.589567,-3.214042,8.564553,-3.8987093,10.12194,-11.409117,2.1896727,0.3377757,-0.5388138,-0.3214004,-0.7016337,-8.251043,3.003482,-1.0375267,1.3418992,4.4691505,-4.368035,0
0.8000000000000005,19.984753406736125,0.2999948017596907,5.999998986073496,-5.999998744056117,17.512978,-4.1443267,8.587453,-3.9180512,10.039955,-11.37828,2.1790254,0.33306503,-0.5131144,-0.3299738,-0.7189572,-8.146439,3.1640446,-1.0905892,1.294745,4.707953,-4.448116,0
0.8100000000000005,19.984753406736125,0.2999948017596907,5.999998986073496,-5.999998744056117,17.512978,-4.1443267,8.587453,-3.9180512,9.959004,-11.345822,2.1678941,0.32781383,-0.48610774,-0.33765328,-0.7363616,-8.0446415,3.3271823,-1.1343291,1.1404417,4.9098372,-4.524267,0
0.8200000000000005,19.984753406736125,0.2999948017596907,5.999998986073496,-5.999998744056117,17.512978,-4.1443267,8.587453,-3.9180512,9.879046,-11.311736,2.1563692,0.32188115,-0.45796832,-0.34429938,-0.753735,-7.947706,3.4901211,-1.1692979,1.0101153,5.080184,-4.5966816,0
0.8300000000000005,19.984753406736125,0.2999948017596907,5.999998986073496,-5.999998744056117,17.512978,-4.1443267,8.587453,-3.9180512,9.800031,-11.276023,2.1445384,0.31529114,-0.42876178,-0.34999064,-0.7708841,-7.856117,3.652502,-1.195465,0.90003645,5.223918,-4.6655426,0
0.8400000000000005,19.984753406736125,0.2999948017596907,5.999998986073496,-5.999998744056117,17.396162,-4.895885,8.368018,-3.944013,9.721904,-11.238689,2.1324897,0.3080632,-0.39855427,-0.35479107,-0.7876394,-7.770401,3.8139846,-1.2129029,0.80705637,5.3451962,-4.7310247,0
0.8500000000000005,19.984753406736125,0.2999948017596907,5.999998986073496,-5.999998744056117,17.396162,-4.895885,8.368018,-3.944013,9.644601,-11.199747,2.1203096,0.30021355,-0.3674126,-0.35875264,-0.80385154,-7.6911154,3.9742458,-1.221784,0.728516,5.4475255,-4.7932935,0
0.8600000000000005,19.984753406736125,0.2999948017596907,5.999998986073496,-5.999998744056117,17.396162,-4.895885,8.368018,-3.944013,9.568057,-11.159209,2.1080823,0.2917566,-0.33540446,-0.36191732,-0.8193893,-7.61883,4.1329794,-1.2223755,0.662171,5.5338655,-4.852507,0
0.8700000000000006,19.984753406736125,0.2999948017596907,5.999998986073496,-5.999998744056117,17.396162,-4.895885,8.368018,-3.944013,9.492199,-11.117093,2.095889,0.28270602,-0.30259827,-0.3643191,-0.83413684,-7.5541153,4.289898,-1.2150347,0.60612553,5.6067133,-4.908815,0
0.8800000000000006,19.186004678103206,-0.2622407497472775,5.128345084112089,-5.999998193049969,17.283115,-5.2290235,8.194517,-4.2975507,9.416946,-11.073418,2.083807,0.2730753,-0.26906317,-0.36598524,-0.8479922,-7.49753,4.4447327,-1.2002039,0.5587785,5.6681786,-4.9623594,0
0.8900000000000006,19.186004678103206,-0.2622407497472775,5.128345084112089,-5.999998193049969,17.283115,-5.2290235,8.194517,-4.2975507,9.342208,-11.028236,2.0718849,0.2626945,-0.23522837,-0.3668417,-0.86086434,-7.451493,4.5911365,-1.1832055,0.43065545,5.5843916,-5.0132766,0
0.9000000000000006,19.186004678103206,-0.2622407497472775,5.128345084112089,-5.999998193049969,17.283115,-5.2290235,8.194517,-4.2975507,9.267887,-10.981603,2.0601637,0.2514483,-0.20145676,-0.36683273,-0.8727106,-7.4139996,4.7350636,-1.1601422,0.32254148,5.5136137,-5.061695,0
0.9100000000000006,19.186004678103206,-0.2622407497472775,5.128345084112089,-5.999998193049969,17.283115,-5.2290235,8.194517,-4.2975507,9.193897,-10.933544,2.0487008,0.23942319,-0.16772501,-0.36600488,-0.883508,-7.3852296,4.8763113,-1.1316608,0.23131135,5.4538245,-5.107738,0
0.9200000000000006,17.658061881343958,-0.41017350661759294,3.187782632181157,-5.99999538690398,18.080647,-6.008315,7.242945,-4.2661514,9.1201515,-10.884086,2.0375469,0.22669378,-0.13402025,-0.3643988,-0.8932319,-7.365355,5.014713,-1.0984144,0.15432847,5.4033175,-5.1515217,0
0.9300000000000006,17.658061881343958,-0.41017350661759294,3.187782632181157,-5.99999538690398,18.080647,-6.008315,7.242945,-4.2661514,9.046554,-10.833313,2.0266926,0.21303834,-0.101049736,-0.3621725,-0.9017959,-7.3553433,5.1393642,-1.0718719,0.06527452,5.058101,-5.1931567,0
0.9400000000000006,17.658061881343958,-0.41017350661759294,3.187782632181157,-5.99999538690398,18.080647,-6.008315,7.242945,-4.2661514,8.973017,-10.781307,2.0161197,0.19830257,-0.06939111,-0.3594603,-0.90920323,-7.3533697,5.2613053,-1.0422957,-0.009733254,4.766679,-5.2327485,0
0.9500000000000006,17.658061881343958,-0.41017350661759294,3.187782632181157,-5.99999538690398,18.080647,-6.008315,7.242945,-4.2661514,8.89946,-10.728096,2.005855,0.18263641,-0.038862646,-0.35626385,-0.9155386,-7.3591056,5.380611,-1.010362,-0.07290883,4.520667,-5.2703977,0
0.9600000000000006,16.036735195452405,0.07964606370410332,1.037686377463775,-5.661784252147539,16.546146,-5.8333597,5.708029,-4.379329,8.825809,-10.673704,1.9959186,0.16616705,-0.00931054,-0.3525862,-0.9208615,-7.372258,5.497369,-0.9766649,-0.12611666,4.3129888,-5.3061996,0
0.9700000000000006,16.036735195452405,0.07964606370410332,1.037686377463775,-5.661784252147539,16.546146,-5.8333597,5.708029,-4.379329,8.752,-10.61821,1.9862648,0.14874116,0.018616237,-0.34875268,-0.92514986,-7.3906484,5.601211,-0.95396405,-0.095748946,3.802101,-5.323648,0
0.9800000000000006,16.036735195452405,0.07964606370410332,1.037686377463775,-5.661784252147539,16.546146,-5.8333597,5.708029,-4.379329,8.677978,-10.5616865,1.9768413,0.13025457,0.044400617,-0.34502384,-0.9284514,-7.4149103,5.7031426,-0.9306707,-0.06985332,3.3709016,-5.3402405,0
0.9900000000000007,16.036735195452405,0.07964606370410332,1.037686377463775,-5.661784252147539,16.546146,-5.8333597,5.708029,-4.379329,8.603684,-10.504151,1.967652,0.110872895,0.06834343,-0.34131712,-0.9308814,-7.4444275,5.8034797,-0.9072108,-0.047772896,3.0069604,-5.356019,0
1.0000000000000007,14.960277762714906,0.9199652272926585,-0.7361965975074806,-4.470714324113339,15.130381,-4.800139,2.5473683,-4.3651476,8.529073,-10.445621,1.9586966,0.090736344,0.090701506,-0.33756417,-0.9325191,-7.47866,5.9025044,-0.883909,-0.028946195,2.6997867,-5.3710227,0
1.0100000000000007,14.960277762714906,0.9199652272926585,-0.7361965975074806,-4.470714324113339,15.130381,-4.800139,2.5473683,-4.3651476,8.454109,-10.386138,1.9499317,0.06983088,0.11100916,-0.33409765,-0.9333706,-7.514508,5.9939165,-0.869143,0.117098175,2.1634371,-5.326844,0
1.0200000000000007,14.960277762714906,0.9199652272926585,-0.7361965975074806,-4.470714324113339,15.130381,-4.800139,2.5473683,-4.3651476,8.378772,-10.325744,1.9413117,0.04816974,0.12889817,-0.33117935,-0.9334808,-7.55359,6.0847445,-0.85497874,0.2406884,1.7108169,-5.284834,0
1.0300000000000007,14.960277762714906,0.9199652272926585,-0.7361965975074806,-4.470714324113339,15.130381,-4.800139,2.5473683,-4.3651476,8.303028,-10.264443,1.9328297,0.025899727,0.14470433,-0.32866365,-0.93293697,-7.5952225,6.175356,-0.84155816,0.34527254,1.3288541,-5.244885,0
1.0400000000000007,14.960277762714906,0.9199652272926585,-0.7361965975074806,-4.470714324113339,15.03314,-3.823909,0.2277819,-3.227839,8.22686,-10.202237,1.9244777,0.0031453217,0.15871398,-0.32643008,-0.9317965,-7.6388083,6.266049,-0.8289524,0.43376994,1.0065179,-5.2068963,0
1.0500000000000007,14.960277762714906,0.9199652272926585,-0.7361965975074806,-4.470714324113339,15.03314,-3.823909,0.2277819,-3.227839,8.150248,-10.139122,1.9162476,-0.019987313,0.17117094,-0.3243799,-0.9300968,-7.6838264,6.357058,-0.8171819,0.50865245,0.7344996,-5.1707716,0
1.0600000000000007,14.960277762714906,0.9199652272926585,-0.7361965975074806,-4.470714324113339,15.03314,-3.823909,0.2277819,-3.227839,8.073179,-10.075095,1.9081311,-0.043407183,0.18228258,-0.32243288,-0.92786163,-7.729822,6.448563,-0.80623156,0.5720125,0.50494367,-5.1364193,0
1.0700000000000007,14.960277762714906,0.9199652272926585,-0.7361965975074806,-4.470714324113339,15.03314,-3.823909,0.2277819,-3.227839,7.9956493,-10.010149,1.9001203,-0.06703595,0.1922252,-0.32052448,-0.925106,-7.776401,6.540698,-0.7960615,0.625621,0.31122175,-5.1037526,0
1.0800000000000007,14.827338335677787,1.6184626757800946,-1.735053645160453,-3.3418813227536375,14.80191,-3.6765265,-0.7806114,-2.5855703,7.917651,-9.944279,1.8922074,-0.09080591,0.20114855,-0.31860322,-0.9218389,-7.82322,6.633557,-0.7866152,0.6709776,0.14773954,-5.0726895,0
1.0900000000000007,14.827338335677787,1.6184626757800946,-1.735053645160453,-3.3418813227536375,14.80191,-3.6765265,-0.7806114,-2.5855703,7.839187,-9.8774805,1.884381,-0.11471407,0.2087397,-0.3168741,-0.91807437,-7.8695335,6.7263803,-0.77877325,0.8177742,-0.14632219,-4.987758,0
1.1000000000000008,14.827338335677787,1.6184626757800946,-1.735053645160453,-3.3418813227536375,14.80191,-3.6765265,-0.7806114,-2.5855703,7.760263,-9.809749,1.8766302,-0.13873816,0.2147474,-0.31549478,-0.91383785,-7.9153056,6.8201056,-0.77149147,0.9418559,-0.39443848,-4.9069943,0
1.1100000000000008,14.827338335677787,1.6184626757800946,-1.735053645160453,-3.3418813227536375,14.80191,-3.6765265,-0.7806114,-2.5855703,7.680885,-9.7410755,1.8689497,-0.16279778,0.21937425,-0.3143661,-0.9091463,-7.960083,6.9148164,-0.76466435,1.0467336,-0.60379034,-4.8301935,0
1.1200000000000008,14.508566577662004,2.033886106307755,-2.2704433392082572,-2.2765191860658995,15.215929,-3.3029008,-1.6748546,-1.9683892,7.6010656,-9.67145,1.8613355,-0.18682455,0.22279373,-0.3134075,-0.9040113,-8.003475,7.010544,-0.7581791,1.135376,-0.7804356,-4.7571616,0
1.1300000000000008,14.508566577662004,2.033886106307755,-2.2704433392082572,-2.2765191860658995,15.215929,-3.3029008,-1.6748546,-1.9683892,7.520826,-9.600871,1.8537741,-0.21074586,0.22488755,-0.3126911,-0.8984638,-8.044233,7.105204,-0.754162,1.2748572,-1.0131335,-4.6354356,0
1.1400000000000008,14.508566577662004,2.033886106307755,-2.2704433392082572,-2.2765191860658995,15.215929,-3.3029008,-1.6748546,-1.9683892,7.4401884,-9.529342,1.8462521,-0.23448561,0.22556359,-0.31227133,-0.8925386,-8.082893,7.200838,-0.7502378,1.3927257,-1.2094619,-4.5196824,0
1.1500000000000008,14.508566577662004,2.033886106307755,-2.2704433392082572,-2.2765191860658995,15.215929,-3.3029008,-1.6748546,-1.9683892,7.3591766,-9.456851,1.8387694,-0.25798616,0.22499618,-0.31206587,-0.8862481,-8.119086,7.2973948,-0.74627894,1.4923252,-1.3751081,-4.40961,0
1.1600000000000008,14.426625801053087,2.1332199039330906,-2.2357737665694994,-1.301977802317343,15.193459,-2.8990693,-2.0003474,-1.1899282,7.2778163,-9.383391,1.8313271,-0.2811999,0.22333555,-0.31200755,-0.8796022,-8.152498,7.394786,-0.74216473,1.5764834,-1.5148698,-4.3049383,0
1.1700000000000008,14.426625801053087,2.1332199039330906,-2.2357737665694994,-1.301977802317343,15.193459,-2.8990693,-2.0003474,-1.1899282,7.196131,-9.308935,1.8239459,-0.30400506,0.22064403,-0.31203446,-0.8726583,-8.183859,7.4960914,-0.73443615,1.638453,-1.6519372,-4.162744,0
1.1800000000000008,14.426625801053087,2.1332199039330906,-2.2357737665694994,-1.301977802317343,15.193459,-2.8990693,-2.0003474,-1.1899282,7.1141524,-9.233475,1.8166319,-0.32628578,0.21696696,-0.31208694,-0.8654857,-8.211254,7.595874,-0.7284933,1.6910402,-1.7673951,-4.0246634,0
1.1900000000000008,14.426625801053087,2.1332199039330906,-2.2357737665694994,-1.301977802317343,15.193459,-2.8990693,-2.0003474,-1.1899282,7.031919,-9.15702,1.8093739,-0.34801397,0.21244052,-0.31219727,-0.8580729,-8.23487,7.6949086,-0.7232287,1.7515966,-1.8487948,-3.8918211,0
1.2000000000000008,14.467634039573976,1.829403919952684,-1.8145626444245093,-0.4434141647589284,15.502777,-2.495781,-1.7629994,-0.56403595,6.9494677,-9.079577,1.8021673,-0.36916918,0.20719248,-0.31242076,-0.8503997,-8.254745,7.7935863,-0.717987,1.8111154,-1.9091449,-3.764737,0
1.2100000000000009,14.467634039573976,1.829403919952684,-1.8145626444245093,-0.4434141647589284,15.502777,-2.495781,-1.7629994,-0.56403595,6.8668284,-9.001098,1.795069,-0.38962054,0.20141537,-0.31256947,-0.84257287,-8.272487,7.9019203,-0.70199484,1.7670186,-1.9411731,-3.6144648,0
1.2200000000000009,14.467634039573976,1.829403919952684,-1.8145626444245093,-0.4434141647589284,15.502777,-2.495781,-1.7629994,-0.56403595,6.784034,-8.921549,1.7881202,-0.40925884,0.19525559,-0.31246966,-0.8347132,-8.285807,8.007379,-0.6880999,1.7255139,-1.972513,-3.4679146,0
1.2300000000000009,14.467634039573976,1.829403919952684,-1.8145626444245093,-0.4434141647589284,15.502777,-2.495781,-1.7629994,-0.56403595,6.701127,-8.8409605,1.7813004,-0.42810872,0.188731,-0.31213295,-0.8268479,-8.294956,8.10989,-0.6761118,1.6877239,-2.0017495,-3.3251078,0
1.2400000000000009,14.467634039573976,1.829403919952684,-1.8145626444245093,-0.4434141647589284,15.912409,-2.4082513,-1.1726097,-0.07079061,6.618148,-8.759357,1.7745959,-0.44619215,0.18187678,-0.3116235,-0.81897813,-8.300224,8.21032,-0.66485935,1.6696448,-2.0127003,-3.1873226,0
1.2500000000000009,14.467634039573976,1.829403919952684,-1.8145626444245093,-0.4434141647589284,15.912409,-2.4082513,-1.1726097,-0.07079061,6.5351353,-8.676761,1.7680016,-0.46352652,0.17474763,-0.31107485,-0.8110732,-8.301772,8.308728,-0.65409243,1.67326,-2.0031571,-3.0546155,0
1.260000000000001,14.467634039573976,1.829403919952684,-1.8145626444245093,-0.4434141647589284,15.912409,-2.4082513,-1.1726097,-0.07079061,6.4521246,-8.59319,1.7615123,-0.480128,0.16738977,-0.31061104,-0.8031061,-8.2997265,8.405026,-0.6437914,1.6944635,-1.9770116,-2.9267945,0
1.270000000000001,14.467634039573976,1.829403919952684,-1.8145626444245093,-0.4434141647589284,15.912409,-2.4082513,-1.1726097,-0.07079061,6.369152,-8.508664,1.7551279,-0.49602056,0.15982802,-0.31028682,-0.7950733,-8.294154,8.500052,-0.6329458,1.7157109,-1.9515818,-2.8049343,0
1.280000000000001,14.120380962112801,1.2091386998042233,-1.2118359082330632,0.36457921589186465,15.79682,-2.2982736,-0.9592389,0.54278225,6.286253,-8.423193,1.748856,-0.5112387,0.15206805,-0.31007987,-0.78699535,-8.285084,8.593927,-0.6213399,1.7336261,-1.9301153,-2.6890535,0
1.290000000000001,14.120380962112801,1.2091386998042233,-1.2118359082330632,0.36457921589186465,15.79682,-2.2982736,-0.9592389,0.54278225,6.2034645,-8.336772,1.7427248,-0.52566046,0.14438082,-0.3097718,-0.77902347,-8.272154,8.689719,-0.60522896,1.6107633,-1.8591005,-2.5470438,0
1.300000000000001,14.120380962112801,1.2091386998042233,-1.2118359082330632,0.36457921589186465,15.79682,-2.2982736,-0.9592389,0.54278225,6.1208205,-8.249413,1.7367442,-0.5391887,0.13698165,-0.30919507,-0.77130467,-8.256263,8.781836,-0.59115225,1.506755,-1.7994874,-2.408646,0
1.310000000000001,14.120380962112801,1.2091386998042233,-1.2118359082330632,0.36457921589186465,15.79682,-2.2982736,-0.9592389,0.54278225,6.038349,-8.161145,1.7308987,-0.5518837,0.12980933,-0.30844295,-0.7638311,-8.237607,8.8711405,-0.5780604,1.43345,-1.7347487,-2.2750053,0
1.320000000000001,13.674026759396167,0.31057437732468784,-0.7447635855925316,1.1243473414940595,15.826662,-2.789535,-0.61231124,1.2269865,5.956077,-8.071999,1.7251804,-0.56379163,0.122824855,-0.30766827,-0.7565674,-8.21641,8.957832,-0.5657372,1.390873,-1.6608663,-2.1461976,0
1.330000000000001,13.674026759396167,0.31057437732468784,-0.7447635855925316,1.1243473414940595,15.826662,-2.789535,-0.61231124,1.2269865,5.87404,-7.981958,1.719633,-0.57481927,0.11631753,-0.30680868,-0.7496149,-8.190741,9.049702,-0.5441179,1.2185298,-1.5218539,-2.000914,0
1.340000000000001,13.674026759396167,0.31057437732468784,-0.7447635855925316,1.1243473414940595,15.826662,-2.789535,-0.61231124,1.2269865,5.792269,-7.891018,1.71429,-0.584908,0.1105022,-0.30574578,-0.7430965,-8.163254,9.137771,-0.5248546,1.0731602,-1.4044354,-1.8592288,0
1.350000000000001,13.674026759396167,0.31057437732468784,-0.7447635855925316,1.1243473414940595,15.826662,-2.789535,-0.61231124,1.2269865,5.71078,-7.799216,1.7091279,-0.59414124,0.10524704,-0.3045287,-0.7370092,-8.134351,9.222215,-0.50793487,0.95050216,-1.3052962,-1.7210524,0
1.360000000000001,13.183261957837544,-0.7397617403964416,-0.33879355186163906,1.8485570552410653,15.495377,-3.1009161,-0.44021544,1.7586524,5.6295857,-7.7065864,1.7041233,-0.60259026,0.10044061,-0.30319583,-0.73134804,-8.104361,9.303204,-0.49333948,0.8469769,-1.2216208,-1.5862982,0
1.370000000000001,13.183261957837544,-0.7397617403964416,-0.33879355186163906,1.8485570552410653,15.495377,-3.1009161,-0.44021544,1.7586524,5.5487137,-7.6131167,1.699319,-0.61017203,0.096366264,-0.3017468,-0.7261911,-8.069913,9.390154,-0.4679188,0.6465502,-1.0369413,-1.4392524,0
1.380000000000001,13.183261957837544,-0.7397617403964416,-0.33879355186163906,1.8485570552410653,15.495377,-3.1009161,-0.44021544,1.7586524,5.4681892,-7.5187945,1.694756,-0.61682594,0.09324374,-0.30019227,-0.7216072,-8.034975,9.4737015,-0.44506776,0.4782574,-0.8801905,-1.2958484,0
1.390000000000001,13.183261957837544,-0.7397617403964416,-0.33879355186163906,1.8485570552410653,15.495377,-3.1009161,-0.44021544,1.7586524,5.3880153,-7.423653,1.6904088,-0.62263805,0.090900235,-0.2985719,-0.7175756,-7.9999075,9.55412,-0.42477635,0.33692825,-0.74717015,-1.155996,0
1.400000000000001,12.541991082198571,-1.7810769334918273,-0.25410242424708585,2.4721042422501376,15.154226,-3.2848186,-0.399628,2.5174012,5.308191,-7.327722,1.6862518,-0.62768096,0.089189865,-0.29691565,-0.7140755,-7.964993,9.63165,-0.40702605,0.21822368,-0.63431203,-1.0196072,0
1.410000000000001,12.541991082198571,-1.7810769334918273,-0.25410242424708585,2.4721042422501376,15.154226,-3.2848186,-0.399628,2.5174012,5.22873,-7.230994,1.6823127,-0.6319075,0.08828292,-0.29523045,-0.7111532,-7.9272423,9.713512,-0.38120526,0.03094744,-0.45054266,-0.8741679,0
1.420000000000001,12.541991082198571,-1.7810769334918273,-0.25410242424708585,2.4721042422501376,15.154226,-3.2848186,-0.399628,2.5174012,5.149644,-7.133461,1.6786182,-0.6352817,0.08830737,-0.29352546,-0.7088461,-7.8902144,9.79275,-0.35812545,-0.12636861,-0.29467797,-0.73233074,0
1.430000000000001,12.541991082198571,-1.7810769334918273,-0.25410242424708585,2.4721042422501376,15.154226,-3.2848186,-0.399628,2.5174012,5.0709224,-7.0351477,1.675141,-0.6378742,0.0890928,-0.2918219,-0.7071209,-7.8541684,9.869632,-0.33777124,-0.25860742,-0.16257626,-0.5940063,0
1.440000000000001,12.541991082198571,-1.7810769334918273,-0.25410242424708585,2.4721042422501376,14.496929,-3.5629992,-0.6714622,3.2399793,4.9925566,-6.936076,1.6718535,-0.6397447,0.09049561,-0.2901346,-0.70594627,-7.819298,9.9443865,-0.32012072,-0.36986536,-0.05071661,-0.4591077,0
1.450000000000001,12.541991082198571,-1.7810769334918273,-0.25410242424708585,2.4721042422501376,14.496929,-3.5629992,-0.6714622,3.2399793,4.9145327,-6.836267,1.6687292,-0.64094365,0.09239499,-0.28847337,-0.70529324,-7.7857394,10.017221,-0.30512294,-0.46390375,0.043568425,-0.32757792,0
1.460000000000001,12.541991082198571,-1.7810769334918273,-0.25410242424708585,2.4721042422501376,14.496929,-3.5629992,-0.6714622,3.2399793,4.8368382,-6.7357364,1.6657453,-0.6415203,0.0946884,-0.2868091,-0.7051435,-7.753336,10.088875,-0.29184526,-0.555736,0.11069542,-0.20036407,0
1.470000000000001,12.541991082198571,-1.7810769334918273,-0.25410242424708585,2.4721042422501376,14.496929,-3.5629992,-0.6714622,3.2399793,4.759462,-6.6344934,1.6628876,-0.64153135,0.097287476,-0.28503707,-0.7054981,-7.722084,10.15969,-0.27989838,-0.65202117,0.1485791,-0.0777162,0
1.480000000000001,12.184812216548197,-2.7929444487102844,-0.6019772508132323,2.9769221846165106,14.273363,-3.9600873,-1.0292863,3.6397982,4.682392,-6.532546,1.6601424,-0.6410265,0.10011757,-0.2830528,-0.7063595,-7.692111,10.229672,-0.26933694,-0.75274485,0.16109234,0.040651277,0
1.490000000000001,12.184812216548197,-2.7929444487102844,-0.6019772508132323,2.9769221846165106,14.273363,-3.9600873,-1.0292863,3.6397982,4.605625,-6.4298787,1.6575329,-0.6399616,0.10328986,-0.28084627,-0.7077478,-7.6615605,10.303604,-0.25275892,-0.88389665,0.22905268,0.16799966,0
1.500000000000001,12.184812216548197,-2.7929444487102844,-0.6019772508132323,2.9769221846165106,14.273363,-3.9600873,-1.0292863,3.6397982,4.5291553,-6.326476,1.6550821,-0.6382991,0.10688791,-0.27840117,-0.70967823,-7.6326385,10.376731,-0.23762074,-1.0149976,0.2659978,0.29092172,0
1.5100000000000011,12.184812216548197,-2.7929444487102844,-0.6019772508132323,2.9769221846165106,14.273363,-3.9600873,-1.0292863,3.6397982,4.4529657,-6.2223463,1.6527754,-0.6360863,0.11081619,-0.27562055,-0.7121436,-7.605505,10.449049,-0.22396465,-1.1466485,0.27616665,0.40968835,0
1.5200000000000011,12.057996325022781,-3.696082451119497,-1.3439422585934866,3.2538439426018715,14.450321,-4.686987,-1.8489069,3.6743562,4.377038,-6.117498,1.6505977,-0.63336176,0.114993386,-0.2724183,-0.7151356,-7.580306,10.520522,-0.21180895,-1.2792435,0.26325035,0.52454686,0
1.5300000000000011,12.057996325022781,-3.696082451119497,-1.3439422585934866,3.2538439426018715,14.450321,-4.686987,-1.8489069,3.6743562,4.30136,-6.011916,1.6485704,-0.63014543,0.11938557,-0.2686357,-0.7186793,-7.555638,10.595782,-0.19391462,-1.4493742,0.21921822,0.63997096,0
1.5400000000000011,12.057996325022781,-3.696082451119497,-1.3439422585934866,3.2538439426018715,14.450321,-4.686987,-1.8489069,3.6743562,4.2259173,-5.9055867,1.6467139,-0.6264506,0.12395925,-0.26412868,-0.72279394,-7.533351,10.669919,-0.17766078,-1.6175499,0.15743946,0.75192916,0
1.5500000000000012,12.057996325022781,-3.696082451119497,-1.3439422585934866,3.2538439426018715,14.450321,-4.686987,-1.8489069,3.6743562,4.150685,-5.798522,1.6450118,-0.6222948,0.12865026,-0.25884622,-0.72746015,-7.513591,10.74281,-0.16299225,-1.784197,0.08055921,0.86060274,0
1.5600000000000012,12.296648524086715,-4.517004583846238,-2.099406848825493,3.324036970730966,16.933535,-5.323862,-3.4893801,3.6516411,4.0756364,-5.6907353,1.6434488,-0.61768925,0.1334029,-0.25274372,-0.7326565,-7.4964843,10.814315,-0.14984873,-1.9496115,-0.009125475,0.9661583,0
1.5700000000000012,12.296648524086715,-4.517004583846238,-2.099406848825493,3.324036970730966,16.933535,-5.323862,-3.4893801,3.6516411,4.000751,-5.5822186,1.6420455,-0.6126555,0.13816942,-0.24557537,-0.73841476,-7.4812217,10.888782,-0.13107651,-2.1788192,-0.16432191,1.0665447,0
1.5800000000000012,12.296648524086715,-4.517004583846238,-2.099406848825493,3.324036970730966,16.933535,-5.323862,-3.4893801,3.6516411,3.926002,-5.472967,1.6408216,-0.6072024,0.14290297,-0.23712274,-0.74475366,-7.469078,10.961226,-0.11396329,-2.4012234,-0.3243022,1.1645943,0
1.5900000000000012,12.296648524086715,-4.517004583846238,-2.099406848825493,3.324036970730966,16.933535,-5.323862,-3.4893801,3.6516411,3.8513582,-5.363002,1.639761,-0.60131365,0.14755866,-0.22738852,-0.7516276,-7.4601774,11.031407,-0.09838177,-2.6174784,-0.4879102,1.2603855,0
1.6000000000000012,12.904674369496338,-4.985851591240793,-2.7958383130508357,3.2265454417737165,19.318462,-6.061617,-4.85472,4.0021214,3.7767868,-5.2523475,1.6388489,-0.59496856,0.15209612,-0.21637674,-0.7589872,-7.4546127,11.09908,-0.084225334,-2.828126,-0.6541604,1.353992,0
1.6100000000000012,12.904674369496338,-4.985851591240793,-2.7958383130508357,3.2265454417737165,19.318462,-6.061617,-4.85472,4.0021214,3.702255,-5.1410108,1.6381043,-0.58818096,0.15638697,-0.20383453,-0.76683706,-7.4523306,11.167743,-0.064972304,-3.0924363,-0.91665506,1.4394244,0
1.6200000000000012,12.904674369496338,-4.985851591240793,-2.7958383130508357,3.2265454417737165,19.318462,-6.061617,-4.85472,4.0021214,3.6277277,-5.0290046,1.6375442,-0.58094454,0.16031693,-0.1895403,-0.77516305,-7.453725,11.232962,-0.04728902,-3.347673,-1.1703961,1.5235404,0
1.6300000000000012,12.904674369496338,-4.985851591240793,-2.7958383130508357,3.2265454417737165,19.318462,-6.061617,-4.85472,4.0021214,3.5531678,-4.9163647,1.6371535,-0.57320356,0.16386974,-0.17354557,-0.7838799,-7.458831,11.294417,-0.030998476,-3.593667,-1.4151603,1.6062655,0
1.6400000000000012,12.904674369496338,-4.985851591240793,-2.7958383130508357,3.2265454417737165,20.475538,-6.477922,-5.2282767,4.0253806,3.4785378,-4.8031273,1.6369259,-0.5649042,0.16703933,-0.15596174,-0.7928798,-7.4677877,11.352651,-0.0142958965,-3.8104677,-1.6309,1.6857733,0
1.6500000000000012,12.904674369496338,-4.985851591240793,-2.7958383130508357,3.2265454417737165,20.475538,-6.477922,-5.2282767,4.0253806,3.4037983,-4.689323,1.6368716,-0.55600375,0.16984193,-0.13701367,-0.8020238,-7.4807463,11.407629,0.00362245,-3.9934797,-1.8129687,1.7613795,0
1.6600000000000013,12.904674369496338,-4.985851591240793,-2.7958383130508357,3.2265454417737165,20.475538,-6.477922,-5.2282767,4.0253806,3.3289087,-4.5749874,1.6370022,-0.54646975,0.17229608,-0.11691123,-0.81118304,-7.4977736,11.458912,0.022700546,-4.1479716,-1.966618,1.8332756,0
1.6700000000000013,12.904674369496338,-4.985851591240793,-2.7958383130508357,3.2265454417737165,20.475538,-6.477922,-5.2282767,4.0253806,3.2538283,-4.460159,1.6373292,-0.5362786,0.17441949,-0.09583539,-0.82024384,-7.518888,11.506088,0.04283257,-4.278391,-2.0962806,1.9016438,0
1.6800000000000013,13.407971748633353,-4.703496243925254,-3.1522897829531638,2.9357064659925562,20.22869,-5.899588,-5.1509004,3.6004522,3.1785166,-4.3448806,1.6378622,-0.52541447,0.17622913,-0.07394299,-0.8291059,-7.5440626,11.5487795,0.06387017,-4.38849,-2.2056983,1.966657,0
1.6900000000000013,13.407971748633353,-4.703496243925254,-3.1522897829531638,2.9357064659925562,20.22869,-5.899588,-5.1509004,3.6004522,3.1029277,-4.229192,1.6386325,-0.51392823,0.17756625,-0.05138408,-0.8376807,-7.5743575,11.588107,0.09030744,-4.4373536,-2.3535187,2.0142086,0
1.7000000000000013,13.407971748633353,-4.703496243925254,-3.1522897829531638,2.9357064659925562,20.22869,-5.899588,-5.1509004,3.6004522,3.027016,-4.113137,1.6396703,-0.5018673,0.17830773,-0.02829098,-0.8458939,-7.6086183,11.622046,0.117299944,-4.4786224,-2.478273,2.0594268,0
1.7100000000000013,13.407971748633353,-4.703496243925254,-3.1522897829531638,2.9357064659925562,20.22869,-5.899588,-5.1509004,3.6004522,2.9507427,-3.9967704,1.6409796,-0.48922083,0.17851743,-0.004767076,-0.8536821,-7.646627,11.650269,0.14462908,-4.513478,-2.5835588,2.102426,0
1.7200000000000013,13.775193164069611,-3.730434150633896,-3.1903382224126022,2.4970662523045846,19.455683,-4.3019047,-5.1242266,2.8482723,2.8740716,-3.8801517,1.6425631,-0.47598478,0.17825097,0.019096972,-0.8609888,-7.6881456,11.672485,0.17205259,-4.5429187,-2.6724136,2.1433156,0
1.7300000000000013,13.775193164069611,-3.730434150633896,-3.1903382224126022,2.4970662523045846,19.455683,-4.3019047,-5.1242266,2.8482723,2.7969627,-3.7633395,1.6444373,-0.462279,0.17736031,0.042901844,-0.867757,-7.7341223,11.688896,0.20274845,-4.416069,-2.753057,2.1606743,0
1.7400000000000013,13.775193164069611,-3.730434150633896,-3.1903382224126022,2.4970662523045846,19.455683,-4.3019047,-5.1242266,2.8482723,2.7193794,-3.6463962,1.6466166,-0.4482205,0.17574072,0.06632321,-0.8739658,-7.7830105,11.698759,0.23303933,-4.3090186,-2.8211465,2.177181,0
1.7500000000000013,13.775193164069611,-3.730434150633896,-3.1903382224126022,2.4970662523045846,19.455683,-4.3019047,-5.1242266,2.8482723,2.6412942,-3.5293872,1.6490959,-0.43380716,0.17349449,0.08938895,-0.8796147,-7.8343806,11.701998,0.26269805,-4.218678,-2.878637,2.192878,0
1.7600000000000013,13.809825515754849,-2.317031250658161,-2.761270944055062,1.931980049059013,18.599478,-3.3535523,-4.735816,2.6495767,2.5626845,-3.4123793,1.6518677,-0.41904005,0.1707081,0.112121835,-0.8847001,-7.8878226,11.698562,0.29149908,-4.1424394,-2.9271781,2.2078047,0
1.7700000000000014,13.809825515754849,-2.317031250658161,-2.761270944055062,1.931980049059013,18.599478,-3.3535523,-4.735816,2.6495767,2.4835312,-3.295439,1.6549238,-0.4041054,0.16736686,0.13398069,-0.8892343,-7.943066,11.688431,0.3195456,-3.857831,-2.9008617,2.19427,0
1.7800000000000014,13.809825515754849,-2.317031250658161,-2.761270944055062,1.931980049059013,18.599478,-3.3535523,-4.735816,2.6495767,2.403819,-3.178633,1.6582544,-0.38918012,0.16347684,0.15454371,-0.89327025,-7.9994926,11.671812,0.34637582,-3.6176,-2.878719,2.181399,0
1.7900000000000014,13.809825515754849,-2.317031250658161,-2.761270944055062,1.931980049059013,18.599478,-3.3535523,-4.735816,2.6495767,2.3235388,-3.0620244,1.6618469,-0.3742526,0.15913051,0.17398955,-0.8968509,-8.056641,11.6489525,0.3718866,-3.414826,-2.8600879,2.1691601,0
1.8000000000000014,13.48286054061794,-0.7878427158117204,-2.1601475036533966,1.2742279695119876,18.366713,-2.4593828,-4.9013476,2.461358,2.2426853,-2.9456747,1.6656874,-0.3593119,0.15440333,0.1924697,-0.90000635,-8.114101,11.620084,0.39598805,-3.243669,-2.8444114,2.1575215,0
1.8100000000000014,13.48286054061794,-0.7878427158117204,-2.1601475036533966,1.2742279695119876,18.366713,-2.4593828,-4.9013476,2.461358,2.161264,-2.8296385,1.6697474,-0.34456638,0.14934301,0.20949005,-0.9028212,-8.170142,11.586279,0.41575658,-2.8609123,-2.7370818,2.1141782,0
1.8200000000000014,13.48286054061794,-0.7878427158117204,-2.1601475036533966,1.2742279695119876,18.366713,-2.4593828,-4.9013476,2.461358,2.0792842,-2.7139668,1.6739979,-0.3302036,0.14400096,0.22467673,-0.9054011,-8.225744,11.54728,0.4341224,-2.537814,-2.6465957,2.0729613,0
1.8300000000000014,13.48286054061794,-0.7878427158117204,-2.1601475036533966,1.2742279695119876,18.366713,-2.4593828,-4.9013476,2.461358,1.9967519,-2.5987093,1.6784252,-0.3161833,0.13843495,0.23830955,-0.9077852,-8.28057,11.50353,0.45116186,-2.2650752,-2.570308,2.0337672,0
1.8400000000000014,13.48286054061794,-0.7878427158117204,-2.1601475036533966,1.2742279695119876,17.502314,-1.3655145,-4.598087,1.5354208,1.9136764,-2.4839113,1.6830167,-0.30246788,0.13268949,0.25062436,-0.9099976,-8.334343,11.455418,0.46695146,-2.0348473,-2.5059888,1.9964964,0
1.8500000000000014,13.48286054061794,-0.7878427158117204,-2.1601475036533966,1.2742279695119876,17.502314,-1.3655145,-4.598087,1.5354208,1.8300694,-2.369615,1.6877601,-0.28902334,0.12679893,0.26181972,-0.9120524,-8.386829,11.40328,0.4815638,-1.8405046,-2.4517598,1.9610544,0
1.8600000000000014,13.48286054061794,-0.7878427158117204,-2.1601475036533966,1.2742279695119876,17.502314,-1.3655145,-4.598087,1.5354208,1.7459449,-2.2558587,1.6926442,-0.27581915,0.12078972,0.2720628,-0.9139568,-8.437838,11.347417,0.4950649,-1.6764537,-2.4060366,1.9273516,0
1.8700000000000014,13.48286054061794,-0.7878427158117204,-2.1601475036533966,1.2742279695119876,17.502314,-1.3655145,-4.598087,1.5354208,1.6613184,-2.1426785,1.6976581,-0.26282853,0.114682265,0.28149423,-0.9157137,-8.487201,11.288089,0.5075133,-1.5379729,-2.367484,1.8953025,0
1.8800000000000014,13.257960206155731,0.4515674904954709,-1.5782213330065848,0.6113919015663114,17.516792,-0.632574,-4.558148,0.7256755,1.5762072,-2.0301077,1.7027912,-0.2500279,0.10849227,0.29023224,-0.9173234,-8.53478,11.22553,0.5189592,-1.421077,-2.3349774,1.8648263,0
1.8900000000000015,13.257960206155731,0.4515674904954709,-1.5782213330065848,0.6113919015663114,17.516792,-0.632574,-4.558148,0.7256755,1.4906334,-1.9181726,1.708025,-0.23759428,0.10230076,0.297874,-0.9188885,-8.579691,11.16107,0.5276508,-1.1292719,-2.2165616,1.8033199,0
1.9000000000000015,13.257960206155731,0.4515674904954709,-1.5782213330065848,0.6113919015663114,17.516792,-0.632574,-4.558148,0.7256755,1.4046202,-1.8068953,1.7133415,-0.2256795,0.09617657,0.304113,-0.9205083,-8.622631,11.094031,0.5355629,-0.882939,-2.1166892,1.7448317,0
1.9100000000000015,13.257960206155731,0.4515674904954709,-1.5782213330065848,0.6113919015663114,17.516792,-0.632574,-4.558148,0.7256755,1.3181877,-1.6962996,1.7187339,-0.21422894,0.0901122,0.30916932,-0.9221722,-8.663529,11.024781,0.5428596,-0.67499286,-2.0324543,1.6892135,0
1.9200000000000015,12.892237298656404,1.4705713750459843,-1.0107245213147198,-0.029214424433437327,17.369406,0.38175514,-4.4997134,0.0071081314,1.2313567,-1.586406,1.7241969,-0.20319456,0.084099114,0.31322727,-0.92386657,-8.702334,10.953635,0.54968417,-0.4994521,-1.9614061,1.6363245,0
1.9300000000000015,12.892237298656404,1.4705713750459843,-1.0107245213147198,-0.029214424433437327,17.369406,0.38175514,-4.4997134,0.0071081314,1.1441535,-1.4772223,1.7297119,-0.19271295,0.07823271,0.31602645,-0.92567277,-8.738003,10.882894,0.55328965,-0.19248313,-1.8128096,1.5545961,0
1.9400000000000015,12.892237298656404,1.4705713750459843,-1.0107245213147198,-0.029214424433437327,17.369406,0.38175514,-4.4997134,0.0071081314,1.0566039,-1.3687524,1.7352622,-0.18289897,0.072589,0.3173723,-0.92766106,-8.771609,10.810969,0.5567671,0.06665651,-1.6874652,1.4768779,0
1.9500000000000015,12.892237298656404,1.4705713750459843,-1.0107245213147198,-0.029214424433437327,17.369406,0.38175514,-4.4997134,0.0071081314,0.9687283,-1.261006,1.7408473,-0.17368302,0.06713214,0.3174942,-0.9297991,-8.803181,10.738223,0.5603129,0.28541818,-1.5817306,1.4029735,0
1.9600000000000015,12.619723216211069,2.149092294327759,-0.421102669530833,-0.570178237527141,17.286661,0.7682319,-4.3309493,-0.24507435,0.88054717,-1.1539898,1.7464691,-0.16500439,0.061830215,0.31658387,-0.93205506,-8.832746,10.664964,0.5640931,0.4700921,-1.4925349,1.3326956,0
1.9700000000000015,12.619723216211069,2.149092294327759,-0.421102669530833,-0.570178237527141,17.286661,0.7682319,-4.3309493,-0.24507435,0.79208314,-1.0476998,1.7521198,-0.15696368,0.056810316,0.3145146,-0.93446076,-8.859765,10.593025,0.5660943,0.731705,-1.3252622,1.239321,0
1.9800000000000015,12.619723216211069,2.149092294327759,-0.421102669530833,-0.570178237527141,17.286661,0.7682319,-4.3309493,-0.24507435,0.7033582,-0.94212896,1.757793,-0.14964384,0.052171357,0.3111955,-0.9370398,-8.884954,10.521186,0.5686425,0.9525629,-1.1841352,1.1505283,0
1.9900000000000015,12.619723216211069,2.149092294327759,-0.421102669530833,-0.570178237527141,17.286661,0.7682319,-4.3309493,-0.24507435,0.61439,-0.8372747,1.763495,-0.14297123,0.04784877,0.3068214,-0.93975085,-8.908414,10.449756,0.5718972,1.1390128,-1.0650631,1.0660927,0
2.0000000000000013,,,,,16.948061,0.8443349,-3.7471406,-0.31547698,0.52519554,-0.7331315,1.7692337,-0.136882,0.04378735,0.30155528,-0.94255596,-8.930234,10.378999,0.5759871,1.2964137,-0.964596,0.98580045,0
2.010000000000001,,,,,16.948061,0.8443349,-3.7471406,-0.31547698,0.43579257,-0.6296853,1.7750088,-0.13141422,0.040055934,0.29543766,-0.9454332,-8.950139,10.3104105,0.5791557,1.4613949,-0.8214963,0.89046425,0
2.020000000000001,,,,,16.948061,0.8443349,-3.7471406,-0.31547698,0.34619766,-0.5269195,1.7808205,-0.12659912,0.036705863,0.28850794,-0.94836175,-8.96864,10.242946,0.5833403,1.6006788,-0.70074207,0.7998062,0
2.0300000000000007,,,,,16.948061,0.8443349,-3.7471406,-0.31547698,0.25642422,-0.4248218,1.7866793,-0.12237548,0.0336703,0.28088984,-0.95131123,-8.985854,10.176816,0.58861613,1.7182664,-0.59884095,0.71359676,0
2.0400000000000005,,,,,16.948061,0.8443349,-3.7471406,-0.31547698,0.16648465,-0.32337794,1.7925967,-0.11869005,0.030892966,0.27268708,-0.9542545,-9.001881,10.112206,0.59503716,1.8175356,-0.512847,0.63161767,0
2.0500000000000003,,,,,16.276121,0.7475098,-2.9622643,-0.4806746,0.07639039,-0.22257186,1.7985842,-0.1154964,0.02832669,0.26398692,-0.95716804,-9.0168085,10.049277,0.60263866,1.9013389,-0.44027495,0.5536614,1
2.06,,,,,16.276121,0.7475098,-2.9622643,-0.4806746,-0.013869833,-0.12248249,1.8048209,-0.11237529,0.024903221,0.2556114,-0.95990425,-9.034995,9.968953,0.64492255,1.7215147,-0.83369994,0.5029062,1
2.07,,,,,16.276121,0.7475098,-2.9622643,-0.4806746,-0.104303256,-0.023185588,1.8114876,-0.108996995,0.019770145,0.2482143,-0.9623514,-9.051364,9.89073,0.68860984,1.5696919,-1.1657476,0.4546416,1
2.0799999999999996,,,,,16.276121,0.7475098,-2.9622643,-0.4806746,-0.1948892,0.075338304,1.8185973,-0.10544082,0.01318315,0.24163544,-0.96453226,-9.065433,9.814307,0.7335207,1.4415132,-1.4459947,0.40874538,1
2.0899999999999994,,,,,17.072363,-0.35660645,-4.097866,0.20196621,-0.2856026,0.17310591,1.8261616,-0.10176944,0.005359646,0.235738,-0.9664593,-9.07679,9.739443,0.779492,1.3332992,-1.682523,0.36510128,1
2.099999999999999,,,,,17.072363,-0.35660645,-4.097866,0.20196621,-0.3764166,0.2701137,1.8342257,-0.09784303,-0.003890689,0.23087795,-0.9680437,-9.085468,9.66231,0.83344644,1.0698382,-2.0592628,0.35709617,1
2.109999999999999,,,,,17.072363,-0.35660645,-4.097866,0.20196621,-0.46729913,0.36635554,1.8428327,-0.093544945,-0.014708163,0.22732864,-0.969204,-9.090419,9.586174,0.88806885,0.8474472,-2.3772378,0.3494839,1
2.1199999999999988,,,,,17.072363,-0.35660645,-4.097866,0.20196621,-0.55821055,0.46183935,1.8519882,-0.08894975,-0.026853288,0.22487025,-0.9699494,-9.091171,9.510651,0.9430723,0.65972453,-2.6456146,0.3422452,1
2.1299999999999986,,,,,16.371775,-0.88330764,-4.4698606,0.57215947,-0.64910686,0.55656964,1.8616945,-0.08411721,-0.040121607,0.22331591,-0.9702815,-9.087328,9.435436,0.9981804,0.50126594,-2.87213,0.33536166,1
2.1399999999999983,,,,,16.371775,-0.88330764,-4.4698606,0.57215947,-0.7399419,0.6505637,1.8719198,-0.079027094,-0.05445505,0.22272559,-0.97014654,-9.078905,9.363366,1.0468333,0.28542054,-3.12134,0.34698138,1
2.149999999999998,,,,,16.371775,-0.88330764,-4.4698606,0.57215947,-0.8306676,0.7438363,1.8826295,-0.07366073,-0.0697957,0.2231369,-0.9694917,-9.065427,9.29109,1.0950059,0.10322949,-3.3316813,0.35803092,1
2.159999999999998,,,,,16.371775,-0.88330764,-4.4698606,0.57215947,-0.9212321,0.836384,1.8938172,-0.068063736,-0.08598075,0.22437318,-0.96831447,-9.046613,9.218383,1.1423731,-0.050555028,-3.5092158,0.36853826,1
2.1699999999999977,,,,,15.458643,-1.809185,-3.873768,1.2844776,-1.0115807,0.92820185,1.9054731,-0.062273275,-0.10286994,0.2262847,-0.96661085,-9.022234,9.145086,1.1886134,-0.18036269,-3.6590602,0.37853,1
2.1799999999999975,,,,,15.458643,-1.809185,-3.873768,1.2844776,-1.1016653,1.0193039,1.9175445,-0.05632923,-0.120069735,0.22909823,-0.96432656,-8.993812,9.075203,1.2254314,-0.4342612,-3.6926184,0.4229851,1
2.1899999999999973,,,,,15.458643,-1.809185,-3.873768,1.2844776,-1.1914384,1.109703,1.9299759,-0.05026074,-0.13726068,0.23299247,-0.96143085,-8.959985,9.004449,1.2605377,-0.6485695,-3.7209454,0.46525875,1
2.199999999999997,,,,,15.458643,-1.809185,-3.873768,1.2844776,-1.2808466,1.1993892,1.9427482,-0.044080358,-0.1544294,0.23778495,-0.95795,-8.920807,8.932641,1.2935978,-0.82946146,-3.7448542,0.50545806,1
2.209999999999997,,,,,14.98064,-2.655043,-2.604262,2.183838,-1.3698363,1.2883517,1.9558398,-0.037797667,-0.17156224,0.2433207,-0.9539047,-8.876335,8.859653,1.3242966,-0.9821484,-3.7650328,0.5436847,1
2.2199999999999966,,,,,14.98064,-2.655043,-2.604262,2.183838,-1.4583629,1.3765893,1.9692055,-0.03149891,-0.18812318,0.24979313,-0.94932723,-8.828202,8.7876835,1.3484374,-1.242911,-3.584168,0.6241675,1
2.2299999999999964,,,,,14.98064,-2.655043,-2.604262,2.183838,-1.5463842,1.4641004,1.9827988,-0.025248632,-0.20368865,0.25735933,-0.9442674,-8.775328,8.7143,1.3697467,-1.4630227,-3.4315138,0.700701,1
2.239999999999996,,,,,14.98064,-2.655043,-2.604262,2.183838,-1.6338544,1.5508697,1.99659,-0.019023173,-0.21839581,0.26584694,-0.93875873,-8.7180395,8.639333,1.3879974,-1.6488194,-3.3026667,0.7734789,1
