time-since-start [s],throttle_mpc,roll_mpc,pitch_mpc,yaw_mpc,throttle_nw,roll_nw,pitch_nw,yaw_nw,position_x [m],position_y [m],position_z [m],rotation_w [quaternion],rotation_x [quaternion],rotation_y [quaternion],rotation_z [quaternion],velocity_x [m/s],velocity_y [m/s],velocity_z [m/s],omega_x [rad/s],omega_y [rad/s],omega_z [rad/s],network_used
0.0,12.370871615869357,5.999999194122494,-5.999999813216528,-0.4481239362033468,10.8474655,1.5055157,-5.324985,0.867554,18.526423,-10.184901,1.8079443,-0.21424258,0.40547824,-0.28992715,-0.84001774,-9.845901,-2.0507395,-0.4457783,0.83919764,-0.2709996,0.74356097,0
0.01,12.370871615869357,5.999999194122494,-5.999999813216528,-0.4481239362033468,12.985122,1.3273612,-5.264239,0.19899516,18.427551,-10.204918,1.8033688,-0.21433327,0.40070072,-0.29546183,-0.8403586,-9.927509,-1.9529753,-0.46971098,1.3984172,-0.9182982,0.7071084,0
0.02,12.370871615869357,5.999999194122494,-5.999999813216528,-0.4481239362033468,12.985122,1.3273612,-5.264239,0.19899516,18.327887,-10.223968,1.7985429,-0.21656683,0.39275193,-0.3025011,-0.84103376,-10.004581,-1.857219,-0.49576867,1.9213357,-1.5156611,0.66788644,0
0.03,12.370871615869357,5.999999194122494,-5.999999813216528,-0.4481239362033468,12.985122,1.3273612,-5.264239,0.19899516,18.227478,-10.242068,1.7934479,-0.22079726,0.38183668,-0.3109169,-0.84189075,-10.076436,-1.762966,-0.52345276,2.4107144,-2.067971,0.62629074,0
0.04,12.370871615869357,5.999999194122494,-5.999999813216528,-0.4481239362033468,13.44248,1.1817211,-5.365889,-0.3072758,18.126377,-10.2592325,1.7880695,-0.22687943,0.36812636,-0.3205761,-0.8427572,-10.142485,-1.6698241,-0.5523895,2.869121,-2.579586,0.5826763,0
0.05,12.370871615869357,5.999999194122494,-5.999999813216528,-0.4481239362033468,13.44248,1.1817211,-5.365889,-0.3072758,18.024649,-10.275469,1.7823966,-0.23466927,0.35176647,-0.33134216,-0.8434471,-10.202217,-1.5775123,-0.5823186,3.2989395,-3.0544002,0.53736126,0
0.060000000000000005,12.370871615869357,5.999999194122494,-5.999999813216528,-0.4481239362033468,13.44248,1.1817211,-5.365889,-0.3072758,17.922358,-10.290785,1.7764201,-0.24402347,0.33288318,-0.34307584,-0.84376556,-10.255184,-1.4858575,-0.6130823,3.7023768,-3.4958956,0.49063084,0
0.07,12.370871615869357,5.999999194122494,-5.999999813216528,-0.4481239362033468,13.44248,1.1817211,-5.365889,-0.3072758,17.819569,-10.305182,1.770136,-0.25477147,0.3116286,-0.35561496,-0.84351474,-10.301711,-1.3933303,-0.6435483,4.0606985,-3.8864162,0.4445659,0
0.08,14.540153540596293,5.999998763662353,-5.999999838706024,-1.143573330759807,15.007914,1.263869,-5.807877,0.24857864,17.716347,-10.318645,1.7635531,-0.266659,0.28827247,-0.36873433,-0.8425123,-10.341813,-1.2986981,-0.672826,4.363107,-4.2160654,0.40076137,0
0.09,14.540153540596293,5.999998763662353,-5.999999838706024,-1.143573330759807,15.007914,1.263869,-5.807877,0.24857864,17.612728,-10.331065,1.7567443,-0.27951273,0.26311356,-0.38219503,-0.8405777,-10.380606,-1.185184,-0.68879896,4.618231,-4.4944296,0.32498044,0
0.09999999999999999,14.540153540596293,5.999998763662353,-5.999999838706024,-1.143573330759807,15.007914,1.263869,-5.807877,0.24857864,17.508764,-10.34234,1.7497808,-0.29318455,0.2364189,-0.39578968,-0.8375557,-10.410372,-1.0696853,-0.70378155,4.8335447,-4.729404,0.2529181,0
0.10999999999999999,14.540153540596293,5.999998763662353,-5.999999838706024,-1.143573330759807,15.007914,1.263869,-5.807877,0.24857864,17.404552,-10.352453,1.7426711,-0.3074772,0.20839815,-0.40936127,-0.8333375,-10.430521,-0.9526087,-0.71809083,5.015266,-4.9277463,0.18439184,0
0.11999999999999998,14.540153540596293,5.999998763662353,-5.999999838706024,-1.143573330759807,15.007914,1.263869,-5.807877,0.24857864,17.300188,-10.361389,1.7354201,-0.322216,0.17924014,-0.42277354,-0.8278359,-10.440563,-0.83445024,-0.73210174,5.168638,-5.095165,0.119228214,0
0.12999999999999998,18.600198213835156,3.652572436025086,-5.999999757905272,-0.6662070757581781,16.35928,-0.19898653,-3.9509504,-0.08936704,17.195776,-10.369141,1.7280287,-0.33724576,0.14911637,-0.43590835,-0.82098323,-10.440112,-0.7157818,-0.74623555,5.298088,-5.236477,0.05726219,0
0.13999999999999999,18.600198213835156,3.652572436025086,-5.999999757905272,-0.6662070757581781,16.35928,-0.19898653,-3.9509504,-0.08936704,17.091434,-10.375541,1.72061,-0.3522548,0.11848137,-0.44791052,-0.81317574,-10.425806,-0.5641641,-0.73761487,5.0413513,-5.3556747,0.021761328,0
0.15,18.600198213835156,3.652572436025086,-5.999999757905272,-0.6662070757581781,16.35928,-0.19898653,-3.9509504,-0.08936704,16.987305,-10.380429,1.713273,-0.3670324,0.08773294,-0.4581329,-0.80480075,-10.397893,-0.4137687,-0.72995913,4.824653,-5.456266,-0.011997492,0
0.16,20.159325768033604,0.0538680992392016,-5.999999475619423,0.4962699340376892,17.305986,-2.4321208,-3.3890026,-0.49230233,16.883522,-10.383824,1.706007,-0.38157907,0.056936357,-0.46676114,-0.7957949,-10.356663,-0.26563364,-0.72347176,4.6417513,-5.5411563,-0.044099748,0
0.17,20.159325768033604,0.0538680992392016,-5.999999475619423,0.4962699340376892,17.305986,-2.4321208,-3.3890026,-0.49230233,16.780237,-10.385693,1.6988425,-0.39571175,0.026637932,-0.47282785,-0.7868521,-10.29799,-0.10861662,-0.7096473,3.9263685,-5.612623,-0.017583644,0
0.18000000000000002,20.159325768033604,0.0538680992392016,-5.999999475619423,0.4962699340376892,17.305986,-2.4321208,-3.3890026,-0.49230233,16.677607,-10.386014,1.6918104,-0.4093421,-0.0027116733,-0.475622,-0.7785982,-10.226287,0.043695,-0.6969082,3.322547,-5.672972,0.007631301,0
0.19000000000000003,20.159325768033604,0.0538680992392016,-5.999999475619423,0.4962699340376892,17.305986,-2.4321208,-3.3890026,-0.49230233,16.575752,-10.384841,1.6849021,-0.42257065,-0.0311977,-0.47562417,-0.77087104,-10.142597,0.19024304,-0.6847987,2.812888,-5.72393,0.031608947,0
0.20000000000000004,19.940156426737854,-2.3223834838061217,-5.851214254822684,0.6875994874056675,16.243605,-4.9448576,-2.2747493,0.042295378,16.474792,-10.382235,1.6781133,-0.4354613,-0.05889891,-0.47323173,-0.7635154,-10.047867,0.33012423,-0.6729599,2.382707,-5.766956,0.054409996,0
0.21000000000000005,19.940156426737854,-2.3223834838061217,-5.851214254822684,0.6875994874056675,16.243605,-4.9448576,-2.2747493,0.042295378,16.374825,-10.378273,1.671437,-0.44807297,-0.08543426,-0.46807876,-0.75685775,-9.944159,0.46110564,-0.66225785,1.6490686,-5.780088,0.085480765,0
0.22000000000000006,19.940156426737854,-2.3223834838061217,-5.851214254822684,0.6875994874056675,16.243605,-4.9448576,-2.2747493,0.042295378,16.27594,-10.373041,1.6648705,-0.4604778,-0.11049838,-0.45990688,-0.7511562,-9.8315935,0.5839708,-0.65089005,1.0298352,-5.7911944,0.11502687,0
0.23000000000000007,19.940156426737854,-2.3223834838061217,-5.851214254822684,0.6875994874056675,16.243605,-4.9448576,-2.2747493,0.042295378,16.17822,-10.366624,1.6584237,-0.47271115,-0.13426098,-0.44915682,-0.7461743,-9.711305,0.6980692,-0.6382532,0.5071657,-5.800584,0.1431232,0
0.24000000000000007,19.940156426737854,-2.3223834838061217,-5.851214254822684,0.6875994874056675,15.598191,-5.82275,1.7857404,0.34795275,16.081738,-10.359113,1.6521115,-0.48478127,-0.15686783,-0.43619233,-0.7416978,-9.584316,0.80283535,-0.6238877,0.06600081,-5.8085194,0.1698408,0
0.25000000000000006,19.940156426737854,-2.3223834838061217,-5.851214254822684,0.6875994874056675,15.598191,-5.82275,1.7857404,0.34795275,15.986554,-10.350601,1.6459529,-0.49667796,-0.17844307,-0.4213159,-0.7375376,-9.451566,0.89776987,-0.60746646,-0.3063694,-5.8152237,0.19524737,0
0.26000000000000006,19.940156426737854,-2.3223834838061217,-5.851214254822684,0.6875994874056675,15.598191,-5.82275,1.7857404,0.34795275,15.892723,-10.341192,1.6399698,-0.50837904,-0.19909166,-0.404781,-0.7335294,-9.313925,0.98242885,-0.5887835,-0.62067324,-5.8208857,0.21940723,0
0.2700000000000001,19.940156426737854,-2.3223834838061217,-5.851214254822684,0.6875994874056675,15.598191,-5.82275,1.7857404,0.34795275,15.800289,-10.33099,1.6341853,-0.5198549,-0.21890174,-0.38680157,-0.7295321,-9.172217,1.0564178,-0.5677414,-0.88596594,-5.8256664,0.24238157,0
0.2800000000000001,18.364506218809165,-4.366082832265242,-1.1285339928309555,1.059500793342191,16.22703,-5.533632,3.6887245,0.2599244,15.70929,-10.320103,1.6286231,-0.5310719,-0.2379469,-0.36755958,-0.7254265,-9.027228,1.1193894,-0.54433966,-1.1098909,-5.829702,0.26422858,0
0.2900000000000001,18.364506218809165,-4.366082832265242,-1.1285339928309555,1.059500793342191,16.22703,-5.533632,3.6887245,0.2599244,15.619696,-10.308663,1.6232578,-0.54149526,-0.25450704,-0.3476291,-0.7219161,-8.891453,1.1670971,-0.5283951,-1.6176878,-5.096685,0.30325282,0
0.3000000000000001,18.364506218809165,-4.366082832265242,-1.1285339928309555,1.059500793342191,16.22703,-5.533632,3.6887245,0.2599244,15.531465,-10.296794,1.6180633,-0.55080944,-0.2672515,-0.3275367,-0.7196563,-8.754638,1.205194,-0.5100963,-2.0463114,-4.4779873,0.34036213,0
0.3100000000000001,18.364506218809165,-4.366082832265242,-1.1285339928309555,1.059500793342191,16.22703,-5.533632,3.6887245,0.2599244,15.444602,-10.284588,1.613065,-0.5592483,-0.27675813,-0.30734265,-0.7184613,-8.61794,1.2345498,-0.48915327,-2.4081025,-3.9557767,0.37565047,0
0.3200000000000001,17.049045020943826,-5.5743338962315345,5.628096696296622,1.6756066065635336,15.832431,-6.4388857,5.9008274,0.72802335,15.359101,-10.27213,1.6082902,-0.5669807,-0.28351167,-0.28708112,-0.7181491,-8.482316,1.2559159,-0.46531275,-2.7134788,-3.5150032,0.4092072,0
0.3300000000000001,17.049045020943826,-5.5743338962315345,5.628096696296622,1.6756066065635336,15.832431,-6.4388857,5.9008274,0.72802335,15.2749,-10.2595005,1.6037247,-0.5734646,-0.28572887,-0.2679459,-0.71951526,-8.358212,1.2691246,-0.4472799,-3.1599193,-2.0893881,0.47134975,0
0.34000000000000014,17.049045020943826,-5.5743338962315345,5.628096696296622,1.6756066065635336,15.832431,-6.4388857,5.9008274,0.72802335,15.191928,-10.246764,1.599356,-0.57834053,-0.2820247,-0.25090462,-0.7232087,-8.236944,1.2774938,-0.42584825,-3.5367782,-0.88610196,0.53044295,0
0.35000000000000014,17.049045020943826,-5.5743338962315345,5.628096696296622,1.6756066065635336,15.832431,-6.4388857,5.9008274,0.72802335,15.110148,-10.23396,1.595221,-0.5819051,-0.2732907,-0.23564169,-0.72881496,-8.119486,1.2829095,-0.4005059,-3.854887,0.12953314,0.5866364,0
0.36000000000000015,16.125726837993582,-5.999984951951838,5.999999555420564,0.9104540342498936,15.161695,-6.8968515,6.9548593,1.0991198,15.029523,-10.221111,1.5913608,-0.58434325,-0.26026094,-0.22186497,-0.73592305,-8.006687,1.2869495,-0.37084222,-4.1233935,0.9867854,0.6400725,1
0.37000000000000016,16.125726837993582,-5.999984951951838,5.999999555420564,0.9104540342498936,15.161695,-6.8968515,6.9548593,1.0991198,14.949938,-10.208224,1.5877472,-0.58582693,-0.24332052,-0.20929205,-0.7441763,-7.9112263,1.2904942,-0.35121906,-4.4164,1.7684067,0.6625981,1
0.38000000000000017,16.125726837993582,-5.999984951951838,5.999999555420564,0.9104540342498936,15.161695,-6.8968515,6.9548593,1.0991198,14.871279,-10.195298,1.5843512,-0.5864649,-0.22279888,-0.19767502,-0.75322235,-7.821349,1.2950056,-0.32731444,-4.663679,2.42815,0.6840183,1
0.3900000000000002,16.125726837993582,-5.999984951951838,5.999999555420564,0.9104540342498936,15.161695,-6.8968515,6.9548593,1.0991198,14.7934885,-10.182318,1.5812159,-0.58626485,-0.19918993,-0.18681908,-0.7627026,-7.737788,1.3013318,-0.2990818,-4.8723645,2.9850206,0.7043874,1
0.4000000000000002,16.448682024155293,-5.784268079367575,5.999999725315908,-0.0007499609094616428,15.118448,-6.081791,6.9781036,1.5688667,14.716498,-10.169263,1.5783842,-0.58521587,-0.17291963,-0.1765586,-0.7723003,-7.66125,1.3101611,-0.26662347,-5.048477,3.4550607,0.7237571,0
0.4100000000000002,16.448682024155293,-5.784268079367575,5.999999725315908,-0.0007499609094616428,15.118448,-6.081791,6.9781036,1.5688667,14.640265,-10.156099,1.575954,-0.58338964,-0.14438662,-0.16684452,-0.78164655,-7.586566,1.3230517,-0.21876514,-5.1633215,3.8520079,0.68820536,0
0.4200000000000002,16.448682024155293,-5.784268079367575,5.999999725315908,-0.0007499609094616428,15.118448,-6.081791,6.9781036,1.5688667,14.564735,-10.142789,1.5740222,-0.5808588,-0.11393917,-0.1576332,-0.79042524,-7.5208955,1.3397262,-0.16701135,-5.260216,4.187058,0.65439814,0
0.4300000000000002,16.448682024155293,-5.784268079367575,5.999999725315908,-0.0007499609094616428,15.118448,-6.081791,6.9781036,1.5688667,14.489814,-10.129292,1.5726253,-0.57760406,-0.08185988,-0.14880425,-0.7984542,-7.4648433,1.3605425,-0.11190917,-5.341969,4.4698625,0.62224984,0
0.4400000000000002,16.448682024155293,-5.784268079367575,5.999999725315908,-0.0007499609094616428,16.401909,-5.4622245,7.078593,0.91622585,14.415403,-10.115563,1.5717932,-0.573606,-0.048402306,-0.14025776,-0.80558085,-7.4189596,1.3857526,-0.054109927,-5.4109483,4.7085667,0.59167904,0
0.45000000000000023,16.448682024155293,-5.784268079367575,5.999999725315908,-0.0007499609094616428,16.401909,-5.4622245,7.078593,0.91622585,14.341398,-10.101561,1.5715497,-0.5688472,-0.013795457,-0.13191147,-0.81167805,-7.383731,1.4155116,0.0056449026,-5.469152,4.910046,0.5626084,0
0.46000000000000024,16.448682024155293,-5.784268079367575,5.999999725315908,-0.0007499609094616428,16.401909,-5.4622245,7.078593,0.91622585,14.267691,-10.087237,1.57191,-0.56331265,0.02175268,-0.12369819,-0.8166418,-7.35957,1.4498879,0.06653811,-5.5182652,5.0801053,0.53496426,0
0.47000000000000025,16.448682024155293,-5.784268079367575,5.999999725315908,-0.0007499609094616428,16.401909,-5.4622245,7.078593,0.91622585,14.194168,-10.072547,1.5728813,-0.5569908,0.058052268,-0.115563594,-0.8203875,-7.3468113,1.4888694,0.12769108,-5.559709,5.223643,0.50867665,0
0.48000000000000026,17.550980171082916,-3.700029177981391,5.999999623579284,0.6133664782066306,16.400301,-4.4468803,7.1584973,0.65373343,14.120715,-10.057445,1.5744615,-0.5498733,0.09492925,-0.107464336,-0.8228479,-7.345704,1.5323715,0.18817797,-5.594682,5.344795,0.48367897,0
0.49000000000000027,17.550980171082916,-3.700029177981391,5.999999623579284,0.6133664782066306,16.400301,-4.4468803,7.1584973,0.65373343,14.047211,-10.041869,1.5766919,-0.54199016,0.13176082,-0.10006252,-0.82393724,-7.3570647,1.5834764,0.25755548,-5.2992673,5.447045,0.49004275,0
0.5000000000000002,17.550980171082916,-3.700029177981391,5.999999623579284,0.6133664782066306,16.400301,-4.4468803,7.1584973,0.65373343,13.973532,-10.02576,1.5796031,-0.53342557,0.16804916,-0.09389383,-0.82365036,-7.3806467,1.6392162,0.32415795,-5.0499163,5.533337,0.4960943,0
0.5100000000000002,17.550980171082916,-3.700029177981391,5.999999623579284,0.6133664782066306,16.400301,-4.4468803,7.1584973,0.65373343,13.899557,-10.009069,1.5831623,-0.5242388,0.20381288,-0.088753976,-0.82204384,-7.415991,1.6995275,0.38700417,-4.839447,5.6061625,0.5018489,0
0.5200000000000002,18.491757710556083,-1.3399949102403486,5.999999442856443,0.889768042847816,17.086906,-2.157071,7.2996817,0.29993927,13.825173,-9.991754,1.5873272,-0.51447296,0.23906107,-0.084468864,-0.8191653,-7.462634,1.7642868,0.44517708,-4.661796,5.667623,0.5073211,0
0.5300000000000002,18.491757710556083,-1.3399949102403486,5.999999442856443,0.889768042847816,17.086906,-2.157071,7.2996817,0.29993927,13.750254,-9.973751,1.5920875,-0.50437534,0.2733129,-0.08167278,-0.81500584,-7.52312,1.837053,0.5059074,-4.1438503,5.7195773,0.5260879,0
0.5400000000000003,18.491757710556083,-1.3399949102403486,5.999999442856443,0.889768042847816,17.086906,-2.157071,7.2996817,0.29993927,13.674676,-9.954998,1.5974226,-0.49419838,0.30620694,-0.080861226,-0.8096086,-7.5940027,1.9143679,0.56005555,-3.706673,5.7634153,0.54393375,0
0.5500000000000003,18.491757710556083,-1.3399949102403486,5.999999442856443,0.889768042847816,17.086906,-2.157071,7.2996817,0.29993927,13.598342,-9.935448,1.6032636,-0.48396367,0.337901,-0.08170839,-0.80307233,-7.6742883,1.9962622,0.60697204,-3.337668,5.800404,0.56090397,0
0.5600000000000003,18.542552236084624,0.914926898930226,5.999996103826819,0.9389340924524597,19.352322,0.13319531,4.8912797,0.9200082,13.521161,-9.915056,1.6095352,-0.47367418,0.36852196,-0.08393681,-0.7954736,-7.7630773,2.0827062,0.6460822,-3.0262043,5.8316126,0.57704145,0
0.5700000000000003,18.542552236084624,0.914926898930226,5.999996103826819,0.9389340924524597,19.352322,0.13319531,4.8912797,0.9200082,13.443053,-9.893777,1.6161585,-0.46366143,0.3977492,-0.08802914,-0.78680605,-7.8597536,2.1739042,0.6772417,-2.4116647,5.858074,0.59479964,0
0.5800000000000003,18.542552236084624,0.914926898930226,5.999996103826819,0.9389340924524597,19.352322,0.13319531,4.8912797,0.9200082,13.363944,-9.871562,1.6230502,-0.45422107,0.42534986,-0.0943475,-0.77708334,-7.962924,2.269757,0.69972444,-1.8929579,5.880387,0.6116864,0
0.5900000000000003,18.542552236084624,0.914926898930226,5.999996103826819,0.9389340924524597,19.352322,0.13319531,4.8912797,0.9200082,13.283775,-9.848365,1.6301224,-0.4452814,0.4515279,-0.10251093,-0.76637965,-8.071455,2.370413,0.71325696,-1.4551392,5.8991985,0.62774456,0
0.6000000000000003,17.52098979419711,2.561248195220154,2.8074342928164535,0.999183891738706,19.08255,2.1419318,6.6092887,1.307319,13.202499,-9.824138,1.637284,-0.43676463,0.47644544,-0.1121963,-0.75475,-8.184344,2.4759407,0.7175903,-1.0855942,5.915058,0.64301467,0
0.6100000000000003,17.52098979419711,2.561248195220154,2.8074342928164535,0.999183891738706,19.08255,2.1419318,6.6092887,1.307319,13.120109,-9.798861,1.6444161,-0.429065,0.4989978,-0.123076946,-0.74280256,-8.2942295,2.5802293,0.70746505,-0.51673055,5.430658,0.66049194,0
0.6200000000000003,17.52098979419711,2.561248195220154,2.8074342928164535,0.999183891738706,19.08255,2.1419318,6.6092887,1.307319,13.036608,-9.772517,1.6514046,-0.42255333,0.5183823,-0.13489474,-0.7311163,-8.406233,2.6889012,0.6889742,-0.036600202,5.0217733,0.6771116,0
0.6300000000000003,17.52098979419711,2.561248195220154,2.8074342928164535,0.999183891738706,19.08255,2.1419318,6.6092887,1.307319,12.951981,-9.745067,1.6581689,-0.41710624,0.5351125,-0.14748783,-0.71966904,-8.5193405,2.8017638,0.6627188,0.36863655,4.6766305,0.69291586,0
0.6400000000000003,17.52098979419711,2.561248195220154,2.8074342928164535,0.999183891738706,17.393717,2.1546671,4.818524,1.3167185,12.86622,-9.716469,1.664634,-0.41259816,0.5496087,-0.16071858,-0.708422,-8.632713,2.918664,0.62922794,0.71066153,4.3852916,0.7079445,0
0.6500000000000004,17.52098979419711,2.561248195220154,2.8074342928164535,0.999183891738706,17.393717,2.1546671,4.818524,1.3167185,12.779329,-9.686681,1.67073,-0.4089075,0.5622153,-0.17446993,-0.69732916,-8.745652,3.0394716,0.58895797,0.99933404,4.139367,0.7222357,0
0.6600000000000004,17.52098979419711,2.561248195220154,2.8074342928164535,0.999183891738706,17.393717,2.1546671,4.818524,1.3167185,12.691312,-9.655666,1.6763911,-0.40591994,0.57321477,-0.18864259,-0.6863432,-8.857565,3.1640658,0.54229623,1.2429762,3.9317784,0.73582554,0
0.6700000000000004,17.52098979419711,2.561248195220154,2.8074342928164535,0.999183891738706,17.393717,2.1546671,4.818524,1.3167185,12.602182,-9.623387,1.681555,-0.4035302,0.58283925,-0.20315216,-0.67541856,-8.967949,3.2923284,0.4895672,1.448612,3.7565482,0.7487486,0
0.6800000000000004,16.245011419527362,3.2828337416640605,-1.8242264531053227,1.2605430685688044,16.23358,2.4724438,0.23591702,1.5865241,12.511959,-9.5898075,1.6861626,-0.4016429,0.59127986,-0.21792701,-0.6645135,-9.076369,3.424137,0.43104017,1.6221703,3.608632,0.7610375,0
0.6900000000000004,16.245011419527362,3.2828337416640605,-1.8242264531053227,1.2605430685688044,16.23358,2.4724438,0.23591702,1.5865241,12.420701,-9.554941,1.6901444,-0.40074322,0.5973569,-0.23237756,-0.65465224,-9.174713,3.5494921,0.36459398,1.8815244,2.761539,0.7855483,0
0.7000000000000004,16.245011419527362,3.2828337416640605,-1.8242264531053227,1.2605430685688044,16.23358,2.4724438,0.23591702,1.5865241,12.328472,-9.518807,1.6934409,-0.40126133,0.60019726,-0.24604973,-0.64669263,-9.270499,3.6777399,0.2941641,2.1003916,2.0465353,0.8088565,0
0.7100000000000004,16.245011419527362,3.2828337416640605,-1.8242264531053227,1.2605430685688044,16.23358,2.4724438,0.23591702,1.5865241,12.2353,-9.481377,1.696018,-0.40302375,0.60033727,-0.25906405,-0.6403531,-9.363405,3.8086584,0.22090779,2.2850895,1.4430221,0.83102095,0
0.7200000000000004,15.58350861475571,3.089464657199773,-5.999994806798838,1.4523407701210607,16.498777,3.4623234,-5.2021,1.5625254,12.141214,-9.442624,1.6978526,-0.40586358,0.59820753,-0.27151635,-0.6353744,-9.453166,3.9420855,0.14580064,2.4409494,0.93361425,0.8520977,1
0.7300000000000004,15.58350861475571,3.089464657199773,-5.999994806798838,1.4523407701210607,16.498777,3.4623234,-5.2021,1.5625254,12.046241,-9.402515,1.6989324,-0.41001755,0.59326005,-0.28300175,-0.632327,-9.540904,4.079998,0.0701013,2.600762,-0.023099571,0.8869586,1
0.7400000000000004,15.58350861475571,3.089464657199773,-5.999994806798838,1.4523407701210607,16.498777,3.4623234,-5.2021,1.5625254,11.950408,-9.361016,1.699256,-0.4156649,0.5850656,-0.2931943,-0.6316307,-9.625002,4.2200956,-0.0052080154,2.7356052,-0.830625,0.9201089,1
0.7500000000000004,15.58350861475571,3.089464657199773,-5.999994806798838,1.4523407701210607,16.498777,3.4623234,-5.2021,1.5625254,11.853754,-9.318107,1.6988342,-0.42256615,0.5740866,-0.3022628,-0.63284993,-9.70525,4.3621492,-0.07881349,2.8493752,-1.5122278,0.95163244,1
0.7600000000000005,15.008212456263282,2.5472794799311496,-5.999999451615223,1.0100292859979279,14.656961,2.5472965,-6.3145156,1.0907631,11.756317,-9.273767,1.6976893,-0.4304973,0.56069314,-0.3103405,-0.63559693,-9.78142,4.5059266,-0.14962474,2.9453607,-2.0875444,0.98160917,1
0.7700000000000005,15.008212456263282,2.5472794799311496,-5.999999451615223,1.0100292859979279,14.656961,2.5472965,-6.3145156,1.0907631,11.658181,-9.228064,1.6958375,-0.4391869,0.54516023,-0.31712958,-0.63979954,-9.845269,4.6349425,-0.22018558,2.8836818,-2.697719,0.9869653,1
0.7800000000000005,15.008212456263282,2.5472794799311496,-5.999999451615223,1.0100292859979279,14.656961,2.5472965,-6.3145156,1.0907631,11.559425,-9.181065,1.6932998,-0.44841206,0.5277223,-0.32238778,-0.6453692,-9.905209,4.7648973,-0.28668106,2.831564,-3.212732,0.9920587,1
0.7900000000000005,15.008212456263282,2.5472794799311496,-5.999999451615223,1.0100292859979279,14.656961,2.5472965,-6.3145156,1.0907631,11.46009,-9.132763,1.6901202,-0.45804095,0.5086006,-0.32628688,-0.65196645,-9.961153,4.895396,-0.34845403,2.787525,-3.6474247,0.9969021,1
0.8000000000000005,15.247916262494018,1.5809317673249936,-5.999999645304852,0.7098137642800728,15.295493,2.6461186,-5.982374,0.5355827,11.360215,-9.083156,1.6863488,-0.46795064,0.48798048,-0.32897067,-0.65929896,-10.012979,5.026029,-0.4049847,2.7503116,-4.014323,1.001508,0
0.8100000000000005,15.247916262494018,1.5809317673249936,-5.999999645304852,0.7098137642800728,15.295493,2.6461186,-5.982374,0.5355827,11.259834,-9.032216,1.6820494,-0.47787505,0.46621948,-0.33028287,-0.6672238,-10.062478,5.161614,-0.4539733,2.5681093,-4.324131,0.9871945,0
0.8200000000000005,15.247916262494018,1.5809317673249936,-5.999999645304852,0.7098137642800728,15.295493,2.6461186,-5.982374,0.5355827,11.158981,-8.979925,1.6772906,-0.48761147,0.4436254,-0.33010614,-0.675619,-10.1075535,5.2963653,-0.4967976,2.414287,-4.5856023,0.9735833,0
0.8300000000000005,15.247916262494018,1.5809317673249936,-5.999999645304852,0.7098137642800728,15.295493,2.6461186,-5.982374,0.5355827,11.057699,-8.926293,1.6721354,-0.4971364,0.42027766,-0.3286066,-0.6842801,-10.14821,5.429753,-0.5332553,2.284425,-4.806278,0.96064,0
0.8400000000000005,15.247916262494018,1.5809317673249936,-5.999999645304852,0.7098137642800728,15.167971,1.5761554,-5.981822,0.53962654,10.956032,-8.871336,1.6666478,-0.5064233,0.39624625,-0.32592753,-0.6930333,-10.18442,5.5612535,-0.56322974,2.174792,-4.9925246,0.9483319,1
0.8500000000000005,15.247916262494018,1.5809317673249936,-5.999999645304852,0.7098137642800728,15.167971,1.5761554,-5.981822,0.53962654,10.854026,-8.81508,1.6608912,-0.5154557,0.37160677,-0.32218713,-0.70171845,-10.215967,5.689675,-0.5870747,2.0814633,-5.14689,0.9282766,1
0.8600000000000005,15.247916262494018,1.5809317673249936,-5.999999645304852,0.7098137642800728,15.167971,1.5761554,-5.981822,0.53962654,10.751728,-8.757553,1.6549284,-0.5242175,0.34642783,-0.31748837,-0.7102002,-10.242981,5.8152056,-0.60446924,2.0026739,-5.277169,0.90920544,1
0.8700000000000006,15.247916262494018,1.5809317673249936,-5.999999645304852,0.7098137642800728,15.167971,1.5761554,-5.981822,0.53962654,10.649183,-8.698788,1.6488236,-0.5326817,0.32076,-0.3119268,-0.71837616,-10.26539,5.937355,-0.6155151,1.93616,-5.3871217,0.8910701,1
0.8800000000000006,15.950896007919411,0.461926555268311,-5.999999423068266,0.8078513398141377,16.3088,0.573198,-5.99906,0.7252124,10.546437,-8.63882,1.6426395,-0.54082197,0.29465058,-0.3055863,-0.7261605,-10.283121,6.055644,-0.6203729,1.8800098,-5.479919,0.87382466,1
0.8900000000000006,15.950896007919411,0.461926555268311,-5.999999423068266,0.8078513398141377,16.3088,0.573198,-5.99906,0.7252124,10.443532,-8.577647,1.6364738,-0.54848534,0.26835048,-0.2982517,-0.7336193,-10.297106,6.1781754,-0.6117902,1.676233,-5.5610023,0.8665322,1
0.9000000000000006,15.950896007919411,0.461926555268311,-5.999999423068266,0.8078513398141377,16.3088,0.573198,-5.99906,0.7252124,10.340511,-8.515273,1.630425,-0.5555609,0.24206999,-0.28975853,-0.740806,-10.306125,6.2955303,-0.59703106,1.5042286,-5.629421,0.8595976,1
0.9100000000000006,15.950896007919411,0.461926555268311,-5.999999423068266,0.8078513398141377,16.3088,0.573198,-5.99906,0.7252124,10.237426,-8.451755,1.6245536,-0.56207883,0.2157957,-0.2802453,-0.7476372,-10.310323,6.407206,-0.5763813,1.3590425,-5.6871533,0.8530033,1
0.9200000000000006,16.109873250091237,-0.41282745062859183,-5.999998952260619,0.6849622448526249,16.434557,-0.09993291,-5.8402543,0.6139771,10.134322,-8.38715,1.6189166,-0.56806,0.18951884,-0.26983225,-0.7540426,-10.309823,6.512735,-0.5501675,1.2364942,-5.735868,0.84673256,1
0.9300000000000006,16.109873250091237,-0.41282745062859183,-5.999998952260619,0.6849622448526249,16.434557,-0.09993291,-5.8402543,0.6139771,10.031247,-8.321519,1.613573,-0.5734644,0.1634405,-0.25845474,-0.76001716,-10.304712,6.612445,-0.51775354,1.0280454,-5.7522697,0.8353112,1
0.9400000000000006,16.109873250091237,-0.41282745062859183,-5.999998952260619,0.6849622448526249,16.434557,-0.09993291,-5.8402543,0.6139771,9.928244,-8.254926,1.6085781,-0.57827365,0.13772649,-0.24607123,-0.76555806,-10.29522,6.705117,-0.48048753,0.8521044,-5.7660923,0.82445025,1
0.9500000000000006,16.109873250091237,-0.41282745062859183,-5.999998952260619,0.6849622448526249,16.434557,-0.09993291,-5.8402543,0.6139771,9.8253565,-8.187442,1.6039785,-0.582526,0.11232534,-0.2328111,-0.77061313,-10.281586,6.7903824,-0.43877986,0.7036022,-5.7777424,0.81412226,1
0.9600000000000006,15.600616279822185,-0.9520565444640738,-5.9999947707665875,0.5377905198665212,16.413788,-1.5834334,-4.5792956,0.66058606,9.722626,-8.119144,1.5998163,-0.5862494,0.08719543,-0.21878685,-0.77513874,-10.264014,6.8679075,-0.3930626,0.5782595,-5.7875614,0.804301,0
0.9700000000000006,15.600616279822185,-0.9520565444640738,-5.9999947707665875,0.5377905198665212,16.413788,-1.5834334,-4.5792956,0.66058606,9.620084,-8.05013,1.5960922,-0.58945745,0.062456235,-0.2037933,-0.7791704,-10.2437935,6.9338593,-0.3512593,0.33957532,-5.820818,0.7912233,0
0.9800000000000006,15.600616279822185,-0.9520565444640738,-5.9999947707665875,0.5377905198665212,16.413788,-1.5834334,-4.5792956,0.66058606,9.517761,-7.980495,1.5928013,-0.5921668,0.038203858,-0.187674,-0.78272384,-10.22033,6.9918604,-0.30647215,0.13811299,-5.8488655,0.7787873,0
0.9900000000000007,15.600616279822185,-0.9520565444640738,-5.9999947707665875,0.5377905198665212,16.413788,-1.5834334,-4.5792956,0.66058606,9.415687,-7.910321,1.5899717,-0.59439605,0.014377309,-0.17058744,-0.785739,-10.193927,7.0416203,-0.25911352,-0.03193167,-5.87252,0.7669615,0
1.0000000000000007,14.540190837461838,-1.2566491287144235,-3.396695047676215,0.498258576520496,15.797185,-1.4591533,-4.129898,0.18047464,9.31389,-7.8396916,1.5876265,-0.59615624,-0.009072615,-0.15267138,-0.7881663,-10.164853,7.082887,-0.20962279,-0.17545779,-5.89247,0.75571597,0
1.0100000000000007,14.540190837461838,-1.2566491287144235,-3.396695047676215,0.498258576520496,15.797185,-1.4591533,-4.129898,0.18047464,9.212387,-7.7687044,1.5857341,-0.5973179,-0.0312899,-0.13457406,-0.79001343,-10.135517,7.1133,-0.16861609,-0.34430605,-5.503335,0.74308246,0
1.0200000000000007,14.540190837461838,-1.2566491287144235,-3.396695047676215,0.498258576520496,15.797185,-1.4591533,-4.129898,0.18047464,9.111187,-7.697452,1.5842577,-0.59784657,-0.051597312,-0.116829515,-0.7913704,-10.104316,7.135917,-0.12653087,-0.48678502,-5.1748714,0.73106885,0
1.0300000000000007,14.540190837461838,-1.2566491287144235,-3.396695047676215,0.498258576520496,15.797185,-1.4591533,-4.129898,0.18047464,9.010306,-7.626011,1.5832058,-0.597865,-0.07027528,-0.09939174,-0.7922999,-10.071624,7.1510954,-0.08378257,-0.60701346,-4.897619,0.7196447,0
1.0400000000000007,14.540190837461838,-1.2566491287144235,-3.396695047676215,0.498258576520496,14.239059,-1.7141877,-1.3571241,0.3379151,8.909759,-7.5544543,1.5825832,-0.5974662,-0.0875632,-0.08222012,-0.7928466,-10.037755,7.1591535,-0.040723708,-0.7084667,-4.663593,0.7087812,0
1.0500000000000007,14.540190837461838,-1.2566491287144235,-3.396695047676215,0.498258576520496,14.239059,-1.7141877,-1.3571241,0.3379151,8.809554,-7.4828515,1.5823914,-0.5967205,-0.10366482,-0.06527935,-0.79304224,-10.002978,7.1603737,0.0023401212,-0.7940768,-4.466055,0.69845074,0
1.0600000000000007,14.540190837461838,-1.2566491287144235,-3.396695047676215,0.498258576520496,14.239059,-1.7141877,-1.3571241,0.3379151,8.709701,-7.4112697,1.5826292,-0.59568095,-0.1187531,-0.048539218,-0.79290915,-9.96752,7.155006,0.04513833,-0.8663183,-4.2993164,0.68862724,0
1.0700000000000007,14.540190837461838,-1.2566491287144235,-3.396695047676215,0.498258576520496,14.239059,-1.7141877,-1.3571241,0.3379151,8.610205,-7.339773,1.5832925,-0.5943873,-0.13297452,-0.031974167,-0.7924635,-9.931575,7.143273,0.08742649,-0.92727864,-4.158575,0.6792858,0
1.0800000000000007,13.478325387200126,-1.0290153737689822,0.32723948591115076,0.5266656790967583,13.211207,-0.9541211,0.47335392,0.4222048,8.51107,-7.268425,1.5843751,-0.5928689,-0.14645293,-0.015562827,-0.79171646,-9.895306,7.1253743,0.12897967,-0.97871983,-4.0397773,0.67040277,1
1.0900000000000007,13.478325387200126,-1.0290153737689822,0.32723948591115076,0.5266656790967583,13.211207,-0.9541211,0.47335392,0.4222048,8.412283,-7.1972747,1.5858054,-0.59113294,-0.15814143,-0.0003017839,-0.7909186,-9.862205,7.1037602,0.15692988,-0.97521764,-3.3359475,0.6582236,1
1.1000000000000008,13.478325387200126,-1.0290153737689822,0.32723948591115076,0.5266656790967583,13.211207,-0.9541211,0.47335392,0.4222048,8.313827,-7.1263647,1.5875108,-0.58925164,-0.16722904,0.013023532,-0.79034585,-9.829168,7.077519,0.1840185,-0.9722032,-2.7418804,0.6466421,1
1.1100000000000008,13.478325387200126,-1.0290153737689822,0.32723948591115076,0.5266656790967583,13.211207,-0.9541211,0.47335392,0.4222048,8.215699,-7.0557375,1.589483,-0.5873146,-0.17412846,0.024715314,-0.7900185,-9.796405,7.0474286,0.21031179,-0.96961075,-2.2404585,0.6356288,1
1.1200000000000008,12.519261142109174,-0.5125919307400671,4.826025683595544,0.4785642704952769,12.282808,-0.69617754,5.1702724,0.47478274,8.117897,-6.9854274,1.5917145,-0.5853795,-0.17918615,0.035029665,-0.7899338,-9.76408,7.0141397,0.23590446,-0.96738285,-1.8172332,0.62515604,1
1.1300000000000008,12.519261142109174,-0.5125919307400671,4.826025683595544,0.4785642704952769,12.282808,-0.69617754,5.1702724,0.47478274,8.020405,-6.915451,1.5941558,-0.58353484,-0.18126927,0.04300435,-0.79042923,-9.734586,6.9808145,0.25228566,-0.92553574,-0.727514,0.6177772,1
1.1400000000000008,12.519261142109174,-0.5125919307400671,4.826025683595544,0.4785642704952769,12.282808,-0.69617754,5.1702724,0.47478274,7.9232035,-6.8458157,1.5967596,-0.58186865,-0.17949528,0.04789288,-0.7917801,-9.705895,6.94616,0.2684771,-0.89013666,0.19226076,0.61076045,1
1.1500000000000008,12.519261142109174,-0.5125919307400671,4.826025683595544,0.4785642704952769,12.282808,-0.69617754,5.1702724,0.47478274,7.8262835,-6.776529,1.5995258,-0.5803824,-0.17446196,0.050182644,-0.7938515,-9.678261,6.9112363,0.28484675,-0.86019343,0.96859455,0.604088,1
1.1600000000000008,12.139437088649421,0.14965950168646025,5.999996520112299,0.26998443304698444,11.383645,-0.43144622,6.2041783,0.39642596,7.729634,-6.7075887,1.602458,-0.57904583,-0.16666639,0.05028194,-0.7964918,-9.651906,6.876936,0.30170497,-0.8348662,1.6238573,0.597743,1
1.1700000000000008,12.139437088649421,0.14965950168646025,5.999996520112299,0.26998443304698444,11.383645,-0.43144622,6.2041783,0.39642596,7.633231,-6.6389728,1.60552,-0.57781756,-0.15632048,0.048254885,-0.79960084,-9.628856,6.8464417,0.31082922,-0.772204,2.3063438,0.5878643,1
1.1800000000000008,12.139437088649421,0.14965950168646025,5.999996520112299,0.26998443304698444,11.383645,-0.43144622,6.2041783,0.39642596,7.537051,-6.5706525,1.6086775,-0.57664317,-0.14360915,0.04416818,-0.80306137,-9.607352,6.8179517,0.3208214,-0.71926606,2.8823922,0.57847035,1
1.1900000000000008,12.139437088649421,0.14965950168646025,5.999996520112299,0.26998443304698444,11.383645,-0.43144622,6.2041783,0.39642596,7.441078,-6.502605,1.6119399,-0.57545537,-0.12887996,0.038341258,-0.8067034,-9.587561,6.792106,0.33179948,-0.6745444,3.3686023,0.5695374,1
1.2000000000000008,12.03666569562467,0.799409911321267,5.999997636552319,0.08591015315133219,11.100991,0.32174927,6.139649,0.15301283,7.3452935,-6.4347997,1.6153171,-0.57418776,-0.11242815,0.031044189,-0.8103727,-9.569638,6.769456,0.34380475,-0.6367647,3.7789848,0.5610428,1
1.2100000000000009,12.03666569562467,0.799409911321267,5.999997636552319,0.08591015315133219,11.100991,0.32174927,6.139649,0.15301283,7.249676,-6.3672004,1.6188056,-0.5727705,-0.09467987,0.02225825,-0.81392485,-9.554113,6.7509503,0.3540478,-0.4873579,4.1254115,0.54102063,1
1.2200000000000009,12.03666569562467,0.799409911321267,5.999997636552319,0.08591015315133219,11.100991,0.32174927,6.139649,0.15301283,7.154204,-6.299766,1.622401,-0.5711519,-0.075989395,0.011981394,-0.8172312,-9.540587,6.7364545,0.36516473,-0.36122638,4.4178014,0.52198094,1
1.2300000000000009,12.03666569562467,0.799409911321267,5.999997636552319,0.08591015315133219,11.100991,0.32174927,6.139649,0.15301283,7.0588574,-6.2324553,1.6261114,-0.56929713,-0.056494914,0.0004493713,-0.82018787,-9.529081,6.726341,0.3770035,-0.2547457,4.6645837,0.50387555,1
1.2400000000000009,12.03666569562467,0.799409911321267,5.999997636552319,0.08591015315133219,10.564828,1.2065818,6.002888,0.20921145,6.9636154,-6.1652226,1.6299429,-0.56717384,-0.0363175,-0.012135705,-0.82270706,-9.519624,6.7209234,0.38936716,-0.16485542,4.8728724,0.48665857,0
1.2500000000000009,12.03666569562467,0.799409911321267,5.999997636552319,0.08591015315133219,10.564828,1.2065818,6.002888,0.20921145,6.868461,-6.0980206,1.6339463,-0.56475407,-0.015672015,-0.025757695,-0.8247079,-9.511617,6.7204256,0.4113546,-0.01446981,5.0486946,0.46699375,0
1.260000000000001,12.03666569562467,0.799409911321267,5.999997636552319,0.08591015315133219,10.564828,1.2065818,6.002888,0.20921145,6.7733755,-6.030795,1.6381701,-0.56201893,0.00526202,-0.040391713,-0.82612044,-9.505829,6.725554,0.4333603,0.1124725,5.197087,0.44829386,0
1.270000000000001,12.03666569562467,0.799409911321267,5.999997636552319,0.08591015315133219,10.564828,1.2065818,6.002888,0.20921145,6.6783366,-5.9634895,1.6426127,-0.5589522,0.026431618,-0.05586364,-0.82689327,-9.502224,6.7365117,0.4550599,0.21962509,5.3223286,0.4305116,0
1.280000000000001,12.16570081603708,1.3020694710906113,5.999995564635215,0.045371490019352194,12.597603,1.6674367,5.9495006,0.42719972,6.583323,-5.8960443,1.6472691,-0.5555392,0.047787845,-0.07202288,-0.82698536,-9.5007715,6.7534504,0.4761061,0.31007236,5.4280324,0.41360188,1
1.290000000000001,12.16570081603708,1.3020694710906113,5.999995564635215,0.045371490019352194,12.597603,1.6674367,5.9495006,0.42719972,6.4883137,-5.828394,1.6521587,-0.55175203,0.06907291,-0.089017004,-0.826362,-9.501462,6.7775526,0.501638,0.5217283,5.509412,0.41426912,1
1.300000000000001,12.16570081603708,1.3020694710906113,5.999995564635215,0.045371490019352194,12.597603,1.6674367,5.9495006,0.42719972,6.393287,-5.760471,1.6572967,-0.547571,0.090076484,-0.10695376,-0.82499254,-9.504215,6.8081293,0.5257,0.70038,5.578092,0.41490367,1
1.310000000000001,12.16570081603708,1.3020694710906113,5.999995564635215,0.045371490019352194,12.597603,1.6674367,5.9495006,0.42719972,6.298223,-5.6922092,1.6626662,-0.54299235,0.110818684,-0.12565668,-0.82285374,-9.508874,6.845245,0.54787767,0.8511742,5.636054,0.41550702,1
1.320000000000001,11.9950238421091,1.569517289081501,4.780992348264184,0.10069757611042746,11.612894,1.2052548,4.7531505,0.60326433,6.203103,-5.6235433,1.6682463,-0.5380112,0.13131265,-0.14497277,-0.8199287,-9.515302,6.8889112,0.5677515,0.9784546,5.684971,0.4160808,1
1.330000000000001,11.9950238421091,1.569517289081501,4.780992348264184,0.10069757611042746,11.612894,1.2052548,4.7531505,0.60326433,6.1079144,-5.5544276,1.6739668,-0.53265643,0.15127105,-0.16436543,-0.81631947,-9.522745,6.9351473,0.5759024,1.0138302,5.5396695,0.42526597,1
1.340000000000001,11.9950238421091,1.569517289081501,4.780992348264184,0.10069757611042746,11.612894,1.2052548,4.7531505,0.60326433,6.012644,-5.484821,1.6797547,-0.526974,0.1704692,-0.18341057,-0.81215674,-9.531609,6.9871397,0.5812474,1.0436859,5.4170265,0.4340004,1
1.350000000000001,11.9950238421091,1.569517289081501,4.780992348264184,0.10069757611042746,11.612894,1.2052548,4.7531505,0.60326433,5.917278,-5.414666,1.6855812,-0.52097976,0.1889985,-0.20213674,-0.807465,-9.541801,7.0446153,0.5835239,1.068883,5.3135085,0.44230622,1
1.360000000000001,11.734734264047137,1.4533567323821242,1.085416298194991,0.2372023236889482,11.668118,1.2171826,2.256371,0.7706269,5.8218036,-5.3439107,1.691414,-0.5146853,0.20693502,-0.22056657,-0.80226344,-9.553246,7.10731,0.5824874,1.0901483,5.226133,0.45020452,0
1.370000000000001,11.734734264047137,1.4533567323821242,1.085416298194991,0.2372023236889482,11.668118,1.2171826,2.256371,0.7706269,5.7262077,-5.2725,1.6972239,-0.5085013,0.22313118,-0.2380412,-0.79685295,-9.565969,7.175624,0.5789335,1.1470113,4.5803995,0.43975243,0
1.380000000000001,11.734734264047137,1.4533567323821242,1.085416298194991,0.2372023236889482,11.668118,1.2171826,2.256371,0.7706269,5.630481,-5.200383,1.7029809,-0.50283355,0.23671333,-0.25406763,-0.79156435,-9.579566,7.2483106,0.5719376,1.1949681,4.035365,0.42981327,0
1.390000000000001,11.734734264047137,1.4533567323821242,1.085416298194991,0.2372023236889482,11.668118,1.2171826,2.256371,0.7706269,5.5346146,-5.1275206,1.7086515,-0.49766555,0.24810576,-0.26888207,-0.7864314,-9.593726,7.324784,0.56170106,1.2354145,3.575326,0.4203618,0
1.400000000000001,11.659261109033796,1.0584798344403687,-3.159203023376058,0.36153914804529197,11.791172,1.1863638,-1.6587656,0.59162724,5.4386053,-5.0538764,1.7142044,-0.49296653,0.25766334,-0.2826802,-0.78146327,-9.608192,7.4045634,0.5484237,1.2695276,3.187028,0.4113741,0
1.410000000000001,11.659261109033796,1.0584798344403687,-3.159203023376058,0.36153914804529197,11.791172,1.1863638,-1.6587656,0.59162724,5.342451,-4.9794226,1.7196077,-0.48914075,0.26443532,-0.2946751,-0.77716225,-9.622627,7.486669,0.5318297,1.2368835,2.197326,0.4089287,0
1.420000000000001,11.659261109033796,1.0584798344403687,-3.159203023376058,0.36153914804529197,11.791172,1.1863638,-1.6587656,0.59162724,5.246154,-4.904136,1.7248336,-0.48654145,0.26770118,-0.3042731,-0.7739708,-9.636771,7.5709276,0.5130626,1.2092859,1.3619691,0.40660325,0
1.430000000000001,11.659261109033796,1.0584798344403687,-3.159203023376058,0.36153914804529197,11.791172,1.1863638,-1.6587656,0.59162724,5.1497183,-4.827999,1.7298639,-0.48504055,0.26803353,-0.31187218,-0.77176994,-9.650275,7.6566877,0.49278587,1.1859554,0.65688705,0.40439194,0
1.440000000000001,11.659261109033796,1.0584798344403687,-3.159203023376058,0.36153914804529197,11.767253,1.3544176,-4.529482,0.49204558,5.0531516,-4.750999,1.7346863,-0.4845043,0.26590398,-0.31779584,-0.77042574,-9.662845,7.7434216,0.47158056,1.1662323,0.061763093,0.40228915,0
1.450000000000001,11.659261109033796,1.0584798344403687,-3.159203023376058,0.36153914804529197,11.767253,1.3544176,-4.529482,0.49204558,4.9564652,-4.6731286,1.739294,-0.48480195,0.26170194,-0.3223078,-0.76980275,-9.674231,7.830698,0.44994476,1.1495593,-0.44055068,0.40028954,0
1.460000000000001,11.659261109033796,1.0584798344403687,-3.159203023376058,0.36153914804529197,11.767253,1.3544176,-4.529482,0.49204558,4.859672,-4.594384,1.7436851,-0.48581055,0.2557503,-0.3256241,-0.76977164,-9.684215,7.918155,0.42829812,1.1354648,-0.86452806,0.39838806,0
1.470000000000001,11.659261109033796,1.0584798344403687,-3.159203023376058,0.36153914804529197,11.767253,1.3544176,-4.529482,0.49204558,4.7627864,-4.5147657,1.7478613,-0.48741755,0.24831784,-0.3279226,-0.7702133,-9.692612,8.005485,0.40698838,1.1235505,-1.2223859,0.39657986,0
1.480000000000001,11.881589642289905,0.5152719693028661,-5.999624397491843,0.40110260782008517,12.030798,0.8020413,-5.105195,0.5186491,4.665826,-4.4342756,1.7518271,-0.4895217,0.23962902,-0.3293505,-0.7710214,-9.699261,8.092415,0.38629878,1.1134793,-1.5244355,0.39486042,1
1.490000000000001,11.881589642289905,0.5152719693028661,-5.999624397491843,0.40110260782008517,12.030798,0.8020413,-5.105195,0.5186491,4.568807,-4.3529058,1.7556027,-0.4922485,0.22931424,-0.3295722,-0.7723263,-9.70416,8.181432,0.36897936,1.0650624,-2.0828612,0.4009348,1
1.500000000000001,11.881589642289905,0.5152719693028661,-5.999624397491843,0.40110260782008517,12.030798,0.8020413,-5.105195,0.5186491,4.4717503,-4.270651,1.7592112,-0.495678,0.21708326,-0.32831782,-0.7741995,-9.706893,8.269362,0.35294038,1.0241768,-2.5541995,0.40671104,1
1.5100000000000011,11.881589642289905,0.5152719693028661,-5.999624397491843,0.40110260782008517,12.030798,0.8020413,-5.105195,0.5186491,4.3746777,-4.1875243,1.7626671,-0.49966064,0.20321596,-0.3257859,-0.7764699,-9.707257,8.355787,0.3385289,0.9896508,-2.9520311,0.41220385,1
1.5200000000000011,12.147484767929553,-0.14103003329953798,-5.999995307798022,0.38569156812754885,11.893723,-0.025445376,-5.6859202,0.56799895,4.277614,-4.103542,1.7659882,-0.5040632,0.18794857,-0.3221417,-0.77898645,-9.705077,8.440318,0.3260011,0.96049446,-3.2878203,0.41742715,1
1.5300000000000011,12.147484767929553,-0.14103003329953798,-5.999995307798022,0.38569156812754885,11.893723,-0.025445376,-5.6859202,0.56799895,4.1805854,-4.0187306,1.7691894,-0.5087768,0.17146556,-0.3171485,-0.7817686,-9.700269,8.521645,0.31454706,0.80685675,-3.6618407,0.42481577,1
1.5400000000000011,12.147484767929553,-0.14103003329953798,-5.999995307798022,0.38569156812754885,11.893723,-0.025445376,-5.6859202,0.56799895,4.083618,-3.9331186,1.7722869,-0.5137053,0.15392497,-0.3106212,-0.7848108,-9.692753,8.600307,0.30532956,0.6771652,-3.9775276,0.43184182,1
1.5500000000000012,12.147484767929553,-0.14103003329953798,-5.999995307798022,0.38569156812754885,11.893723,-0.025445376,-5.6859202,0.56799895,3.9867399,-3.846735,1.7753041,-0.5187547,0.13547751,-0.30275762,-0.78795725,-9.682503,8.675885,0.29848212,0.5676867,-4.2439785,0.43852308,1
1.5600000000000012,12.405802470615725,-0.7481924230655199,-5.999993629661471,0.40368138911060003,12.592504,-0.40293565,-5.573743,0.7673621,3.889978,-3.7596126,1.7782649,-0.5238412,0.116253234,-0.29372612,-0.7910752,-9.669503,8.747987,0.2940628,0.4752707,-4.4688725,0.4448765,1
1.5700000000000012,12.405802470615725,-0.7481924230655199,-5.999993629661471,0.40368138911060003,12.592504,-0.40293565,-5.573743,0.7673621,3.793364,-3.671768,1.7812217,-0.528842,0.09647303,-0.2835776,-0.79410475,-9.652825,8.820262,0.29771125,0.33841273,-4.641213,0.46070096,1
1.5800000000000012,12.405802470615725,-0.7481924230655199,-5.999993629661471,0.40368138911060003,12.592504,-0.40293565,-5.573743,0.7673621,3.6969314,-3.5832226,1.7842276,-0.5336564,0.076321766,-0.2723628,-0.7969968,-9.63329,8.888113,0.30386603,0.22289044,-4.786673,0.4757489,1
1.5900000000000012,12.405802470615725,-0.7481924230655199,-5.999993629661471,0.40368138911060003,12.592504,-0.40293565,-5.573743,0.7673621,3.600708,-3.4940221,1.7873071,-0.5382447,0.05585673,-0.26021546,-0.7996625,-9.610972,8.951207,0.31242025,0.125377,-4.909445,0.49005842,1
1.6000000000000012,12.449839373989116,-1.1487062231305827,-5.275210581989456,0.4911791802599216,14.360811,-0.92406964,-5.681007,1.2202344,3.5047214,-3.4042158,1.7904837,-0.5425714,0.03512948,-0.24725123,-0.80202776,-9.585942,9.009243,0.32322112,0.04306434,-5.0130677,0.5036658,0
1.6100000000000012,12.449839373989116,-1.1487062231305827,-5.275210581989456,0.4911791802599216,14.360811,-0.92406964,-5.681007,1.2202344,3.4089968,-3.3138587,1.7937723,-0.5465963,0.014453342,-0.23339519,-0.80408317,-9.558606,9.061349,0.3348228,-0.14278018,-5.0540094,0.503053,0
1.6200000000000012,12.449839373989116,-1.1487062231305827,-5.275210581989456,0.4911791802599216,14.360811,-0.92406964,-5.681007,1.2202344,3.3135576,-3.223008,1.7971864,-0.55030197,-0.0059156576,-0.21859835,-0.8058207,-9.528869,9.107944,0.34826323,-0.2996446,-5.088557,0.5024704,0
1.6300000000000012,12.449839373989116,-1.1487062231305827,-5.275210581989456,0.4911791802599216,14.360811,-0.92406964,-5.681007,1.2202344,3.218427,-3.1317196,1.8007433,-0.55368775,-0.026011184,-0.20298943,-0.80718535,-9.496937,9.148818,0.36332792,-0.4320476,-5.117708,0.50191635,0
1.6400000000000012,12.449839373989116,-1.1487062231305827,-5.275210581989456,0.4911791802599216,12.601053,-1.2098185,-5.436983,1.1937864,3.123626,-3.040052,1.8044578,-0.5567498,-0.045859903,-0.18667975,-0.8081317,-9.462999,9.18379,0.37977865,-0.5438039,-5.1423073,0.50138944,1
1.6500000000000012,12.449839373989116,-1.1487062231305827,-5.275210581989456,0.4911791802599216,12.601053,-1.2098185,-5.436983,1.1937864,3.029176,-2.948063,1.8083496,-0.5594248,-0.06553701,-0.16970547,-0.8086708,-9.426797,9.213049,0.39876252,-0.6475386,-5.1883097,0.5353656,1
1.6600000000000013,12.449839373989116,-1.1487062231305827,-5.275210581989456,0.4911791802599216,12.601053,-1.2098185,-5.436983,1.1937864,2.9350963,-2.8558125,1.8124359,-0.56164664,-0.08510117,-0.15209907,-0.8088117,-9.388906,9.23601,0.4186125,-0.7351022,-5.2271357,0.56767446,1
1.6700000000000013,12.449839373989116,-1.1487062231305827,-5.275210581989456,0.4911791802599216,12.601053,-1.2098185,-5.436983,1.1937864,2.8414032,-2.763365,1.8167238,-0.5634067,-0.10454757,-0.13394617,-0.80851763,-9.349477,9.252535,0.43903428,-0.80901635,-5.259905,0.5983979,1
1.6800000000000013,12.159070521813888,-1.322988724268922,-2.2553341092371952,0.62703712161008,13.075543,-0.9627655,-4.239723,1.4202795,2.7481117,-2.6707845,1.8212175,-0.5646973,-0.123869404,-0.11532186,-0.80775845,-9.308655,9.262514,0.45971578,-0.8714097,-5.2875614,0.6276138,0
1.6900000000000013,12.159070521813888,-1.322988724268922,-2.2553341092371952,0.62703712161008,13.075543,-0.9627655,-4.239723,1.4202795,2.655227,-2.5781379,1.8258971,-0.56544816,-0.14199954,-0.09698611,-0.8066584,-9.268077,9.265813,0.4761746,-0.94202644,-4.814716,0.62758553,0
1.7000000000000013,12.159070521813888,-1.322988724268922,-2.2553341092371952,0.62703712161008,13.075543,-0.9627655,-4.239723,1.4202795,2.5627527,-2.485489,1.83074,-0.56568575,-0.15810475,-0.07955824,-0.8054022,-9.226595,9.263153,0.49232775,-1.0016003,-4.4156065,0.6275586,0
1.7100000000000013,12.159070521813888,-1.322988724268922,-2.2553341092371952,0.62703712161008,13.075543,-0.9627655,-4.239723,1.4202795,2.470697,-2.392894,1.8357419,-0.5655229,-0.17249373,-0.06290623,-0.8040349,-9.184491,9.254985,0.5079934,-1.0518582,-4.078734,0.627533,0
1.7200000000000013,11.80428807093635,-1.1780462181992986,1.7963039230712083,0.7452647089443002,13.339797,-1.0654168,-0.38146138,1.4125515,2.379064,-2.3004067,1.8408974,-0.5650446,-0.1854278,-0.046915885,-0.802583,-9.142001,9.241699,0.5230323,-1.0942569,-3.7943928,0.6275087,0
1.7300000000000013,11.80428807093635,-1.1780462181992986,1.7963039230712083,0.7452647089443002,13.339797,-1.0654168,-0.38146138,1.4125515,2.287851,-2.2080739,1.8461834,-0.56423414,-0.19586387,-0.03244899,-0.80138856,-9.100587,9.224238,0.5340774,-1.1076686,-2.9225364,0.633287,0
1.7400000000000013,11.80428807093635,-1.1780462181992986,1.7963039230712083,0.7452647089443002,13.339797,-1.0654168,-0.38146138,1.4125515,2.1970518,-2.1159348,1.8515767,-0.5631348,-0.20300154,-0.020181332,-0.80078816,-9.059306,9.203016,0.5445071,-1.1189393,-2.1866443,0.63878185,0
1.7500000000000013,11.80428807093635,-1.1780462181992986,1.7963039230712083,0.7452647089443002,13.339797,-1.0654168,-0.38146138,1.4125515,2.1066637,-2.0240235,1.8570719,-0.56186223,-0.20736662,-0.009769586,-0.80075836,-9.018438,9.178858,0.5544802,-1.1284097,-1.5655137,0.64400697,0
1.7600000000000013,11.672160229183898,-0.8683355344475363,5.923604576722905,0.7330412185456718,12.939576,-1.3046272,4.3024015,1.281884,2.016681,-1.9323654,1.8626653,-0.56048983,-0.20939775,-0.0009220019,-0.8012505,-8.978213,9.1524515,0.56416893,-1.1363666,-1.0412472,0.64897573,0
1.7700000000000014,11.672160229183898,-0.8683355344475363,5.923604576722905,0.7330412185456718,12.939576,-1.3046272,4.3024015,1.281884,1.9270943,-1.8409785,1.8683487,-0.5590426,-0.20820706,0.005584143,-0.80255187,-8.93928,9.1247635,0.5725642,-1.0950263,0.044932097,0.65310085,0
1.7800000000000014,11.672160229183898,-0.8683355344475363,5.923604576722905,0.7330412185456718,12.939576,-1.3046272,4.3024015,1.281884,1.8378916,-1.7498722,1.8741174,-0.5575405,-0.20310345,0.0091482075,-0.8048686,-8.901469,9.096495,0.58121157,-1.060066,0.9617199,0.65702355,0
1.7900000000000014,11.672160229183898,-0.8683355344475363,5.923604576722905,0.7330412185456718,12.939576,-1.3046272,4.3024015,1.281884,1.74906,-1.6590472,1.8799751,-0.5559919,-0.19468227,0.010234688,-0.80800164,-8.865069,9.068636,0.5904549,-1.0305009,1.735533,0.6607538,0
1.8000000000000014,11.617939142303223,-0.4779336731966846,5.99999587988746,0.5913451640711936,12.631916,-0.18227118,6.2298946,0.7962907,1.6605843,-1.5684952,1.8859293,-0.5543745,-0.18343869,0.009234461,-0.81174713,-8.830342,9.042024,0.6005641,-1.0054977,2.3886693,0.6643009,0
1.8100000000000014,11.617939142303223,-0.4779336731966846,5.99999587988746,0.5913451640711936,12.631916,-0.18227118,6.2298946,0.7962907,1.5724459,-1.4781995,1.8919874,-0.5526367,-0.16984937,0.0063295984,-0.81590647,-8.797677,9.0174885,0.6112201,-0.9234612,2.9518912,0.66072094,0
1.8200000000000014,11.617939142303223,-0.4779336731966846,5.99999587988746,0.5913451640711936,12.631916,-0.18227118,6.2298946,0.7962907,1.4846238,-1.3881366,1.8981577,-0.55072695,-0.154313,0.0016805376,-0.82029516,-8.7670965,8.99554,0.6230277,-0.8541785,3.4272733,0.6573167,0
1.8300000000000014,11.617939142303223,-0.4779336731966846,5.99999587988746,0.5913451640711936,12.631916,-0.18227118,6.2298946,0.7962907,1.3970963,-1.2982779,1.904452,-0.5486077,-0.13710926,-0.0044373022,-0.8247488,-8.73877,8.9767275,0.63601273,-0.79566705,3.8285148,0.65407944,0
1.8400000000000014,11.617939142303223,-0.4779336731966846,5.99999587988746,0.5913451640711936,12.631912,0.12757006,6.20214,0.6554236,1.3098401,-1.2085897,1.9108819,-0.5462411,-0.118477665,-0.011790043,-0.8291226,-8.712861,8.961518,0.6501327,-0.74625266,4.1671786,0.6510011,0
1.8500000000000014,11.617939142303223,-0.4779336731966846,5.99999587988746,0.5913451640711936,12.631912,0.12757006,6.20214,0.6554236,1.2228303,-1.1190338,1.9174582,-0.5435916,-0.098624684,-0.020178506,-0.8332909,-8.689531,8.950307,0.6652833,-0.7045211,4.4530244,0.6480738,0
1.8600000000000014,11.617939142303223,-0.4779336731966846,5.99999587988746,0.5913451640711936,12.631912,0.12757006,6.20214,0.6554236,1.1360402,-1.0295687,1.9241904,-0.5406272,-0.0777295,-0.02943257,-0.8371462,-8.668936,8.943428,0.68130565,-0.6692781,4.6942897,0.64529014,0
1.8700000000000014,11.617939142303223,-0.4779336731966846,5.99999587988746,0.5913451640711936,12.631912,0.12757006,6.20214,0.6554236,1.0494417,-0.9401494,1.9310865,-0.5373197,-0.055948466,-0.0394065,-0.84059745,-8.651221,8.941154,0.6979934,-0.6395153,4.897927,0.64264303,0
1.8800000000000014,11.475116764185392,-0.2478826731107344,5.999993951615704,0.45915367298810417,12.071232,-0.07219432,5.963983,0.82680714,0.9630053,-0.850729,1.938152,-0.53364575,-0.03341879,-0.049975075,-0.8435683,-8.636527,8.943706,0.71509993,-0.6143803,5.0698056,0.6401258,1
1.8900000000000015,11.475116764185392,-0.2478826731107344,5.999993951615704,0.45915367298810417,12.071232,-0.07219432,5.963983,0.82680714,0.87670267,-0.7612568,1.9454118,-0.529558,-0.010361537,-0.061159056,-0.8460025,-8.624519,8.951551,0.7368445,-0.52991605,5.2092843,0.6492863,1
1.9000000000000015,11.475116764185392,-0.2478826731107344,5.999993951615704,0.45915367298810417,12.071232,-0.07219432,5.963983,0.82680714,0.7905035,-0.67167956,1.9528884,-0.52502084,0.013036955,-0.07296839,-0.84785527,-8.615838,8.964744,0.7584061,-0.4586146,5.327007,0.6579973,1
1.9100000000000015,11.475116764185392,-0.2478826731107344,5.999993951615704,0.45915367298810417,12.071232,-0.07219432,5.963983,0.82680714,0.7043743,-0.58194315,1.9605782,-0.5200317,0.03670959,-0.085287675,-0.849085,-8.610529,8.983392,0.77943724,-0.3984244,5.4263663,0.66628087,1
1.9200000000000015,11.147293138026454,-0.23175015720028463,5.3123503915776675,0.37071421754036354,12.5145,0.060113776,5.4422846,1.0914392,0.61828125,-0.4919927,1.9684741,-0.514589,0.060595118,-0.09801711,-0.84965813,-8.608632,9.007561,0.7995757,-0.34761357,5.5102277,0.6741579,0
1.9300000000000015,11.147293138026454,-0.23175015720028463,5.3123503915776675,0.37071421754036354,12.5145,0.060113776,5.4422846,1.0914392,0.5321903,-0.40178394,1.9765205,-0.50876486,0.08445448,-0.11087909,-0.84954774,-8.610061,9.034987,0.8094988,-0.32947785,5.47938,0.65926784,0
1.9400000000000015,11.147293138026454,-0.23175015720028463,5.3123503915776675,0.37071421754036354,12.5145,0.060113776,5.4422846,1.0914392,0.44606915,-0.31127575,1.984659,-0.50263625,0.108094394,-0.12364888,-0.84875387,-8.614673,9.067427,0.8179337,-0.31417578,5.4533415,0.6451084,0
1.9500000000000015,11.147293138026454,-0.23175015720028463,5.3123503915776675,0.37071421754036354,12.5145,0.060113776,5.4422846,1.0914392,0.359886,-0.22041865,1.9928731,-0.49620834,0.13152407,-0.13631722,-0.8472875,-8.62246,9.104744,0.8245716,-0.30126467,5.431362,0.63164383,0
1.9600000000000015,10.394844660581196,-0.3735428107551839,1.2079323536108966,0.36516056815486886,11.349255,-0.46353796,1.7492591,0.5447361,0.2736091,-0.12916458,2.0011432,-0.48948556,0.15474896,-0.14887486,-0.8451584,-8.633407,9.146796,0.82911247,-0.29037118,5.4128094,0.61884,1
1.9700000000000015,10.394844660581196,-0.3735428107551839,1.2079323536108966,0.36516056815486886,11.349255,-0.46353796,1.7492591,0.5447361,0.18720591,-0.037462953,2.0094562,-0.48266864,0.17661326,-0.16054733,-0.84265244,-8.647717,9.194215,0.83311284,-0.31713483,4.8414707,0.6152037,1
1.9800000000000015,10.394844660581196,-0.3735428107551839,1.2079323536108966,0.36516056815486886,11.349255,-0.46353796,1.7492591,0.5447361,0.10064466,0.054733694,2.017797,-0.47597557,0.19621958,-0.17074765,-0.8401132,-8.66497,9.245703,0.83466035,-0.3397633,4.359234,0.61174583,1
1.9900000000000015,10.394844660581196,-0.3735428107551839,1.2079323536108966,0.36516056815486886,11.349255,-0.46353796,1.7492591,0.5447361,0.013897259,0.14746316,2.026141,-0.46942106,0.213919,-0.17971753,-0.83760613,-8.684914,9.300698,0.83380455,-0.35889524,3.9522028,0.6084577,1
2.0000000000000013,,,,,11.181413,-0.8687766,-3.7117634,0.4522254,-0.07306212,0.2407581,2.0344648,-0.463007,0.230008,-0.18765835,-0.8351677,-8.7073345,9.358734,0.8306162,-0.37507063,3.608649,0.6053309,0
2.010000000000001,,,,,11.181413,-0.8687766,-3.7117634,0.4522254,-0.16024667,0.3346207,2.0427055,-0.45710605,0.2430519,-0.19359644,-0.8333668,-8.7295885,9.413412,0.816193,-0.463328,2.4731529,0.5984924,0
2.020000000000001,,,,,11.181413,-0.8687766,-3.7117634,0.4522254,-0.24765575,0.42902288,2.0507705,-0.452109,0.2517441,-0.19673245,-0.83277774,-8.752391,9.467079,0.7964744,-0.5181167,1.4665877,0.59023285,0
2.0300000000000007,,,,,11.181413,-0.8687766,-3.7117634,0.4522254,-0.33529836,0.52396476,2.058632,-0.44796482,0.25666806,-0.19754405,-0.8333219,-8.776279,9.521365,0.7756636,-0.5617887,0.6143585,0.5821318,0
2.0400000000000005,,,,,11.181413,-0.8687766,-3.7117634,0.4522254,-0.42318407,0.6194508,2.0662827,-0.44456294,0.25841567,-0.1964156,-0.8348689,-8.800957,9.575828,0.754481,-0.59870875,-0.10496336,0.57442826,0
2.0500000000000003,,,,,11.011024,-0.74949723,-6.152033,0.49327463,-0.51131916,0.7154802,2.073722,-0.44178963,0.25747883,-0.1936604,-0.8372708,-8.8261175,9.629978,0.73336214,-0.6299196,-0.71210486,0.56710273,1
2.06,,,,,11.011024,-0.74949723,-6.152033,0.49327463,-0.5997236,0.81208265,2.081002,-0.43968707,0.25358298,-0.18920098,-0.8405796,-8.85478,9.69034,0.7227775,-0.6482668,-1.5367545,0.56347996,1
2.07,,,,,11.011024,-0.74949723,-6.152033,0.49327463,-0.6884141,0.9092822,2.088181,-0.4382609,0.24651936,-0.18298295,-0.8447917,-8.883275,9.749306,0.7131937,-0.6638032,-2.2327995,0.560035,1
2.0799999999999996,,,,,11.011024,-0.74949723,-6.152033,0.49327463,-0.777387,1.0070622,2.0952709,-0.4373542,0.23675023,-0.17527066,-0.849677,-8.91121,9.806338,0.7050412,-0.6769589,-2.8202958,0.556759,1
2.0899999999999994,,,,,9.126725,-1.6516491,-6.0302563,0.9449874,-0.8666351,1.1054008,2.102288,-0.43682534,0.22466311,-0.16628297,-0.85502064,-8.938237,9.860967,0.6986407,-0.68809825,-3.3161714,0.55364376,1
2.099999999999999,,,,,9.126725,-1.6516491,-6.0302563,0.9449874,-0.95612526,1.2042271,2.1091707,-0.4364213,0.21073326,-0.15590563,-0.86070985,-8.959634,9.9038925,0.6781834,-0.83816624,-3.7347775,0.5728471,1
2.109999999999999,,,,,9.126725,-1.6516491,-6.0302563,0.9449874,-1.0458238,1.3034693,2.1158578,-0.43592834,0.19535449,-0.14405552,-0.86663204,-8.979864,9.944096,0.6594757,-0.96484834,-4.0880966,0.59110814,1
2.1199999999999988,,,,,9.126725,-1.6516491,-6.0302563,0.9449874,-1.1357181,1.4030983,2.1223667,-0.43528286,0.17872125,-0.13094488,-0.8726058,-8.998797,9.981225,0.6425635,-1.0717903,-4.38631,0.60847306,1
2.1299999999999986,,,,,9.902765,-2.7371304,-5.7441278,2.6897728,-1.2257948,1.503082,2.1287153,-0.43442976,0.16100194,-0.116755426,-0.87847435,-9.016306,10.014965,0.6274294,-1.1620697,-4.6380124,0.62498593,1
2.1399999999999983,,,,,9.902765,-2.7371304,-5.7441278,2.6897728,-1.316057,1.6034188,2.1350138,-0.433096,0.1427492,-0.10176939,-0.88413423,-9.03575,10.051593,0.63239217,-1.2818234,-4.6850524,0.7150649,1
2.149999999999998,,,,,9.902765,-2.7371304,-5.7441278,2.6897728,-1.4065025,1.704096,2.1413634,-0.4310504,0.12439105,-0.08614205,-0.88955146,-9.053005,10.083037,0.63755226,-1.4014552,-4.7433243,0.80238223,1
2.159999999999998,,,,,9.902765,-2.7371304,-5.7441278,2.6897728,-1.4971098,1.8050616,2.1477644,-0.42830437,0.10589459,-0.0698462,-0.894686,-9.068121,10.109264,0.6426295,-1.5210353,-4.811129,0.8870782,1
2.1699999999999977,,,,,11.067307,-3.5001001,-5.805033,2.4022143,-1.5878576,1.9062634,2.1542149,-0.4248657,0.08723374,-0.052859977,-0.8994915,-9.081138,10.130251,0.6473444,-1.6405786,-4.8869863,0.9692822,1
2.1799999999999975,,,,,11.067307,-3.5001001,-5.805033,2.4022143,-1.6787297,2.007655,2.160748,-0.42073432,0.0684486,-0.0347456,-0.90393025,-9.092919,10.14715,0.6590587,-1.9194603,-5.0196185,1.0386101,1
2.1899999999999973,,,,,11.067307,-3.5001001,-5.805033,2.4022143,-1.769709,2.109187,2.1673958,-0.415911,0.049570274,-0.015161745,-0.90792656,-9.102667,10.158356,0.67061776,-2.1656532,-5.1423635,1.1055225,1
2.199999999999997,,,,,11.067307,-3.5001001,-5.805033,2.4022143,-1.8607764,2.2108018,2.1741624,-0.41040745,0.030605692,0.0056807604,-0.9113707,-9.110529,10.163743,0.68276584,-2.3734674,-5.245954,1.1691515,1
2.209999999999997,,,,,11.487558,-4.0827794,-5.8999662,2.5899246,-1.951913,2.3124406,2.181052,-0.40423504,0.0115748765,0.02757524,-0.914166,-9.116515,10.163074,0.69516027,-2.5488884,-5.333376,1.2296584,1
