time-since-start [s],throttle_mpc,roll_mpc,pitch_mpc,yaw_mpc,throttle_nw,roll_nw,pitch_nw,yaw_nw,position_x [m],position_y [m],position_z [m],rotation_w [quaternion],rotation_x [quaternion],rotation_y [quaternion],rotation_z [quaternion],velocity_x [m/s],velocity_y [m/s],velocity_z [m/s],omega_x [rad/s],omega_y [rad/s],omega_z [rad/s],network_used
0.0,11.645816178044509,-5.999999121784637,-6.0,5.999999958055974,12.146933,-1.4705235,-5.632633,-0.18483748,18.355885,-9.814914,1.9594383,0.11226715,0.48129898,-0.20184672,-0.84557986,-11.745883,-6.44068,0.09428011,1.8713328,-0.18862069,-0.27076226,0
0.01,11.645816178044509,-5.999999121784637,-6.0,5.999999958055974,12.343802,-2.035631,-6.606462,-0.67794085,18.23747,-9.879058,1.9603947,0.10715318,0.4819977,-0.2090619,-0.84409094,-11.935987,-6.387662,0.096340075,1.7097073,-0.028766882,-0.060708396,0
0.02,11.645816178044509,-5.999999121784637,-6.0,5.999999958055974,12.343802,-2.035631,-6.606462,-0.67794085,18.117176,-9.942659,1.9613535,0.10342378,0.4829601,-0.21603425,-0.8422483,-12.122524,-6.332212,0.094957806,1.5579574,0.09081763,0.14276043,0
0.03,11.645816178044509,-5.999999121784637,-6.0,5.999999958055974,12.343802,-2.035631,-6.606462,-0.67794085,17.995028,-10.005694,1.9622838,0.10100475,0.48399758,-0.22277555,-0.8401877,-12.306623,-6.274543,0.090638906,1.400596,0.16244829,0.33885908,0
0.04,11.645816178044509,-5.999999121784637,-6.0,5.999999958055974,13.410863,-3.0981126,-5.666073,-0.074594095,17.871052,-10.068143,1.9631562,0.09983327,0.4849257,-0.22927238,-0.83804214,-12.488254,-6.215133,0.083383135,1.2373854,0.19247359,0.5280504,0
0.05,11.645816178044509,-5.999999121784637,-6.0,5.999999958055974,13.410863,-3.0981126,-5.666073,-0.074594095,17.745272,-10.129991,1.9639418,0.09985214,0.48558387,-0.23550737,-0.8359271,-12.667363,-6.1544223,0.07327858,1.068321,0.18645242,0.71075666,0
0.060000000000000005,11.645816178044509,-5.999999121784637,-6.0,5.999999958055974,13.410863,-3.0981126,-5.666073,-0.074594095,17.617714,-10.191227,1.9646127,0.101008944,0.48583242,-0.2414609,-0.83394295,-12.843889,-6.09281,0.060487762,0.8935726,0.14925392,0.88736343,0
0.07,11.645816178044509,-5.999999121784637,-6.0,5.999999958055974,13.410863,-3.0981126,-5.666073,-0.074594095,17.488403,-10.251844,1.9651432,0.10325543,0.48554948,-0.24711241,-0.8321752,-13.017759,-6.0306616,0.04523476,0.71343815,0.085144505,1.0582235,0
0.08,12.38773580904402,5.999999971966069,-6.0,-4.244978673843305,15.639276,-5.364224,-6.562479,2.3257847,17.357368,-10.31184,1.96551,0.106546685,0.48462844,-0.2524411,-0.8306966,-13.188894,-5.968307,0.027793514,0.5283052,-0.0021363553,1.2236598,0
0.09,12.38773580904402,5.999999971966069,-6.0,-4.244978673843305,15.639276,-5.364224,-6.562479,2.3257847,17.224588,-10.371195,1.9657145,0.10992232,0.48332375,-0.25734788,-0.82951045,-13.366576,-5.9025497,0.012835795,0.51692903,-0.07284152,1.0326315,0
0.09999999999999999,12.38773580904402,5.999999971966069,-6.0,-4.244978673843305,15.639276,-5.364224,-6.562479,2.3257847,17.090044,-10.429891,1.9657613,0.1124026,0.4819152,-0.26185474,-0.8285866,-13.5417185,-5.8367295,-0.0037109884,0.53646415,-0.16164154,0.8483729,0
0.10999999999999999,12.38773580904402,5.999999971966069,-6.0,-4.244978673843305,15.639276,-5.364224,-6.562479,2.3257847,16.953762,-10.487928,1.9656351,0.11392258,0.48034784,-0.266111,-0.82793283,-13.714164,-5.7708025,-0.021765511,0.5829424,-0.26658687,0.67047465,0
0.11999999999999998,12.38773580904402,5.999999971966069,-6.0,-4.244978673843305,15.639276,-5.364224,-6.562479,2.3257847,16.815771,-10.545306,1.9653211,0.11442636,0.47857127,-0.27024734,-0.82755226,-13.883751,-5.7046633,-0.041251224,0.6528615,-0.3858736,0.49856162,0
0.12999999999999998,16.860345686449463,6.0,-6.0,-4.4817006137113315,17.172047,2.71393,-3.8578048,-3.6419172,16.676098,-10.602021,1.9648055,0.11386606,0.4765387,-0.27437773,-0.82744336,-14.05031,-5.6381574,-0.06209697,0.7431264,-0.51783806,0.33228952,0
0.13999999999999999,16.860345686449463,6.0,-6.0,-4.4817006137113315,17.172047,2.71393,-3.8578048,-3.6419172,16.53462,-10.658005,1.9641467,0.111994304,0.47406125,-0.2787855,-0.8276485,-14.244521,-5.558397,-0.06988329,0.938753,-0.7487017,0.15189031,0
0.15,16.860345686449463,6.0,-6.0,-4.4817006137113315,17.172047,2.71393,-3.8578048,-3.6419172,16.39122,-10.713186,1.9634022,0.108579926,0.47095957,-0.28372484,-0.8281956,-14.434344,-5.477614,-0.07923707,1.1452386,-0.9850222,-0.023358941,0
0.16,20.999999872143196,6.0,-6.0,-4.181846173504236,16.557438,0.92992467,-3.891047,-3.1931195,16.245947,-10.767552,1.9625567,0.103608094,0.46720213,-0.28924474,-0.8290508,-14.619482,-5.3952994,-0.090054415,1.3607734,-1.225834,-0.19370057,0
0.17,20.999999872143196,6.0,-6.0,-4.181846173504236,16.557438,0.92992467,-3.891047,-3.1931195,16.098736,-10.8210335,1.9616495,0.09677503,0.46246922,-0.29574504,-0.83023596,-14.821767,-5.300536,-0.09166691,1.7373905,-1.6239492,-0.35837042,0
0.18000000000000002,20.999999872143196,6.0,-6.0,-4.181846173504236,16.557438,0.92992467,-3.891047,-3.1931195,15.949534,-10.873552,1.9607177,0.08780645,0.45645782,-0.30356553,-0.83173573,-15.017349,-5.202853,-0.09494421,2.1075916,-2.0124474,-0.5196442,0
0.19000000000000003,20.999999872143196,6.0,-6.0,-4.181846173504236,16.557438,0.92992467,-3.891047,-3.1931195,15.798413,-10.9250765,1.9597453,0.07673483,0.44915283,-0.31264925,-0.8334411,-15.205672,-5.1013956,-0.09975673,2.471293,-2.3917346,-0.67759115,0
0.20000000000000004,21.0,6.0,-6.0,-3.998349176596598,18.577726,4.614021,-3.7847962,-5.143457,15.645448,-10.975565,1.9587176,0.06359306,0.44053,-0.32293096,-0.8352274,-15.386143,-4.9954405,-0.10600915,2.8284473,-2.7621775,-0.8322792,0
0.21000000000000005,21.0,6.0,-6.0,-3.998349176596598,18.577726,4.614021,-3.7847962,-5.143457,15.490728,-11.024975,1.9576155,0.0483799,0.43050078,-0.33440268,-0.8369607,-15.556241,-4.8856153,-0.114631765,3.2046509,-3.1497264,-0.97705966,0
0.22000000000000006,21.0,6.0,-6.0,-3.998349176596598,18.577726,4.614021,-3.7847962,-5.143457,15.334353,-11.073259,1.9564202,0.031103445,0.41897523,-0.34703475,-0.83848614,-15.717136,-4.7703543,-0.12464411,3.571309,-3.5260775,-1.119133,0
0.23000000000000007,21.0,6.0,-6.0,-3.998349176596598,18.577726,4.614021,-3.7847962,-5.143457,15.176419,-11.120362,1.955118,0.0118149,0.40591785,-0.36071727,-0.83962727,-15.868096,-4.6493254,-0.13604127,3.9287488,-3.8918061,-1.2585276,0
0.24000000000000007,21.0,6.0,-6.0,-3.998349176596598,19.342636,4.6811566,-3.6302426,-4.73773,15.017022,-11.16622,1.9536982,-0.009388899,0.39132878,-0.3752938,-0.8401952,-16.010002,-4.520857,-0.14784373,4.2511215,-4.221213,-1.3929715,0
0.25000000000000006,21.0,6.0,-6.0,-3.998349176596598,19.342636,4.6811566,-3.6302426,-4.73773,14.856249,-11.210749,1.9521623,-0.03228282,0.37533033,-0.39049116,-0.8400008,-16.143145,-4.383548,-0.15930767,4.523233,-4.4992366,-1.5208182,0
0.26000000000000006,21.0,6.0,-6.0,-3.998349176596598,19.342636,4.6811566,-3.6302426,-4.73773,14.694194,-11.2538595,1.9505126,-0.056634188,0.35805866,-0.40604547,-0.83887625,-16.266369,-4.237401,-0.1705611,4.752928,-4.7338834,-1.6423914,0
0.2700000000000001,21.0,6.0,-6.0,-3.998349176596598,19.342636,4.6811566,-3.6302426,-4.73773,14.530961,-11.295465,1.9487511,-0.0822313,0.339637,-0.4217293,-0.83667725,-16.378555,-4.082654,-0.18176061,4.9468255,-4.9319134,-1.757999,0
0.2800000000000001,21.0,6.0,-6.0,-3.7906180978473945,20.028782,4.314653,-3.3883452,-5.1318254,14.366665,-11.3354845,1.9468771,-0.10887997,0.3201784,-0.4373467,-0.8332819,-16.478642,-3.9197588,-0.19308414,5.1105123,-5.0990343,-1.8679335,0
0.2900000000000001,21.0,6.0,-6.0,-3.7906180978473945,20.028782,4.314653,-3.3883452,-5.1318254,14.201433,-11.373835,1.9448885,-0.13637947,0.29977652,-0.45273715,-0.82859135,-16.565643,-3.749356,-0.20472406,5.248734,-5.2400303,-1.9622802,0
0.3000000000000001,21.0,6.0,-6.0,-3.7906180978473945,20.028782,4.314653,-3.3883452,-5.1318254,14.035399,-11.410446,1.9427809,-0.1645434,0.27851877,-0.46776265,-0.82252705,-16.63866,-3.5722592,-0.21688168,5.365429,-5.35901,-2.0519972,0
0.3100000000000001,21.0,6.0,-6.0,-3.7906180978473945,20.028782,4.314653,-3.3883452,-5.1318254,13.86871,-11.445258,1.9405483,-0.19321856,0.25649837,-0.48229676,-0.8150245,-16.696892,-3.3894303,-0.2297623,5.4639525,-5.4594073,-2.1373117,0
0.3200000000000001,21.0,5.9785300870591325,-5.999999869867011,-3.80541148159762,19.411165,3.366175,-3.413381,-4.542314,13.701515,-11.478218,1.9381824,-0.2222613,0.23380356,-0.49623057,-0.8060341,-16.739656,-3.2019603,-0.24357037,5.547138,-5.5441217,-2.2184398,0
0.3300000000000001,21.0,5.9785300870591325,-5.999999869867011,-3.80541148159762,19.411165,3.366175,-3.413381,-4.542314,13.533973,-11.509286,1.9356729,-0.25153607,0.21052124,-0.509463,-0.79552364,-16.766397,-3.0110497,-0.25850442,5.6140256,-5.6155972,-2.296313,0
0.34000000000000014,21.0,5.9785300870591325,-5.999999869867011,-3.80541148159762,19.411165,3.366175,-3.413381,-4.542314,13.366243,-11.538432,1.9330077,-0.28091547,0.18673435,-0.5219079,-0.78347236,-16.776693,-2.8179903,-0.27475047,5.670506,-5.675903,-2.370365,0
0.35000000000000014,21.0,5.9785300870591325,-5.999999869867011,-3.80541148159762,19.411165,3.366175,-3.413381,-4.542314,13.198496,-11.565644,1.9301727,-0.3102795,0.16251929,-0.53349847,-0.769866,-16.770256,-2.6241426,-0.29248115,5.718201,-5.7267823,-2.440783,0
0.36000000000000015,21.0,2.881479844045102,-5.424070023731603,-0.2767983478056264,19.617851,3.0222256,-3.6156201,-4.270385,13.030896,-11.5909195,1.9271523,-0.33951414,0.13794923,-0.54417694,-0.7546997,-16.746943,-2.4309175,-0.31185406,5.7584796,-5.769706,-2.5077457,0
0.37000000000000016,21.0,2.881479844045102,-5.424070023731603,-0.2767983478056264,19.617851,3.0222256,-3.6156201,-4.270385,12.863615,-11.614271,1.9239296,-0.36790645,0.11346649,-0.55312234,-0.7388003,-16.706846,-2.2397661,-0.33293727,5.310311,-5.714691,-2.3982725,0
0.38000000000000017,21.0,2.881479844045102,-5.424070023731603,-0.2767983478056264,19.617851,3.0222256,-3.6156201,-4.270385,12.6968155,-11.635728,1.9204888,-0.39491645,0.089442104,-0.55977505,-0.7229751,-16.650726,-2.0521357,-0.35537377,4.9319925,-5.668442,-2.2941713,0
0.3900000000000002,21.0,2.881479844045102,-5.424070023731603,-0.2767983478056264,19.617851,3.0222256,-3.6156201,-4.270385,12.530654,-11.655331,1.916819,-0.42067415,0.06583441,-0.5644335,-0.70718724,-16.579535,-1.8693136,-0.37871617,4.612637,-5.629556,-2.1951783,0
0.4000000000000002,21.0,1.637473272271586,-3.390477846136336,-0.05720722877372428,20.472034,0.6716731,-3.674966,-3.0435023,12.365275,-11.673136,1.9129128,-0.44528404,0.0426019,-0.5673432,-0.6913963,-16.494205,-1.6924201,-0.40258786,4.3430543,-5.596858,-2.1010427,0
0.4100000000000002,21.0,1.637473272271586,-3.390477846136336,-0.05720722877372428,20.472034,0.6716731,-3.674966,-3.0435023,12.200816,-11.689204,1.9087666,-0.4683411,0.020474778,-0.56874806,-0.67584246,-16.39573,-1.5223912,-0.42668507,3.9219363,-5.25194,-2.000751,0
0.4200000000000002,21.0,1.637473272271586,-3.390477846136336,-0.05720722877372428,20.472034,0.6716731,-3.674966,-3.0435023,12.037401,-11.703609,1.9043791,-0.48957375,2.3304485e-05,-0.5689248,-0.6607891,-16.28547,-1.359741,-0.45079896,3.5663636,-4.9609594,-1.9053808,0
0.4300000000000002,21.0,1.637473272271586,-3.390477846136336,-0.05720722877372428,20.472034,0.6716731,-3.674966,-3.0435023,11.875142,-11.716426,1.8997511,-0.5092346,-0.019008748,-0.56809014,-0.646214,-16.164772,-1.204746,-0.47476143,3.266138,-4.7154765,-1.8146905,0
0.4400000000000002,21.0,1.637473272271586,-3.390477846136336,-0.05720722877372428,21.20206,-0.4136788,-3.8229284,-2.3535829,11.714137,-11.727732,1.894885,-0.5275322,-0.036842696,-0.566413,-0.63208294,-16.034801,-1.0575858,-0.49842516,3.0126474,-4.508374,-1.7284503,0
0.45000000000000023,21.0,1.637473272271586,-3.390477846136336,-0.05720722877372428,21.20206,-0.4136788,-3.8229284,-2.3535829,11.554474,-11.737605,1.8897841,-0.5446391,-0.05366832,-0.5640251,-0.61835563,-15.896576,-0.918375,-0.521664,2.7986186,-4.3336477,-1.6464419,0
0.46000000000000024,21.0,1.637473272271586,-3.390477846136336,-0.05720722877372428,21.20206,-0.4136788,-3.8229284,-2.3535829,11.396231,-11.746126,1.8844535,-0.56069815,-0.06964738,-0.5610296,-0.6049899,-15.750985,-0.7871854,-0.54437214,2.61791,-4.186234,-1.5684578,0
0.47000000000000025,21.0,1.637473272271586,-3.390477846136336,-0.05720722877372428,21.20206,-0.4136788,-3.8229284,-2.3535829,11.239477,-11.753376,1.8788989,-0.5758276,-0.084917046,-0.5575073,-0.59194386,-15.598818,-0.66406155,-0.5664627,2.4653351,-4.061861,-1.4943004,0
0.48000000000000026,21.0,0.5797846169872751,-1.697003635554577,0.5269997263368539,21.203072,-2.1639714,-4.4473033,-1.0044531,11.084274,-11.759435,1.8731266,-0.5901258,-0.09959307,-0.5535214,-0.57917804,-15.440772,-0.54903156,-0.58786637,2.3365147,-3.956926,-1.4237819,0
0.49000000000000027,21.0,0.5797846169872751,-1.697003635554577,0.5269997263368539,21.203072,-2.1639714,-4.4473033,-1.0044531,10.930679,-11.764384,1.8671441,-0.60331005,-0.113172695,-0.5492812,-0.56700927,-15.277516,-0.44204968,-0.6085335,2.0631068,-3.6041093,-1.3280566,0
0.5000000000000002,21.0,0.5797846169872751,-1.697003635554577,0.5269997263368539,21.203072,-2.1639714,-4.4473033,-1.0044531,10.778739,-11.768302,1.8609586,-0.61519206,-0.12527591,-0.54499054,-0.55572516,-15.109857,-0.34269458,-0.62844694,1.8322382,-3.3063881,-1.2370285,0
0.5100000000000002,21.0,0.5797846169872751,-1.697003635554577,0.5269997263368539,21.203072,-2.1639714,-4.4473033,-1.0044531,10.628494,-11.771262,1.8545778,-0.62596947,-0.13615704,-0.54067916,-0.54524314,-14.938528,-0.25045118,-0.64759636,1.6372943,-3.0551555,-1.150467,0
0.5200000000000002,21.0,-0.309693685454752,-0.1485277107480549,1.1985468463161864,19.098362,-2.4937298,-3.5160317,-0.6256016,10.479978,-11.773334,1.8480093,-0.63580424,-0.14602947,-0.53636295,-0.5354847,-14.764133,-0.16485718,-0.6659703,1.4726882,-2.8431494,-1.0681534,0
0.5300000000000002,21.0,-0.309693685454752,-0.1485277107480549,1.1985468463161864,19.098362,-2.4937298,-3.5160317,-0.6256016,10.333219,-11.774579,1.841261,-0.64451134,-0.15456025,-0.5322471,-0.52671605,-14.587192,-0.08544131,-0.683563,1.1951966,-2.4226437,-0.9569257,0
0.5400000000000003,21.0,-0.309693685454752,-0.1485277107480549,1.1985468463161864,19.098362,-2.4937298,-3.5160317,-0.6256016,10.18824,-11.77506,1.8343407,-0.6519664,-0.16150609,-0.5285103,-0.5191656,-14.408261,-0.011430236,-0.7003966,0.9608748,-2.0677834,-0.85115606,0
0.5500000000000003,21.0,-0.309693685454752,-0.1485277107480549,1.1985468463161864,19.098362,-2.4937298,-3.5160317,-0.6256016,10.045059,-11.774824,1.8272556,-0.6583673,-0.1671501,-0.52511483,-0.51270676,-14.227825,0.0579739,-0.7164951,0.7630133,-1.7683161,-0.75057656,0
0.5600000000000003,21.0,-0.9817499511268761,1.0340417629552934,1.6499337952481887,16.750767,-1.8757331,-1.8363382,-0.28845894,9.903688,-11.773914,1.8200132,-0.6638742,-0.17172807,-0.5220204,-0.5072234,-14.046255,0.1234613,-0.7318758,0.595944,-1.5155915,-0.6549325,0
0.5700000000000003,21.0,-0.9817499511268761,1.0340417629552934,1.6499337952481887,16.750767,-1.8757331,-1.8363382,-0.28845894,9.764137,-11.772367,1.8126203,-0.6683912,-0.1750476,-0.51935774,-0.50287133,-13.863855,0.1856743,-0.74655527,0.35015714,-1.117846,-0.5418321,0
0.5800000000000003,21.0,-0.9817499511268761,1.0340417629552934,1.6499337952481887,16.750767,-1.8757331,-1.8363382,-0.28845894,9.626412,-11.770209,1.8050841,-0.67184955,-0.1769702,-0.5172298,-0.49977353,-13.6809435,0.24544437,-0.76056886,0.14262152,-0.7821765,-0.4342815,0
0.5900000000000003,21.0,-0.9817499511268761,1.0340417629552934,1.6499337952481887,16.750767,-1.8757331,-1.8363382,-0.28845894,9.490518,-11.767463,1.7974111,-0.6744015,-0.17774715,-0.51555777,-0.4977843,-13.497794,0.30357745,-0.77395284,-0.032609202,-0.49889022,-0.33200848,0
0.6000000000000003,21.0,-1.4169142705303994,1.6659487496867946,1.483333316419443,16.54985,-1.7636226,-0.62117094,-0.060882997,9.356455,-11.76414,1.7896072,-0.6761702,-0.1775872,-0.51426935,-0.49677375,-13.314623,0.3607585,-0.7867383,-0.18055822,-0.25980923,-0.23475398,0
0.6100000000000003,21.0,-1.4169142705303994,1.6659487496867946,1.483333316419443,16.54985,-1.7636226,-0.62117094,-0.060882997,9.224223,-11.760248,1.7816783,-0.67716664,-0.17640986,-0.5133882,-0.4967474,-13.131611,0.41759545,-0.79895234,-0.37332255,0.04052098,-0.15044695,0
0.6200000000000003,21.0,-1.4169142705303994,1.6659487496867946,1.483333316419443,16.54985,-1.7636226,-0.62117094,-0.060882997,9.093821,-11.755787,1.7736301,-0.67740285,-0.17415608,-0.512927,-0.49769613,-12.948958,0.47476006,-0.81062037,-0.5360597,0.29399386,-0.0702769,0
0.6300000000000003,21.0,-1.4169142705303994,1.6659487496867946,1.483333316419443,16.54985,-1.7636226,-0.62117094,-0.060882997,8.965242,-11.750751,1.7654678,-0.6769702,-0.17101377,-0.5128098,-0.4994919,-12.766854,0.5328725,-0.821767,-0.67344326,0.50792265,0.005959211,0
0.6400000000000003,21.0,-1.4169142705303994,1.6659487496867946,1.483333316419443,16.49861,-1.9555095,0.29911473,-0.045540463,8.838482,-11.745126,1.7571964,-0.6759432,-0.16713974,-0.5129703,-0.50202274,-12.585464,0.59245324,-0.8324169,-0.7894199,0.6884787,0.07845439,0
0.6500000000000004,21.0,-1.4169142705303994,1.6659487496867946,1.483333316419443,16.49861,-1.9555095,0.29911473,-0.045540463,8.713531,-11.738895,1.748821,-0.6743832,-0.16266493,-0.51335114,-0.50519127,-12.40494,0.6539376,-0.8425952,-0.8873226,0.8408699,0.1473922,0
0.6600000000000004,21.0,-1.4169142705303994,1.6659487496867946,1.483333316419443,16.49861,-1.9555095,0.29911473,-0.045540463,8.59038,-11.732039,1.7403461,-0.6723414,-0.15769875,-0.513903,-0.50891256,-12.225422,0.7176877,-0.85232747,-0.9699657,0.9694912,0.21294725,0
0.6700000000000004,21.0,-1.4169142705303994,1.6659487496867946,1.483333316419443,16.49861,-1.9555095,0.29911473,-0.045540463,8.469017,-11.724533,1.7317759,-0.66986054,-0.15233262,-0.5145842,-0.513113,-12.047045,0.7840037,-0.8616392,-1.0397255,1.0780513,0.27528545,0
0.6800000000000004,21.0,-1.5477523968448001,1.7854656856918452,1.4809591524420336,15.917221,-1.9592232,1.396495,-0.060333323,8.349434,-11.71635,1.7231145,-0.6669768,-0.14664295,-0.5153591,-0.5177286,-11.869939,0.85313183,-0.87055594,-1.0986093,1.1696806,0.33456472,0
0.6900000000000004,21.0,-1.5477523968448001,1.7854656856918452,1.4809591524420336,15.917221,-1.9592232,1.396495,-0.060333323,8.231614,-11.707459,1.7143658,-0.6637041,-0.14063369,-0.51620245,-0.52273726,-11.69423,0.925279,-0.87910163,-1.16872,1.265654,0.3908186,0
0.7000000000000004,21.0,-1.5477523968448001,1.7854656856918452,1.4809591524420336,15.917221,-1.9592232,1.396495,-0.060333323,8.115544,-11.697832,1.7055336,-0.66005373,-0.1343103,-0.5170915,-0.52811587,-11.52006,1.0006452,-0.8872932,-1.2278972,1.3466605,0.4443121,0
0.7100000000000004,21.0,-1.5477523968448001,1.7854656856918452,1.4809591524420336,15.917221,-1.9592232,1.396495,-0.060333323,8.001208,-11.687434,1.6966212,-0.65605164,-0.12773357,-0.51800233,-0.5338111,-11.347572,1.0794014,-0.8951466,-1.2778449,1.4150351,0.49518067,0
0.7200000000000004,21.0,-1.514819346980912,1.612923263901861,1.3738354044321648,16.164194,-1.9323708,1.7793611,-0.22227295,7.888587,-11.676232,1.6876317,-0.65172005,-0.12095437,-0.518915,-0.5397765,-11.1769085,1.1616815,-0.90267855,-1.3200017,1.4727484,0.5435532,0
0.7300000000000004,21.0,-1.514819346980912,1.612923263901861,1.3738354044321648,16.164194,-1.9323708,1.7793611,-0.22227295,7.777663,-11.664188,1.6785686,-0.64712,-0.1140544,-0.5197771,-0.54594827,-11.0082035,1.2475826,-0.9099038,-1.3504308,1.4945623,0.5842954,0
0.7400000000000004,21.0,-1.514819346980912,1.612923263901861,1.3738354044321648,16.164194,-1.9323708,1.7793611,-0.22227295,7.668416,-11.651269,1.6694348,-0.64230424,-0.107099794,-0.52054787,-0.55227274,-10.841579,1.337142,-0.9168224,-1.3761123,1.5129762,0.6230384,0
0.7500000000000004,21.0,-1.514819346980912,1.612923263901861,1.3738354044321648,16.164194,-1.9323708,1.7793611,-0.22227295,7.560824,-11.637434,1.6602333,-0.63727933,-0.100108646,-0.52122813,-0.5587261,-10.677152,1.430369,-0.92343086,-1.3977869,1.5285205,0.6598803,0
0.7600000000000005,21.0,-1.3614057202567151,1.2877994287757004,1.213518231563394,16.813448,-1.6966746,1.9802895,-0.46661127,7.454865,-11.622649,1.6509671,-0.6320516,-0.09309584,-0.52181876,-0.565287,-10.515033,1.5272611,-0.92972857,-1.4160787,1.5416428,0.6949142,0
0.7700000000000005,21.0,-1.3614057202567151,1.2877994287757004,1.213518231563394,16.813448,-1.6966746,1.9802895,-0.46661127,7.350515,-11.606877,1.6416396,-0.626701,-0.08617585,-0.52227587,-0.57188094,-10.355325,1.6277926,-0.935714,-1.4075595,1.5020365,0.72036225,0
0.7800000000000005,21.0,-1.3614057202567151,1.2877994287757004,1.213518231563394,16.813448,-1.6966746,1.9802895,-0.46661127,7.24775,-11.590082,1.6322539,-0.6212967,-0.07943914,-0.52256835,-0.5784484,-10.198092,1.7318637,-0.94137114,-1.4003695,1.4686074,0.74456155,0
0.7900000000000005,21.0,-1.3614057202567151,1.2877994287757004,1.213518231563394,16.813448,-1.6966746,1.9802895,-0.46661127,7.1465445,-11.572228,1.6228133,-0.61582917,-0.072864264,-0.52271396,-0.58499205,-10.043386,1.8393581,-0.9466817,-1.394301,1.4403926,0.76757336,0
0.8000000000000005,21.0,-1.154822219156824,0.9420274445256818,0.9805508802589084,17.44454,-1.7132035,2.0835826,-0.5747195,7.046873,-11.553283,1.6133214,-0.6102908,-0.06643274,-0.52272755,-0.5915134,-9.891259,1.9501686,-0.95163023,-1.3891795,1.4165785,0.78945595,0
0.8100000000000005,21.0,-1.154822219156824,0.9420274445256818,0.9805508802589084,17.44454,-1.7132035,2.0835826,-0.5747195,6.9487104,-11.533215,1.603782,-0.6047603,-0.060246035,-0.52258885,-0.5979437,-9.741754,2.0641835,-0.9562022,-1.3526019,1.3425831,0.798833,0
0.8200000000000005,21.0,-1.154822219156824,0.9420274445256818,0.9805508802589084,17.44454,-1.7132035,2.0835826,-0.5747195,6.8520293,-11.511991,1.5941988,-0.5993054,-0.05438202,-0.52228624,-0.60422933,-9.594865,2.181229,-0.9603744,-1.3217334,1.2801248,0.80775,0
0.8300000000000005,21.0,-1.154822219156824,0.9420274445256818,0.9805508802589084,17.44454,-1.7132035,2.0835826,-0.5747195,6.756804,-11.48958,1.5845759,-0.593906,-0.048793856,-0.52184194,-0.6103901,-9.450572,2.3011293,-0.96412313,-1.295683,1.2274052,0.8162294,0
0.8400000000000005,21.0,-1.154822219156824,0.9420274445256818,0.9805508802589084,18.136156,-1.8079474,2.398195,-0.44184935,6.663009,-11.465959,1.5749179,-0.58854485,-0.043441724,-0.52127445,-0.61644226,-9.308862,2.42373,-0.9674275,-1.2736986,1.1829058,0.8242928,0
0.8500000000000005,21.0,-1.154822219156824,0.9420274445256818,0.9805508802589084,18.136156,-1.8079474,2.398195,-0.44184935,6.5706186,-11.441098,1.565229,-0.5832072,-0.038291734,-0.52059877,-0.6223988,-9.169725,2.5488942,-0.9702695,-1.2551454,1.1453445,0.83196044,0
0.8600000000000005,21.0,-1.154822219156824,0.9420274445256818,0.9805508802589084,18.136156,-1.8079474,2.398195,-0.44184935,6.4796057,-11.414973,1.5555141,-0.5778808,-0.033315063,-0.5198274,-0.6282704,-9.033161,2.6765018,-0.9726336,-1.2394881,1.11364,0.8392519,0
0.8700000000000006,21.0,-1.154822219156824,0.9420274445256818,0.9805508802589084,18.136156,-1.8079474,2.398195,-0.44184935,6.3899465,-11.38756,1.5457782,-0.5725551,-0.028487198,-0.5189705,-0.6340655,-8.899168,2.8064442,-0.974506,-1.2262747,1.0868787,0.84618545,0
0.8800000000000006,21.0,-0.9168117208853938,0.5772081110151117,0.7601337404613935,18.81205,-2.0297363,2.6682901,-0.3839482,6.301614,-11.358836,1.5360259,-0.56722146,-0.02378729,-0.5180365,-0.639791,-8.76775,2.938624,-0.9758752,-1.215124,1.06429,0.8527788,0
0.8900000000000006,21.0,-0.9168117208853938,0.5772081110151117,0.7601337404613935,18.81205,-2.0297363,2.6682901,-0.3839482,6.2145824,-11.32878,1.5262624,-0.561964,-0.01933107,-0.5170122,-0.6453849,-8.638903,3.07294,-0.9767293,-1.1685572,0.98835915,0.8482327,0
0.9000000000000006,21.0,-0.9168117208853938,0.5772081110151117,0.7601337404613935,18.81205,-2.0297363,2.6682901,-0.3839482,6.128827,-11.297371,1.5164931,-0.55685407,-0.015207654,-0.5158904,-0.6507993,-8.512562,3.2092347,-0.97704947,-1.1292595,0.92426527,0.84390956,0
0.9100000000000006,21.0,-0.9168117208853938,0.5772081110151117,0.7601337404613935,18.81205,-2.0297363,2.6682901,-0.3839482,6.044323,-11.264589,1.5067234,-0.55186766,-0.011364781,-0.5146857,-0.65605783,-8.388649,3.3473482,-0.97681636,-1.0960962,0.870163,0.8397987,0
0.9200000000000006,21.0,-0.71275189116928,0.25129529951448415,0.5401485372063012,19.07171,-1.9801646,2.8218455,-0.35125387,5.9610467,-11.230419,1.4969589,-0.5469839,-0.0077582607,-0.51340955,-0.6611803,-8.267097,3.4871438,-0.9760128,-1.0681099,0.82449484,0.8358895,0
0.9300000000000006,21.0,-0.71275189116928,0.25129529951448415,0.5401485372063012,19.07171,-1.9801646,2.8218455,-0.35125387,5.8789735,-11.194842,1.4872051,-0.5422699,-0.0044677975,-0.512055,-0.6661258,-8.147843,3.6284919,-0.97462255,-1.0126363,0.7351444,0.82137746,0
0.9400000000000006,21.0,-0.71275189116928,0.25129529951448415,0.5401485372063012,19.07171,-1.9801646,2.8218455,-0.35125387,5.798082,-11.1578455,1.4774684,-0.53778183,-0.0015529572,-0.5106189,-0.6708629,-8.030769,3.771226,-0.97262275,-0.9658234,0.6597221,0.80757743,0
0.9500000000000006,21.0,-0.71275189116928,0.25129529951448415,0.5401485372063012,19.07171,-1.9801646,2.8218455,-0.35125387,5.7183514,-11.119414,1.4677548,-0.5334885,0.0010478077,-0.509115,-0.67541933,-7.9157543,3.9151847,-0.96999085,-0.92631835,0.5960569,0.79445463,0
0.9600000000000006,21.0,-0.5713436951876087,-0.006973106692924245,0.31694871987850054,19.240644,-2.1168008,2.7443051,-0.3870576,5.6397605,-11.079537,1.4580708,-0.52936304,0.0033863871,-0.50755394,-0.6798182,-7.8026958,4.060232,-0.96670747,-0.8929807,0.54231626,0.78197575,0
0.9700000000000006,21.0,-0.5713436951876087,-0.006973106692924245,0.31694871987850054,19.240644,-2.1168008,2.7443051,-0.3870576,5.562291,-11.038206,1.4484229,-0.525454,0.0054201996,-0.50592846,-0.68403625,-7.6914964,4.206245,-0.9627544,-0.8427712,0.45669308,0.75915676,0
0.9800000000000006,21.0,-0.5713436951876087,-0.006973106692924245,0.31694871987850054,19.240644,-2.1168008,2.7443051,-0.3870576,5.485925,-10.99541,1.4388181,-0.5218018,0.0071193697,-0.5042343,-0.68805546,-7.582028,4.353076,-0.9581072,-0.80040085,0.38441688,0.73745745,0
0.9900000000000007,21.0,-0.5713436951876087,-0.006973106692924245,0.31694871987850054,19.240644,-2.1168008,2.7443051,-0.3870576,5.4106455,-10.951141,1.4292634,-0.51837415,0.008541236,-0.5024831,-0.69190055,-7.474162,4.5005875,-0.95274174,-0.7646458,0.3234073,0.716823,0
1.0000000000000007,21.0,-0.3339168012664101,-0.11581614635234323,0.13586321701641563,19.127665,-2.3144948,2.5759573,-0.25840765,5.3364367,-10.905396,1.419766,-0.51514286,0.009733997,-0.50068426,-0.6955924,-7.3677893,4.6486626,-0.94663835,-0.7344728,0.2719082,0.697201,0
1.0100000000000007,21.0,-0.3339168012664101,-0.11581614635234323,0.13586321701641563,19.127665,-2.3144948,2.5759573,-0.25840765,5.2632847,-10.858168,1.4103334,-0.51212233,0.010670165,-0.49888885,-0.6990902,-7.2628083,4.7972007,-0.9397844,-0.67197514,0.2114831,0.66965604,0
1.0200000000000007,21.0,-0.3339168012664101,-0.11581614635234323,0.13586321701641563,19.127665,-2.3144948,2.5759573,-0.25840765,5.1911764,-10.809452,1.4009728,-0.5093253,0.011331559,-0.49713877,-0.70236224,-7.1590834,4.946097,-0.93219244,-0.6192303,0.1604745,0.6434627,0
1.0300000000000007,21.0,-0.3339168012664101,-0.11581614635234323,0.13586321701641563,19.127665,-2.3144948,2.5759573,-0.25840765,5.1200995,-10.759246,1.3916919,-0.5067269,0.011767857,-0.49542782,-0.7054367,-7.0564823,5.0952597,-0.923881,-0.574716,0.11741544,0.61855465,0
1.0400000000000007,21.0,-0.3339168012664101,-0.11581614635234323,0.13586321701641563,18.976177,-2.4699533,2.2279694,-0.003229273,5.0500436,-10.707546,1.3824977,-0.50430554,0.012020639,-0.49375042,-0.70833766,-6.954892,5.244611,-0.91486615,-0.53714776,0.08106652,0.59486884,0
1.0500000000000007,21.0,-0.3339168012664101,-0.11581614635234323,0.13586321701641563,18.976177,-2.4699533,2.2279694,-0.003229273,4.980999,-10.654354,1.373397,-0.50204235,0.012124677,-0.49210167,-0.71108556,-6.8542175,5.394086,-0.9051619,-0.5054414,0.050382514,0.5723453,0
1.0600000000000007,21.0,-0.3339168012664101,-0.11581614635234323,0.13586321701641563,18.976177,-2.4699533,2.2279694,-0.003229273,4.9129567,-10.599667,1.3643967,-0.49992126,0.012109005,-0.4904772,-0.71369785,-6.7543764,5.5436296,-0.8947803,-0.4786824,0.024480645,0.550927,0
1.0700000000000007,21.0,-0.3339168012664101,-0.11581614635234323,0.13586321701641563,18.976177,-2.4699533,2.2279694,-0.003229273,4.845909,-10.543484,1.3555034,-0.4979279,0.011997833,-0.48887318,-0.7161894,-6.655299,5.6931963,-0.88373184,-0.45609832,0.0026156777,0.53055966,0
1.0800000000000007,21.0,-0.13104580935564125,-0.23320891780488892,0.014011851066438293,18.424759,-2.5294034,2.1205935,0.34180385,4.779849,-10.4858055,1.3467242,-0.49605,0.011811314,-0.48728624,-0.7185731,-6.5569263,5.8427467,-0.8720257,-0.43703806,-0.0158416,0.5111918,0
1.0900000000000007,21.0,-0.13104580935564125,-0.23320891780488892,0.014011851066438293,18.424759,-2.5294034,2.1205935,0.34180385,4.7147684,-10.426632,1.3380651,-0.49431148,0.011499516,-0.48574862,-0.7208138,-6.4591994,5.992245,-0.859673,-0.3893083,-0.049717557,0.486795,0
1.1000000000000008,21.0,-0.13104580935564125,-0.23320891780488892,0.014011851066438293,18.424759,-2.5294034,2.1205935,0.34180385,4.650663,-10.365963,1.3295329,-0.49273205,0.011024547,-0.48428604,-0.72288376,-6.3620257,6.1416445,-0.84670097,-0.34902453,-0.07831495,0.4635954,0
1.1100000000000008,21.0,-0.13104580935564125,-0.23320891780488892,0.014011851066438293,18.424759,-2.5294034,2.1205935,0.34180385,4.5875263,-10.3038,1.3211333,-0.4912959,0.010417875,-0.48288718,-0.72480345,-6.2653093,6.290901,-0.8331388,-0.31502497,-0.10245572,0.4415342,0
1.1200000000000008,21.0,0.17674744782312857,-0.37985670276387445,-0.01253621249935818,17.690226,-3.2367432,2.0492196,0.25773454,4.5253553,-10.240145,1.3128722,-0.48998925,0.009705752,-0.48154226,-0.72659045,-6.1689696,6.439977,-0.81901175,-0.28632936,-0.12283427,0.42055553,0
1.1300000000000008,21.0,0.17674744782312857,-0.37985670276387445,-0.01253621249935818,17.690226,-3.2367432,2.0492196,0.25773454,4.464146,-10.175001,1.304755,-0.4888318,0.008808652,-0.48030388,-0.7281994,-6.072927,6.588839,-0.80434686,-0.21410392,-0.16289409,0.3993036,0
1.1400000000000008,21.0,0.17674744782312857,-0.37985670276387445,-0.01253621249935818,17.690226,-3.2367432,2.0492196,0.25773454,4.4038963,-10.10837,1.2967869,-0.48783845,0.0076646847,-0.4792136,-0.72959554,-5.97705,6.73744,-0.78919804,-0.15314454,-0.19671133,0.37909448,0
1.1500000000000008,21.0,0.17674744782312857,-0.37985670276387445,-0.01253621249935818,17.690226,-3.2367432,2.0492196,0.25773454,4.344605,-10.040254,1.2889726,-0.48699117,0.006317616,-0.47824878,-0.7308066,-5.881204,6.8857346,-0.7736218,-0.10169377,-0.22525893,0.35987702,0
1.1600000000000008,21.0,0.30941251290821414,-0.4700707676110658,-0.06867766221263984,16.78153,-3.8189352,2.27798,0.59613097,4.2862725,-9.970656,1.2813158,-0.48627433,0.004804113,-0.47739008,-0.7318561,-5.7852774,7.0336857,-0.7576667,-0.058268227,-0.24935761,0.34160256,0
1.1700000000000008,21.0,0.30941251290821414,-0.4700707676110658,-0.06867766221263984,16.78153,-3.8189352,2.27798,0.59613097,4.2288995,-9.899581,1.2738203,-0.4856969,0.003105945,-0.47664228,-0.7327356,-5.689169,7.1812596,-0.7413764,-0.0009244736,-0.28376496,0.32147,0
1.1800000000000008,21.0,0.30941251290821414,-0.4700707676110658,-0.06867766221263984,16.78153,-3.8189352,2.27798,0.59613097,4.1724896,-9.827032,1.2664891,-0.48526546,0.001210473,-0.4760084,-0.73343873,-5.5927634,7.328417,-0.72479945,0.0474746,-0.31280982,0.3023253,0
1.1900000000000008,21.0,0.30941251290821414,-0.4700707676110658,-0.06867766221263984,16.78153,-3.8189352,2.27798,0.59613097,4.117046,-9.753015,1.2593251,-0.48496404,-0.00084658904,-0.4754705,-0.7339872,-5.495953,7.4751196,-0.7079816,0.08832443,-0.33732763,0.28412008,0
1.2000000000000008,20.999999877075158,-0.24333585865739127,-0.13856351028572014,-0.18901889161196397,16.188492,-4.283539,2.6367862,0.87050563,4.0625725,-9.677532,1.2523303,-0.48477876,-0.0030353405,-0.47501352,-0.73439956,-5.3986473,7.6213355,-0.69096243,0.12280285,-0.35802394,0.2668082,0
1.2100000000000009,20.999999877075158,-0.24333585865739127,-0.13856351028572014,-0.18901889161196397,16.188492,-4.283539,2.6367862,0.87050563,4.009075,-9.60059,1.2455064,-0.48464653,-0.00511905,-0.47452652,-0.7347899,-5.300791,7.767045,-0.6737678,0.06569301,-0.32381016,0.24444063,0
1.2200000000000009,20.999999877075158,-0.24333585865739127,-0.13856351028572014,-0.18901889161196397,16.188492,-4.283539,2.6367862,0.87050563,3.9565585,-9.522193,1.2388555,-0.48451906,-0.0069080247,-0.47392136,-0.73524976,-5.2024603,7.912273,-0.6563688,0.017491365,-0.29492885,0.22317064,0
1.2300000000000009,20.999999877075158,-0.24333585865739127,-0.13856351028572014,-0.18901889161196397,16.188492,-4.283539,2.6367862,0.87050563,3.9050272,-9.442346,1.2323798,-0.48440474,-0.008442716,-0.4732166,-0.73576283,-5.1037617,8.057054,-0.63872284,-0.023191549,-0.27054948,0.20294435,0
1.2400000000000009,20.999999877075158,-0.24333585865739127,-0.13856351028572014,-0.18901889161196397,17.837545,-5.49969,1.9739195,1.8803444,3.8544843,-9.361053,1.226082,-0.4843101,-0.00975755,-0.47242796,-0.7363155,-5.004785,8.201418,-0.62079376,-0.057528682,-0.24997012,0.18371059,0
1.2500000000000009,20.999999877075158,-0.24333585865739127,-0.13856351028572014,-0.18901889161196397,17.837545,-5.49969,1.9739195,1.8803444,3.8049324,-9.278318,1.219965,-0.4842401,-0.010881857,-0.47156858,-0.73689646,-4.9056053,8.345388,-0.6025506,-0.08651015,-0.23259883,0.16542064,0
1.260000000000001,20.999999877075158,-0.24333585865739127,-0.13856351028572014,-0.18901889161196397,17.837545,-5.49969,1.9739195,1.8803444,3.7563727,-9.194147,1.214032,-0.48419854,-0.011840645,-0.4706496,-0.7374963,-4.8062863,8.488987,-0.58396745,-0.11097128,-0.21793541,0.14802817,0
1.270000000000001,20.999999877075158,-0.24333585865739127,-0.13856351028572014,-0.18901889161196397,17.837545,-5.49969,1.9739195,1.8803444,3.7088068,-9.1085415,1.2082869,-0.48418808,-0.0126552675,-0.46968034,-0.7381073,-4.706881,8.632232,-0.565022,-0.13161704,-0.205558,0.13148919,0
1.280000000000001,20.999999573653188,-1.2156567855003269,0.056506451759718544,-0.2752079422072454,18.2568,-5.4913354,1.1261069,2.5338407,3.662235,-9.021504,1.202733,-0.4842107,-0.013343982,-0.4686687,-0.7387232,-4.607435,8.775135,-0.54569566,-0.14904235,-0.1951102,0.11576177,0
1.290000000000001,20.999999573653188,-1.2156567855003269,0.056506451759718544,-0.2752079422072454,18.2568,-5.4913354,1.1261069,2.5338407,3.616658,-8.93304,1.1973745,-0.4842441,-0.013671332,-0.46737152,-0.73951674,-4.508017,8.917712,-0.5259502,-0.31538504,-0.15587936,0.09657678,0
1.300000000000001,20.999999573653188,-1.2156567855003269,0.056506451759718544,-0.2752079422072454,18.2568,-5.4913354,1.1261069,2.5338407,3.5720737,-8.843151,1.192216,-0.4842711,-0.013450941,-0.4655956,-0.7406225,-4.408853,9.059984,-0.50562376,-0.45578563,-0.12276151,0.0783332,0
1.310000000000001,20.999999573653188,-1.2156567855003269,0.056506451759718544,-0.2752079422072454,18.2568,-5.4913354,1.1261069,2.5338407,3.5284786,-8.751841,1.1872646,-0.4842989,-0.012763479,-0.46341366,-0.7419837,-4.3101954,9.201974,-0.48453638,-0.5742897,-0.094804525,0.060984846,0
1.320000000000001,20.999997745303034,-2.7392107275673783,0.31922947600992024,-0.1801005386017411,17.762901,-5.764709,1.4787027,2.8914804,3.4858668,-8.659111,1.1825284,-0.4843327,-0.011677298,-0.4608867,-0.7435519,-4.212258,9.343694,-0.46253815,-0.6743123,-0.071204364,0.044487767,0
1.330000000000001,20.999997745303034,-2.7392107275673783,0.31922947600992024,-0.1801005386017411,17.762901,-5.764709,1.4787027,2.8914804,3.44423,-8.564967,1.1780174,-0.48432502,-0.009882213,-0.45766217,-0.745572,-4.1152678,9.485153,-0.4394696,-0.99633396,-0.010318745,0.033467155,0
1.340000000000001,20.999997745303034,-2.7392107275673783,0.31922947600992024,-0.1801005386017411,17.762901,-5.764709,1.4787027,2.8914804,3.4035566,-8.469409,1.1737438,-0.48423174,-0.0071360935,-0.45345798,-0.748228,-4.0196867,9.626362,-0.41499683,-1.2681355,0.041076742,0.022987315,0
1.350000000000001,20.999997745303034,-2.7392107275673783,0.31922947600992024,-0.1801005386017411,17.762901,-5.764709,1.4787027,2.8914804,3.3638296,-8.37244,1.1697235,-0.4840589,-0.0035842422,-0.44841498,-0.75139785,-3.9260025,9.767315,-0.38877884,-1.4975489,0.08446087,0.013021735,0
1.360000000000001,20.206289585816993,-4.287270239483535,0.3867511970826328,0.1765897811776997,18.293737,-6.2575765,1.6079787,3.3625853,3.3250284,-8.274063,1.1659753,-0.48380968,0.00065033324,-0.44265074,-0.754976,-3.8346367,9.907993,-0.36054152,-1.6911851,0.12108172,0.0035451758,0
1.370000000000001,20.206289585816993,-4.287270239483535,0.3867511970826328,0.1765897811776997,18.293737,-6.2575765,1.6079787,3.3625853,3.2871108,-8.174307,1.1624963,-0.48343703,0.0057640155,-0.43580678,-0.759163,-3.7493503,10.043053,-0.334893,-2.0960438,0.16250044,0.012036526,0
1.380000000000001,20.206289585816993,-4.287270239483535,0.3867511970826328,0.1765897811776997,18.293737,-6.2575765,1.6079787,3.3625853,3.2500303,-8.073203,1.1592863,-0.4828859,0.011903874,-0.4275934,-0.7640968,-3.6672819,10.177717,-0.30666742,-2.4377656,0.19745666,0.020111203,0
1.390000000000001,20.206289585816993,-4.287270239483535,0.3867511970826328,0.1765897811776997,18.293737,-6.2575765,1.6079787,3.3625853,3.2137518,-7.9707556,1.156373,-0.48214525,0.018906936,-0.41819343,-0.76960593,-3.589035,10.31186,-0.2754985,-2.7261963,0.22695968,0.027789643,0
1.400000000000001,19.017933781596792,-4.7359721383558675,0.4681250732426145,1.2727367283701172,18.838003,-7.247656,1.3924329,4.0624967,3.1782343,-7.8669686,1.1537873,-0.481204,0.026634855,-0.40776068,-0.7755418,-3.5151412,10.4453335,-0.24111697,-2.9696462,0.2518604,0.035091326,0
1.410000000000001,19.017933781596792,-4.7359721383558675,0.4681250732426145,1.2727367283701172,18.838003,-7.247656,1.3924329,4.0624967,3.1434119,-7.76189,1.1515224,-0.47992745,0.035026617,-0.39630437,-0.7819118,-3.4501452,10.5701685,-0.21132179,-3.2451158,0.28545263,0.095822945,0
1.420000000000001,19.017933781596792,-4.7359721383558675,0.4681250732426145,1.2727367283701172,18.838003,-7.247656,1.3924329,4.0624967,3.1092143,-7.6555676,1.1495723,-0.47818667,0.04402054,-0.383837,-0.7887137,-3.3901794,10.694029,-0.17816788,-3.4776273,0.31379527,0.15357445,0
1.430000000000001,19.017933781596792,-4.7359721383558675,0.4681250732426145,1.2727367283701172,18.838003,-7.247656,1.3924329,4.0624967,3.0755894,-7.548013,1.1479708,-0.47598103,0.0535071,-0.37048402,-0.79581475,-3.335691,10.816705,-0.14156084,-3.6738796,0.33771217,0.20849209,0
1.440000000000001,19.017933781596792,-4.7359721383558675,0.4681250732426145,1.2727367283701172,18.66783,-7.5417256,1.1567166,4.8206697,3.0424802,-7.4392385,1.146753,-0.47331116,0.06339335,-0.35635322,-0.8031007,-3.2870708,10.937968,-0.10147462,-3.8395271,0.35789725,0.2607149,0
1.450000000000001,19.017933781596792,-4.7359721383558675,0.4681250732426145,1.2727367283701172,18.66783,-7.5417256,1.1567166,4.8206697,3.0098267,-7.3292594,1.1459532,-0.47017896,0.07360034,-0.34153792,-0.8104734,-3.2446585,11.057572,-0.057942316,-3.9793425,0.37493497,0.3103751,0
1.460000000000001,19.017933781596792,-4.7359721383558675,0.4681250732426145,1.2727367283701172,18.66783,-7.5417256,1.1567166,4.8206697,2.9775648,-7.218094,1.1456057,-0.4665878,0.08406092,-0.32611915,-0.8178487,-3.2087474,11.1752615,-0.011048019,-4.097353,0.38931802,0.35759848,0
1.470000000000001,19.017933781596792,-4.7359721383558675,0.4681250732426145,1.2727367283701172,18.66783,-7.5417256,1.1567166,4.8206697,2.9456284,-7.105762,1.1457434,-0.46254233,0.094717905,-0.31016776,-0.8251543,-3.179587,11.290767,0.039080285,-4.19696,0.401462,0.4025046,0
1.480000000000001,17.858660563137214,-5.133325729013629,0.422354681326579,1.4680816624481843,18.071083,-7.5311446,1.2675953,5.048562,2.913949,-6.992287,1.1463978,-0.4580483,0.105522506,-0.29374602,-0.8323284,-3.1573846,11.403813,0.09227691,-4.2810326,0.41171697,0.44520718,0
1.490000000000001,17.858660563137214,-5.133325729013629,0.422354681326579,1.4680816624481843,18.071083,-7.5311446,1.2675953,5.048562,2.8824513,-6.877729,1.1475519,-0.4530792,0.11648301,-0.27676973,-0.8393747,-3.1432388,11.507392,0.13895175,-4.4139614,0.41319332,0.49539992,0
1.500000000000001,17.858660563137214,-5.133325729013629,0.422354681326579,1.4680816624481843,18.071083,-7.5311446,1.2675953,5.048562,2.8510606,-6.7621484,1.1491854,-0.4476065,0.1276006,-0.25917447,-0.8462834,-3.1359851,11.608086,0.18814813,-4.5261593,0.41444522,0.5431297,0
1.5100000000000011,17.858660563137214,-5.133325729013629,0.422354681326579,1.4680816624481843,18.071083,-7.5311446,1.2675953,5.048562,2.8197074,-6.6455774,1.1513228,-0.44163543,0.13882692,-0.24103922,-0.8529864,-3.135788,11.705573,0.23966084,-4.620859,0.41550875,0.58851737,0
1.5200000000000011,17.051287713894403,-5.261659584725615,0.4064024477273966,1.6213439548505963,18.061735,-7.254227,1.3236885,5.328864,2.78832,-6.528049,1.153986,-0.4351727,0.15012057,-0.22243373,-0.8594255,-3.142769,11.799536,0.29325098,-4.7007904,0.4164137,0.6316778,0
1.5300000000000011,17.051287713894403,-5.261659584725615,0.4064024477273966,1.6213439548505963,18.061735,-7.254227,1.3236885,5.328864,2.7568297,-6.4096203,1.1571594,-0.42820343,0.1614584,-0.20337549,-0.86557025,-3.1563673,11.885584,0.34171283,-4.78827,0.41466495,0.68024105,0
1.5400000000000011,17.051287713894403,-5.261659584725615,0.4064024477273966,1.6213439548505963,18.061735,-7.254227,1.3236885,5.328864,2.7251687,-6.2903514,1.1608253,-0.42071396,0.17281835,-0.18388416,-0.87139004,-3.176956,11.967653,0.3916329,-4.8621063,0.41319734,0.7264213,0
1.5500000000000012,17.051287713894403,-5.261659584725615,0.4064024477273966,1.6213439548505963,18.061735,-7.254227,1.3236885,5.328864,2.6932664,-6.170283,1.1649963,-0.41271505,0.1841688,-0.16402124,-0.8768383,-3.20456,12.04544,0.44271943,-4.9244275,0.41196752,0.77033544,0
1.5600000000000012,16.52807409352359,-5.097250222210626,0.7218196887663406,2.346317651335113,16.796007,-6.5997143,1.3072397,5.124231,2.6610534,-6.049459,1.1696826,-0.40421867,0.19548236,-0.14384164,-0.88187516,-3.2391658,12.118643,0.49466157,-4.9770293,0.41093782,0.8120947,0
1.5700000000000012,16.52807409352359,-5.097250222210626,0.7218196887663406,2.346317651335113,16.796007,-6.5997143,1.3072397,5.124231,2.6284657,-5.9279375,1.1748681,-0.3951545,0.20680799,-0.123521164,-0.8864684,-3.2794497,12.184894,0.54250836,-4.995826,0.45916465,0.8873794,0
1.5800000000000012,16.52807409352359,-5.097250222210626,0.7218196887663406,2.346317651335113,16.796007,-6.5997143,1.3072397,5.124231,2.5954413,-5.805778,1.1805332,-0.38546318,0.21818481,-0.103207536,-0.8905965,-3.3264055,12.246233,0.59050757,-5.0116897,0.49988246,0.95896995,0
1.5900000000000012,16.52807409352359,-5.097250222210626,0.7218196887663406,2.346317651335113,16.796007,-6.5997143,1.3072397,5.124231,2.5619147,-5.68303,1.1866775,-0.3751724,0.2295771,-0.082909524,-0.89424074,-3.3799353,12.30248,0.63829494,-5.025078,0.5342622,1.0270475,0
1.6000000000000012,16.814180853278142,-5.217400346997147,2.483037535078908,4.938878145633628,15.580212,-6.6244636,1.6608354,4.5377564,2.5278203,-5.559746,1.193297,-0.36430815,0.2409537,-0.062636934,-0.897384,-3.4399111,12.353455,0.68551075,-5.0363765,0.5632915,1.0917846,0
1.6100000000000012,16.814180853278142,-5.217400346997147,2.483037535078908,4.938878145633628,15.580212,-6.6244636,1.6608354,4.5377564,2.4930568,-5.435952,1.2004683,-0.3525129,0.25270832,-0.04218644,-0.90005225,-3.5136397,12.404092,0.74798864,-5.2171607,0.70958513,1.2659675,0
1.6200000000000012,16.814180853278142,-5.217400346997147,2.483037535078908,4.938878145633628,15.580212,-6.6244636,1.6608354,4.5377564,2.4575264,-5.311688,1.2082448,-0.3394577,0.26515797,-0.021449858,-0.9022196,-3.593345,12.44778,0.8067286,-5.3541756,0.8486851,1.4339551,0
1.6300000000000012,16.814180853278142,-5.217400346997147,2.483037535078908,4.938878145633628,15.580212,-6.6244636,1.6608354,4.5377564,2.421169,-5.187021,1.2165898,-0.32522574,0.27820423,-0.00063220505,-0.9037869,-3.6790748,12.484538,0.86163306,-5.448195,0.98778427,1.5956345,0
1.6400000000000012,16.814180853278142,-5.217400346997147,2.483037535078908,4.938878145633628,15.831932,-6.682979,1.5688739,4.263782,2.3839252,-5.0620217,1.2254624,-0.3099028,0.2917716,0.02007756,-0.9046696,-3.7705655,12.514303,0.91215295,-5.505144,1.1276689,1.7513849,0
1.6500000000000012,16.814180853278142,-5.217400346997147,2.483037535078908,4.938878145633628,15.831932,-6.682979,1.5688739,4.263782,2.3457391,-4.936759,1.2348161,-0.29357526,0.30580038,0.040512785,-0.90479773,-3.8674715,12.537077,0.95777386,-5.530153,1.2688708,1.9015555,0
1.6600000000000013,16.814180853278142,-5.217400346997147,2.483037535078908,4.938878145633628,15.831932,-6.682979,1.5688739,4.263782,2.3065584,-4.811304,1.2445993,-0.27633023,0.32024407,0.060527314,-0.9041141,-3.9693844,12.5529175,0.99802375,-5.52767,1.41172,2.046468,0
1.6700000000000013,16.814180853278142,-5.217400346997147,2.483037535078908,4.938878145633628,15.831932,-6.682979,1.5688739,4.263782,2.2663355,-4.6857243,1.2547565,-0.25825512,0.33506665,0.079993844,-0.902572,-4.07585,12.561944,1.0324783,-5.5015554,1.5563875,2.1864185,0
1.6800000000000013,15.575762952169905,-4.675471389144298,1.6114571114268053,5.141520739504503,15.239813,-6.3205285,1.2719867,3.3925366,2.2250268,-4.560088,1.2652283,-0.23943543,0.35023758,0.0988076,-0.9001344,-4.186646,12.56432,1.0610586,-5.459484,1.6985866,2.321306,0
1.6900000000000013,15.575762952169905,-4.675471389144298,1.6114571114268053,5.141520739504503,15.239813,-6.3205285,1.2719867,3.3925366,2.182619,-4.4344597,1.275925,-0.21992536,0.36528388,0.116909854,-0.8969577,-4.2954397,12.560419,1.0773343,-5.3595967,1.6623881,2.457686,0
1.7000000000000013,15.575762952169905,-4.675471389144298,1.6114571114268053,5.141520739504503,15.239813,-6.3205285,1.2719867,3.3925366,2.139108,-4.3089,1.2867544,-0.19978188,0.37985012,0.13422568,-0.8931881,-4.407288,12.550484,1.0876468,-5.256445,1.6507461,2.589066,0
1.7100000000000013,15.575762952169905,-4.675471389144298,1.6114571114268053,5.141520739504503,15.239813,-6.3205285,1.2719867,3.3925366,2.094461,-4.18347,1.297661,-0.17906028,0.39401764,0.15074457,-0.88879925,-4.522668,12.534507,1.0929246,-5.165966,1.6443492,2.7143157,0
1.7200000000000013,14.07959165083343,-4.01981708684028,0.3881959094160966,5.5182728118512925,15.452206,-6.294843,0.25593033,2.4488292,2.048643,-4.0582304,1.3085958,-0.15779065,0.40781403,0.16651973,-0.8837769,-4.6413183,12.512482,1.0932726,-5.0895915,1.6389592,2.8334193,0
1.7300000000000013,14.07959165083343,-4.01981708684028,0.3881959094160966,5.5182728118512925,15.452206,-6.294843,0.25593033,2.4488292,2.0016773,-3.9332294,1.3194685,-0.135966,0.42076477,0.18146643,-0.8783739,-4.752069,12.486884,1.0804172,-4.9358582,1.4304073,2.9639585,0
1.7400000000000013,14.07959165083343,-4.01981708684028,0.3881959094160966,5.5182728118512925,15.452206,-6.294843,0.25593033,2.4488292,1.953599,-3.8085105,1.3301861,-0.1136058,0.43254972,0.19545682,-0.8728068,-4.8637776,12.456054,1.062403,-4.793606,1.266943,3.0892234,0
1.7500000000000013,14.07959165083343,-4.01981708684028,0.3881959094160966,5.5182728118512925,15.452206,-6.294843,0.25593033,2.4488292,1.9043971,-3.6841269,1.3407018,-0.09075361,0.44335657,0.20852709,-0.8670154,-4.9767585,12.419832,1.0400856,-4.672746,1.129782,3.2084174,0
1.7600000000000013,12.806732072673785,-3.5418373999296113,-1.3790548890179664,5.9999961752702395,15.921435,-6.180384,-0.37279543,1.6585186,1.8540609,-3.5601323,1.3509737,-0.06743655,0.45331615,0.2207412,-0.86094755,-5.0905623,12.37825,1.0136764,-4.5707555,1.0140067,3.3217626,0
1.7700000000000014,12.806732072673785,-3.5418373999296113,-1.3790548890179664,5.9999961752702395,15.921435,-6.180384,-0.37279543,1.6585186,1.8026124,-3.4365687,1.3609453,-0.04367111,0.462043,0.23188072,-0.8548923,-5.1988106,12.333796,0.9798817,-4.3559265,0.69465107,3.4480996,0
1.7800000000000014,12.806732072673785,-3.5418373999296113,-1.3790548890179664,5.9999961752702395,15.921435,-6.180384,-0.37279543,1.6585186,1.7500908,-3.3134706,1.370557,-0.019424932,0.46921435,0.24181147,-0.84911025,-5.305169,12.285188,0.941826,-4.1932316,0.4064119,3.5701654,0
1.7900000000000014,12.806732072673785,-3.5418373999296113,-1.3790548890179664,5.9999961752702395,15.921435,-6.180384,-0.37279543,1.6585186,1.6965168,-3.1908784,1.3797692,0.0053523197,0.4749874,0.2507124,-0.8435058,-5.409237,12.23264,0.9000746,-4.07645,0.14252046,3.688076,0
1.8000000000000014,12.98240176540975,-3.968360003362144,-4.080121727075658,5.999999727592474,16.227251,-5.9304504,-0.879523,0.84239197,1.6419141,-3.0688312,1.388548,0.030695027,0.47948658,0.25872657,-0.8379805,-5.511058,12.176116,0.85534066,-3.992071,-0.09443013,3.8014822,0
1.8100000000000014,12.98240176540975,-3.968360003362144,-4.080121727075658,5.999999727592474,16.227251,-5.9304504,-0.879523,0.84239197,1.5862592,-2.9473963,1.3968905,0.05674536,0.48215246,0.2658426,-0.8328487,-5.6192627,12.110304,0.8127122,-3.8993573,-0.62836945,3.9015055,0
1.8200000000000014,12.98240176540975,-3.968360003362144,-4.080121727075658,5.999999727592474,16.227251,-5.9304504,-0.879523,0.84239197,1.5295438,-2.8266366,1.4047936,0.08366434,0.48249045,0.2720777,-0.82835823,-5.7231336,12.041122,0.7675656,-3.8492393,-1.1071949,3.9991293,0
1.8300000000000014,12.98240176540975,-3.968360003362144,-4.080121727075658,5.999999727592474,16.227251,-5.9304504,-0.879523,0.84239197,1.4718131,-2.7065847,1.4122356,0.11145687,0.48070163,0.2775405,-0.82430273,-5.822229,11.968814,0.72064906,-3.8345897,-1.5390157,4.0944285,0
1.8400000000000014,12.98240176540975,-3.968360003362144,-4.080121727075658,5.999999727592474,16.873245,-5.640803,-1.624657,-0.00012840098,1.4131168,-2.5872703,1.4192026,0.14011373,0.4769411,0.2823151,-0.820484,-5.916251,11.893568,0.6726599,-3.8481216,-1.9293981,4.1873665,0
1.8500000000000014,12.98240176540975,-3.968360003362144,-4.080121727075658,5.999999727592474,16.873245,-5.640803,-1.624657,-0.00012840098,1.3535018,-2.4687264,1.4256897,0.1695728,0.47137314,0.28643575,-0.8167053,-6.0061255,11.814556,0.6248741,-3.8658278,-2.2650757,4.276313,0
1.8600000000000014,12.98240176540975,-3.968360003362144,-4.080121727075658,5.999999727592474,16.873245,-5.640803,-1.624657,-0.00012840098,1.2930084,-2.3509924,1.4317034,0.19970374,0.46420258,0.28988346,-0.81277454,-6.0918474,11.731633,0.57802904,-3.8808897,-2.5483878,4.3608947,0
1.8700000000000014,12.98240176540975,-3.968360003362144,-4.080121727075658,5.999999727592474,16.873245,-5.640803,-1.624657,-0.00012840098,1.2316805,-2.234106,1.4372551,0.23037693,0.45560795,0.2926432,-0.8085223,-6.173011,11.64507,0.53256744,-3.8937066,-2.7875023,4.441326,0
1.8800000000000014,14.464442042963013,-3.579347971228158,-5.259311530447744,5.999999661797638,17.164316,-5.260599,-1.7581936,-0.2581622,1.1695652,-2.1181023,1.4423609,0.26147002,0.44573963,0.2947077,-0.8038019,-6.249256,11.555198,0.4888795,-3.904617,-2.9893122,4.5178113,0
1.8900000000000015,14.464442042963013,-3.579347971228158,-5.259311530447744,5.999999661797638,17.164316,-5.260599,-1.7581936,-0.2581622,1.1066724,-2.0030649,1.4470723,0.2929361,0.4343884,0.29582128,-0.7987399,-6.3283696,11.451811,0.45378911,-3.852693,-3.343349,4.590543,0
1.9000000000000015,14.464442042963013,-3.579347971228158,-5.259311530447744,5.999999661797638,17.164316,-5.260599,-1.7581936,-0.2581622,1.043019,-1.8890753,1.4514467,0.32471818,0.42139974,0.29576656,-0.7934122,-6.4013076,11.34573,0.42160296,-3.8090086,-3.6421847,4.659705,0
1.9100000000000015,14.464442042963013,-3.579347971228158,-5.259311530447744,5.999999661797638,17.164316,-5.260599,-1.7581936,-0.2581622,0.97866845,-1.7761574,1.455516,0.35668778,0.40696406,0.29459968,-0.7876329,-6.4677844,11.237589,0.3928112,-3.7722619,-3.8944263,4.725474,0
1.9200000000000015,15.350964353502809,-2.833808022197949,-5.887673447889155,5.999999618808062,17.774866,-4.9004316,-2.282824,-0.6626263,0.9136864,-1.6643285,1.4593159,0.38872164,0.391243,0.29237577,-0.78124344,-6.5275807,11.128057,0.3678154,-3.7413554,-4.1073375,4.7880154,0
1.9300000000000015,15.350964353502809,-2.833808022197949,-5.887673447889155,5.999999618808062,17.774866,-4.9004316,-2.282824,-0.6626263,0.8481238,-1.5536325,1.4629098,0.42065927,0.3742994,0.28881598,-0.7742942,-6.5838017,11.011097,0.35168487,-3.59879,-4.3846765,4.8474874,0
1.9400000000000015,15.350964353502809,-2.833808022197949,-5.887673447889155,5.999999618808062,17.774866,-4.9004316,-2.282824,-0.6626263,0.7820353,-1.4441059,1.466366,0.45235866,0.35620594,0.2837027,-0.76681304,-6.6327667,10.894302,0.3403077,-3.4785826,-4.618818,4.904042,0
1.9500000000000015,15.350964353502809,-2.833808022197949,-5.887673447889155,5.999999618808062,17.774866,-4.9004316,-2.282824,-0.6626263,0.7154932,-1.3357426,1.4697335,0.4837279,0.3371025,0.2771736,-0.7586465,-6.6745496,10.778585,0.33398288,-3.3772306,-4.816491,4.957821,0
1.9600000000000015,15.045589727941126,-1.9792936017814042,-5.727475705992734,5.999999590195472,16.513344,-4.64745,-2.022775,-0.5889651,0.64856863,-1.2285273,1.4730637,0.5146752,0.3171082,0.26935363,-0.7496672,-6.7092886,10.664839,0.33290747,-3.2917798,-4.983377,5.0089607,0
1.9700000000000015,15.045589727941126,-1.9792936017814042,-5.727475705992734,5.999999590195472,16.513344,-4.64745,-2.022775,-0.5889651,0.5813339,-1.1224248,1.4763998,0.5449889,0.29655528,0.26013702,-0.7398455,-6.7366505,10.556147,0.3351471,-3.0865598,-5.0988483,5.057591,0
1.9800000000000015,15.045589727941126,-1.9792936017814042,-5.727475705992734,5.999999590195472,16.513344,-4.64745,-2.022775,-0.5889651,0.51385725,-1.0173918,1.4797846,0.5745033,0.27573127,0.2494652,-0.72916794,-6.7577286,10.451092,0.34264058,-2.9134042,-5.1964006,5.1038356,0
1.9900000000000015,15.045589727941126,-1.9792936017814042,-5.727475705992734,5.999999590195472,16.513344,-4.64745,-2.022775,-0.5889651,0.44619924,-0.9133877,1.4832704,0.6031903,0.25466874,0.23750918,-0.717562,-6.773002,10.35047,0.35532078,-2.7673047,-5.278816,5.1478105,0
2.0000000000000013,,,,,15.893683,-4.6113772,-1.0997796,-0.01694454,0.3784154,-0.8103646,1.4869084,0.6310145,0.23339477,0.22441965,-0.70497084,-6.782973,10.255005,0.3730555,-2.6440353,-5.348444,5.1896276,0
2.010000000000001,,,,,15.893683,-4.6113772,-1.0997796,-0.01694454,0.31054854,-0.7083822,1.4909,0.6577378,0.21250388,0.20966691,-0.6915659,-6.78955,10.142687,0.426201,-2.1807373,-5.4186597,5.229393,0
2.020000000000001,,,,,15.893683,-4.6113772,-1.0997796,-0.01694454,0.24264064,-0.6074831,1.4954524,0.6831976,0.19250266,0.19286376,-0.6774864,-6.791394,10.038457,0.4851581,-1.7897308,-5.478147,5.2672067,0
2.0300000000000007,,,,,15.893683,-4.6113772,-1.0997796,-0.01694454,0.17473254,-0.507583,1.5006219,0.7074465,0.17328487,0.1743251,-0.6626485,-6.7897825,9.9429655,0.54957956,-1.459737,-5.528547,5.303165,0
2.0400000000000005,,,,,15.893683,-4.6113772,-1.0997796,-0.01694454,0.106852755,-0.40859196,1.5064614,0.7305124,0.15475264,0.1543206,-0.6469844,-6.78591,9.856722,0.61905533,-1.1812363,-5.571249,5.337359,0
2.0500000000000003,,,,,14.561347,-3.5857508,-0.0055917082,-0.10279511,0.039018255,-0.31041545,1.5130187,0.75240505,0.13681781,0.13308251,-0.63044196,-6.780895,9.780112,0.69311935,-0.94619477,-5.60743,5.369875,1
2.06,,,,,14.561347,-3.5857508,-0.0055917082,-0.10279511,-0.028761081,-0.21300584,1.5204664,0.7726709,0.119843885,0.11103825,-0.61342317,-6.7750683,9.70374,0.7966366,-0.63124895,-5.46046,5.166602,1
2.07,,,,,14.561347,-3.5857508,-0.0055917082,-0.10279511,-0.096487224,-0.11629952,1.5289565,0.7909762,0.10411021,0.0886744,-0.59636813,-6.770431,9.63935,0.9015324,-0.3909572,-5.311143,4.9708233,1
2.0799999999999996,,,,,14.561347,-3.5857508,-0.0055917082,-0.10279511,-0.16417725,-0.020179635,1.5384989,0.80748326,0.08942126,0.066273734,-0.5792951,-6.7679796,9.58636,1.006978,-0.21593893,-5.157529,4.7821636,1
2.0899999999999994,,,,,13.808459,-3.18597,0.2824047,-0.5625429,-0.23185693,0.07546473,1.5490949,0.82233626,0.07560119,0.044078775,-0.56223214,-6.76846,9.544146,1.1121143,-0.09705958,-4.999193,4.6001797,1
2.099999999999999,,,,,13.808459,-3.18597,0.2824047,-0.5625429,-0.29955843,0.17073792,1.5607378,0.8356209,0.06274314,0.022024252,-0.5452673,-6.7724323,9.512006,1.2162988,0.115917474,-4.8705907,4.4090505,1
2.109999999999999,,,,,13.808459,-3.18597,0.2824047,-0.5625429,-0.36731952,0.26573688,1.5734161,0.8474197,0.05091675,5.7133846e-05,-0.5284769,-6.7804613,9.489189,1.3190557,0.26909366,-4.735636,4.2249207,1
2.1199999999999988,,,,,13.808459,-3.18597,0.2824047,-0.5625429,-0.43518305,0.36055124,1.5871118,0.85785306,0.03994043,-0.021614477,-0.5118848,-6.792971,9.47497,1.4197105,0.370746,-4.594229,4.047354,1
2.1299999999999986,,,,,12.852366,-3.5967963,0.51234406,0.190425,-0.50319517,0.45526335,1.601801,0.86703247,0.029653333,-0.0428135,-0.4955226,-6.8101997,9.468625,1.5176693,0.42802152,-4.4464493,3.8759487,1
2.1399999999999983,,,,,12.852366,-3.5967963,0.51234406,0.190425,-0.5713954,0.54994845,1.6173807,0.8751243,0.019757777,-0.063042924,-0.47936732,-6.8305135,9.469384,1.5977007,0.3280432,-4.2020845,3.742383,1
2.149999999999998,,,,,12.852366,-3.5967963,0.51234406,0.190425,-0.63981944,0.64467144,1.6337417,0.8822915,0.009990635,-0.08189077,-0.46341792,-6.8549123,9.476104,1.6738861,0.21062711,-3.9627588,3.6124136,1
2.159999999999998,,,,,12.852366,-3.5967963,0.51234406,0.190425,-0.7085064,0.73948884,1.6508446,0.88862896,0.0002669515,-0.099338576,-0.4477395,-6.8830175,9.488162,1.7460183,0.07868739,-3.7278748,3.4858809,1
2.1699999999999977,,,,,12.911195,-4.5886025,0.89271754,1.3772031,-0.77749115,0.83445114,1.6686479,0.8942232,-0.009487484,-0.11537803,-0.4323922,-6.91442,9.505006,1.8139621,-0.06527895,-3.496968,3.362638,1
2.1799999999999975,,,,,12.911195,-4.5886025,0.89271754,1.3772031,-0.8467941,0.92959744,1.6870594,0.89925146,-0.01978001,-0.12931843,-0.41741186,-6.9464946,9.524827,1.8675345,-0.4890138,-3.0960069,3.2905173,1
2.1899999999999973,,,,,12.911195,-4.5886025,0.89271754,1.3772031,-0.91642666,1.0249598,1.7059814,0.90387446,-0.031049669,-0.14058529,-0.4028437,-6.9802,9.548165,1.9161079,-0.88819516,-2.7158747,3.2182148,1
2.199999999999997,,,,,12.911195,-4.5886025,0.89271754,1.3772031,-0.986401,1.1205719,1.7253652,0.9081317,-0.043260463,-0.14934301,-0.38874468,-7.0147386,9.57472,1.9599333,-1.2649816,-2.3550076,3.1458893,1
2.209999999999997,,,,,10.915921,-4.8760943,2.4707315,0.5387587,-1.0567219,1.2164645,1.7451645,0.9120436,-0.056378394,-0.1557427,-0.37515682,-7.049413,9.6042595,1.9992589,-1.6213093,-2.0119705,3.0736818,1
2.2199999999999966,,,,,10.915921,-4.8760943,2.4707315,0.5387587,-1.1273915,1.3126702,1.7653505,0.915632,-0.06989904,-0.16009924,-0.3620783,-7.0844088,9.637315,2.037337,-1.7624478,-1.680283,2.982143,1
2.2299999999999964,,,,,10.915921,-4.8760943,2.4707315,0.5387587,-1.1984074,1.40922,1.7858986,0.91892207,-0.083408274,-0.16269137,-0.3495097,-7.1186333,9.673033,2.0716782,-1.9133633,-1.3684598,2.892247,1
2.239999999999996,,,,,10.915921,-4.8760943,2.4707315,0.5387587,-1.2697603,1.5061392,1.8067718,0.921918,-0.09699791,-0.16360195,-0.3374806,-7.1517406,9.711144,2.1024349,-2.0717692,-1.0741683,2.803982,1
2.249999999999996,,,,,9.695386,-4.7155905,3.5153983,0.30358845,-1.3414373,1.6034505,1.8279353,0.9246148,-0.110744,-0.1629082,-0.32601273,-7.183406,9.75144,2.129747,-2.235765,-0.79540986,2.7173345,1
2.259999999999996,,,,,9.695386,-4.7155905,3.5153983,0.30358845,-1.4134195,1.7011706,1.8493427,0.9270632,-0.1243611,-0.16063294,-0.31509557,-7.2127256,9.792875,2.1512544,-2.2797954,-0.46639672,2.6296015,1
2.2699999999999956,,,,,9.695386,-4.7155905,3.5153983,0.30358845,-1.4856853,1.7993139,1.8709499,0.9293086,-0.13762425,-0.15680705,-0.30472404,-7.2401156,9.836047,2.1697092,-2.3445637,-0.16104384,2.543699,1
2.2799999999999954,,,,,9.695386,-4.7155905,3.5153983,0.30358845,-1.5582145,1.8978966,1.8927269,0.9313255,-0.15067157,-0.15151064,-0.29491603,-7.2653546,9.88073,2.1852314,-2.4262695,0.12377125,2.4595885,1
