time-since-start [s],throttle_mpc,roll_mpc,pitch_mpc,yaw_mpc,throttle_nw,roll_nw,pitch_nw,yaw_nw,position_x [m],position_y [m],position_z [m],rotation_w [quaternion],rotation_x [quaternion],rotation_y [quaternion],rotation_z [quaternion],velocity_x [m/s],velocity_y [m/s],velocity_z [m/s],omega_x [rad/s],omega_y [rad/s],omega_z [rad/s],network_used
0.0,7.602003010219115,5.999998837176917,-5.999999894260827,-5.999992151519733,11.151897,2.4800906,-3.4193273,-2.6835563,17.289463,-10.5370035,1.2298865,-0.18645027,-0.3304781,0.16749221,0.90992683,-10.090953,-5.0731854,0.81848663,2.502667,-1.159908,-1.0448577,0
0.01,7.602003010219115,5.999998837176917,-5.999999894260827,-5.999992151519733,12.500193,2.9823422,-3.1150856,-2.919288,17.187996,-10.587579,1.238188,-0.17624573,-0.3281398,0.17789835,0.9108314,-10.201605,-5.0411916,0.8412451,2.4016232,-1.2686514,-1.2033175,0
0.02,7.602003010219115,5.999998837176917,-5.999999894260827,-5.999992151519733,12.500193,2.9823422,-3.1150856,-2.919288,17.08544,-10.637815,1.246699,-0.16535269,-0.32532966,0.18767473,0.91191953,-10.308859,-5.005654,0.8603813,2.3167937,-1.3608842,-1.3578528,0
0.03,7.602003010219115,5.999998837176917,-5.999999894260827,-5.999992151519733,12.500193,2.9823422,-3.1150856,-2.919288,16.981829,-10.68768,1.255384,-0.15377328,-0.3221367,0.19687583,0.9131384,-10.412563,-4.966851,0.87609476,2.2455688,-1.4391009,-1.5085608,0
0.04,7.602003010219115,5.999998837176917,-5.999999894260827,-5.999992151519733,13.61566,5.1468835,-3.350713,-3.3199985,16.8772,-10.737143,1.2642097,-0.14151265,-0.31863493,0.20554808,0.9144376,-10.512603,-4.925048,0.8885608,2.1857605,-1.5054212,-1.6555363,0
0.05,7.602003010219115,5.999998837176917,-5.999999894260827,-5.999992151519733,13.61566,5.1468835,-3.350713,-3.3199985,16.771587,-10.786172,1.2731445,-0.1285785,-0.31488582,0.21373118,0.9157694,-10.6088915,-4.880494,0.89793426,2.135534,-1.5616456,-1.7988716,0
0.060000000000000005,7.602003010219115,5.999998837176917,-5.999999894260827,-5.999992151519733,13.61566,5.1468835,-3.350713,-3.3199985,16.665031,-10.834743,1.2821583,-0.11498061,-0.31094036,0.22145908,0.9170886,-10.701368,-4.8334284,0.90435326,2.0933504,-1.6093038,-1.9386569,0
0.07,7.602003010219115,5.999998837176917,-5.999999894260827,-5.999992151519733,13.61566,5.1468835,-3.350713,-3.3199985,16.557571,-10.882833,1.2912219,-0.10073053,-0.30684045,0.2287607,0.9183523,-10.789994,-4.7840805,0.90794235,2.0579183,-1.6496946,-2.0749805,0
0.08,9.181153582672387,5.999999634784791,-5.999999926114265,-5.508029588049061,13.098854,6.742235,-4.2440987,-3.4870777,16.449244,-10.930418,1.3003078,-0.08584133,-0.30262077,0.23566087,0.9195194,-10.874744,-4.7326703,0.9088146,2.0281544,-1.683921,-2.2079275,0
0.09,9.181153582672387,5.999999634784791,-5.999999926114265,-5.508029588049061,13.098854,6.742235,-4.2440987,-3.4870777,16.34007,-10.977469,1.3094089,-0.07020339,-0.29805395,0.24248321,0.9205636,-10.958986,-4.677154,0.91111404,2.1210527,-1.8311436,-2.3228118,0
0.09999999999999999,9.181153582672387,5.999999634784791,-5.999999926114265,-5.508029588049061,13.098854,6.742235,-4.2440987,-3.4870777,16.230074,-11.023953,1.3185238,-0.05369518,-0.29287735,0.24956091,0.92144406,-11.039714,-4.619297,0.9115843,2.2244763,-1.9804661,-2.4342964,0
0.10999999999999999,9.181153582672387,5.999999634784791,-5.999999926114265,-5.508029588049061,13.098854,6.742235,-4.2440987,-3.4870777,16.119287,-11.069847,1.3276345,-0.036315534,-0.28706613,0.2569231,0.92209804,-11.116706,-4.5591173,0.9102523,2.3367984,-2.1315744,-2.5425491,0
0.11999999999999998,9.181153582672387,5.999999634784791,-5.999999926114265,-5.508029588049061,13.098854,6.742235,-4.2440987,-3.4870777,16.007753,-11.115128,1.3367229,-0.018067366,-0.28059453,0.26458934,0.9224602,-11.189741,-4.4966483,0.9071385,2.4565964,-2.2841527,-2.647726,0
0.12999999999999998,12.327252469087412,5.999999843165679,-5.999999954843559,-4.480779824398233,14.7034855,6.343505,-3.326179,-2.5506175,15.895509,-11.159773,1.3457712,0.0010423381,-0.27343652,0.27257022,0.92246246,-11.258595,-4.431941,0.90225774,2.5826244,-2.4378903,-2.7499702,0
0.13999999999999999,12.327252469087412,5.999999843165679,-5.999999954843559,-4.480779824398233,14.7034855,6.343505,-3.326179,-2.5506175,15.782573,-11.203735,1.3547963,0.021248965,-0.2650023,0.2814161,0.92202353,-11.327739,-4.3601274,0.9023282,2.94179,-2.8212175,-2.8194091,0
0.15,12.327252469087412,5.999999843165679,-5.999999954843559,-4.480779824398233,14.7034855,6.343505,-3.326179,-2.5506175,15.668974,-11.24697,1.3638086,0.042749427,-0.25475046,0.29157066,0.92101103,-11.391121,-4.286424,0.8997442,3.2827377,-3.18255,-2.88882,0
0.16,16.138140523150405,5.9999999016226715,-5.999999963017922,-3.4082868878164936,15.98617,6.243242,-4.200244,-1.762932,15.554771,-11.289457,1.3727822,0.065472595,-0.24272579,0.30287907,0.9192724,-11.448319,-4.210735,0.89456743,3.606788,-3.5237978,-2.9580677,0
0.17,16.138140523150405,5.9999999016226715,-5.999999963017922,-3.4082868878164936,15.98617,6.243242,-4.200244,-1.762932,15.439967,-11.331084,1.3818009,0.08933303,-0.22875577,0.31536695,0.91664284,-11.511378,-4.1139054,0.9090989,3.9792075,-3.9107347,-2.9801598,0
0.18000000000000002,16.138140523150405,5.9999999016226715,-5.999999963017922,-3.4082868878164936,15.98617,6.243242,-4.200244,-1.762932,15.324569,-11.371719,1.3909627,0.11415539,-0.2128084,0.32892725,0.91295564,-11.567038,-4.0121703,0.9232005,4.2936583,-4.237223,-3.0011683,0
0.19000000000000003,16.138140523150405,5.9999999016226715,-5.999999963017922,-3.4082868878164936,15.98617,6.243242,-4.200244,-1.762932,15.208655,-11.411311,1.4002627,0.13974297,-0.19511889,0.34324282,0.9080666,-11.614361,-3.9056416,0.9366725,4.559165,-4.5127053,-3.0211456,0
0.20000000000000004,19.666463171364395,5.999996698228756,-5.999999633918249,-2.328373532966412,16.479563,5.67346,-3.2573571,-1.6650683,15.092313,-11.449816,1.4096932,0.1659162,-0.1758979,0.35804108,0.9018527,-11.652495,-3.7946134,0.949269,4.783347,-4.745148,-3.0401428,0
0.21000000000000005,19.666463171364395,5.999996698228756,-5.999999633918249,-2.328373532966412,16.479563,5.67346,-3.2573571,-1.6650683,14.975606,-11.487064,1.4193642,0.19239031,-0.15528795,0.3731112,0.8942369,-11.686844,-3.6543825,0.9846539,4.9728074,-4.941104,-3.0052161,0
0.22000000000000006,19.666463171364395,5.999996698228756,-5.999999633918249,-2.328373532966412,16.479563,5.67346,-3.2573571,-1.6650683,14.858621,-11.522889,1.4293803,0.2189038,-0.1334162,0.3882721,0.88517004,-11.708268,-3.5099468,1.0182393,5.1327844,-5.1064405,-2.9720032,0
0.23000000000000007,19.666463171364395,5.999996698228756,-5.999999633918249,-2.328373532966412,16.479563,5.67346,-3.2573571,-1.6650683,14.741488,-11.557252,1.4397215,0.24533212,-0.11044406,0.40334594,0.8746007,-11.716098,-3.3621714,1.0496072,5.2678633,-5.245943,-2.9404202,0
0.24000000000000007,19.666463171364395,5.999996698228756,-5.999999633918249,-2.328373532966412,16.294893,4.9234905,-1.6156626,-1.8421166,14.624348,-11.590125,1.4503634,0.27156115,-0.08652056,0.41817927,0.8624934,-11.709804,-3.2120392,1.0783172,5.3819184,-5.363651,-2.9103866,0
0.25000000000000006,19.666463171364395,5.999996698228756,-5.999999633918249,-2.328373532966412,16.294893,4.9234905,-1.6156626,-1.8421166,14.507341,-11.62149,1.4612771,0.2974863,-0.061783895,0.43263945,0.8488273,-11.689,-3.0606294,1.1039165,5.4782205,-5.4629693,-2.881827,0
0.26000000000000006,19.666463171364395,5.999996698228756,-5.999999633918249,-2.328373532966412,16.294893,4.9234905,-1.6156626,-1.8421166,14.390618,-11.651339,1.4724294,0.32301146,-0.036362726,0.44661194,0.8335941,-11.653451,-2.9090934,1.1259487,5.559532,-5.546773,-2.854669,0
0.2700000000000001,19.666463171364395,5.999996698228756,-5.999999633918249,-2.328373532966412,16.294893,4.9234905,-1.6156626,-1.8421166,14.274323,-11.679677,1.4837823,0.3480483,-0.010377265,0.45999765,0.81679666,-11.603068,-2.7586362,1.1439623,5.6281853,-5.617486,-2.8288436,0
0.2800000000000001,18.984443318836448,4.3505344824785395,-4.411139968734731,-0.6374380167899522,15.586166,4.563035,-0.15521102,-2.5354843,14.1586075,-11.70652,1.4952934,0.3725155,0.016059823,0.47271088,0.79844767,-11.537912,-2.6104968,1.1575183,5.6861496,-5.6771545,-2.8042855,0
0.2900000000000001,18.984443318836448,4.3505344824785395,-4.411139968734731,-0.6374380167899522,15.586166,4.563035,-0.15521102,-2.5354843,14.043603,-11.731924,1.5068973,0.39589524,0.04218768,0.48440614,0.7789979,-11.461023,-2.4709222,1.162521,5.4786034,-5.4789605,-2.6979578,0
0.3000000000000001,18.984443318836448,4.3505344824785395,-4.411139968734731,-0.6374380167899522,15.586166,4.563035,-0.15521102,-2.5354843,13.929435,-11.755955,1.518527,0.41780308,0.067408375,0.49487972,0.75894046,-11.37092,-2.335804,1.1626499,5.3033257,-5.311776,-2.5968473,0
0.3100000000000001,18.984443318836448,4.3505344824785395,-4.411139968734731,-0.6374380167899522,15.586166,4.563035,-0.15521102,-2.5354843,13.816228,-11.77866,1.5301331,0.43835118,0.09184683,0.5042474,0.73834056,-11.2685175,-2.2060215,1.1578002,5.1553006,-5.170748,-2.5006988,0
0.3200000000000001,17.994932565598248,2.612853429334355,-2.048777922278135,-0.115475549360623,16.083492,3.2628171,1.5953741,-2.2286973,13.704103,-11.8000965,1.5416657,0.4576354,0.11560786,0.5126016,0.7172476,-11.154698,-2.082356,1.1478928,5.0302925,-5.0517845,-2.409268,0
0.3300000000000001,17.994932565598248,2.612853429334355,-2.048777922278135,-0.115475549360623,16.083492,3.2628171,1.5953741,-2.2286973,13.593139,-11.820361,1.5530517,0.47530243,0.13782117,0.51996773,0.69622296,-11.036868,-1.971536,1.1285639,4.6543674,-4.582534,-2.296711,0
0.34000000000000014,17.994932565598248,2.612853429334355,-2.048777922278135,-0.115475549360623,16.083492,3.2628171,1.5953741,-2.2286973,13.4833975,-11.83955,1.5642207,0.49113184,0.15783006,0.5264525,0.6758157,-10.910313,-1.867288,1.1045433,4.3368797,-4.1866164,-2.1896772,0
0.35000000000000014,17.994932565598248,2.612853429334355,-2.048777922278135,-0.115475549360623,16.083492,3.2628171,1.5953741,-2.2286973,13.374959,-11.857729,1.575127,0.5053738,0.17600322,0.5322174,0.65602195,-10.776202,-1.7695843,1.0760236,4.068752,-3.8525681,-2.0878954,0
0.36000000000000015,17.125705859417256,0.40637029158887455,0.5720553245713116,1.1591759809670938,17.789587,1.7206165,4.0183606,-2.1362576,13.267896,-11.874964,1.5857264,0.51823646,0.1926516,0.53738385,0.6368162,-10.635523,-1.6783521,1.0431932,3.8423145,-3.5707169,-1.9911082,0
0.37000000000000016,17.125705859417256,0.40637029158887455,0.5720553245713116,1.1591759809670938,17.789587,1.7206165,4.0183606,-2.1362576,13.162243,-11.891333,1.5959662,0.5294694,0.20700753,0.54193854,0.618961,-10.494484,-1.5964913,1.0040597,3.2853775,-2.9458117,-1.8385314,0
0.38000000000000017,17.125705859417256,0.40637029158887455,0.5720553245713116,1.1591759809670938,17.789587,1.7206165,4.0183606,-2.1362576,13.058015,-11.906916,1.605793,0.5388576,0.21850947,0.5460312,0.6031054,-10.3507395,-1.5209763,0.96075255,2.836085,-2.3975916,-1.6915455,0
0.3900000000000002,17.125705859417256,0.40637029158887455,0.5720553245713116,1.1591759809670938,17.789587,1.7206165,4.0183606,-2.1362576,12.95524,-11.921767,1.6151708,0.5466569,0.22767602,0.54985416,0.5890588,-10.203655,-1.4501237,0.9143454,2.4578614,-1.9338341,-1.5516598,0
0.4000000000000002,17.643669408834427,-2.292670751013629,3.449308693953202,1.4068743916947606,18.85379,0.23722099,5.3438005,-1.4181813,12.8539505,-11.935931,1.6240706,0.55310935,0.2349396,0.5534924,0.576645,-10.053836,-1.3831745,0.8652228,2.1384633,-1.5425321,-1.4186382,0
0.4100000000000002,17.643669408834427,-2.292670751013629,3.449308693953202,1.4068743916947606,18.85379,0.23722099,5.3438005,-1.4181813,12.754193,-11.949432,1.6324741,0.5580168,0.23941875,0.5570205,0.56658983,-9.897288,-1.3174726,0.8151286,1.4482228,-0.7632854,-1.2799895,0
0.4200000000000002,17.643669408834427,-2.292670751013629,3.449308693953202,1.4068743916947606,18.85379,0.23722099,5.3438005,-1.4181813,12.656009,-11.962288,1.6403667,0.56124115,0.24044397,0.56052214,0.5594729,-9.739336,-1.2537916,0.7631278,0.86539257,-0.10577078,-1.1481444,0
0.4300000000000002,17.643669408834427,-2.292670751013629,3.449308693953202,1.4068743916947606,18.85379,0.23722099,5.3438005,-1.4181813,12.559409,-11.974511,1.647732,0.56302404,0.23861891,0.5640339,0.55491495,-9.580699,-1.1908371,0.7097565,0.37327456,0.44904268,-1.022769,0
0.4400000000000002,17.643669408834427,-2.292670751013629,3.449308693953202,1.4068743916947606,19.544498,-2.5785098,6.3073583,-0.29972112,12.464396,-11.986104,1.6545587,0.56354785,0.23443885,0.56755865,0.55256605,-9.421954,-1.127494,0.6554477,-0.04223574,0.9172078,-0.9035457,0
0.45000000000000023,17.643669408834427,-2.292670751013629,3.449308693953202,1.4068743916947606,19.544498,-2.5785098,6.3073583,-0.29972112,12.37097,-11.997058,1.660839,0.5629525,0.22831146,0.5710796,0.5521107,-9.263589,-1.0628121,0.6005457,-0.39305288,1.3122663,-0.79017276,0
0.46000000000000024,17.643669408834427,-2.292670751013629,3.449308693953202,1.4068743916947606,19.544498,-2.5785098,6.3073583,-0.29972112,12.279122,-12.007354,1.6665685,0.5613474,0.22057354,0.5745698,0.5532681,-9.106028,-0.9959902,0.5453201,-0.68924016,1.6456423,-0.68236303,0
0.47000000000000025,17.643669408834427,-2.292670751013629,3.449308693953202,1.4068743916947606,19.544498,-2.5785098,6.3073583,-0.29972112,12.188845,-12.016968,1.6717451,0.55882,0.21150427,0.57799834,0.5557911,-8.949656,-0.92636055,0.48997825,-0.93929696,1.9269722,-0.5798435,0
0.48000000000000026,20.523346332278106,-4.637999507841216,5.279109852028979,1.663917026118564,20.824894,-4.113614,5.066927,0.28705543,12.100123,-12.025869,1.6763682,0.5554415,0.2013359,0.5813336,0.55946356,-8.794834,-0.8533725,0.43467614,-1.150402,2.1643872,-0.4823547,0
0.49000000000000027,20.523346332278106,-4.637999507841216,5.279109852028979,1.663917026118564,20.824894,-4.113614,5.066927,0.28705543,12.013065,-12.03396,1.6804743,0.55100703,0.18934783,0.584413,0.56480056,-8.617004,-0.763964,0.3865845,-1.6943182,2.650183,-0.3770365,0
0.5000000000000002,20.523346332278106,-4.637999507841216,5.279109852028979,1.663917026118564,20.824894,-4.113614,5.066927,0.28705543,11.927772,-12.04113,1.684102,0.5453127,0.17497183,0.58706635,0.5721638,-8.4422035,-0.6691022,0.33911043,-2.1534815,3.0601366,-0.2768863,0
0.5100000000000002,20.523346332278106,-4.637999507841216,5.279109852028979,1.663917026118564,20.824894,-4.113614,5.066927,0.28705543,11.844209,-12.04732,1.68726,0.53841066,0.15859064,0.5892478,0.5811621,-8.271305,-0.56789035,0.29263648,-2.5410883,3.4060977,-0.18165055,0
0.5200000000000002,20.999999070348775,-5.637248936617634,5.24741781801387,1.4871079965313176,21.979666,-5.302516,5.43114,0.4590068,11.76233,-12.052463,1.6899592,0.5303415,0.14052707,0.59091043,0.591451,-8.105172,-0.45965382,0.24744235,-2.8682833,3.6980631,-0.09108801,0
0.5300000000000002,20.999999070348775,-5.637248936617634,5.24741781801387,1.4871079965313176,21.979666,-5.302516,5.43114,0.4590068,11.682104,-12.056473,1.6922201,0.5212119,0.12083865,0.59176624,0.6029495,-7.940956,-0.34122437,0.20501535,-3.300286,3.9395442,-0.013645479,0
0.5400000000000003,20.999999070348775,-5.637248936617634,5.24741781801387,1.4871079965313176,21.979666,-5.302516,5.43114,0.4590068,11.603487,-12.059259,1.6940658,0.51109505,0.09958889,0.5915676,0.61555743,-7.783512,-0.21477082,0.16445729,-3.6649306,4.143335,0.059996903,0
0.5500000000000003,20.999999070348775,-5.637248936617634,5.24741781801387,1.4871079965313176,21.979666,-5.302516,5.43114,0.4590068,11.526406,-12.06074,1.6955166,0.4999802,0.07704157,0.59032845,0.6289642,-7.6338577,-0.08012846,0.12605625,-3.972716,4.315324,0.13002564,0
0.5600000000000003,20.999999452543445,-5.747110004876187,4.343834559442651,1.1957256145105641,21.94364,-6.0148916,5.7383513,-0.20777512,11.45078,-12.060833,1.6965951,0.48786396,0.05342451,0.5880614,0.6428979,-7.49299,0.06268178,0.08999789,-4.232504,4.460479,0.19661807,0
0.5700000000000003,20.999999452543445,-5.747110004876187,4.343834559442651,1.1957256145105641,21.94364,-6.0148916,5.7383513,-0.20777512,11.3765135,-12.059459,1.697325,0.4749899,0.029127873,0.5845805,0.6571158,-7.361857,0.2134471,0.056399997,-4.468846,4.442116,0.24564455,0
0.5800000000000003,20.999999452543445,-5.747110004876187,4.343834559442651,1.1957256145105641,21.94364,-6.0148916,5.7383513,-0.20777512,11.303506,-12.056538,1.6977321,0.46156868,0.0044810004,0.57975775,0.67142725,-7.2412677,0.37168404,0.025421718,-4.6683226,4.426615,0.2922653,0
0.5900000000000003,20.999999452543445,-5.747110004876187,4.343834559442651,1.1957256145105641,21.94364,-6.0148916,5.7383513,-0.20777512,11.231649,-12.052,1.697843,0.44756272,-0.020414516,0.57368463,0.68567926,-7.131947,0.53677213,-0.002818441,-4.8366838,4.413534,0.33659834,0
0.6000000000000003,20.99999943327079,-4.850671686347125,2.8171977601174976,0.8826157465098043,20.762901,-5.6295953,4.1211395,0.59499055,11.160826,-12.04578,1.6976852,0.4329472,-0.045469575,0.56644213,0.6997369,-7.0345616,0.708016,-0.028278299,-4.978783,4.402497,0.37875593,0
0.6100000000000003,20.99999943327079,-4.850671686347125,2.8171977601174976,0.8826157465098043,20.762901,-5.6295953,4.1211395,0.59499055,11.090915,-12.037821,1.6972868,0.4181052,-0.07004441,0.55810046,0.71330553,-6.949656,0.8846238,-0.050974816,-4.9588103,4.155195,0.4034805,0
0.6200000000000003,20.99999943327079,-4.850671686347125,2.8171977601174976,0.8826157465098043,20.762901,-5.6295953,4.1211395,0.59499055,11.02179,-12.028072,1.6966752,0.40337893,-0.09362924,0.5487698,0.7262023,-6.877364,1.0656035,-0.07093323,-4.941952,3.946464,0.42699182,0
0.6300000000000003,20.99999943327079,-4.850671686347125,2.8171977601174976,0.8826157465098043,20.762901,-5.6295953,4.1211395,0.59499055,10.953325,-12.016497,1.6958776,0.38869807,-0.1163291,0.53856677,0.7384621,-6.8176675,1.2499614,-0.08819516,-4.9277234,3.7702878,0.44934943,0
0.6400000000000003,20.99999943327079,-4.850671686347125,2.8171977601174976,0.8826157465098043,20.223526,-5.282318,3.0895965,0.6646869,10.885395,-12.003064,1.6949204,0.3740045,-0.13823423,0.52758795,0.75010794,-6.7705235,1.4367707,-0.1028288,-4.9157143,3.6215894,0.47060993,1
0.6500000000000004,20.99999943327079,-4.850671686347125,2.8171977601174976,0.8826157465098043,20.223526,-5.282318,3.0895965,0.6646869,10.817866,-11.987791,1.6938139,0.35918754,-0.1595811,0.5158179,0.7612155,-6.7371716,1.6181943,-0.11810197,-4.9728823,3.538577,0.48013338,1
0.6600000000000004,20.99999943327079,-4.850671686347125,2.8171977601174976,0.8826157465098043,20.223526,-5.282318,3.0895965,0.6646869,10.750609,-11.970698,1.6925665,0.34415394,-0.18055852,0.50323457,0.77182287,-6.71591,1.8003418,-0.13101219,-5.021137,3.4685142,0.48918948,1
0.6700000000000004,20.99999943327079,-4.850671686347125,2.8171977601174976,0.8826157465098043,20.223526,-5.282318,3.0895965,0.6646869,10.683505,-11.951784,1.6912014,0.32888612,-0.20117241,0.4899054,0.781892,-6.706778,1.9824331,-0.14166778,-5.061869,3.409381,0.49780118,1
0.6800000000000004,20.99999766453622,-3.4335779384153633,1.1608044904938575,0.5186564975570994,18.581337,-4.6497703,1.8143673,0.28111672,10.616431,-11.931053,1.6897404,0.31337294,-0.22142631,0.47588947,0.7913885,-6.709773,2.1636992,-0.15020913,-5.09625,3.3594723,0.50599027,0
0.6900000000000004,20.99999766453622,-3.4335779384153633,1.1608044904938575,0.5186564975570994,18.581337,-4.6497703,1.8143673,0.28111672,10.549266,-11.908483,1.6882215,0.29816166,-0.24049392,0.46159467,0.8001197,-6.7253304,2.3502898,-0.15328532,-4.8368454,3.0166745,0.50661176,0
0.7000000000000004,20.99999766453622,-3.4335779384153633,1.1608044904938575,0.5186564975570994,18.581337,-4.6497703,1.8143673,0.28111672,10.481885,-11.884056,1.6866813,0.2837175,-0.2577456,0.4474048,0.8080219,-6.7525897,2.5345602,-0.15447989,-4.6179123,2.727323,0.5072028,0
0.7100000000000004,20.99999766453622,-3.4335779384153633,1.1608044904938575,0.5186564975570994,18.581337,-4.6497703,1.8143673,0.28111672,10.414176,-11.857801,1.685138,0.26991946,-0.27344757,0.4333253,0.8152288,-6.790685,2.7159514,-0.15390673,-4.433136,2.483085,0.5077648,0
0.7200000000000004,19.901017324202023,-1.4549126078285082,-0.6612327394273018,0.11551998296844994,17.02557,-3.4517925,0.44529098,-0.30280745,10.346035,-11.829749,1.6836089,0.25666195,-0.28782466,0.41935226,0.821842,-6.8388553,2.8940027,-0.15166312,-4.2771883,2.2769263,0.5082993,0
0.7300000000000004,19.901017324202023,-1.4549126078285082,-0.6612327394273018,0.11551998296844994,17.02557,-3.4517925,0.44529098,-0.30280745,10.27738,-11.79998,1.6820835,0.24443263,-0.30029118,0.40593678,0.8278238,-6.893323,3.0592299,-0.15316258,-3.836881,1.8189161,0.48902547,0
0.7400000000000004,19.901017324202023,-1.4549126078285082,-0.6612327394273018,0.11551998296844994,17.02557,-3.4517925,0.44529098,-0.30280745,10.208142,-11.768578,1.6805505,0.23363169,-0.31041852,0.39346632,0.8332106,-6.9554505,3.2208397,-0.15316904,-3.465274,1.4322982,0.4706975,0
0.7500000000000004,19.901017324202023,-1.4549126078285082,-0.6612327394273018,0.11551998296844994,17.02557,-3.4517925,0.44529098,-0.30280745,10.138249,-11.735577,1.679025,0.22405143,-0.31858814,0.3818342,0.8381552,-7.024084,3.3788517,-0.15165621,-3.1516464,1.1059455,0.45326886,0
0.7600000000000005,18.91418671169313,0.7607228033142579,-2.1360238170837222,-0.2590574964186977,16.537384,-2.0780754,-0.71642214,-1.0895871,10.067641,-11.701013,1.6775225,0.21551116,-0.32511765,0.37093782,0.8427678,-7.098255,3.533332,-0.14858177,-2.8869512,0.83046436,0.43669543,0
0.7700000000000005,18.91418671169313,0.7607228033142579,-2.1360238170837222,-0.2590574964186977,16.537384,-2.0780754,-0.71642214,-1.0895871,9.996287,-11.664959,1.6760334,0.20840277,-0.32960457,0.3612928,0.8469921,-7.1731596,3.6769247,-0.14899382,-2.3179584,0.36805627,0.40255463,0
0.7800000000000005,18.91418671169313,0.7607228033142579,-2.1360238170837222,-0.2590574964186977,16.537384,-2.0780754,-0.71642214,-1.0895871,9.924168,-11.627484,1.674548,0.20303634,-0.33175647,0.3533129,0.85081303,-7.251312,3.817677,-0.14782469,-1.8377372,-0.022288218,0.37008917,0
0.7900000000000005,18.91418671169313,0.7607228033142579,-2.1360238170837222,-0.2590574964186977,16.537384,-2.0780754,-0.71642214,-1.0895871,9.851254,-11.588615,1.6730826,0.19915366,-0.331958,0.34676272,0.8543396,-7.3315916,3.9560447,-0.1450124,-1.4324362,-0.3517971,0.33921677,0
0.8000000000000005,17.98436914253607,2.2862499198642747,-3.1784283627708168,-0.6046463231388509,15.604675,-0.590855,-2.058528,-1.2294477,9.777532,-11.548371,1.6716536,0.19653255,-0.3305259,0.34143257,0.85764223,-7.413069,4.0924435,-0.1404921,-1.0903646,-0.62994957,0.3098593,0
0.8100000000000005,17.98436914253607,2.2862499198642747,-3.1784283627708168,-0.6046463231388509,15.604675,-0.590855,-2.058528,-1.2294477,9.703013,-11.506806,1.6702532,0.1953628,-0.32725883,0.3375667,0.86068726,-7.490889,4.220644,-0.13933475,-0.56373286,-1.0272597,0.26498422,0
0.8200000000000005,17.98436914253607,2.2862499198642747,-3.1784283627708168,-0.6046463231388509,15.604675,-0.590855,-2.058528,-1.2294477,9.627718,-11.4639635,1.668873,0.19578403,-0.32200694,0.33534393,0.863437,-7.5680995,4.347853,-0.13644114,-0.11925914,-1.3626525,0.22231123,0
0.8300000000000005,17.98436914253607,2.2862499198642747,-3.1784283627708168,-0.6046463231388509,15.604675,-0.590855,-2.058528,-1.2294477,9.551658,-11.419852,1.6675305,0.19755135,-0.31507674,0.3345006,0.86591476,-7.6437893,4.474552,-0.13177122,0.2558764,-1.6457735,0.18173218,0
0.8400000000000005,17.98436914253607,2.2862499198642747,-3.1784283627708168,-0.6046463231388509,15.774204,0.5340719,-3.2516336,-1.5081148,9.474851,-11.374475,1.6662437,0.20045567,-0.30672202,0.33480802,0.8681254,-7.7171817,4.601133,-0.12530695,0.57249314,-1.8847667,0.14314434,0
0.8500000000000005,17.98436914253607,2.2862499198642747,-3.1784283627708168,-0.6046463231388509,15.774204,0.5340719,-3.2516336,-1.5081148,9.397325,-11.32783,1.6650305,0.20431878,-0.29715422,0.3360688,0.8700632,-7.7876086,4.727907,-0.117053986,0.83972186,-2.0865073,0.106450014,0
0.8600000000000005,17.98436914253607,2.2862499198642747,-3.1784283627708168,-0.6046463231388509,15.774204,0.5340719,-3.2516336,-1.5081148,9.319111,-11.279915,1.6639086,0.20898904,-0.28655052,0.33811367,0.87171704,-7.854494,4.8551087,-0.10704169,1.0652677,-2.2568,0.07155632,0
0.8700000000000006,17.98436914253607,2.2862499198642747,-3.1784283627708168,-0.6046463231388509,15.774204,0.5340719,-3.2516336,-1.5081148,9.240249,-11.230725,1.6628954,0.21433744,-0.2750603,0.34079775,0.87307346,-7.9173355,4.9829073,-0.0953217,1.2556342,-2.4005456,0.03837484,0
0.8800000000000006,18.05724653065475,3.1321310769630744,-3.4954337991958946,-0.9416355278383908,18.249014,0.36199138,-3.8077881,-1.5249176,9.160779,-11.180254,1.6620076,0.22025418,-0.26281002,0.34399763,0.87411886,-7.9756966,5.1114116,-0.081966095,1.4163095,-2.5218809,0.006821604,0
0.8900000000000006,18.05724653065475,3.1321310769630744,-3.4954337991958946,-0.9416355278383908,18.249014,0.36199138,-3.8077881,-1.5249176,9.0807495,-11.12849,1.6612635,0.22681291,-0.24973474,0.34786424,0.87474453,-8.029389,5.241219,-0.066614494,1.6838107,-2.6737552,-0.039719455,0
0.9000000000000006,18.05724653065475,3.1321310769630744,-3.4954337991958946,-0.9416355278383908,18.249014,0.36199138,-3.8077881,-1.5249176,9.00021,-11.075426,1.66068,0.23406418,-0.23578627,0.35250527,0.87484735,-8.077687,5.3719215,-0.049875967,1.9095913,-2.8019562,-0.083976746,0
0.9100000000000006,18.05724653065475,3.1321310769630744,-3.4954337991958946,-0.9416355278383908,18.249014,0.36199138,-3.8077881,-1.5249176,8.919216,-11.0210495,1.6602702,0.24188998,-0.22108743,0.35776466,0.8744216,-8.120116,5.503596,-0.031937953,2.1001601,-2.9101713,-0.1260623,0
0.9200000000000006,17.938877272311036,3.3068550675218513,-3.290670453028679,-1.1553880689031932,18.267693,-0.089263104,-3.5624166,-1.5599662,8.83783,-10.965351,1.6600448,0.25018945,-0.20574377,0.36350954,0.8734613,-8.156267,5.636255,-0.0130007025,2.2610097,-3.0015147,-0.16608274,0
0.9300000000000006,17.938877272311036,3.3068550675218513,-3.290670453028679,-1.1553880689031932,18.267693,-0.089263104,-3.5624166,-1.5599662,8.756115,-10.908327,1.6600089,0.25888333,-0.18991001,0.3697035,0.8719129,-8.185594,5.768983,0.005945656,2.4240074,-3.0467024,-0.21462825,0
0.9400000000000006,17.938877272311036,3.3068550675218513,-3.290670453028679,-1.1553880689031932,18.267693,-0.089263104,-3.5624166,-1.5599662,8.674142,-10.84997,1.6601653,0.2679047,-0.17371655,0.37631196,0.86973447,-8.208045,5.902593,0.025407076,2.5615888,-3.0848453,-0.2607916,0
0.9500000000000006,17.938877272311036,3.3068550675218513,-3.290670453028679,-1.1553880689031932,18.267693,-0.089263104,-3.5624166,-1.5599662,8.591979,-10.790274,1.6605178,0.27718997,-0.15721576,0.38323292,0.8669375,-8.223378,6.036994,0.04511053,2.677718,-3.1170397,-0.3046897,0
0.9600000000000006,18.248241933798486,2.918007975382481,-2.495851937939847,-1.3252107728897862,17.055723,-1.133885,-2.2787743,-1.2348837,8.5097,-10.729229,1.6610674,0.28668413,-0.14045405,0.3903797,0.8635321,-8.231394,6.1720514,0.06478679,2.7757404,-3.1442122,-0.34643373,0
0.9700000000000006,18.248241933798486,2.918007975382481,-2.495851937939847,-1.3252107728897862,17.055723,-1.133885,-2.2787743,-1.2348837,8.427378,-10.66682,1.6618226,0.29621303,-0.12380085,0.39763573,0.85954416,-8.231965,6.3099403,0.08619283,2.7978542,-3.0431933,-0.39446262,0
0.9800000000000006,18.248241933798486,2.918007975382481,-2.495851937939847,-1.3252107728897862,17.055723,-1.133885,-2.2787743,-1.2348837,8.345087,-10.603029,1.6627891,0.30564347,-0.10755667,0.4049162,0.85501784,-8.225011,6.448163,0.10701092,2.816526,-2.9579244,-0.4401347,0
0.9900000000000007,18.248241933798486,2.918007975382481,-2.495851937939847,-1.3252107728897862,17.055723,-1.133885,-2.2787743,-1.2348837,8.262903,-10.537856,1.6639596,0.3149859,-0.09166639,0.412195,0.84998554,-8.210644,6.5865498,0.1269709,2.8322906,-2.885949,-0.48356566,0
1.0000000000000007,17.381492238015916,1.8983708021707952,-1.7013147494657004,-1.328688215642517,16.136173,-2.5008442,-1.7282505,-0.7835151,8.1809,-10.471298,1.6653246,0.324248,-0.07608398,0.41944927,0.8444736,-8.188972,6.724923,0.1458268,2.8456013,-2.8251944,-0.5248654,0
1.0100000000000007,17.381492238015916,1.8983708021707952,-1.7013147494657004,-1.328688215642517,16.136173,-2.5008442,-1.7282505,-0.7835151,8.099141,-10.403391,1.6668441,0.33327448,-0.061173245,0.42642212,0.83865905,-8.16151,6.856535,0.15787292,2.6978729,-2.6499453,-0.56430924,0
1.0200000000000007,17.381492238015916,1.8983708021707952,-1.7013147494657004,-1.328688215642517,16.136173,-2.5008442,-1.7282505,-0.7835151,8.017691,-10.334169,1.6684773,0.3419549,-0.047224443,0.4329255,0.8327131,-8.127578,6.987777,0.16854936,2.573184,-2.502024,-0.6018175,0
1.0300000000000007,17.381492238015916,1.8983708021707952,-1.7013147494657004,-1.328688215642517,16.136173,-2.5008442,-1.7282505,-0.7835151,7.93661,-10.263638,1.6702101,0.35035244,-0.034101725,0.43903145,0.8266442,-8.087556,7.1184907,0.17778412,2.4679406,-2.3771698,-0.63748527,0
1.0400000000000007,17.381492238015916,1.8983708021707952,-1.7013147494657004,-1.328688215642517,15.368645,-4.0235386,-1.4794574,-0.119861,7.85596,-10.191802,1.6720278,0.3585185,-0.021689232,0.44479874,0.82045543,-8.041771,7.248535,0.18551904,2.37911,-2.2717865,-0.6714029,0
1.0500000000000007,17.381492238015916,1.8983708021707952,-1.7013147494657004,-1.328688215642517,15.368645,-4.0235386,-1.4794574,-0.119861,7.7757945,-10.1186695,1.6739151,0.3664946,-0.0098883035,0.45027527,0.8141468,-7.990507,7.3777847,0.19170594,2.304132,-2.1828375,-0.7036561,0
1.0600000000000007,17.381492238015916,1.8983708021707952,-1.7013147494657004,-1.328688215642517,15.368645,-4.0235386,-1.4794574,-0.119861,7.696168,-10.044249,1.6758564,0.37431413,0.0013849814,0.45550016,0.80771625,-7.934013,7.5061235,0.19630395,2.240846,-2.1077602,-0.73432654,0
1.0700000000000007,17.381492238015916,1.8983708021707952,-1.7013147494657004,-1.328688215642517,15.368645,-4.0235386,-1.4794574,-0.119861,7.6171317,-9.96855,1.6778356,0.3820038,0.0122019425,0.46050525,0.8011604,-7.8725038,7.633443,0.19927742,2.1874285,-2.0443914,-0.7634921,0
1.0800000000000007,16.408986474049126,0.6502529695156146,-0.9638068781635853,-1.1973691446722612,14.700907,-5.597897,-1.393723,0.7232591,7.538735,-9.891583,1.6798362,0.38958496,0.022623146,0.4653164,0.79447544,-7.8061705,7.7596397,0.20059465,2.1423407,-1.9909053,-0.79122645,0
1.0900000000000007,16.408986474049126,0.6502529695156146,-0.9638068781635853,-1.1973691446722612,14.700907,-5.597897,-1.393723,0.7232591,7.4610043,-9.813396,1.6818143,0.39693862,0.032277934,0.4696771,0.78790873,-7.7391915,7.8776274,0.19477962,1.9097091,-1.8306351,-0.811156,0
1.1000000000000008,16.408986474049126,0.6502529695156146,-0.9638068781635853,-1.1973691446722612,14.700907,-5.597897,-1.393723,0.7232591,7.3839645,-9.7340355,1.6837269,0.4039807,0.040875454,0.47339973,0.78167796,-7.668237,7.9944143,0.18751144,1.7133482,-1.6953713,-0.83010757,0
1.1100000000000008,16.408986474049126,0.6502529695156146,-0.9638068781635853,-1.1973691446722612,14.700907,-5.597897,-1.393723,0.7232591,7.307652,-9.653512,1.6855601,0.4107713,0.048571464,0.47659394,0.775735,-7.593702,8.109974,0.17893729,1.5476018,-1.581213,-0.84812915,0
1.1200000000000008,15.499797271792875,-0.7929455729796775,-0.25881111935445844,-0.8268432052128056,14.812874,-6.160174,-1.3240134,1.1417022,7.232101,-9.57184,1.6873015,0.41735896,0.055498347,0.47934932,0.7700354,-7.5159163,8.224289,0.16918786,1.4076976,-1.4848672,-0.86526644,0
1.1300000000000008,15.499797271792875,-0.7929455729796775,-0.25881111935445844,-0.8268432052128056,14.812874,-6.160174,-1.3240134,1.1417022,7.1573205,-9.489061,1.6889158,0.4236466,0.061331585,0.48141342,0.7648542,-7.439672,8.331095,0.15356697,1.0646179,-1.29347,-0.86338097,0
1.1400000000000008,15.499797271792875,-0.7929455729796775,-0.25881111935445844,-0.8268432052128056,14.812874,-6.160174,-1.3240134,1.1417022,7.0833154,-9.405221,1.6903702,0.42956188,0.06582204,0.48259917,0.7604216,-7.3611164,8.436769,0.13723393,0.77502394,-1.1319519,-0.861588,0
1.1500000000000008,15.499797271792875,-0.7929455729796775,-0.25881111935445844,-0.8268432052128056,14.812874,-6.160174,-1.3240134,1.1417022,7.010105,-9.320329,1.691659,0.435171,0.069175355,0.48305815,0.7566338,-7.2807035,8.541375,0.12046771,0.5305775,-0.9956484,-0.85988307,0
1.1600000000000008,15.055332515483514,-2.211459919175372,0.6202783322084785,-0.3345615370715416,13.81056,-6.101546,-1.2121193,1.1660532,6.9377065,-9.234396,1.6927788,0.44052657,0.071565636,0.4829138,0.7533976,-7.198812,8.64498,0.10350772,0.32424015,-0.88062316,-0.8582618,0
1.1700000000000008,15.055332515483514,-2.211459919175372,0.6202783322084785,-0.3345615370715416,13.81056,-6.101546,-1.2121193,1.1660532,6.866121,-9.147447,1.6937175,0.44549632,0.07265379,0.48199192,0.75095755,-7.118179,8.744719,0.084253594,-0.07105881,-0.6463384,-0.8325637,0
1.1800000000000008,15.055332515483514,-2.211459919175372,0.6202783322084785,-0.3345615370715416,13.81056,-6.101546,-1.2121193,1.1660532,6.795345,-9.0595045,1.694465,0.4499717,0.072181165,0.4801612,0.7495062,-7.0369587,8.843702,0.06534866,-0.40473866,-0.44863552,-0.80812657,0
1.1900000000000008,15.055332515483514,-2.211459919175372,0.6202783322084785,-0.3345615370715416,13.81056,-6.101546,-1.2121193,1.1660532,6.725382,-8.970574,1.6950266,0.45402017,0.07039182,0.47756785,0.74889153,-6.95565,8.942081,0.047101516,-0.6864036,-0.28180093,-0.7848886,0
1.2000000000000008,14.649294763655414,-3.3861520920096546,1.0175594828380314,0.23511963820634033,13.537045,-6.095853,-1.3747002,1.6293263,6.656231,-8.880664,1.6954101,0.45769507,0.06749175,0.4743304,0.7489791,-6.874675,9.039991,0.029766569,-0.9241612,-0.14101394,-0.762791,0
1.2100000000000009,14.649294763655414,-3.3861520920096546,1.0175594828380314,0.23511963820634033,13.537045,-6.095853,-1.3747002,1.6293263,6.587875,-8.789789,1.6956148,0.46094155,0.06335322,0.47026092,0.7499152,-6.796588,9.134917,0.011362335,-1.3080186,0.0398146,-0.7138232,0
1.2200000000000009,14.649294763655414,-3.3861520920096546,1.0175594828380314,0.23511963820634033,13.537045,-6.095853,-1.3747002,1.6293263,6.520294,-8.697966,1.6956422,0.46370396,0.057886075,0.46520913,0.75180256,-6.719677,9.229617,-0.005641385,-1.632037,0.19239491,-0.66725826,0
1.2300000000000009,14.649294763655414,-3.3861520920096546,1.0175594828380314,0.23511963820634033,13.537045,-6.095853,-1.3747002,1.6293263,6.453475,-8.605196,1.6955079,0.46601903,0.051301487,0.4593124,0.7544703,-6.6444054,9.324187,-0.020975683,-1.9055433,0.32114306,-0.62297827,0
1.2400000000000009,14.649294763655414,-3.3861520920096546,1.0175594828380314,0.23511963820634033,13.44198,-6.054531,-1.7229733,1.4571527,6.3873987,-8.51148,1.6952293,0.4679158,0.0437779,0.45268404,0.75776935,-6.5711775,9.418701,-0.03443319,-2.1364112,0.42978415,-0.58087116,0
1.2500000000000009,14.649294763655414,-3.3861520920096546,1.0175594828380314,0.23511963820634033,13.44198,-6.054531,-1.7229733,1.4571527,6.3220434,-8.4168215,1.6948261,0.46941793,0.03546631,0.4454183,0.761571,-6.5003514,9.513204,-0.045859933,-2.3312862,0.5214604,-0.54083025,0
1.260000000000001,14.649294763655414,-3.3861520920096546,1.0175594828380314,0.23511963820634033,13.44198,-6.054531,-1.7229733,1.4571527,6.257383,-8.321218,1.6943195,0.4705451,0.026494605,0.43759426,0.76576465,-6.4322443,9.607718,-0.055148,-2.4957793,0.59882313,-0.5027541,0
1.270000000000001,14.649294763655414,-3.3861520920096546,1.0175594828380314,0.23511963820634033,13.44198,-6.054531,-1.7229733,1.4571527,6.1933885,-8.224668,1.693731,0.4713142,0.01697123,0.4292786,0.77025557,-6.367139,9.702248,-0.062229093,-2.6346264,0.66410804,-0.46654642,0
1.280000000000001,14.363798230552435,-4.080468330137486,0.937679994931843,0.797407851073628,13.410801,-6.2891135,-2.5964646,1.3150635,6.1300282,-8.1271715,1.6930827,0.47173983,0.0069882274,0.42052814,0.77496296,-6.3052883,9.796777,-0.06706885,-2.7518258,0.7192026,-0.4321155,0
1.290000000000001,14.363798230552435,-4.080468330137486,0.937679994931843,0.797407851073628,13.410801,-6.2891135,-2.5964646,1.3150635,6.067265,-8.028741,1.692388,0.4717944,-0.003453451,0.41115925,0.77996475,-6.248066,9.889429,-0.071511,-2.9590466,0.7532161,-0.37178242,0
1.300000000000001,14.363798230552435,-4.080468330137486,0.937679994931843,0.797407851073628,13.410801,-6.2891135,-2.5964646,1.3150635,6.0050554,-7.9293838,1.6916603,0.4714406,-0.01434494,0.4010247,0.7853126,-6.194546,9.981964,-0.073678136,-3.133954,0.78190863,-0.3144099,0
1.310000000000001,14.363798230552435,-4.080468330137486,0.937679994931843,0.797407851073628,13.410801,-6.2891135,-2.5964646,1.3150635,5.9433603,-7.829102,1.6909225,0.4706789,-0.025603281,0.39021924,0.7909068,-6.145,10.074279,-0.07352656,-3.2815862,0.8061149,-0.2598527,0
1.320000000000001,13.95200486717621,-4.494957294153066,0.5660571625836468,1.2292780422411964,13.548611,-6.2037325,-3.1982238,1.5109092,5.8821406,-7.727899,1.6901977,0.46951106,-0.037158057,0.37882408,0.7966616,-6.0996704,10.166258,-0.07105215,-3.406196,0.8265385,-0.20797263,0
1.330000000000001,13.95200486717621,-4.494957294153066,0.5660571625836468,1.2292780422411964,13.548611,-6.2037325,-3.1982238,1.5109092,5.821346,-7.6257915,1.6894946,0.46794602,-0.048888333,0.36670858,0.8025958,-6.059947,10.255141,-0.069223985,-3.5760298,0.7857757,-0.13744633,0
1.340000000000001,13.95200486717621,-4.494957294153066,0.5660571625836468,1.2292780422411964,13.548611,-6.2037325,-3.1982238,1.5109092,5.760926,-7.522799,1.688821,0.46597898,-0.060691126,0.35377234,0.80871755,-6.0247355,10.343373,-0.06515341,-3.7193718,0.75136125,-0.07038077,0
1.350000000000001,13.95200486717621,-4.494957294153066,0.5660571625836468,1.2292780422411964,13.548611,-6.2037325,-3.1982238,1.5109092,5.7008348,-7.4189277,1.6881992,0.46359608,-0.07253557,0.3401218,0.8149436,-5.994219,10.430741,-0.058854163,-3.8403554,0.72230923,-0.0066061392,0
1.360000000000001,14.079469425616667,-4.694340182505762,0.34124829662249045,1.6060251952963094,13.460869,-5.7809277,-3.526939,1.3570315,5.6410246,-7.314188,1.6876513,0.46078822,-0.084395625,0.32584876,0.8212021,-5.9685593,10.517033,-0.050375953,-3.942468,0.69778675,0.054039054,0
1.370000000000001,14.079469425616667,-4.694340182505762,0.34124829662249045,1.6060251952963094,13.460869,-5.7809277,-3.526939,1.3570315,5.5814466,-7.208588,1.6872038,0.45753342,-0.09619679,0.31092924,0.8274848,-5.9477053,10.602807,-0.03880167,-4.059752,0.6419795,0.13019547,0
1.380000000000001,14.079469425616667,-4.694340182505762,0.34124829662249045,1.6060251952963094,13.460869,-5.7809277,-3.526939,1.3570315,5.522052,-7.1021376,1.6868823,0.45380625,-0.10787628,0.2953503,0.8337803,-5.9320145,10.687027,-0.02518236,-4.15874,0.5948763,0.20261484,0
1.390000000000001,14.079469425616667,-4.694340182505762,0.34124829662249045,1.6060251952963094,13.460869,-5.7809277,-3.526939,1.3570315,5.4627876,-6.994854,1.6867069,0.4495992,-0.11942977,0.27920106,0.84002537,-5.9215875,10.769438,-0.009615707,-4.2422867,0.5551219,0.2714806,0
1.400000000000001,13.996918498560161,-4.600702344461653,-0.30264534282058997,1.807933889064255,15.442104,-5.895382,-3.7585247,1.7400222,5.403601,-6.8867564,1.6866963,0.44490895,-0.13085383,0.2625588,0.8461649,-5.9165044,10.849792,0.0077736164,-4.3128004,0.521572,0.33696708,0
1.410000000000001,13.996918498560161,-4.600702344461653,-0.30264534282058997,1.807933889064255,15.442104,-5.895382,-3.7585247,1.7400222,5.344439,-6.7778683,1.6868647,0.43978623,-0.14190418,0.24541183,0.85218734,-5.9168086,10.92738,0.026157795,-4.3576894,0.3928211,0.40914783,0
1.420000000000001,13.996918498560161,-4.600702344461653,-0.30264534282058997,1.807933889064255,15.442104,-5.895382,-3.7585247,1.7400222,5.2852464,-6.668217,1.6872247,0.43426767,-0.15238588,0.22775991,0.8580877,-5.9224324,11.002376,0.046093237,-4.395571,0.28415674,0.47778666,0
1.430000000000001,13.996918498560161,-4.600702344461653,-0.30264534282058997,1.807933889064255,15.442104,-5.895382,-3.7585247,1.7400222,5.225972,-6.5578303,1.6877915,0.4283364,-0.16236342,0.20968063,0.8638281,-5.9333067,11.074484,0.06745232,-4.427541,0.19244699,0.5430574,0
1.440000000000001,13.996918498560161,-4.600702344461653,-0.30264534282058997,1.807933889064255,16.086315,-6.0915756,-3.6716151,1.6572179,5.166563,-6.4467382,1.6885784,0.42198166,-0.17189197,0.19124082,0.8693737,-5.949354,11.143431,0.090088606,-4.4545226,0.11504791,0.60512525,0
1.450000000000001,13.996918498560161,-4.600702344461653,-0.30264534282058997,1.807933889064255,16.086315,-6.0915756,-3.6716151,1.6572179,5.1069684,-6.334974,1.6895972,0.4151974,-0.18101868,0.17249818,0.8746924,-5.9704914,11.20896,0.1138397,-4.4772954,0.049727574,0.6641474,0
1.460000000000001,13.996918498560161,-4.600702344461653,-0.30264534282058997,1.807933889064255,16.086315,-6.0915756,-3.6716151,1.6572179,5.0471373,-6.222572,1.6908585,0.40798187,-0.18978375,0.15350291,0.87975496,-5.9966245,11.270829,0.13852978,-4.4965167,-0.005397506,0.72027326,0
1.470000000000001,13.996918498560161,-4.600702344461653,-0.30264534282058997,1.807933889064255,16.086315,-6.0915756,-3.6716151,1.6572179,4.9870195,-6.10957,1.6923704,0.4003364,-0.19822146,0.13429874,0.88453484,-6.02765,11.32882,0.16397184,-4.512741,-0.05191768,0.7736451,0
1.480000000000001,13.536203435116885,-4.071321488999604,-0.9641666303221061,1.7413405747576889,15.969246,-5.7285204,-3.6840358,1.1642729,4.9265676,-5.996009,1.6941396,0.39226505,-0.20636097,0.11492407,0.8890078,-6.0634556,11.382727,0.18996987,-4.526436,-0.09117514,0.8243979,0
1.490000000000001,13.536203435116885,-4.071321488999604,-0.9641666303221061,1.7413405747576889,15.969246,-5.7285204,-3.6840358,1.1642729,4.865741,-5.8819385,1.6961503,0.38385546,-0.21391037,0.095497064,0.8931835,-6.1025677,11.43072,0.2122312,-4.455382,-0.2274106,0.8693926,0
1.500000000000001,13.536203435116885,-4.071321488999604,-0.9641666303221061,1.7413405747576889,15.969246,-5.7285204,-3.6840358,1.1642729,4.8045015,-5.7674093,1.6983849,0.37518162,-0.22064316,0.07611877,0.8970844,-6.1459103,11.474396,0.23468822,-4.395414,-0.34239614,0.91217935,0
1.5100000000000011,13.536203435116885,-4.071321488999604,-0.9641666303221061,1.7413405747576889,15.969246,-5.7285204,-3.6840358,1.1642729,4.7428093,-5.6524653,1.7008444,0.36623174,-0.22667027,0.056796715,0.90070426,-6.1932044,11.513589,0.25720018,-4.344803,-0.43944627,0.95286655,0
1.5200000000000011,13.472260783845764,-3.4319160954765935,-1.5027090625980517,1.6402433351954233,15.625889,-5.6774054,-4.015468,0.9600973,4.6806254,-5.5371532,1.7035288,0.3569985,-0.23208553,0.03753726,0.90403455,-6.244189,11.548158,0.279623,-4.30209,-0.5213582,0.9915572,0
1.5300000000000011,13.472260783845764,-3.4319160954765935,-1.5027090625980517,1.6402433351954233,15.625889,-5.6774054,-4.015468,0.9600973,4.6179156,-5.4215193,1.7064333,0.34755722,-0.2366839,0.018498654,0.90710616,-6.2983403,11.577839,0.30124888,-4.1662745,-0.67439824,1.0233884,0
1.5400000000000011,13.472260783845764,-3.4319160954765935,-1.5027090625980517,1.6402433351954233,15.625889,-5.6774054,-4.015468,0.9600973,4.554649,-5.305612,1.7095526,0.33797222,-0.24031195,-0.00019028597,0.9099583,-6.3555427,11.602712,0.32255122,-4.05165,-0.8035765,1.0536577,0
1.5500000000000012,13.472260783845764,-3.4319160954765935,-1.5027090625980517,1.6402433351954233,15.625889,-5.6774054,-4.015468,0.9600973,4.490796,-5.189481,1.712883,0.3282261,-0.24311182,-0.018565016,0.9125891,-6.415437,11.622715,0.34344843,-3.954911,-0.9126138,1.0824416,0
1.5600000000000012,14.280254321448664,-2.9297173234855984,-1.7180656883840855,1.5303593477605955,16.02981,-5.223774,-4.6937723,1.2117318,4.4263325,-5.073174,1.7164199,0.31830603,-0.24520314,-0.036656216,0.914993,-6.477697,11.637801,0.36385584,-3.8732674,-1.0046506,1.1098132,0
1.5700000000000012,14.280254321448664,-2.9297173234855984,-1.7180656883840855,1.5303593477605955,16.02981,-5.223774,-4.6937723,1.2117318,4.361216,-4.956738,1.7201936,0.30826226,-0.24654453,-0.05433669,0.91718966,-6.545871,11.648544,0.3907635,-3.726026,-1.1158512,1.1304494,0
1.5800000000000012,14.280254321448664,-2.9297173234855984,-1.7180656883840855,1.5303593477605955,16.02981,-5.223774,-4.6937723,1.2117318,4.2954082,-4.8402205,1.7242329,0.29813898,-0.24711208,-0.07150682,0.91920334,-6.6158624,11.654063,0.41700506,-3.6017578,-1.2097208,1.1500732,0
1.5900000000000012,14.280254321448664,-2.9297173234855984,-1.7180656883840855,1.5303593477605955,16.02981,-5.223774,-4.6937723,1.2117318,4.228893,-4.7236743,1.7285311,0.2879207,-0.2470216,-0.08822868,0.92103034,-6.687326,11.654392,0.44252992,-3.4968786,-1.288961,1.1687338,0
1.6000000000000012,14.453132253412752,-2.144465214504986,-1.799870863506106,1.265403932917602,13.837479,-4.426265,-4.8848515,0.5966704,4.1616573,-4.60715,1.7330809,0.2775959,-0.24637015,-0.104555205,0.92266446,-6.759949,11.649572,0.46728364,-3.4083638,-1.3558519,1.1864789,0
1.6100000000000012,14.453132253412752,-2.144465214504986,-1.799870863506106,1.265403932917602,13.837479,-4.426265,-4.8848515,0.5966704,4.0936866,-4.4907002,1.7378814,0.2672613,-0.24512027,-0.120258726,0.92413443,-6.8343267,11.63954,0.49269265,-3.2112026,-1.4249525,1.1903516,0
1.6200000000000012,14.453132253412752,-2.144465214504986,-1.799870863506106,1.265403932917602,13.837479,-4.426265,-4.8848515,0.5966704,4.0249686,-4.3743763,1.7429318,0.25700134,-0.24325182,-0.13516328,0.9254777,-6.9092507,11.624501,0.5172614,-3.0447967,-1.4832991,1.1940343,0
1.6300000000000012,14.453132253412752,-2.144465214504986,-1.799870863506106,1.265403932917602,13.837479,-4.426265,-4.8848515,0.5966704,3.9555004,-4.258227,1.7482238,0.24679181,-0.2408619,-0.14938064,0.92669517,-6.984411,11.604623,0.54099447,-2.9043486,-1.5325658,1.1975365,0
1.6400000000000012,14.453132253412752,-2.144465214504986,-1.799870863506106,1.265403932917602,12.858448,-3.3188822,-4.9773936,0.3223604,3.8852808,-4.1422997,1.7537488,0.23661283,-0.23803124,-0.16300564,0.9277844,-7.0595345,11.580054,0.56389177,-2.7858093,-1.5741657,1.2008667,0
1.6500000000000012,14.453132253412752,-2.144465214504986,-1.799870863506106,1.265403932917602,12.858448,-3.3188822,-4.9773936,0.3223604,3.8143108,-4.0266414,1.7594986,0.22644831,-0.23482694,-0.17611864,0.9287405,-7.134381,11.550931,0.58594763,-2.6857612,-1.6092916,1.2040336,0
1.6600000000000013,14.453132253412752,-2.144465214504986,-1.799870863506106,1.265403932917602,12.858448,-3.3188822,-4.9773936,0.3223604,3.742595,-3.9112966,1.7654648,0.21628538,-0.23130485,-0.18878774,0.9295575,-7.208736,11.517379,0.607151,-2.6013198,-1.6389512,1.2070451,0
1.6700000000000013,14.453132253412752,-2.144465214504986,-1.799870863506106,1.265403932917602,12.858448,-3.3188822,-4.9773936,0.3223604,3.6701386,-3.796309,1.7716386,0.20611393,-0.22751145,-0.20107047,0.9302287,-7.2824054,11.479512,0.62748575,-2.5300512,-1.6639953,1.2099087,0
1.6800000000000013,14.781104539766591,-1.3684264288062817,-1.5711037470896656,0.9632885864375196,11.716833,-2.5464237,-4.9691567,-0.11977755,3.5969498,-3.6817212,1.7780113,0.19592616,-0.2234855,-0.2130154,0.93074745,-7.355212,11.437439,0.6469308,-2.4698997,-1.6851422,1.212632,0
1.6900000000000013,14.781104539766591,-1.3684264288062817,-1.5711037470896656,0.9632885864375196,11.716833,-2.5464237,-4.9691567,-0.11977755,3.5230298,-3.5675797,1.7845874,0.18584043,-0.21927764,-0.2243658,0.9311497,-7.428625,11.390233,0.6681155,-2.298153,-1.667204,1.2003965,0
1.7000000000000013,14.781104539766591,-1.3684264288062817,-1.5711037470896656,0.9632885864375196,11.716833,-2.5464237,-4.9691567,-0.11977755,3.4483814,-3.4539304,1.7913705,0.17595778,-0.21493395,-0.23492502,0.9314782,-7.500841,11.339078,0.6883991,-2.153187,-1.6520875,1.1887615,0
1.7100000000000013,14.781104539766591,-1.3684264288062817,-1.5711037470896656,0.9632885864375196,11.716833,-2.5464237,-4.9691567,-0.11977755,3.3730175,-3.3408113,1.7983522,0.16624898,-0.21047689,-0.24481146,0.9317334,-7.57173,11.28421,0.70782,-2.0308259,-1.6393487,1.1776974,0
1.7200000000000013,14.776167338059874,-0.4495367730754678,-1.1488652589366604,0.6031759520551669,11.198477,-1.7440823,-4.909142,-0.5029081,3.296952,-3.2282581,1.8055241,0.15668917,-0.20592426,-0.25412488,0.9319138,-7.6411796,11.225841,0.7264104,-1.9275445,-1.6286136,1.1671764,0
1.7300000000000013,14.776167338059874,-0.4495367730754678,-1.1488652589366604,0.6031759520551669,11.198477,-1.7440823,-4.909142,-0.5029081,3.2201998,-3.1163056,1.8128775,0.14741789,-0.20138068,-0.26259068,0.9320724,-7.709073,11.164196,0.74416745,-1.6971351,-1.5535913,1.1395006,0
1.7400000000000013,14.776167338059874,-0.4495367730754678,-1.1488652589366604,0.6031759520551669,11.198477,-1.7440823,-4.909142,-0.5029081,3.1427763,-3.0049844,1.820405,0.13855204,-0.19693339,-0.27000147,0.93226546,-7.775386,11.099577,0.7612182,-1.5026454,-1.4903042,1.1131829,0
1.7500000000000013,14.776167338059874,-0.4495367730754678,-1.1488652589366604,0.6031759520551669,11.198477,-1.7440823,-4.909142,-0.5029081,3.0646977,-2.894323,1.8281,0.13004075,-0.19257033,-0.2765244,0.932491,-7.840092,11.032304,0.77766126,-1.3384757,-1.4369159,1.0881566,0
1.7600000000000013,14.777858021300348,0.4832440243037672,-0.6288513537517249,0.18135901721982914,11.38106,-1.2383801,-4.1787105,-0.15254414,2.98598,-2.7843466,1.8359566,0.12184017,-0.18827975,-0.28229976,0.9327442,-7.9031754,10.9626465,0.7935841,-1.1998996,-1.3918777,1.0643585,0
1.7700000000000014,14.777858021300348,0.4832440243037672,-0.6288513537517249,0.18135901721982914,11.38106,-1.2383801,-4.1787105,-0.15254414,2.9066398,-2.6750774,1.8439702,0.114090435,-0.18418604,-0.2870828,0.9330818,-7.9646416,10.890853,0.8090864,-0.9375329,-1.2726754,1.0210295,0
1.7800000000000014,14.777858021300348,0.4832440243037672,-0.6288513537517249,0.18135901721982914,11.38106,-1.2383801,-4.1787105,-0.15254414,2.8266923,-2.5665355,1.8521373,0.10690736,-0.18038878,-0.29069033,0.9335572,-8.024542,10.8172865,0.82429117,-0.7160619,-1.1721047,0.9798266,0
1.7900000000000014,14.777858021300348,0.4832440243037672,-0.6288513537517249,0.18135901721982914,11.38106,-1.2383801,-4.1787105,-0.15254414,2.7461536,-2.4587367,1.8604555,0.10022246,-0.17684285,-0.2933127,0.9341568,-8.0829525,10.742292,0.8393388,-0.5291129,-1.0872517,0.9406455,0
1.8000000000000014,14.610369453405937,1.3223544081436245,-0.1703392056758446,-0.2762264759848941,10.068981,0.5958851,-4.484223,-1.1005921,2.665038,-2.3516936,1.868924,0.09397671,-0.17350863,-0.2951091,0.9348651,-8.139946,10.6661625,0.8543511,-0.37130502,-1.0156586,0.90338707,0
1.8100000000000014,14.610369453405937,1.3223544081436245,-0.1703392056758446,-0.2762264759848941,10.068981,0.5958851,-4.484223,-1.1005921,2.5833626,-2.245412,1.8775364,0.08828446,-0.17047593,-0.2958919,0.9357301,-8.194966,10.590036,0.8681599,-0.10729112,-0.8836718,0.8455031,0
1.8200000000000014,14.610369453405937,1.3223544081436245,-0.1703392056758446,-0.2762264759848941,10.068981,0.5958851,-4.484223,-1.1005921,2.501143,-2.1398945,1.8862879,0.083239675,-0.16781375,-0.2955215,0.9367901,-8.248782,10.51339,0.8821994,0.115572184,-0.772309,0.7904595,0
1.8300000000000014,14.610369453405937,1.3223544081436245,-0.1703392056758446,-0.2762264759848941,10.068981,0.5958851,-4.484223,-1.1005921,2.4183908,-2.0351448,1.8951815,0.0787672,-0.1654613,-0.29418388,0.93801546,-8.301522,10.43655,0.89661765,0.30369768,-0.6783452,0.7381169,0
1.8400000000000014,14.610369453405937,1.3223544081436245,-0.1703392056758446,-0.2762264759848941,9.386864,1.2659845,-4.446648,-1.5337344,2.3351161,-1.9311633,1.904222,0.07480236,-0.16336626,-0.29203457,0.93937784,-8.353302,10.359795,0.91153836,0.46249902,-0.5990605,0.68834287,0
1.8500000000000014,14.610369453405937,1.3223544081436245,-0.1703392056758446,-0.2762264759848941,9.386864,1.2659845,-4.446648,-1.5337344,2.251328,-1.8279477,1.9134145,0.07128944,-0.16148384,-0.2892037,0.9408511,-8.40422,10.283356,0.9270638,0.59654653,-0.53215975,0.64101124,0
1.8600000000000014,14.610369453405937,1.3223544081436245,-0.1703392056758446,-0.2762264759848941,9.386864,1.2659845,-4.446648,-1.5337344,2.1670344,-1.7254943,1.9227657,0.068180405,-0.15977588,-0.28580046,0.94241184,-8.454362,10.207432,0.94327724,0.70969814,-0.4757074,0.5960021,0
1.8700000000000014,14.610369453405937,1.3223544081436245,-0.1703392056758446,-0.2762264759848941,9.386864,1.2659845,-4.446648,-1.5337344,2.082243,-1.6237968,1.9322829,0.06543377,-0.15821,-0.28191626,0.9440393,-8.503803,10.132192,0.9602455,0.8052112,-0.42807055,0.55320156,0
1.8800000000000014,14.288024593660932,1.9191928763898016,0.14747881020598358,-0.6993337139668339,9.6295185,0.39160225,-3.8886528,-1.2450403,1.9969606,-1.5228477,1.9419737,0.06301363,-0.15675877,-0.27762797,0.94571537,-8.552607,10.05778,0.9780213,0.8858344,-0.3878719,0.5125013,0
1.8900000000000015,14.288024593660932,1.9191928763898016,0.14747881020598358,-0.6993337139668339,9.6295185,0.39160225,-3.8886528,-1.2450403,1.9111984,-1.4226297,1.9518335,0.06101072,-0.15549019,-0.27277422,0.9474669,-8.599771,9.985956,0.99407625,1.0469462,-0.3043708,0.45303622,0
1.9000000000000015,14.288024593660932,1.9191928763898016,0.14747881020598358,-0.6993337139668339,9.6295185,0.39160225,-3.8886528,-1.2450403,1.8249669,-1.3231246,1.9618584,0.059500482,-0.15445566,-0.26723048,0.9493102,-8.646464,9.915276,1.0110358,1.1829431,-0.23390827,0.3964891,0
1.9100000000000015,14.288024593660932,1.9191928763898016,0.14747881020598358,-0.6993337139668339,9.6295185,0.39160225,-3.8886528,-1.2450403,1.7382704,-1.2243197,1.9720577,0.058432907,-0.15361159,-0.26110542,0.951216,-8.692779,9.845942,1.0289632,1.2977393,-0.17444687,0.34271678,0
1.9200000000000015,13.915131139482355,2.288115769716899,0.30832561332375014,-1.0813156705956184,9.027756,1.1017237,-3.6279018,-1.4215873,1.6511124,-1.1262007,1.9824413,0.057764653,-0.15292126,-0.25449044,0.9531588,-8.7387905,9.778127,1.0479044,1.3946393,-0.124267526,0.29158306,0
1.9300000000000015,13.915131139482355,2.288115769716899,0.30832561332375014,-1.0813156705956184,9.027756,1.1017237,-3.6279018,-1.4215873,1.5635015,-1.0287427,1.993004,0.057541847,-0.15239473,-0.24732494,0.9551408,-8.78337,9.7137165,1.0648117,1.533961,-0.056845352,0.22421454,0
1.9400000000000015,13.915131139482355,2.288115769716899,0.30832561332375014,-1.0813156705956184,9.027756,1.1017237,-3.6279018,-1.4215873,1.4754456,-0.93192,2.0037413,0.05780378,-0.15203705,-0.2395647,0.9571578,-8.827791,9.651124,1.0827794,1.6515626,5.139876e-05,0.1601518,0
1.9500000000000015,13.915131139482355,2.288115769716899,0.30832561332375014,-1.0813156705956184,9.027756,1.1017237,-3.6279018,-1.4215873,1.3869461,-0.8357134,2.0146632,0.058505733,-0.15181328,-0.23130262,0.9591807,-8.872118,9.5905285,1.1018378,1.7508293,0.04806764,0.09923263,0
1.9600000000000015,13.365712415570524,2.3919684757841866,0.17972646200029677,-1.38356885766893,8.103838,2.8130543,-5.0133805,-2.6808887,1.2980036,-0.740102,2.0257814,0.059608575,-0.15169421,-0.222617,0.9611847,-8.9164,9.532084,1.1220007,1.8346195,0.08859096,0.041302778,0
1.9700000000000015,13.365712415570524,2.3919684757841866,0.17972646200029677,-1.38356885766893,8.103838,2.8130543,-5.0133805,-2.6808887,1.2086269,-0.6450526,2.0370831,0.06110882,-0.15159535,-0.21354266,0.9631629,-8.958921,9.478147,1.1385583,1.921542,0.10271832,-0.028616073,0
1.9800000000000015,13.365712415570524,2.3919684757841866,0.17972646200029677,-1.38356885766893,8.103838,2.8130543,-5.0133805,-2.6808887,1.118825,-0.5505311,2.048556,0.0630063,-0.15144777,-0.2041112,0.9651068,-9.001437,9.426533,1.1561823,1.9949099,0.11464,-0.095104,0
1.9900000000000015,13.365712415570524,2.3919684757841866,0.17972646200029677,-1.38356885766893,8.103838,2.8130543,-5.0133805,-2.6808887,1.0285981,-0.45651355,2.0602105,0.06527269,-0.15125054,-0.19437933,0.9669944,-9.043941,9.377356,1.1748675,2.0568368,0.12470189,-0.15832934,0
2.0000000000000013,,,,,7.0789857,1.3331549,-5.0031285,-1.6822245,0.9379462,-0.3629752,2.072057,0.067882314,-0.15100339,-0.1843949,0.9688071,-9.086416,9.330714,1.1945978,2.1091065,0.13319503,-0.21845219,0
2.010000000000001,,,,,7.0789857,1.3331549,-5.0031285,-1.6822245,0.84687966,-0.26987994,2.0840786,0.07079287,-0.15054074,-0.17429322,0.9705392,-9.12687,9.288735,1.2098275,2.121439,0.07321146,-0.2856573,0
2.020000000000001,,,,,7.0789857,1.3331549,-5.0031285,-1.6822245,0.7554092,-0.17719181,2.0962572,0.073973715,-0.1497319,-0.16418537,0.97218835,-9.167194,9.249285,1.2260072,2.131845,0.022586292,-0.3495646,0
2.0300000000000007,,,,,7.0789857,1.3331549,-5.0031285,-1.6822245,0.6635365,-0.08488547,2.1086023,0.07741776,-0.1486245,-0.1540757,0.9737436,-9.207298,9.212379,1.2431102,2.1406262,-0.020140013,-0.410336,0
2.0400000000000005,,,,,7.0789857,1.3331549,-5.0031285,-1.6822245,0.5712642,0.0070645846,2.1211228,0.08111683,-0.1472593,-0.14396764,0.97519577,-9.247103,9.178032,1.2611051,2.1480365,-0.05619937,-0.4681253,0
2.0500000000000003,,,,,7.297217,1.978373,-4.9273615,-2.3586876,0.4785957,0.09868402,2.1338274,0.085062,-0.14567119,-0.13386387,0.9765365,-9.286531,9.146257,1.2799573,2.1542907,-0.08663138,-0.52307886,1
2.06,,,,,7.297217,1.978373,-4.9273615,-2.3586876,0.38558367,0.19003524,2.1465788,0.08901931,-0.14271374,-0.124561,0.9778505,-9.315708,9.124332,1.2701422,1.891818,-0.606702,-0.5921456,1
2.07,,,,,7.297217,1.978373,-4.9273615,-2.3586876,0.29228598,0.28117764,2.1592267,0.09283035,-0.13741423,-0.116643056,0.9792308,-9.343605,9.104441,1.259265,1.6892225,-1.0646317,-0.65951866,1
2.0799999999999996,,,,,7.297217,1.978373,-4.9273615,-2.3586876,0.1987172,0.37212983,2.1717606,0.09658346,-0.13003297,-0.1098232,0.98066336,-9.3698635,9.086237,1.2473581,1.5368185,-1.4697623,-0.7252495,1
2.0899999999999994,,,,,5.906462,2.4183967,-5.893585,-2.5912542,0.10489535,0.46290725,2.1841705,0.10034724,-0.12078903,-0.10385731,0.98211646,-9.394186,9.0694475,1.2344474,1.4264412,-1.829989,-0.78938824,1
2.099999999999999,,,,,5.906462,2.4183967,-5.893585,-2.5912542,0.010843635,0.55352473,2.1964364,0.10415126,-0.10981258,-0.0986831,0.9835416,-9.415809,9.054209,1.21858,1.2964004,-2.179224,-0.85236484,1
2.109999999999999,,,,,5.906462,2.4183967,-5.893585,-2.5912542,-0.083412826,0.6439946,2.208539,0.108018,-0.09722184,-0.0942434,0.98488426,-9.435106,9.039908,1.2018037,1.2031606,-2.4905305,-0.9137285,1
2.1199999999999988,,,,,5.906462,2.4183967,-5.893585,-2.5912542,-0.17784987,0.73432547,2.2204692,0.11198311,-0.08317219,-0.090353385,0.98609185,-9.4519005,9.026372,1.1840942,1.1407328,-2.7695727,-0.9735357,1
2.1299999999999986,,,,,5.863667,2.0603902,-5.9203367,-2.4700005,-0.27244174,0.82452416,2.2322176,0.116070986,-0.06779647,-0.086856276,0.98710984,-9.466047,9.013459,1.1654131,1.1040615,-3.0211313,-1.0318406,1
2.1399999999999983,,,,,5.863667,2.0603902,-5.9203367,-2.4700005,-0.36715904,0.9145988,2.2437587,0.12027666,-0.05113567,-0.08369813,0.98788255,-9.476983,9.001545,1.1426337,1.0613399,-3.2816975,-1.0852748,1
2.149999999999998,,,,,5.863667,2.0603902,-5.9203367,-2.4700005,-0.46197194,1.0045564,2.2550666,0.12459173,-0.03323253,-0.080830485,0.988351,-9.485159,8.9900255,1.1187843,1.040437,-3.516794,-1.1374416,1
2.159999999999998,,,,,5.863667,2.0603902,-5.9203367,-2.4700005,-0.55685246,1.0944005,2.2661304,0.12902282,-0.014196984,-0.07813824,0.9884558,-9.490495,8.978814,1.093792,1.037668,-3.7301092,-1.188378,1
2.1699999999999977,,,,,5.9948964,0.3738505,-5.578472,-2.1554713,-0.65177196,1.1841336,2.2769382,0.1335702,0.0058741467,-0.07552438,0.9881394,-9.492936,8.967845,1.0675722,1.049927,-3.9247615,-1.2381196,1
2.1799999999999975,,,,,5.9948964,0.3738505,-5.578472,-2.1554713,-0.7467012,1.2737662,2.2874246,0.13820893,0.027027063,-0.07328252,0.9873178,-9.49252,8.958658,1.0295341,0.93579954,-4.1742196,-1.282377,1
2.1899999999999973,,,,,5.9948964,0.3738505,-5.578472,-2.1554713,-0.84161365,1.363307,2.297526,0.14292103,0.049269605,-0.071654715,0.985906,-9.489563,8.949464,0.99064195,0.8474115,-4.392714,-1.3251783,1
2.199999999999997,,,,,5.9948964,0.3738505,-5.578472,-2.1554713,-0.9364834,1.4527546,2.3072364,0.14770876,0.072435334,-0.07052018,0.9838501,-9.48396,8.940049,0.95147634,0.77327895,-4.5775886,-1.365921,1
2.209999999999997,,,,,7.398976,-0.83443046,-5.510903,-1.4587077,-1.0312835,1.5421067,2.3165536,0.15256998,0.09635887,-0.069790944,0.9811042,-9.475633,8.930315,0.9119352,0.7107301,-4.7336383,-1.4046644,1
