time-since-start [s],throttle_mpc,roll_mpc,pitch_mpc,yaw_mpc,throttle_nw,roll_nw,pitch_nw,yaw_nw,position_x [m],position_y [m],position_z [m],rotation_w [quaternion],rotation_x [quaternion],rotation_y [quaternion],rotation_z [quaternion],velocity_x [m/s],velocity_y [m/s],velocity_z [m/s],omega_x [rad/s],omega_y [rad/s],omega_z [rad/s],network_used
0.0,12.678176913113825,5.999999609728737,-5.999999884295085,-3.8941502537482506,162.14598,-11.392068,-39.960194,-1.3730953,16.658035,-10.491577,1.3071088,-0.123516634,0.39882177,-0.23792987,-0.87696874,-8.7808275,-3.484091,-0.582589,1.3861026,-0.16205937,-0.108736776,0
0.01,12.678176913113825,5.999999609728737,-5.999999884295085,-3.8941502537482506,163.50325,-10.779369,-40.20285,-1.6778319,16.569641,-10.525943,1.3013128,-0.12757328,0.39668754,-0.24374254,-0.8757588,-8.897382,-3.3890178,-0.5769678,1.5232842,-0.49033582,-0.24240862,0
0.02,12.678176913113825,5.999999609728737,-5.999999884295085,-3.8941502537482506,163.50325,-10.779369,-40.20285,-1.6778319,16.4801,-10.559356,1.2955616,-0.13287774,0.39319074,-0.24970719,-0.87486607,-9.010057,-3.2934961,-0.5736018,1.6754732,-0.803895,-0.37278,0
0.03,12.678176913113825,5.999999609728737,-5.999999884295085,-3.8941502537482506,163.50325,-10.779369,-40.20285,-1.6778319,16.389454,-10.591809,1.2898341,-0.13942811,0.38837096,-0.25588536,-0.87421405,-9.118438,-3.197414,-0.5721425,1.839833,-1.1045325,-0.49996802,0
0.04,12.678176913113825,5.999999609728737,-5.999999884295085,-3.8941502537482506,162.6952,-11.264567,-40.48464,-2.0355463,16.297749,-10.623301,1.2841132,-0.14721665,0.38225767,-0.2623233,-0.8737234,-9.222127,-3.1006663,-0.5722916,2.0139594,-1.3937529,-0.6240832,0
0.05,12.678176913113825,5.999999609728737,-5.999999884295085,-3.8941502537482506,162.6952,-11.264567,-40.48464,-2.0355463,16.20503,-10.653821,1.2783836,-0.1562301,0.37487182,-0.26905385,-0.8733116,-9.320742,-3.0031667,-0.5737977,2.1958132,-1.6728184,-0.7452299,0
0.060000000000000005,12.678176913113825,5.999999609728737,-5.999999884295085,-3.8941502537482506,162.6952,-11.264567,-40.48464,-2.0355463,16.111355,-10.683362,1.2726332,-0.1664499,0.3662273,-0.2760982,-0.8728927,-9.413911,-2.9048524,-0.57645226,2.3836656,-1.9427862,-0.86350685,0
0.07,12.678176913113825,5.999999609728737,-5.999999884295085,-3.8941502537482506,162.6952,-11.264567,-40.48464,-2.0355463,16.016773,-10.711917,1.2668511,-0.17785229,0.35633215,-0.28346688,-0.87237734,-9.501276,-2.8056924,-0.58008707,2.5760527,-2.2045424,-0.9790072,0
0.08,14.201349553060895,5.999999592363002,-5.999999900053605,-4.08120945021766,150.77202,-78.51117,25.691612,28.449806,15.92135,-10.739474,1.2610284,-0.19040832,0.34518987,-0.29116103,-0.87167287,-9.582488,-2.7056913,-0.5845719,2.7717338,-2.4588306,-1.0918193,0
0.09,14.201349553060895,5.999999592363002,-5.999999900053605,-4.08120945021766,150.77202,-78.51117,25.691612,28.449806,15.825113,-10.765983,1.2551981,-0.20413049,0.332768,-0.2991892,-0.8706789,-9.663813,-2.5959868,-0.58160657,2.9846532,-2.7213333,-1.2125468,0
0.09999999999999999,14.201349553060895,5.999999592363002,-5.999999900053605,-4.08120945021766,150.77202,-78.51117,25.691612,28.449806,15.7281,-10.79139,1.2493937,-0.21902469,0.3190289,-0.30755147,-0.8692874,-9.737706,-2.4854853,-0.57937765,3.1991954,-2.9777853,-1.3304664,0
0.10999999999999999,14.201349553060895,5.999999592363002,-5.999999900053605,-4.08120945021766,150.77202,-78.51117,25.691612,28.449806,15.630387,-10.81569,1.243608,-0.2350436,0.30396497,-0.3162238,-0.867388,-9.803799,-2.3743248,-0.5778501,3.4145463,-3.2285666,-1.4456657,0
0.11999999999999998,14.201349553060895,5.999999592363002,-5.999999900053605,-4.08120945021766,150.77202,-78.51117,25.691612,28.449806,15.532054,-10.838876,1.2378341,-0.25213352,0.2875684,-0.32517448,-0.8648666,-9.86174,-2.2627008,-0.57702523,3.6300173,-3.4739952,-1.5582277,0
0.12999999999999998,16.053922223726165,5.255113075968411,-5.999999850124327,-3.6231436756529027,150.14418,-79.11139,24.807795,27.959833,15.433184,-10.860944,1.2320648,-0.27023405,0.26983234,-0.33436465,-0.86160547,-9.911205,-2.1508665,-0.57693934,3.845025,-3.714338,-1.6682311,0
0.13999999999999999,16.053922223726165,5.255113075968411,-5.999999850124327,-3.6231436756529027,150.14418,-79.11139,24.807795,27.959833,15.333852,-10.88187,1.2263125,-0.28936931,0.25045395,-0.34368783,-0.8575643,-9.953673,-2.0341754,-0.57332236,4.0642867,-4.0712776,-1.7641592,0
0.15,16.053922223726165,5.255113075968411,-5.999999850124327,-3.6231436756529027,150.14418,-79.11139,24.807795,27.959833,15.234139,-10.901621,1.2206025,-0.30946052,0.22931096,-0.35297367,-0.85267806,-9.987259,-1.9156625,-0.56850207,4.2493906,-4.372526,-1.8553802,0
0.16,16.986825848162407,3.10759655596392,-5.563864375335059,-1.3002647770866902,189.54607,-99.34106,48.738308,21.736181,15.13414,-10.920179,1.2149464,-0.33030105,0.20664816,-0.36209726,-0.8468075,-10.01129,-1.795839,-0.56253487,4.4056644,-4.6267676,-1.9421247,0
0.17,16.986825848162407,3.10759655596392,-5.563864375335059,-1.3002647770866902,189.54607,-99.34106,48.738308,21.736181,15.033945,-10.9375,1.2093856,-0.35123172,0.18301824,-0.37035125,-0.84022623,-10.026068,-1.6683309,-0.5494171,4.2031446,-4.772565,-1.9106284,0
0.18000000000000002,16.986825848162407,3.10759655596392,-5.563864375335059,-1.3002647770866902,189.54607,-99.34106,48.738308,21.736181,14.933657,-10.953547,1.2039615,-0.37172323,0.15889256,-0.37720716,-0.8332403,-10.030097,-1.540971,-0.53522575,4.0322366,-4.895676,-1.8806778,0
0.19000000000000003,16.986825848162407,3.10759655596392,-5.563864375335059,-1.3002647770866902,189.54607,-99.34106,48.738308,21.736181,14.833382,-10.968324,1.1986846,-0.39177442,0.13435763,-0.3828083,-0.8257834,-10.023455,-1.4146469,-0.5199932,3.8880048,-4.9996305,-1.8521967,0
0.20000000000000004,16.867324419942342,1.9712917260103275,-4.350153434628529,-1.087809545152195,152.08017,7.347164,-47.106148,20.863565,14.733224,-10.981846,1.1935649,-0.4113778,0.10948778,-0.3872764,-0.8178002,-10.006266,-1.2901976,-0.50379944,3.7662845,-5.087409,-1.8251133,0
0.21000000000000005,16.867324419942342,1.9712917260103275,-4.350153434628529,-1.087809545152195,152.08017,7.347164,-47.106148,20.863565,14.63329,-10.99414,1.1886073,-0.43027106,0.08492477,-0.3905562,-0.8093948,-9.978941,-1.169263,-0.48757443,3.486611,-4.9720187,-1.7889335,0
0.22000000000000006,16.867324419942342,1.9712917260103275,-4.350153434628529,-1.087809545152195,152.08017,7.347164,-47.106148,20.863565,14.53368,-11.00524,1.1838157,-0.44827273,0.061189674,-0.3926456,-0.8007098,-9.941889,-1.0516237,-0.47064924,3.2505205,-4.874691,-1.7545291,0
0.23000000000000007,16.867324419942342,1.9712917260103275,-4.350153434628529,-1.087809545152195,152.08017,7.347164,-47.106148,20.863565,14.434485,-11.015184,1.1791962,-0.4654777,0.03817583,-0.39370835,-0.7917488,-9.895705,-0.9378337,-0.4531545,3.0512216,-4.792597,-1.7218128,0
0.24000000000000007,16.867324419942342,1.9712917260103275,-4.350153434628529,-1.087809545152195,153.19371,6.971824,-47.2701,20.642633,14.335795,-11.024013,1.174754,-0.48196176,0.015790524,-0.3938795,-0.7825099,-9.840946,-0.82837766,-0.435218,2.8829803,-4.7233505,-1.6907022,0
0.25000000000000006,16.867324419942342,1.9712917260103275,-4.350153434628529,-1.087809545152195,153.19371,6.971824,-47.2701,20.642633,14.237694,-11.03177,1.1704928,-0.4977854,-0.0060460847,-0.3932707,-0.77298814,-9.7781315,-0.72368336,-0.4169675,2.740957,-4.664942,-1.661118,0
0.26000000000000006,16.867324419942342,1.9712917260103275,-4.350153434628529,-1.087809545152195,153.19371,6.971824,-47.2701,20.642633,14.140258,-11.038505,1.1664152,-0.5129966,-0.027402148,-0.3919743,-0.763177,-9.707752,-0.6241321,-0.39853248,2.6210659,-4.6156726,-1.6329857,0
0.2700000000000001,16.867324419942342,1.9712917260103275,-4.350153434628529,-1.087809545152195,153.19371,6.971824,-47.2701,20.642633,14.043563,-11.044271,1.1625224,-0.5276334,-0.048335332,-0.39006692,-0.75306964,-9.630271,-0.5300656,-0.38004503,2.519858,-4.5741134,-1.6062337,0
0.2800000000000001,16.433128889630268,0.09852768440013328,-2.350434173713885,0.05814892078448716,86.756294,-3.6811612,-0.26058853,28.007978,13.947677,-11.049126,1.1588141,-0.54172575,-0.068894,-0.38761204,-0.7426595,-9.546132,-0.44179225,-0.36164045,2.434421,-4.5390573,-1.5807945,0
0.2900000000000001,16.433128889630268,0.09852768440013328,-2.350434173713885,0.05814892078448716,86.756294,-3.6811612,-0.26058853,28.007978,13.852651,-11.053139,1.1552739,-0.55494916,-0.08817364,-0.38454336,-0.7323815,-9.458157,-0.36166117,-0.34643242,2.0707123,-4.1972585,-1.5003711,0
0.3000000000000001,16.433128889630268,0.09852768440013328,-2.350434173713885,0.05814892078448716,86.756294,-3.6811612,-0.26058853,28.007978,13.758531,-11.056379,1.1518847,-0.5670909,-0.10547145,-0.38085273,-0.72265786,-9.364981,-0.28732634,-0.33142552,1.7636286,-3.9088588,-1.4238939,0
0.3100000000000001,16.433128889630268,0.09852768440013328,-2.350434173713885,0.05814892078448716,86.756294,-3.6811612,-0.26058853,28.007978,13.665366,-11.058905,1.1486448,-0.57831573,-0.121098034,-0.37665802,-0.7134525,-9.267412,-0.2186028,-0.3165715,1.5043571,-3.665511,-1.3511697,0
0.3200000000000001,16.144618345903837,-2.063703054769997,0.06092797362227429,1.8956239765934528,86.61535,-3.808748,-0.32446447,28.153374,13.573196,-11.06077,1.145553,-0.58875555,-0.135317,-0.37205037,-0.7047228,-9.166126,-0.15530606,-0.30181617,1.2854557,-3.460174,-1.282014,0
0.3300000000000001,16.144618345903837,-2.063703054769997,0.06092797362227429,1.8956239765934528,86.61535,-3.808748,-0.32446447,28.153374,13.482053,-11.06203,1.142607,-0.59816474,-0.14725289,-0.36695793,-0.6970344,-9.062268,-0.097476244,-0.28762203,0.7428772,-2.9315474,-1.1280222,0
0.34000000000000014,16.144618345903837,-2.063703054769997,0.06092797362227429,1.8956239765934528,86.61535,-3.808748,-0.32446447,28.153374,13.391953,-11.062737,1.1397965,-0.60633504,-0.15623482,-0.36144093,-0.6908752,-8.957461,-0.04485248,-0.27448574,0.30383244,-2.466461,-0.97983205,0
0.35000000000000014,16.144618345903837,-2.063703054769997,0.06092797362227429,1.8956239765934528,86.61535,-3.808748,-0.32446447,28.153374,13.302908,-11.06294,1.1371186,-0.61343265,-0.1627469,-0.35565728,-0.68609136,-8.851463,0.0038360944,-0.26097152,-0.06493914,-2.072085,-0.83873254,0
0.36000000000000015,17.724148259160035,-4.003908096659553,3.0491624912143944,2.2201579827399778,123.67782,-41.079838,23.136978,40.67542,13.214926,-11.062672,1.1345795,-0.6196106,-0.16719808,-0.3496645,-0.6825408,-8.744809,0.049246974,-0.24670321,-0.3763096,-1.7393042,-0.7045569,0
0.37000000000000016,17.724148259160035,-4.003908096659553,3.0491624912143944,2.2201579827399778,123.67782,-41.079838,23.136978,40.67542,13.128063,-11.061942,1.1322433,-0.62467796,-0.16864747,-0.3437091,-0.6805874,-8.627649,0.09616116,-0.22035903,-0.94159204,-0.99237126,-0.5610403,0
0.38000000000000017,17.724148259160035,-4.003908096659553,3.0491624912143944,2.2201579827399778,123.67782,-41.079838,23.136978,40.67542,13.042369,-11.060754,1.1301774,-0.628489,-0.166365,-0.33799076,-0.6805044,-8.511299,0.14123684,-0.19258259,-1.4188927,-0.36204588,-0.4245661,0
0.3900000000000002,17.724148259160035,-4.003908096659553,3.0491624912143944,2.2201579827399778,123.67782,-41.079838,23.136978,40.67542,12.95783,-11.059119,1.1283977,-0.6311939,-0.16094467,-0.3324686,-0.682023,-8.39661,0.18559556,-0.16303916,-1.8218892,0.16988927,-0.2947887,0
0.4000000000000002,18.700153811759524,-4.859651900129739,4.559064570537185,2.281754580702753,112.10631,-102.792496,-40.36065,32.71481,12.874429,-11.057041,1.1269234,-0.63289666,-0.15288213,-0.3270952,-0.68489206,-8.28431,0.23018344,-0.13146897,-2.1621354,0.6188032,-0.17137954,0
0.4100000000000002,18.700153811759524,-4.859651900129739,4.559064570537185,2.281754580702753,112.10631,-102.792496,-40.36065,32.71481,12.792165,-11.0545,1.125812,-0.63351667,-0.14196281,-0.32196775,-0.689086,-8.16905,0.27834985,-0.0904187,-2.582837,1.2331306,-0.05100356,0
0.4200000000000002,18.700153811759524,-4.859651900129739,4.559064570537185,2.281754580702753,112.10631,-102.792496,-40.36065,32.71481,12.711034,-11.051467,1.1251235,-0.6329665,-0.12803064,-0.31714723,-0.6945349,-8.057817,0.32864618,-0.046869703,-2.9380164,1.751602,0.06346556,0
0.4300000000000002,18.700153811759524,-4.859651900129739,4.559064570537185,2.281754580702753,112.10631,-102.792496,-40.36065,32.71481,12.630992,-11.047916,1.1248834,-0.63129634,-0.11154814,-0.31253716,-0.70095795,-7.9514117,0.38198578,-0.0007521976,-3.237866,2.1891832,0.17231764,0
0.4400000000000002,18.700153811759524,-4.859651900129739,4.559064570537185,2.281754580702753,112.11131,-102.93859,-40.67027,32.75343,12.551988,-11.043814,1.1251172,-0.6285378,-0.09290792,-0.30805236,-0.7081043,-7.850578,0.43909547,0.047899228,-3.490995,2.558502,0.2758283,0
0.45000000000000023,18.700153811759524,-4.859651900129739,4.559064570537185,2.281754580702753,112.11131,-102.93859,-40.67027,32.75343,12.47396,-11.03912,1.1258496,-0.62471175,-0.07244542,-0.3036194,-0.71575254,-7.7560143,0.5005352,0.0989536,-3.7046752,2.8702133,0.37425968,0
0.46000000000000024,18.700153811759524,-4.859651900129739,4.559064570537185,2.281754580702753,112.11131,-102.93859,-40.67027,32.75343,12.396844,-11.033788,1.1271037,-0.61983365,-0.050449003,-0.29917657,-0.72370857,-7.66838,0.5667152,0.1521933,-3.8850472,3.1333084,0.467861,0
0.47000000000000025,18.700153811759524,-4.859651900129739,4.559064570537185,2.281754580702753,112.11131,-102.93859,-40.67027,32.75343,12.320566,-11.027769,1.1288999,-0.61391646,-0.027167937,-0.29467288,-0.73180324,-7.588293,0.63791096,0.20732446,-4.037298,3.3553743,0.5568693,0
0.48000000000000026,19.38434483945345,-4.800587013541034,4.897838170349231,2.165173718693171,42.398712,35.7863,-41.657314,-7.577066,12.245049,-11.021011,1.1312554,-0.6069728,-0.0028189044,-0.29006717,-0.7398896,-7.516332,0.714277,0.26398754,-4.165807,3.542813,0.64150995,0
0.49000000000000027,19.38434483945345,-4.800587013541034,4.897838170349231,2.165173718693171,42.398712,35.7863,-41.657314,-7.577066,12.170222,-11.013451,1.1342119,-0.59898704,0.02249938,-0.28542587,-0.7478235,-7.4507165,0.7988543,0.32746565,-4.2650704,3.7538795,0.7162765,0
0.5000000000000002,19.38434483945345,-4.800587013541034,4.897838170349231,2.165173718693171,42.398712,35.7863,-41.657314,-7.577066,12.096003,-11.005016,1.1378069,-0.5899509,0.048694216,-0.2807993,-0.7554721,-7.394595,0.8888631,0.39158282,-4.348849,3.9320388,0.7873744,0
0.5100000000000002,19.38434483945345,-4.800587013541034,4.897838170349231,2.165173718693171,42.398712,35.7863,-41.657314,-7.577066,12.022296,-10.995655,1.1420438,-0.5798885,0.07559517,-0.2761367,-0.76273376,-7.3484397,0.98423284,0.4557765,-4.4195538,4.082424,0.8549834,0
0.5200000000000002,19.12112832713013,-3.9474601791101716,4.227852761568983,1.9422610622309895,42.690594,35.570797,-41.47468,-7.4875917,11.948999,-10.985314,1.1469207,-0.56882435,0.10305119,-0.27139753,-0.76952076,-7.3126683,1.0847943,0.519455,-4.4792223,4.2093673,0.91927475,0
0.5300000000000002,19.12112832713013,-3.9474601791101716,4.227852761568983,1.9422610622309895,42.690594,35.570797,-41.47468,-7.4875917,11.876005,-10.973949,1.1524181,-0.55692035,0.13053665,-0.26666152,-0.77568746,-7.287948,1.188845,0.5798272,-4.396434,4.2121553,0.969473,0
0.5400000000000003,19.12112832713013,-3.9474601791101716,4.227852761568983,1.9422610622309895,42.690594,35.570797,-41.47468,-7.4875917,11.803205,-10.961521,1.1585115,-0.5443432,0.1576306,-0.26200637,-0.7811499,-7.2738614,1.2973511,0.6385047,-4.3265495,4.214513,1.017208,0
0.5500000000000003,19.12112832713013,-3.9474601791101716,4.227852761568983,1.9422610622309895,42.690594,35.570797,-41.47468,-7.4875917,11.730491,-10.9479885,1.1651807,-0.5311211,0.18434912,-0.257399,-0.78592044,-7.2703795,1.4098663,0.69493496,-4.2675567,4.216506,1.0626006,0
0.5600000000000003,17.995871025468972,-2.5607413451806016,2.907669853097481,1.647407847579373,16.8151,-3.6729589,0.47652403,-0.28488296,11.65776,-10.933312,1.1724007,-0.51727957,0.21070261,-0.25281155,-0.79000753,-7.277456,1.5259296,0.74859387,-4.217758,4.218191,1.1057658,0
0.5700000000000003,17.995871025468972,-2.5607413451806016,2.907669853097481,1.647407847579373,16.8151,-3.6729589,0.47652403,-0.28488296,11.584909,-10.917494,1.1800976,-0.5031329,0.23600684,-0.24838535,-0.79338646,-7.293933,1.6380423,0.7902641,-3.9592702,4.0139337,1.1323442,0
0.5800000000000003,17.995871025468972,-2.5607413451806016,2.907669853097481,1.647407847579373,16.8151,-3.6729589,0.47652403,-0.28488296,11.511848,-10.900543,1.1881944,-0.48897955,0.25973982,-0.24425389,-0.79609895,-7.31977,1.7525077,0.82857347,-3.7411065,3.8415112,1.1576185,0
0.5900000000000003,17.995871025468972,-2.5607413451806016,2.907669853097481,1.647407847579373,16.8151,-3.6729589,0.47652403,-0.28488296,11.438483,-10.882438,1.1966566,-0.47481316,0.28212485,-0.24038084,-0.7982321,-7.3544436,1.8688304,0.86330724,-3.5569775,3.695962,1.1816525,0
0.6000000000000003,17.036805232397292,-0.944091967346305,1.2993309382018814,1.290094396487259,15.907993,0.19867158,0.47988477,1.7476699,11.364731,-10.863162,1.2054476,-0.46062306,0.3033494,-0.23673183,-0.79985183,-7.39749,1.9865727,0.8942903,-3.401574,3.573097,1.2045074,0
0.6100000000000003,17.036805232397292,-0.944091967346305,1.2993309382018814,1.290094396487259,15.907993,0.19867158,0.47988477,1.7476699,11.290521,-10.842735,1.2144955,-0.4467908,0.32277548,-0.23348953,-0.8010468,-7.445716,2.099007,0.9147356,-3.0180619,3.2187965,1.2087071,0
0.6200000000000003,17.036805232397292,-0.944091967346305,1.2993309382018814,1.290094396487259,15.907993,0.19867158,0.47988477,1.7476699,11.215793,-10.82118,1.2237301,-0.4336559,0.33993313,-0.23081504,-0.8019426,-7.5006633,2.2120578,0.93162024,-2.6943996,2.9197042,1.2127007,0
0.6300000000000003,17.036805232397292,-0.944091967346305,1.2993309382018814,1.290094396487259,15.907993,0.19867158,0.47988477,1.7476699,11.140485,-10.798493,1.2331163,-0.4211401,0.35518977,-0.22864369,-0.8026224,-7.561573,2.3254478,0.9451204,-2.4212475,2.6672175,1.2164985,0
0.6400000000000003,17.036805232397292,-0.944091967346305,1.2993309382018814,1.290094396487259,16.484324,0.43669054,0.17307407,1.5704254,11.064542,-10.774672,1.2426215,-0.40916777,0.36885175,-0.22691466,-0.8031434,-7.627808,2.4389672,0.955412,-2.1907227,2.4540737,1.2201098,0
0.6500000000000004,17.036805232397292,-0.944091967346305,1.2993309382018814,1.290094396487259,16.484324,0.43669054,0.17307407,1.5704254,10.987912,-10.749714,1.2522141,-0.39766794,0.38117424,-0.22557203,-0.8035441,-7.6988316,2.5524566,0.96266246,-1.9961736,2.274142,1.223544,0
0.6600000000000004,17.036805232397292,-0.944091967346305,1.2993309382018814,1.290094396487259,16.484324,0.43669054,0.17307407,1.5704254,10.910551,-10.723622,1.2618647,-0.3865758,0.39237,-0.2245651,-0.80385005,-7.7741942,2.665792,0.96702653,-1.8319857,2.1222477,1.2268096,0
0.6700000000000004,17.036805232397292,-0.944091967346305,1.2993309382018814,1.290094396487259,16.484324,0.43669054,0.17307407,1.5704254,10.832417,-10.696399,1.271545,-0.37583306,0.4026163,-0.2238484,-0.80407774,-7.8535156,2.7788758,0.9686444,-1.6934209,1.9940215,1.229915,0
0.6800000000000004,16.1006529435408,0.5980469854001582,-0.2938243867218345,0.9292299927141908,14.62265,0.24544269,-1.2790309,1.0056704,10.75347,-10.668046,1.2812285,-0.36538786,0.41206092,-0.2233815,-0.80423737,-7.936477,2.8916295,0.9676405,-1.5764804,1.8857756,1.232868,0
0.6900000000000004,16.1006529435408,0.5980469854001582,-0.2938243867218345,0.9292299927141908,14.62265,0.24544269,-1.2790309,1.0056704,10.6737,-10.638598,1.2908633,-0.35563144,0.420104,-0.22337784,-0.80445063,-8.018015,2.9978242,0.9589633,-1.2370762,1.5461527,1.2179682,0
0.7000000000000004,16.1006529435408,0.5980469854001582,-0.2938243867218345,0.9292299927141908,14.62265,0.24544269,-1.2790309,1.0056704,10.5931015,-10.608091,1.300401,-0.34688917,0.42629343,-0.22401282,-0.80483514,-8.102133,3.1036808,0.94827664,-0.9506505,1.2594453,1.2037998,0
0.7100000000000004,16.1006529435408,0.5980469854001582,-0.2938243867218345,0.9292299927141908,14.62265,0.24544269,-1.2790309,1.0056704,10.511651,-10.576527,1.3098232,-0.33902463,0.4309371,-0.22519845,-0.8053824,-8.18827,3.2092652,0.9359373,-0.7089333,1.0174096,1.1903266,0
0.7200000000000004,15.585470432466554,1.9732362090120026,-1.7962236072669275,0.564463246862771,14.740306,0.25387502,-1.3621981,1.0358663,10.429331,-10.543906,1.3191149,-0.3319173,0.43428954,-0.22685659,-0.8060764,-8.275964,3.3146532,0.92225236,-0.50494516,0.8130856,1.1775144,0
0.7300000000000004,15.585470432466554,1.9732362090120026,-1.7962236072669275,0.564463246862771,14.740306,0.25387502,-1.3621981,1.0358663,10.346142,-10.51025,1.328251,-0.3258749,0.43590668,-0.22914533,-0.807021,-8.361941,3.416567,0.9048496,-0.11815399,0.40646446,1.1474319,0
0.7400000000000004,15.585470432466554,1.9732362090120026,-1.7962236072669275,0.564463246862771,14.740306,0.25387502,-1.3621981,1.0358663,10.26209,-10.4755745,1.3372097,-0.32114202,0.43545082,-0.23218694,-0.808294,-8.4484005,3.5185382,0.8868582,0.208255,0.06319663,1.1188253,0
0.7500000000000004,15.585470432466554,1.9732362090120026,-1.7962236072669275,0.564463246862771,14.740306,0.25387502,-1.3621981,1.0358663,10.177174,-10.439878,1.3459874,-0.31753138,0.43325415,-0.23586614,-0.8098342,-8.534742,3.620741,0.8686985,0.48371023,-0.2265867,1.0916226,0
0.7600000000000005,15.805397036790524,2.9369736328523537,-2.978252798947337,0.2182385159898661,16.387917,3.6721342,-2.6188216,-0.4722951,10.091396,-10.403158,1.3545842,-0.31487948,0.42959052,-0.24008152,-0.8115807,-8.620457,3.7233322,0.8507151,0.7161672,-0.47121716,1.0657547,1
0.7700000000000005,15.805397036790524,2.9369736328523537,-2.978252798947337,0.2182385159898661,16.387917,3.6721342,-2.6188216,-0.4722951,10.004746,-10.365383,1.363024,-0.31351852,0.42423615,-0.24513814,-0.81341046,-8.70942,3.831784,0.837349,1.1773419,-0.8058716,0.9902821,1
0.7800000000000005,15.805397036790524,2.9369736328523537,-2.978252798947337,0.2182385159898661,16.387917,3.6721342,-2.6188216,-0.4722951,9.917215,-10.32652,1.3713341,-0.3137103,0.4170223,-0.25126234,-0.8151963,-8.796516,3.9411094,0.8247958,1.5665354,-1.0884216,0.918513,1
0.7900000000000005,15.805397036790524,2.9369736328523537,-2.978252798947337,0.2182385159898661,16.387917,3.6721342,-2.6188216,-0.4722951,9.828825,-10.286557,1.3795238,-0.3152252,0.4082283,-0.25826368,-0.8168734,-8.881038,4.0515976,0.8133224,1.8949865,-1.3269738,0.8502656,1
0.8000000000000005,16.301803815914045,3.3394364191406414,-3.6042986731364635,-0.009249224471632969,16.17764,1.3385496,-3.723728,-0.78153557,9.739606,-10.245483,1.387605,-0.31786433,0.3980857,-0.26597786,-0.81837964,-8.962365,4.16347,0.8031183,2.1721792,-1.5283746,0.7853672,0
0.8100000000000005,16.301803815914045,3.3394364191406414,-3.6042986731364635,-0.009249224471632969,16.17764,1.3385496,-3.723728,-0.78153557,9.649593,-10.203285,1.3955886,-0.3214617,0.38649127,-0.27405152,-0.81986713,-9.039535,4.276274,0.79386115,2.3543313,-1.8520802,0.74637514,0
0.8200000000000005,16.301803815914045,3.3394364191406414,-3.6042986731364635,-0.009249224471632969,16.17764,1.3385496,-3.723728,-0.78153557,9.55883,-10.159952,1.4034879,-0.3258701,0.37336698,-0.28219464,-0.82144475,-9.112445,4.390599,0.7862416,2.5080395,-2.1253235,0.70929646,0
0.8300000000000005,16.301803815914045,3.3394364191406414,-3.6042986731364635,-0.009249224471632969,16.17764,1.3385496,-3.723728,-0.78153557,9.4673605,-10.115469,1.41132,-0.33095348,0.35892564,-0.2903617,-0.8230017,-9.180604,4.5063763,0.7804582,2.637748,-2.3559694,0.6740373,0
0.8400000000000005,16.301803815914045,3.3394364191406414,-3.6042986731364635,-0.009249224471632969,16.15957,0.59724295,-4.048392,-0.3957476,9.375235,-10.06982,1.4191039,-0.3365933,0.34334767,-0.29851294,-0.8244433,-9.243571,4.623507,0.7766327,2.747206,-2.5506573,0.6405082,0
0.8500000000000005,16.301803815914045,3.3394364191406414,-3.6042986731364635,-0.009249224471632969,16.15957,0.59724295,-4.048392,-0.3957476,9.282507,-10.022994,1.4268595,-0.34268647,0.32678694,-0.30661383,-0.8256898,-9.300949,4.7418637,0.7748203,2.8395762,-2.7149923,0.60862434,0
0.8600000000000005,16.301803815914045,3.3394364191406414,-3.6042986731364635,-0.009249224471632969,16.15957,0.59724295,-4.048392,-0.3957476,9.189236,-9.974978,1.4346071,-0.34914327,0.30937532,-0.31463468,-0.8266742,-9.352384,4.861293,0.7750192,2.917528,-2.853706,0.57830507,0
0.8700000000000006,16.301803815914045,3.3394364191406414,-3.6042986731364635,-0.009249224471632969,16.15957,0.59724295,-4.048392,-0.3957476,9.095481,-9.925764,1.4423666,-0.35588577,0.29122645,-0.3225499,-0.82734114,-9.39756,4.9816194,0.77717906,2.9833126,-2.9707916,0.5494736,0
0.8800000000000006,16.850106281086585,3.1994762526802933,-3.711433221457446,-0.19720097079805451,19.122559,4.7830224,-3.4814742,1.0010425,9.001307,-9.875342,1.450157,-0.36284614,0.27243868,-0.3303376,-0.82764494,-9.436198,5.1026473,0.78120816,3.0388308,-3.0696213,0.5220569,0
0.8900000000000006,16.850106281086585,3.1994762526802933,-3.711433221457446,-0.19720097079805451,19.122559,4.7830224,-3.4814742,1.0010425,8.9067745,-9.8236885,1.4580142,-0.3699839,0.25309014,-0.33791092,-0.8275704,-9.4691305,5.228249,0.7904771,3.0638447,-3.1697738,0.4867627,0
0.9000000000000006,16.850106281086585,3.1994762526802933,-3.711433221457446,-0.19720097079805451,19.122559,4.7830224,-3.4814742,1.0010425,8.811949,-9.770777,1.4659725,-0.37726697,0.23325165,-0.3451994,-0.8271033,-9.494849,5.354097,0.80141413,3.084952,-3.254306,0.45320043,0
0.9100000000000006,16.850106281086585,3.1994762526802933,-3.711433221457446,-0.19720097079805451,19.122559,4.7830224,-3.4814742,1.0010425,8.716904,-9.716606,1.4740478,-0.38465068,0.2129931,-0.3522081,-0.8262121,-9.513183,5.4799194,0.81386137,3.1027641,-3.3256543,0.42128506,0
0.9200000000000006,17.010400231491033,2.621895472818162,-3.304082048438596,-0.3299086942113891,18.132263,4.4112306,-2.952994,1.6096497,8.621712,-9.66118,1.4822543,-0.39209542,0.1923757,-0.35894147,-0.8248715,-9.52399,5.605439,0.8276359,3.117796,-3.3858738,0.39093578,0
0.9300000000000006,17.010400231491033,2.621895472818162,-3.304082048438596,-0.3299086942113891,18.132263,4.4112306,-2.952994,1.6096497,8.526449,-9.604493,1.4906098,-0.39947927,0.17168552,-0.36527565,-0.82311195,-9.527209,5.731564,0.8436096,3.0403795,-3.3732083,0.35556373,0
0.9400000000000006,17.010400231491033,2.621895472818162,-3.304082048438596,-0.3299086942113891,18.132263,4.4112306,-2.952994,1.6096497,8.431193,-9.546552,1.4991297,-0.4067152,0.15115933,-0.3711208,-0.8209764,-9.522797,5.8568125,0.8605057,2.975041,-3.3625085,0.3219274,0
0.9500000000000006,17.010400231491033,2.621895472818162,-3.304082048438596,-0.3299086942113891,18.132263,4.4112306,-2.952994,1.6096497,8.3360195,-9.487362,1.5078224,-0.4138159,0.13077994,-0.3765264,-0.8184621,-9.5108595,5.98091,0.878113,2.9198961,-3.3534694,0.28994164,0
0.9600000000000006,16.696429306803754,1.7374278864825163,-2.5508277687319647,-0.39909179191929084,19.126156,4.364497,-4.3206253,0.13225237,8.241001,-9.426938,1.5166937,-0.42078972,0.110533245,-0.38153422,-0.8155669,-9.491498,6.1035953,0.89622146,2.8733556,-3.3458333,0.25952542,0
0.9700000000000006,16.696429306803754,1.7374278864825163,-2.5508277687319647,-0.39909179191929084,19.126156,4.364497,-4.3206253,0.13225237,8.146211,-9.365308,1.525737,-0.42749953,0.09080703,-0.3860204,-0.8123951,-9.465348,6.2223897,0.91247565,2.696119,-3.2219396,0.22720689,0
0.9800000000000006,16.696429306803754,1.7374278864825163,-2.5508277687319647,-0.39909179191929084,19.126156,4.364497,-4.3206253,0.13225237,8.051717,-9.302498,1.5349436,-0.4338535,0.071912594,-0.38990235,-0.80905825,-9.432379,6.339363,0.9288463,2.5465336,-3.1173534,0.19647422,0
0.9900000000000007,16.696429306803754,1.7374278864825163,-2.5508277687319647,-0.39909179191929084,19.126156,4.364497,-4.3206253,0.13225237,7.9575863,-9.238528,1.5443138,-0.43991497,0.05373487,-0.3932669,-0.80556065,-9.392948,6.454353,0.9451848,2.4202847,-3.0290663,0.16724963,0
1.0000000000000007,16.604502877382796,0.8140235624937315,-1.6498499104998008,-0.4170959070897236,22.618252,8.350271,-9.965236,-6.4210725,7.86388,-9.173419,1.5538467,-0.44573423,0.036175363,-0.39618623,-0.8019029,-9.347373,6.567217,0.96135837,2.313732,-2.954539,0.1394591,0
1.0100000000000007,16.604502877382796,0.8140235624937315,-1.6498499104998008,-0.4170959070897236,22.618252,8.350271,-9.965236,-6.4210725,7.7706575,-9.107196,1.5635369,-0.4512012,0.019605137,-0.39858836,-0.79822296,-9.29625,6.6772294,0.976624,2.0797856,-2.751132,0.112148784,0
1.0200000000000007,16.604502877382796,0.8140235624937315,-1.6498499104998008,-0.4170959070897236,22.618252,8.350271,-9.965236,-6.4210725,7.6779737,-9.039883,1.573378,-0.4562452,0.0043142694,-0.40043178,-0.7946543,-9.23981,6.7849746,0.991546,1.8823345,-2.579434,0.08617861,0
1.0300000000000007,16.604502877382796,0.8140235624937315,-1.6498499104998008,-0.4170959070897236,22.618252,8.350271,-9.965236,-6.4210725,7.585879,-8.971503,1.5833664,-0.46095258,-0.009885193,-0.40181056,-0.79118437,-9.178531,6.8904505,1.0060897,1.7156848,-2.4345028,0.061482802,0
1.0400000000000007,16.604502877382796,0.8140235624937315,-1.6498499104998008,-0.4170959070897236,23.010592,8.462397,-10.397987,-6.844358,7.4944186,-8.902081,1.5934983,-0.46539205,-0.023153406,-0.40280178,-0.7877971,-9.112822,6.9936633,1.0202329,1.5750304,-2.3121662,0.037998807,0
1.0500000000000007,16.604502877382796,0.8140235624937315,-1.6498499104998008,-0.4170959070897236,23.010592,8.462397,-10.397987,-6.844358,7.4036365,-8.831637,1.6037697,-0.46961853,-0.035626635,-0.40346867,-0.7844754,-9.043028,7.094622,1.0339609,1.4563171,-2.2089026,0.015667178,0
1.0600000000000007,16.604502877382796,0.8140235624937315,-1.6498499104998008,-0.4170959070897236,23.010592,8.462397,-10.397987,-6.844358,7.3135715,-8.760196,1.614176,-0.47367573,-0.04742069,-0.40386328,-0.7812019,-8.969444,7.1933355,1.0472635,1.3561213,-2.1217384,-0.005568629,0
1.0700000000000007,16.604502877382796,0.8140235624937315,-1.6498499104998008,-0.4170959070897236,23.010592,8.462397,-10.397987,-6.844358,7.22426,-8.687778,1.6247133,-0.4775984,-0.05863393,-0.40402845,-0.7779603,-8.892322,7.2898126,1.0601319,1.2715545,-2.0481641,-0.025762398,0
1.0800000000000007,16.05614423819006,0.004925664605412854,-1.0050595139111043,-0.347398368529677,19.792507,4.8343077,-6.9016705,-1.3234158,7.1357365,-8.614408,1.635377,-0.48141408,-0.069349825,-0.40399954,-0.77473533,-8.811877,7.3840585,1.072558,1.200179,-1.9860612,-0.044965245,0
1.0900000000000007,16.05614423819006,0.004925664605412854,-1.0050595139111043,-0.347398368529677,19.792507,4.8343077,-6.9016705,-1.3234158,7.0480194,-8.540121,1.6461447,-0.48505872,-0.079286985,-0.40368032,-0.7716691,-8.731083,7.4730496,1.0809089,1.0137665,-1.8330789,-0.059805717,0
1.1000000000000008,16.05614423819006,0.004925664605412854,-1.0050595139111043,-0.347398368529677,19.792507,4.8343077,-6.9016705,-1.3234158,6.961124,-8.464954,1.6569941,-0.48848933,-0.08822732,-0.4030018,-0.76888424,-8.647604,7.5599685,1.0889013,0.85642767,-1.7039516,-0.07391797,0
1.1100000000000008,16.05614423819006,0.004925664605412854,-1.0050595139111043,-0.347398368529677,19.792507,4.8343077,-6.9016705,-1.3234158,6.8750753,-8.388928,1.6679219,-0.49175245,-0.09632169,-0.40202597,-0.7663395,-8.561763,7.6448994,1.0966184,0.7236278,-1.5949597,-0.08733773,0
1.1200000000000008,15.417331502906228,-0.7138822254445266,-0.33989695345754184,-0.21625703653765693,19.818722,4.8530655,-7.4334006,-1.1332647,6.789896,-8.312063,1.6789259,-0.49488488,-0.10369776,-0.40080374,-0.7639971,-8.473827,7.7279162,1.1041347,0.61153936,-1.502964,-0.100099,0
1.1300000000000008,15.417331502906228,-0.7138822254445266,-0.33989695345754184,-0.21625703653765693,19.818722,4.8530655,-7.4334006,-1.1332647,6.7055874,-8.234394,1.6899832,-0.4978282,-0.110124454,-0.3992883,-0.7619764,-8.387617,7.805867,1.1073284,0.40484756,-1.3215721,-0.105798915,0
1.1400000000000008,15.417331502906228,-0.7138822254445266,-0.33989695345754184,-0.21625703653765693,19.818722,4.8530655,-7.4334006,-1.1332647,6.6221485,-8.155952,1.7010725,-0.5005398,-0.115425676,-0.39744732,-0.7603763,-8.299962,7.882189,1.1105238,0.23038872,-1.1684691,-0.111219116,0
1.1500000000000008,15.417331502906228,-0.7138822254445266,-0.33989695345754184,-0.21625703653765693,19.818722,4.8530655,-7.4334006,-1.1332647,6.539592,-8.076755,1.7121942,-0.50306594,-0.1197751,-0.3953372,-0.7591354,-8.211179,7.9570208,1.1138479,0.08313619,-1.0392433,-0.11637336,0
1.1600000000000008,14.7797876905827,-1.3073802738847413,0.19284193646533682,-0.05021848143793686,17.572594,-3.8983543,-8.225677,5.9512334,6.4579277,-7.996816,1.7233502,-0.50544316,-0.123319305,-0.39300388,-0.7581998,-8.1215315,8.030485,1.1174114,-0.041153092,-0.93017095,-0.121274695,0
1.1700000000000008,14.7797876905827,-1.3073802738847413,0.19284193646533682,-0.05021848143793686,17.572594,-3.8983543,-8.225677,5.9512334,6.377145,-7.916164,1.7345225,-0.5076312,-0.12590834,-0.39041036,-0.7576522,-8.03499,8.09971,1.1171005,-0.23860501,-0.7550227,-0.117787965,0
1.1800000000000008,14.7797876905827,-1.3073802738847413,0.19284193646533682,-0.05021848143793686,17.572594,-3.8983543,-8.225677,5.9512334,6.297229,-7.834825,1.7456938,-0.50959766,-0.12743053,-0.38752913,-0.7575569,-7.9481397,8.167883,1.1172533,-0.4052674,-0.607192,-0.11447231,0
1.1900000000000008,14.7797876905827,-1.3073802738847413,0.19284193646533682,-0.05021848143793686,17.572594,-3.8983543,-8.225677,5.9512334,6.218182,-7.752809,1.7568697,-0.5113789,-0.12805146,-0.38440612,-0.757843,-7.8612556,8.235147,1.1180001,-0.5459411,-0.4824178,-0.11131936,0
1.2000000000000008,13.313785547532397,-1.5414253311290622,0.25498421483832534,0.11710369351922971,19.286718,-7.4693646,-6.495785,6.7747297,6.140003,-7.6701245,1.7680563,-0.5130036,-0.12791073,-0.38107893,-0.75844884,-7.774571,8.301626,1.1194508,-0.6646787,-0.37710416,-0.10832112,0
1.2100000000000009,13.313785547532397,-1.5414253311290622,0.25498421483832534,0.11710369351922971,19.286718,-7.4693646,-6.495785,6.7747297,6.062647,-7.586812,1.7792116,-0.5144814,-0.12706697,-0.3775174,-0.75937015,-7.696847,8.360898,1.111747,-0.8013979,-0.27852646,-0.09725948,0
1.2200000000000009,13.313785547532397,-1.5414253311290622,0.25498421483832534,0.11710369351922971,19.286718,-7.4693646,-6.495785,6.7747297,5.986065,-7.5029087,1.790294,-0.5158176,-0.12557343,-0.37369785,-0.7606004,-7.619668,8.419637,1.1048541,-0.9167982,-0.19532481,-0.08674063,0
1.2300000000000009,13.313785547532397,-1.5414253311290622,0.25498421483832534,0.11710369351922971,19.286718,-7.4693646,-6.495785,6.7747297,5.910251,-7.418421,1.8013119,-0.51702696,-0.12353139,-0.36965722,-0.7620867,-7.543198,8.477908,1.0988536,-1.0142037,-0.12510036,-0.07673793,0
1.2400000000000009,13.313785547532397,-1.5414253311290622,0.25498421483832534,0.11710369351922971,18.488625,-7.3392076,-6.1466994,6.8109646,5.835198,-7.333352,1.8122743,-0.5181215,-0.121026374,-0.36542642,-0.7637839,-7.4675784,8.535767,1.0938103,-1.0964204,-0.06582922,-0.06722607,0
1.2500000000000009,13.313785547532397,-1.5414253311290622,0.25498421483832534,0.11710369351922971,18.488625,-7.3392076,-6.1466994,6.8109646,5.7608967,-7.2477064,1.8231915,-0.51911104,-0.11813048,-0.36103138,-0.76565325,-7.392931,8.593257,1.0897756,-1.1658163,-0.015802447,-0.058180947,0
1.260000000000001,13.313785547532397,-1.5414253311290622,0.25498421483832534,0.11710369351922971,18.488625,-7.3392076,-6.1466994,6.8109646,5.687336,-7.1614876,1.8340734,-0.5200038,-0.114904635,-0.3564939,-0.76766187,-7.319363,8.650413,1.0867882,-1.2243909,0.026421981,-0.04957968,0
1.270000000000001,13.313785547532397,-1.5414253311290622,0.25498421483832534,0.11710369351922971,18.488625,-7.3392076,-6.1466994,6.8109646,5.614505,-7.074699,1.8449309,-0.52080655,-0.11140025,-0.3518324,-0.7697819,-7.2469664,8.707262,1.0848774,-1.2738314,0.062060874,-0.04140048,0
1.280000000000001,11.47128127843509,-1.4170039083036436,-0.22962846313966684,0.2808667927845784,15.227923,-4.054974,-3.4287047,3.3211327,5.5423923,-6.9873433,1.8557748,-0.5215251,-0.10766075,-0.34706244,-0.77198964,-7.1758223,8.763826,1.0840632,-1.3155624,0.09214164,-0.03362264,0
1.290000000000001,11.47128127843509,-1.4170039083036436,-0.22962846313966684,0.2808667927845784,15.227923,-4.054974,-3.4287047,3.3211327,5.470936,-6.899462,1.8665481,-0.5222105,-0.1039057,-0.34213254,-0.7742382,-7.115658,8.812321,1.0707419,-1.3313836,0.0419486,-0.018190559,0
1.300000000000001,11.47128127843509,-1.4170039083036436,-0.22962846313966684,0.2808667927845784,15.227923,-4.054974,-3.4287047,3.3211327,5.400075,-6.8110976,1.877193,-0.522901,-0.10031253,-0.33700275,-0.77649254,-7.056641,8.860528,1.0583849,-1.3447365,-0.0004164055,-0.0035157271,0
1.310000000000001,11.47128127843509,-1.4170039083036436,-0.22962846313966684,0.2808667927845784,15.227923,-4.054974,-3.4287047,3.3211327,5.3297987,-6.722253,1.887719,-0.5235842,-0.09685813,-0.33170095,-0.7787503,-6.998772,8.908393,1.0469967,-1.3560063,-0.036174074,0.010438999,0
1.320000000000001,9.817972596315881,-1.2552316508380958,-0.683662599639011,0.4583010798049728,15.944872,-4.40149,-3.7242222,3.3864784,5.2600956,-6.632931,1.8981361,-0.52425,-0.09352279,-0.3262508,-0.7810092,-6.9420543,8.955868,1.0365778,-1.365518,-0.066355124,0.023708975,0
1.330000000000001,9.817972596315881,-1.2552316508380958,-0.683662599639011,0.4583010798049728,15.944872,-4.40149,-3.7242222,3.3864784,5.1909137,-6.543171,1.9083902,-0.5249261,-0.0904728,-0.32062575,-0.78324056,-6.894492,8.996123,1.0143492,-1.3483151,-0.16264227,0.045034543,0
1.340000000000001,9.817972596315881,-1.2552316508380958,-0.683662599639011,0.4583010798049728,15.944872,-4.40149,-3.7242222,3.3864784,5.1222024,-6.4530106,1.918426,-0.5256314,-0.08784039,-0.31480598,-0.78542495,-6.847879,9.035927,0.9929431,-1.3337932,-0.24391234,0.065313675,0
1.350000000000001,9.817972596315881,-1.2552316508380958,-0.683662599639011,0.4583010798049728,15.944872,-4.40149,-3.7242222,3.3864784,5.053953,-6.3624544,1.928252,-0.5263467,-0.085563764,-0.308819,-0.7875712,-6.802175,9.075203,0.9723526,-1.3215346,-0.3125073,0.08459768,0
1.360000000000001,8.832167095820804,-1.2762080881074158,-0.9528268427131478,0.651714549998774,15.706463,-2.325886,-4.9125624,2.1292973,4.9861565,-6.271508,1.937876,-0.52705616,-0.08359037,-0.30268797,-0.78968596,-6.757351,9.113885,0.9525695,-1.3111871,-0.37040377,0.10293542,0
1.370000000000001,8.832167095820804,-1.2762080881074158,-0.9528268427131478,0.651714549998774,15.706463,-2.325886,-4.9125624,2.1292973,4.9187813,-6.1801977,1.9472665,-0.5277612,-0.081963435,-0.2963671,-0.79178035,-6.7177935,9.148094,0.92564154,-1.305718,-0.46125486,0.12986416,0
1.380000000000001,8.832167095820804,-1.2762080881074158,-0.9528268427131478,0.651714549998774,15.706463,-2.325886,-4.9125624,2.1292973,4.851798,-6.088548,1.9563912,-0.52845854,-0.08071559,-0.28982052,-0.793864,-6.6789727,9.181645,0.8994293,-1.3011004,-0.5379366,0.15547152,0
1.390000000000001,8.832167095820804,-1.2762080881074158,-0.9528268427131478,0.651714549998774,15.706463,-2.325886,-4.9125624,2.1292973,4.785199,-5.9965672,1.9652575,-0.5291309,-0.07979109,-0.2830798,-0.7959392,-6.640862,9.21447,0.8739289,-1.2972022,-0.6026588,0.1798223,0
1.400000000000001,7.999333120511792,-1.2407684433976394,-0.8932505114945174,0.8233662939339264,15.540978,-2.0813007,-5.0264187,1.7618695,4.7189784,-5.904261,1.9738723,-0.52976406,-0.079142496,-0.27617165,-0.798007,-6.60344,9.24651,0.8491342,-1.2939119,-0.65728647,0.2029782,0
1.410000000000001,7.999333120511792,-1.2407684433976394,-0.8932505114945174,0.8233662939339264,15.540978,-2.0813007,-5.0264187,1.7618695,4.653111,-5.8116546,1.9822079,-0.53032243,-0.07872367,-0.26914102,-0.80007696,-6.5701547,9.274771,0.81805813,-1.2856055,-0.69410926,0.23342082,0
1.420000000000001,7.999333120511792,-1.2407684433976394,-0.8932505114945174,0.8233662939339264,15.540978,-2.0813007,-5.0264187,1.7618695,4.5875735,-5.7187686,1.9902356,-0.5307756,-0.078496255,-0.26202473,-0.8021583,-6.5374637,9.30224,0.787601,-1.2785946,-0.7251884,0.26236963,0
1.430000000000001,7.999333120511792,-1.2407684433976394,-0.8932505114945174,0.8233662939339264,15.540978,-2.0813007,-5.0264187,1.7618695,4.5223594,-5.6256127,1.9979619,-0.53112096,-0.078433245,-0.25483274,-0.8042502,-6.5053573,9.32889,0.757749,-1.2726778,-0.75141937,0.2898979,0
1.440000000000001,7.999333120511792,-1.2407684433976394,-0.8932505114945174,0.8233662939339264,14.912842,-1.8372328,-4.519393,1.3211603,4.457464,-5.5321946,2.0053926,-0.5313568,-0.078511484,-0.24757358,-0.80635136,-6.473826,9.354693,0.7284879,-1.2676843,-0.77355844,0.31607533,0
1.450000000000001,7.999333120511792,-1.2407684433976394,-0.8932505114945174,0.8233662939339264,14.912842,-1.8372328,-4.519393,1.3211603,4.3928814,-5.4385223,2.0125334,-0.5314826,-0.07871112,-0.24025454,-0.80846024,-6.442864,9.379629,0.6998026,-1.26347,-0.7922439,0.34096822,0
1.460000000000001,7.999333120511792,-1.2407684433976394,-0.8932505114945174,0.8233662939339264,14.912842,-1.8372328,-4.519393,1.3211603,4.328605,-5.344605,2.0193906,-0.53149825,-0.0790151,-0.23288189,-0.8105749,-6.4124646,9.403675,0.6716776,-1.2599138,-0.8080146,0.36463958,0
1.470000000000001,7.999333120511792,-1.2407684433976394,-0.8932505114945174,0.8233662939339264,14.912842,-1.8372328,-4.519393,1.3211603,4.26463,-5.2504516,2.0259693,-0.53140444,-0.07940877,-0.22546102,-0.8126933,-6.3826246,9.426814,0.644097,-1.2569128,-0.821325,0.38714945,0
1.480000000000001,7.463914167391956,-1.2334666267512118,-0.7547785733155985,0.9548125465422999,14.328784,-1.6695287,-3.3605692,1.1669,4.2009506,-5.1560717,2.0322745,-0.53120214,-0.079879515,-0.21799655,-0.81481314,-6.353339,9.449029,0.61704427,-1.2543807,-0.83255863,0.40855473,0
1.490000000000001,7.463914167391956,-1.2334666267512118,-0.7547785733155985,0.9548125465422999,14.328784,-1.6695287,-3.3605692,1.1669,4.1375513,-5.0614815,2.0382876,-0.5308675,-0.08037633,-0.21052307,-0.8169447,-6.32653,9.468881,0.585713,-1.2511082,-0.82045,0.43535975,0
1.500000000000001,7.463914167391956,-1.2334666267512118,-0.7547785733155985,0.9548125465422999,14.328784,-1.6695287,-3.3605692,1.1669,4.0744176,-4.966697,2.0439901,-0.53038096,-0.08085827,-0.20306815,-0.81909746,-6.3002396,9.487856,0.5548414,-1.2483463,-0.81022847,0.46084946,0
1.5100000000000011,7.463914167391956,-1.2334666267512118,-0.7547785733155985,0.9548125465422999,14.328784,-1.6695287,-3.3605692,1.1669,4.0115447,-4.8717275,2.0493863,-0.5297499,-0.08132878,-0.19562618,-0.8212676,-6.2744713,9.505956,0.5244119,-1.2460158,-0.80160016,0.48508835,0
1.5200000000000011,7.14630243480396,-1.287978364404718,-0.3355471514839886,1.0657114878628318,12.537242,-0.5527573,-2.4708388,0.494218,3.9489264,-4.776581,2.0544798,-0.5289808,-0.08179056,-0.18819256,-0.8234516,-6.2492275,9.523179,0.49440768,-1.2440491,-0.79431653,0.5081378,0
1.5300000000000011,7.14630243480396,-1.287978364404718,-0.3355471514839886,1.0657114878628318,12.537242,-0.5527573,-2.4708388,0.494218,3.8865528,-4.68127,2.059261,-0.5280394,-0.08209848,-0.18083307,-0.8256712,-6.2255654,9.538833,0.46189675,-1.2509105,-0.72279614,0.53549814,0
1.5400000000000011,7.14630243480396,-1.287978364404718,-0.3355471514839886,1.0657114878628318,12.537242,-0.5527573,-2.4708388,0.494218,3.8244133,-4.585807,2.063719,-0.5268995,-0.08213737,-0.17359954,-0.82794493,-6.202431,9.553679,0.42976084,-1.256701,-0.66242826,0.56151587,0
1.5500000000000012,7.14630243480396,-1.287978364404718,-0.3355471514839886,1.0657114878628318,12.537242,-0.5527573,-2.4708388,0.494218,3.7625022,-4.490199,2.0678577,-0.5255778,-0.08194958,-0.16646974,-0.8302646,-6.179848,9.56775,0.39798492,-1.2615875,-0.6114734,0.5862569,0
1.5600000000000012,7.464100128454592,-1.5019429473662935,0.2018148912180585,1.2159742095033157,12.583148,0.013490672,-2.0843973,0.039618462,3.7008145,-4.3944545,2.0716803,-0.52408826,-0.081570745,-0.15942498,-0.83262277,-6.157835,9.581071,0.3665547,-1.2657108,-0.56846386,0.6097839,0
1.5700000000000012,7.464100128454592,-1.5019429473662935,0.2018148912180585,1.2159742095033157,12.583148,0.013490672,-2.0843973,0.039618462,3.6393485,-4.2985773,2.075205,-0.52240074,-0.08080974,-0.15248923,-0.835053,-6.135461,9.594227,0.33843678,-1.30259,-0.4483792,0.63952976,0
1.5800000000000012,7.464100128454592,-1.5019429473662935,0.2018148912180585,1.2159742095033157,12.583148,0.013490672,-2.0843973,0.039618462,3.578103,-4.202572,2.0784502,-0.52049136,-0.079516366,-0.14567988,-0.83758134,-6.113755,9.606679,0.31065756,-1.3337146,-0.3470193,0.66781604,0
1.5900000000000012,7.464100128454592,-1.5019429473662935,0.2018148912180585,1.2159742095033157,12.583148,0.013490672,-2.0843973,0.039618462,3.517071,-4.1064453,2.081419,-0.5183793,-0.07777343,-0.13897382,-0.84019035,-6.092772,9.618478,0.28320935,-1.3599824,-0.26146412,0.6947143,0
1.6000000000000012,8.541627150402533,-1.8903523771924227,0.8486175646627172,1.4459086271415897,12.510231,-0.26994607,-1.423669,-0.060103472,3.4562452,-4.010204,2.0841155,-0.5160805,-0.0756508,-0.13235173,-0.8428643,-6.0725574,9.629667,0.25608376,-1.3821505,-0.18924914,0.7202927,0
1.6100000000000012,8.541627150402533,-1.8903523771924227,0.8486175646627172,1.4459086271415897,12.510231,-0.26994607,-1.423669,-0.060103472,3.3956313,-3.9138458,2.0865934,-0.5135621,-0.07291261,-0.12579745,-0.845643,-6.050358,9.641818,0.23956412,-1.4614792,-0.0274655,0.7558989,0
1.6200000000000012,8.541627150402533,-1.8903523771924227,0.8486175646627172,1.4459086271415897,12.510231,-0.26994607,-1.423669,-0.060103472,3.3352344,-3.8173695,2.0889082,-0.51079494,-0.069374666,-0.119295694,-0.84855384,-6.029194,9.653388,0.22340332,-1.528431,0.109092474,0.7897579,0
1.6300000000000012,8.541627150402533,-1.8903523771924227,0.8486175646627172,1.4459086271415897,12.510231,-0.26994607,-1.423669,-0.060103472,3.2750435,-3.72078,2.091063,-0.507796,-0.065161,-0.112833224,-0.8515664,-6.00917,9.664444,0.2075992,-1.5849363,0.22435874,0.82195544,0
1.6400000000000012,8.541627150402533,-1.8903523771924227,0.8486175646627172,1.4459086271415897,13.9923935,-0.49467134,-1.1482611,0.36718643,3.215047,-3.6240823,2.0930614,-0.50457937,-0.060376327,-0.10639937,-0.85465366,-5.9903765,9.67504,0.19214492,-1.632624,0.32165352,0.85257304,0
1.6500000000000012,8.541627150402533,-1.8903523771924227,0.8486175646627172,1.4459086271415897,13.9923935,-0.49467134,-1.1482611,0.36718643,3.1552315,-3.5272806,2.094907,-0.50115657,-0.05510913,-0.099985644,-0.857792,-5.972892,9.685219,0.17702943,-1.6728698,0.40377924,0.8816882,0
1.6600000000000013,8.541627150402533,-1.8903523771924227,0.8486175646627172,1.4459086271415897,13.9923935,-0.49467134,-1.1482611,0.36718643,3.0955842,-3.4303792,2.0966032,-0.49753764,-0.049434196,-0.093585335,-0.86096084,-5.9567804,9.695012,0.16223784,-1.7068342,0.47310135,0.9093747,0
1.6700000000000013,8.541627150402533,-1.8903523771924227,0.8486175646627172,1.4459086271415897,13.9923935,-0.49467134,-1.1482611,0.36718643,3.036091,-3.3333817,2.0981529,-0.49373102,-0.043414764,-0.08719328,-0.864142,-5.9421,9.704441,0.14775193,-1.7354976,0.5316161,0.93570256,0
1.6800000000000013,9.777755854574728,-2.257513309583088,1.2559592232058456,1.6604882269258232,15.490169,-1.2996356,-1.4806799,1.3353487,2.9767373,-3.2362914,2.0995593,-0.48974422,-0.037104342,-0.080805585,-0.86731976,-5.928898,9.713522,0.13355057,-1.7596866,0.5810089,0.96073854,0
1.6900000000000013,9.777755854574728,-2.257513309583088,1.2559592232058456,1.6604882269258232,15.490169,-1.2996356,-1.4806799,1.3353487,2.9175167,-3.1391058,2.1008859,-0.4855526,-0.030336997,-0.0743702,-0.87050945,-5.915534,9.723532,0.13179049,-1.8374033,0.6861773,0.99507546,0
1.7000000000000013,9.777755854574728,-2.257513309583088,1.2559592232058456,1.6604882269258232,15.490169,-1.2996356,-1.4806799,1.3353487,2.8584206,-3.0418222,2.1021962,-0.4811314,-0.022983776,-0.06784458,-0.87371653,-5.9040184,9.733178,0.13030557,-1.9029932,0.77495146,1.0277275,0
1.7100000000000013,9.777755854574728,-2.257513309583088,1.2559592232058456,1.6604882269258232,15.490169,-1.2996356,-1.4806799,1.3353487,2.79943,-2.9444437,2.103493,-0.47648686,-0.015136419,-0.06123931,-0.87691504,-5.894454,9.742479,0.12906696,-1.9583477,0.8498877,1.0587772,0
1.7200000000000013,11.06325546019976,-2.406823104548211,1.6248837840920116,1.751570312574488,15.583556,-1.439246,-1.7434351,1.3959104,2.7405245,-2.846974,2.1047783,-0.47162473,-0.0068726195,-0.05456412,-0.88008225,-5.8869286,9.751444,0.12803954,-2.0050633,0.9131436,1.0883032,0
1.7300000000000013,11.06325546019976,-2.406823104548211,1.6248837840920116,1.751570312574488,15.583556,-1.439246,-1.7434351,1.3959104,2.6816876,-2.7494104,2.1061182,-0.46653247,0.001899342,-0.04784442,-0.8832066,-5.8808107,9.761213,0.1399677,-2.0678177,1.0240507,1.12085,0
1.7400000000000013,11.06325546019976,-2.406823104548211,1.6248837840920116,1.751570312574488,15.583556,-1.439246,-1.7434351,1.3959104,2.6228995,-2.651751,2.107578,-0.46119836,0.011248593,-0.041100346,-0.8862728,-5.877202,9.770632,0.15203717,-2.1207762,1.1176689,1.1517997,0
1.7500000000000013,11.06325546019976,-2.406823104548211,1.6248837840920116,1.751570312574488,15.583556,-1.439246,-1.7434351,1.3959104,2.5641346,-2.553999,2.1091592,-0.45562854,0.021083616,-0.034333527,-0.8892573,-5.87621,9.7797165,0.16418906,-2.1654673,1.1966937,1.1812305,0
1.7600000000000013,12.095135496154521,-2.4748115055312203,1.4959169177779257,1.7859078480370325,16.216396,-0.7395525,-2.818261,1.2911152,2.505366,-2.4561577,2.110862,-0.4498287,0.031326625,-0.027546199,-0.8921396,-5.877925,9.788476,0.17635825,-2.203181,1.2634007,1.2092173,0
1.7700000000000014,12.095135496154521,-2.4748115055312203,1.4959169177779257,1.7859078480370325,16.216396,-0.7395525,-2.818261,1.2911152,2.446565,-2.3582268,2.1127377,-0.4438009,0.04187738,-0.0206938,-0.89490664,-5.882839,9.797691,0.19875476,-2.245594,1.2995868,1.2375157,0
1.7800000000000014,12.095135496154521,-2.4748115055312203,1.4959169177779257,1.7859078480370325,16.216396,-0.7395525,-2.818261,1.2911152,2.387699,-2.2602055,2.1148365,-0.43754634,0.052652173,-0.013742246,-0.8975473,-5.890855,9.806513,0.22101413,-2.2813885,1.3301357,1.2644254,0
1.7900000000000014,12.095135496154521,-2.4748115055312203,1.4959169177779257,1.7859078480370325,16.216396,-0.7395525,-2.818261,1.2911152,2.328737,-2.1620982,2.117157,-0.43106973,0.063612044,-0.006708413,-0.900048,-5.9020195,9.814899,0.24305338,-2.3115966,1.3559259,1.2900146,0
1.8000000000000014,12.688784087429903,-2.5027777888930274,0.8788385969394247,1.7380357076026014,15.673537,-0.49324647,-2.2261114,0.72911143,2.2696476,-2.0639095,2.1196961,-0.42437592,0.07472368,0.00039284653,-0.902397,-5.9163685,9.822807,0.26478654,-2.3370898,1.3776989,1.3143482,0
1.8100000000000014,12.688784087429903,-2.5027777888930274,0.8788385969394247,1.7380357076026014,15.673537,-0.49324647,-2.2261114,0.72911143,2.2103946,-1.9656422,2.1224802,-0.41747418,0.085740216,0.007663073,-0.90460163,-5.93478,9.830539,0.2919895,-2.36288,1.2998477,1.3351388,0
1.8200000000000014,12.688784087429903,-2.5027777888930274,0.8788385969394247,1.7380357076026014,15.673537,-0.49324647,-2.2261114,0.72911143,2.150941,-1.8673011,2.1255338,-0.41037345,0.09646376,0.015179757,-0.90667355,-5.9565096,9.8375845,0.31870046,-2.3846557,1.234142,1.3549091,0
1.8300000000000014,12.688784087429903,-2.5027777888930274,0.8788385969394247,1.7380357076026014,15.673537,-0.49324647,-2.2261114,0.72911143,2.0912533,-1.7688935,2.128852,-0.40307832,0.10693409,0.02289862,-0.90860754,-5.981499,9.843811,0.3448436,-2.4030426,1.1786869,1.3737093,0
1.8400000000000014,12.688784087429903,-2.5027777888930274,0.8788385969394247,1.7380357076026014,13.371106,-0.5310703,-2.7589405,0.8499206,2.0312996,-1.670428,2.1324284,-0.39559388,0.11718469,0.030782223,-0.9103981,-6.00969,9.8491,0.37034342,-2.4185677,1.1318837,1.3915869,0
1.8500000000000014,12.688784087429903,-2.5027777888930274,0.8788385969394247,1.7380357076026014,13.371106,-0.5310703,-2.7589405,0.8499206,1.9710484,-1.5719148,2.1362565,-0.38792545,0.1272437,0.038798865,-0.91203976,-6.0410237,9.853347,0.39512467,-2.4316766,1.0923829,1.4085872,0
1.8600000000000014,12.688784087429903,-2.5027777888930274,0.8788385969394247,1.7380357076026014,13.371106,-0.5310703,-2.7589405,0.8499206,1.9104683,-1.4733648,2.1403282,-0.3800786,0.1371347,0.046921663,-0.913527,-6.075442,9.856451,0.4191123,-2.4427457,1.0590451,1.4247533,0
1.8700000000000014,12.688784087429903,-2.5027777888930274,0.8788385969394247,1.7380357076026014,13.371106,-0.5310703,-2.7589405,0.8499206,1.8495291,-1.3747901,2.1446354,-0.372059,0.14687744,0.055127792,-0.91485465,-6.112885,9.858327,0.44223166,-2.4520917,1.0309087,1.4401261,0
1.8800000000000014,12.52647167342783,-2.272499854623495,-0.03498288439002493,1.5260205007519059,10.881424,-0.6151482,-2.1081557,1.86402,1.7882005,-1.2762028,2.1491694,-0.3638723,0.15648833,0.06339782,-0.91601753,-6.1532927,9.858892,0.46440855,-2.4599836,1.0071628,1.4547446,0
1.8900000000000015,12.52647167342783,-2.272499854623495,-0.03498288439002493,1.5260205007519059,10.881424,-0.6151482,-2.1081557,1.86402,1.726456,-1.1776168,2.1539125,-0.35553953,0.16561118,0.071766764,-0.91706765,-6.1960325,9.858076,0.48404998,-2.4305937,0.84466296,1.458242,0
1.9000000000000015,12.52647167342783,-2.272499854623495,-0.03498288439002493,1.5260205007519059,10.881424,-0.6151482,-2.1081557,1.86402,1.6642706,-1.0790465,2.158847,-0.3470821,0.1739655,0.0802592,-0.9180563,-6.241445,9.855751,0.50266635,-2.4058106,0.7075008,1.461568,0
1.9100000000000015,12.52647167342783,-2.272499854623495,-0.03498288439002493,1.5260205007519059,10.881424,-0.6151482,-2.1081557,1.86402,1.6016185,-0.9805075,2.1639624,-0.33850595,0.18166566,0.088846415,-0.9189758,-6.289338,9.851784,0.52024287,-2.384912,0.5917259,1.4647306,0
1.9200000000000015,12.070381613853284,-1.8032660516600914,-0.7327532791454988,1.177648561618395,9.76277,-0.9401736,-1.368922,2.4034722,1.5384759,-0.8820169,2.169248,-0.32981658,0.18880808,0.09750475,-0.9198175,-6.339537,9.84606,0.53676313,-2.3672893,0.49400303,1.4677382,0
1.9300000000000015,12.070381613853284,-1.8032660516600914,-0.7327532791454988,1.177648561618395,9.76277,-0.9401736,-1.368922,2.4034722,1.4748299,-0.7835914,2.1746733,-0.32106748,0.19515185,0.1061413,-0.92063254,-6.3899636,9.838756,0.5480825,-2.2791445,0.30279642,1.4535034,0
1.9400000000000015,12.070381613853284,-1.8032660516600914,-0.7327532791454988,1.177648561618395,9.76277,-0.9401736,-1.368922,2.4034722,1.4106704,-0.68524826,2.1802065,-0.31230867,0.20051214,0.11468116,-0.92146903,-6.4422007,9.829575,0.5584067,-2.2047775,0.14139283,1.4399672,0
1.9500000000000015,12.070381613853284,-1.8032660516600914,-0.7327532791454988,1.177648561618395,9.76277,-0.9401736,-1.368922,2.4034722,1.3459804,-0.5870067,2.1858382,-0.3035398,0.20503895,0.1231312,-0.9223124,-6.4960017,9.818437,0.5677788,-2.1420345,0.0051470436,1.4270952,0
1.9600000000000015,10.98720759980566,-1.4226039443727772,-1.7062397547972143,0.7715697360661118,8.878768,0.8675067,-0.94180536,0.9700851,1.2807456,-0.48888645,2.191559,-0.29476064,0.20885836,0.13149798,-0.9231476,-6.5511518,9.80528,0.57623535,-2.089098,-0.10986232,1.4148548,0
1.9700000000000015,10.98720759980566,-1.4226039443727772,-1.7062397547972143,0.7715697360661118,8.878768,0.8675067,-0.94180536,0.9700851,1.2149787,-0.39090148,2.1973126,-0.28599727,0.21166575,0.13977094,-0.9240488,-6.602391,9.791415,0.5743321,-1.9849365,-0.35867947,1.3832886,0
1.9800000000000015,10.98720759980566,-1.4226039443727772,-1.7062397547972143,0.7715697360661118,8.878768,0.8675067,-0.94180536,0.9700851,1.1486952,-0.2930649,2.2030435,-0.2772749,0.2132252,0.14794052,-0.92507625,-6.654398,9.775591,0.5717115,-1.8970625,-0.5687145,1.3532714,0
1.9900000000000015,10.98720759980566,-1.4226039443727772,-1.7062397547972143,0.7715697360661118,8.878768,0.8675067,-0.94180536,0.9700851,1.081889,-0.19539662,2.2087448,-0.2685914,0.2137264,0.15601428,-0.92619544,-6.706905,9.757742,0.5684582,-1.8229284,-0.7460118,1.3247272,0
2.0000000000000013,,,,,9.928235,1.6451081,-1.527105,-0.1651041,1.0145563,-0.097917184,2.2144105,-0.25994474,0.21332876,0.16399929,-0.927374,-6.759678,9.73782,0.5646429,-1.7603847,-0.8956736,1.2975835,0
2.010000000000001,,,,,9.928235,1.6451081,-1.527105,-0.1651041,0.9467121,-0.0006406121,2.220006,-0.25135735,0.21181768,0.17187163,-0.9286612,-6.809153,9.717182,0.5543927,-1.654568,-1.149973,1.2503804,0
2.020000000000001,,,,,9.928235,1.6451081,-1.527105,-0.1651041,0.87837404,0.09641953,2.225497,-0.24285063,0.20902853,0.17961092,-0.930091,-6.858409,9.694526,0.5437674,-1.5652984,-1.3646368,1.2054936,0
2.0300000000000007,,,,,9.928235,1.6451081,-1.527105,-0.1651041,0.80954564,0.19324283,2.2308805,-0.23442115,0.20515174,0.18722828,-0.9316135,-6.907188,9.669815,0.5328529,-1.489986,-1.5458416,1.1628095,0
2.0400000000000005,,,,,9.928235,1.6451081,-1.527105,-0.1651041,0.74023277,0.2898087,2.2361536,-0.22606583,0.20034765,0.19473335,-0.9331841,-6.955265,9.643032,0.5217158,-1.4264466,-1.6988024,1.1222199,0
2.0500000000000003,,,,,13.308276,2.003123,-3.2073748,-0.84959227,0.6704435,0.38609633,2.2413144,-0.21778199,0.19475138,0.20213455,-0.93476367,-7.0024433,9.614171,0.5104057,-1.3728391,-1.827921,1.0836221,1
2.06,,,,,13.308276,2.003123,-3.2073748,-0.84959227,0.6001,0.48202708,2.2465258,-0.20987123,0.18820426,0.20853764,-0.9365062,-7.0657797,9.57171,0.53140956,-0.9328616,-1.9561987,0.996517,1
2.07,,,,,13.308276,2.003123,-3.2073748,-0.84959227,0.52913904,0.57752556,2.2519338,-0.20259127,0.18046477,0.21315892,-0.93858993,-7.12588,9.5278015,0.5498206,-0.5285275,-2.0975194,0.9107377,1
2.0799999999999996,,,,,13.308276,2.003123,-3.2073748,-0.84959227,0.4575944,0.6725798,2.2575147,-0.19587706,0.1715279,0.21615267,-0.9410031,-7.182488,9.482931,0.5659807,-0.15519667,-2.248924,0.8263011,1
2.0899999999999994,,,,,14.716237,2.7276065,-4.3884997,-1.4886903,0.38550103,0.76718146,2.2632492,-0.18966867,0.1614089,0.21765816,-0.9437141,-7.2357545,9.437193,0.5809968,0.18082067,-2.3976984,0.7441135,1
2.099999999999999,,,,,14.716237,2.7276065,-4.3884997,-1.4886903,0.31284556,0.86127967,2.2692344,-0.1839211,0.14998262,0.21786205,-0.94668514,-7.294586,9.38243,0.61577183,0.49362174,-2.6237378,0.6421138,1
2.109999999999999,,,,,14.716237,2.7276065,-4.3884997,-1.4886903,0.23962626,0.95483047,2.2755587,-0.17860028,0.13706891,0.21686229,-0.94988585,-7.34848,9.327767,0.64886254,0.7919301,-2.848888,0.5420512,1
2.1199999999999988,,,,,14.716237,2.7276065,-4.3884997,-1.4886903,0.1658939,1.0478365,2.2822068,-0.1736664,0.12269049,0.21469647,-0.9532527,-7.397154,9.273526,0.68047243,1.0771893,-3.072465,0.4439038,1
2.1299999999999986,,,,,13.139183,2.4854171,-3.9114683,-1.4875295,0.091700464,1.1403016,2.2891686,-0.16908182,0.106903374,0.21141613,-0.95670503,-7.4407945,9.219446,0.71208644,1.3344283,-3.277707,0.34907085,1
2.1399999999999983,,,,,13.139183,2.4854171,-3.9114683,-1.4875295,0.017116092,1.2322539,2.2963836,-0.16484413,0.09008085,0.20720784,-0.96009123,-7.47537,9.171037,0.73113203,1.5137486,-3.3765895,0.25894833,1
2.149999999999998,,,,,13.139183,2.4854171,-3.9114683,-1.4875295,-0.05779095,1.3237226,2.3037958,-0.16095205,0.072563626,0.20225124,-0.963287,-7.5052953,9.122738,0.7514952,1.6651006,-3.4600708,0.17324817,1
2.159999999999998,,,,,13.139183,2.4854171,-3.9114683,-1.4875295,-0.13297313,1.4147098,2.311418,-0.15737623,0.054453157,0.19664168,-0.9662288,-7.5303698,9.074763,0.77310956,1.792849,-3.5305467,0.091753334,1
2.1699999999999977,,,,,10.468956,0.26353124,-2.4356933,-0.7990272,-0.20838106,1.5052197,2.3192623,-0.15409116,0.03583752,0.19046012,-0.9688627,-7.550419,9.027311,0.795873,1.900677,-3.5900404,0.014257465,1
2.1799999999999975,,,,,10.468956,0.26353124,-2.4356933,-0.7990272,-0.28394786,1.595306,2.3272157,-0.15107878,0.017518774,0.18454675,-0.9709837,-7.5623093,8.990034,0.7948686,1.6452744,-3.410066,-0.02565065,1
2.1899999999999973,,,,,10.468956,0.26353124,-2.4356933,-0.7990272,-0.35961375,1.685022,2.335162,-0.14833269,0.00013899943,0.17958583,-0.9724941,-7.5702696,8.953228,0.79444504,1.4297142,-3.2581449,-0.063600466,1
2.199999999999997,,,,,10.468956,0.26353124,-2.4356933,-0.7990272,-0.4353405,1.7743717,2.343106,-0.14584443,-0.016447473,0.17542836,-0.9734898,-7.5745106,8.916785,0.7943902,1.2477802,-3.129906,-0.099688075,1
