time-since-start [s],throttle_mpc,roll_mpc,pitch_mpc,yaw_mpc,throttle_nw,roll_nw,pitch_nw,yaw_nw,position_x [m],position_y [m],position_z [m],rotation_w [quaternion],rotation_x [quaternion],rotation_y [quaternion],rotation_z [quaternion],velocity_x [m/s],velocity_y [m/s],velocity_z [m/s],omega_x [rad/s],omega_y [rad/s],omega_z [rad/s],network_used
0.0,7.607749935409124,-5.999998681852688,-5.999999919756444,5.3744887575623395,5.789943,1.539351,-3.8610077,-1.3775619,18.724861,-9.577698,1.9181669,-0.034169633,0.39878064,-0.14949742,-0.90413326,-11.772057,-0.9804559,-0.24686976,1.2901868,0.08155303,-0.012028043,0
0.01,7.607749935409124,-5.999998681852688,-5.999999919756444,5.3744887575623395,12.284136,-0.13535865,-5.737544,-0.66025984,18.606504,-9.5872345,1.9157771,-0.036218055,0.3990931,-0.15527624,-0.90294087,-11.898665,-0.92661864,-0.2316422,1.196086,0.17608912,0.15714264,0
0.02,7.607749935409124,-5.999998681852688,-5.999999919756444,5.3744887575623395,12.284136,-0.13535865,-5.737544,-0.66025984,18.486897,-9.596228,1.9135245,-0.03726719,0.39965072,-0.16098629,-0.90165067,-12.022759,-0.8717711,-0.21922034,1.1042703,0.24348255,0.32103214,0
0.03,7.607749935409124,-5.999998681852688,-5.999999919756444,5.3744887575623395,12.284136,-0.13535865,-5.737544,-0.66025984,18.366055,-9.604667,1.911385,-0.037356738,0.40030804,-0.16658637,-0.90033704,-12.145143,-0.81583744,-0.20902814,1.0030974,0.27666652,0.47899476,0
0.04,7.607749935409124,-5.999998681852688,-5.999999919756444,5.3744887575623395,9.332693,0.04977934,-6.6006856,-0.5281054,18.244,-9.612542,1.9093361,-0.036520373,0.40092373,-0.17201947,-0.89907485,-12.265823,-0.7590665,-0.20111668,0.89315695,0.28009614,0.6314001,0
0.05,7.607749935409124,-5.999998681852688,-5.999999919756444,5.3744887575623395,9.332693,0.04977934,-6.6006856,-0.5281054,18.120743,-9.619846,1.9073548,-0.034789454,0.40137467,-0.17723285,-0.897929,-12.384793,-0.7017077,-0.19548184,0.7750986,0.25768572,0.7785857,0
0.060000000000000005,7.607749935409124,-5.999998681852688,-5.999999919756444,5.3744887575623395,9.332693,0.04977934,-6.6006856,-0.5281054,17.996307,-9.626575,1.9054188,-0.03219334,0.40155372,-0.18217814,-0.8969555,-12.50203,-0.6440081,-0.19207226,0.64960617,0.2128773,0.9208603,0
0.07,7.607749935409124,-5.999998681852688,-5.999999919756444,5.3744887575623395,9.332693,0.04977934,-6.6006856,-0.5281054,17.870707,-9.632727,1.9035059,-0.028759647,0.40136743,-0.18681145,-0.89620227,-12.617496,-0.58621013,-0.19079693,0.517377,0.14869815,1.0585065,0
0.08,7.85186349723529,-5.999999665837056,-5.999999966735643,5.847544431878592,10.115557,-0.22408755,-6.3794518,-0.8881706,17.743963,-9.6383,1.9015958,-0.024514478,0.40073392,-0.19109325,-0.89570904,-12.731143,-0.5285492,-0.19153185,0.37910724,0.06781162,1.1917835,0
0.09,7.85186349723529,-5.999999665837056,-5.999999966735643,5.847544431878592,10.115557,-0.22408755,-6.3794518,-0.8881706,17.616062,-9.643284,1.8996935,-0.019473622,0.39970496,-0.1951453,-0.8954189,-12.848691,-0.4682854,-0.18920928,0.29487488,0.03206369,1.3388302,0
0.09999999999999999,7.85186349723529,-5.999999665837056,-5.999999966735643,5.847544431878592,10.115557,-0.22408755,-6.3794518,-0.8881706,17.486996,-9.647667,1.8978059,-0.013648957,0.3983201,-0.19906831,-0.8952802,-12.964477,-0.40844253,-0.18855277,0.19869673,-0.023244925,1.4809052,0
0.10999999999999999,7.85186349723529,-5.999999665837056,-5.999999966735643,5.847544431878592,10.115557,-0.22408755,-6.3794518,-0.8881706,17.35678,-9.651454,1.8959169,-0.0070596156,0.39649427,-0.20279945,-0.8953295,-13.078441,-0.34918293,-0.18947737,0.091932535,-0.0955704,1.6182976,0
0.11999999999999998,7.85186349723529,-5.999999665837056,-5.999999966735643,5.847544431878592,10.115557,-0.22408755,-6.3794518,-0.8881706,17.225431,-9.654653,1.8940113,0.0002752986,0.3941515,-0.20628317,-0.8955957,-13.190516,-0.2906679,-0.19186841,-0.024161054,-0.18265496,1.7512726,0
0.12999999999999998,9.277954029425821,-5.999999890933179,-5.999999999652927,5.999959431107096,12.782191,-1.6224788,-7.4425287,-0.59108007,17.092976,-9.65727,1.892075,0.008336611,0.39122376,-0.2094704,-0.89610076,-13.300625,-0.23305452,-0.19558743,-0.14842589,-0.28249407,1.8800737,0
0.13999999999999999,9.277954029425821,-5.999999890933179,-5.999999999652927,5.999959431107096,12.782191,-1.6224788,-7.4425287,-0.59108007,16.959381,-9.659293,1.8901339,0.017132984,0.3876056,-0.21228866,-0.89688456,-13.417555,-0.17184877,-0.19281752,-0.29701063,-0.41057125,2.013942,0
0.15,9.277954029425821,-5.999999890933179,-5.999999999652927,5.999959431107096,12.782191,-1.6224788,-7.4425287,-0.59108007,16.82463,-9.660711,1.888215,0.026671737,0.3831969,-0.21467087,-0.8979784,-13.532123,-0.11196436,-0.19112726,-0.45160443,-0.5479222,2.1438527,0
0.16,11.575155029694118,-5.999999968742431,-6.0,5.828364865193143,13.472194,-2.8995838,-8.929768,-0.79035413,16.688747,-9.661537,1.8863084,0.036931228,0.37794602,-0.21658395,-0.89937997,-13.644203,-0.05355808,-0.19029328,-0.61129594,-0.6931257,2.2700024,0
0.17,11.575155029694118,-5.999999968742431,-6.0,5.828364865193143,13.472194,-2.8995838,-8.929768,-0.79035413,16.551704,-9.661761,1.884453,0.047921754,0.3716004,-0.21781094,-0.9012076,-13.763874,0.008521539,-0.18089268,-0.861118,-0.9310492,2.3918333,0
0.18000000000000002,11.575155029694118,-5.999999968742431,-6.0,5.828364865193143,13.472194,-2.8995838,-8.929768,-0.79035413,16.413483,-9.661375,1.8826886,0.059648685,0.36392716,-0.21816054,-0.90355146,-13.880191,0.068486094,-0.17202978,-1.1074827,-1.1674354,2.510863,0
0.19000000000000003,11.575155029694118,-5.999999968742431,-6.0,5.828364865193143,13.472194,-2.8995838,-8.929768,-0.79035413,16.274113,-9.660399,1.8810118,0.072082065,0.35490778,-0.2176407,-0.9063539,-13.992924,0.12615857,-0.16331838,-1.3503475,-1.4019394,2.627177,0
0.20000000000000004,13.94429408744013,-5.9999999984712735,-6.0,5.386320431062497,15.177905,-2.2139857,-9.315878,-1.5949606,16.133635,-9.658859,1.8794229,0.085190944,0.34452358,-0.21625815,-0.9095485,-14.101827,0.18139605,-0.15441327,-1.5896752,-1.6342669,2.7408555,0
0.21000000000000005,13.94429408744013,-5.9999999984712735,-6.0,5.386320431062497,15.177905,-2.2139857,-9.315878,-1.5949606,15.99205,-9.65676,1.877965,0.09895801,0.33244112,-0.21374734,-0.9132374,-14.21429,0.23792893,-0.13712576,-1.9509056,-1.9900807,2.8415127,0
0.22000000000000006,13.94429408744013,-5.9999999984712735,-6.0,5.386320431062497,15.177905,-2.2139857,-9.315878,-1.5949606,15.849366,-9.654111,1.8766825,0.11335759,0.31835324,-0.20987578,-0.9174713,-14.32157,0.2913659,-0.11922801,-2.2970524,-2.3316898,2.9409206,0
0.23000000000000007,13.94429408744013,-5.9999999984712735,-6.0,5.386320431062497,15.177905,-2.2139857,-9.315878,-1.5949606,15.705638,-9.650944,1.875584,0.12834333,0.30227938,-0.2046941,-0.9220931,-14.42325,0.3415853,-0.10031056,-2.6291826,-2.6600208,3.0390255,0
0.24000000000000007,13.94429408744013,-5.9999999984712735,-6.0,5.386320431062497,15.706167,-2.8321934,-9.264064,-2.051038,15.560923,-9.647291,1.8746809,0.14386584,0.28423694,-0.19824655,-0.9269361,-14.518894,0.38851273,-0.080071606,-2.9482644,-2.975923,3.1357818,0
0.25000000000000006,13.94429408744013,-5.9999999984712735,-6.0,5.386320431062497,15.706167,-2.8321934,-9.264064,-2.051038,15.415283,-9.643186,1.8739876,0.15987217,0.26424322,-0.19057247,-0.9318255,-14.608059,0.43211657,-0.058316432,-3.2551785,-3.2801778,3.2311525,0
0.26000000000000006,13.94429408744013,-5.9999999984712735,-6.0,5.386320431062497,15.706167,-2.8321934,-9.264064,-2.051038,15.268785,-9.63866,1.8735199,0.17630535,0.24231727,-0.18170765,-0.9365795,-14.690291,0.4724048,-0.03495647,-3.5507252,-3.5735013,3.3251076,0
0.2700000000000001,13.94429408744013,-5.9999999984712735,-6.0,5.386320431062497,15.706167,-2.8321934,-9.264064,-2.051038,15.121503,-9.633748,1.8732939,0.19310394,0.21848153,-0.17168558,-0.9410106,-14.765137,0.5094223,-0.010008164,-3.8356342,-3.856552,3.417623,0
0.2800000000000001,17.853174692690843,-6.0,-6.0,4.448154135286017,15.862995,-4.189327,-9.046649,-1.2268561,14.97351,-9.628482,1.8733249,0.2102017,0.19276337,-0.16053863,-0.9449259,-14.832149,0.543249,0.016408598,-4.1105704,-4.1299357,3.5086803,0
0.2900000000000001,17.853174692690843,-6.0,-6.0,4.448154135286017,15.862995,-4.189327,-9.046649,-1.2268561,14.824812,-9.622854,1.8737842,0.22742695,0.16511323,-0.14821574,-0.9481808,-14.905885,0.5818484,0.076225646,-4.4044266,-4.422375,3.5547805,0
0.3000000000000001,17.853174692690843,-6.0,-6.0,4.448154135286017,15.862995,-4.189327,-9.046649,-1.2268561,14.675425,-9.616856,1.8748658,0.2445963,0.13563596,-0.13476294,-0.95058644,-14.970096,0.61753494,0.14081186,-4.652552,-4.6691127,3.5986185,0
0.3100000000000001,17.853174692690843,-6.0,-6.0,4.448154135286017,15.862995,-4.189327,-9.046649,-1.2268561,14.525447,-9.610514,1.8766154,0.26162633,0.1045824,-0.120341726,-0.9519098,-15.023837,0.6503832,0.20973068,-4.8620667,-4.8772874,3.6403055,0
0.3200000000000001,20.999999806451385,-6.0,-6.0,3.060476301877138,16.550026,-4.3221316,-9.031749,-1.6430472,14.374988,-9.603858,1.8790733,0.278439,0.07218362,-0.10509231,-0.95195436,-15.066256,0.6805303,0.2823738,-5.038981,-5.052923,3.679947,0
0.3300000000000001,20.999999806451385,-6.0,-6.0,3.060476301877138,16.550026,-4.3221316,-9.031749,-1.6430472,14.224134,-9.596888,1.8824257,0.29479867,0.038671423,-0.089126736,-0.9506077,-15.101958,0.7130417,0.3886027,-5.1886,-5.2008753,3.6495495,0
0.34000000000000014,20.999999806451385,-6.0,-6.0,3.060476301877138,16.550026,-4.3221316,-9.031749,-1.6430472,14.072999,-9.589606,1.8868537,0.31048805,0.00425859,-0.07255175,-0.9477952,-15.122733,0.7428857,0.4972847,-5.3149414,-5.3256984,3.6206436,0
0.35000000000000014,20.999999806451385,-6.0,-6.0,3.060476301877138,16.550026,-4.3221316,-9.031749,-1.6430472,13.921734,-9.582038,1.8923758,0.32546395,-0.030875247,-0.055477016,-0.9434207,-15.127995,0.7703867,0.60726213,-5.421625,-5.4310102,3.593156,0
0.36000000000000015,21.0,-5.9999998762578866,-5.99999998654364,2.532612305511413,18.383707,-4.539293,-8.439943,-2.5198514,13.770494,-9.574205,1.8989991,0.33968765,-0.066562295,-0.03800139,-0.93741035,-15.117312,0.79590434,0.7172827,-5.5117087,-5.519861,3.567017,0
0.37000000000000016,21.0,-5.9999998762578866,-5.99999998654364,2.532612305511413,18.383707,-4.539293,-8.439943,-2.5198514,13.619444,-9.566127,1.9067171,0.35306364,-0.102643296,-0.020219455,-0.92973226,-15.090423,0.81982696,0.8260243,-5.587869,-5.5947313,3.5162585,0
0.38000000000000017,21.0,-5.9999998762578866,-5.99999998654364,2.532612305511413,18.383707,-4.539293,-8.439943,-2.5198514,13.468742,-9.557814,1.9155103,0.36550605,-0.13897064,-0.002220763,-0.92037386,-15.047222,0.8425635,0.93211794,-5.6521745,-5.657902,3.4679906,0
0.3900000000000002,21.0,-5.9999998762578866,-5.99999998654364,2.532612305511413,18.383707,-4.539293,-8.439943,-2.5198514,13.318554,-9.549278,1.9253454,0.37699616,-0.17540877,0.015915662,-0.9093145,-14.987775,0.86453587,1.0341703,-5.706468,-5.7112036,3.4220912,0
0.4000000000000002,21.0,-3.826227239757217,-5.999999870801096,-1.023107327551449,15.790479,-2.5809822,-7.8205385,-2.6023834,13.169042,-9.5405245,1.936175,0.3875185,-0.21183018,0.034117084,-0.8965456,-14.912305,0.8861732,1.1307843,-5.752308,-5.75618,3.3784444,0
0.4100000000000002,21.0,-3.826227239757217,-5.999999870801096,-1.023107327551449,15.790479,-2.5809822,-7.8205385,-2.6023834,13.020383,-9.531549,1.9479816,0.39684674,-0.24770989,0.051667925,-0.8823171,-14.817431,0.90885913,1.2285621,-5.517464,-5.7282453,3.1707094,0
0.4200000000000002,21.0,-3.826227239757217,-5.999999870801096,-1.023107327551449,15.790479,-2.5809822,-7.8205385,-2.6023834,12.872738,-9.5223465,1.9607044,0.40481567,-0.282665,0.067920454,-0.8669557,-14.709436,0.9318711,1.3142556,-5.300568,-5.723387,2.9690642,0
0.4300000000000002,21.0,-3.826227239757217,-5.999999870801096,-1.023107327551449,15.790479,-2.5809822,-7.8205385,-2.6023834,12.726235,-9.512908,1.9742266,0.41153044,-0.3168099,0.08281368,-0.8505391,-14.589244,0.9559934,1.3882685,-5.0850325,-5.751746,2.7744203,0
0.4400000000000002,21.0,-3.826227239757217,-5.999999870801096,-1.023107327551449,14.429115,0.13531773,-6.625491,-3.6829221,12.580995,-9.50322,1.9884324,0.41709238,-0.35023057,0.09630815,-0.8331254,-14.457196,0.9820518,1.4513032,-4.8893566,-5.789512,2.5880747,0
0.45000000000000023,21.0,-3.826227239757217,-5.999999870801096,-1.023107327551449,14.429115,0.13531773,-6.625491,-3.6829221,12.437131,-9.4932575,2.0032158,0.42155945,-0.38294706,0.10850768,-0.8147797,-14.313625,1.0107986,1.5036732,-4.72418,-5.821512,2.4108732,0
0.46000000000000024,21.0,-3.826227239757217,-5.999999870801096,-1.023107327551449,14.429115,0.13531773,-6.625491,-3.6829221,12.294757,-9.482992,2.0184667,0.4249748,-0.41496345,0.11952694,-0.79556,-14.159631,1.042735,1.544665,-4.584744,-5.8486238,2.2423668,0
0.47000000000000025,21.0,-3.826227239757217,-5.999999870801096,-1.023107327551449,14.429115,0.13531773,-6.625491,-3.6829221,12.15397,-9.472389,2.0340679,0.4273765,-0.44627985,0.12946191,-0.7755153,-13.996326,1.0782679,1.5736477,-4.4670334,-5.8715906,2.0821288,0
0.48000000000000026,21.0,-0.9539472783132046,-5.412361587161611,-5.99999842753024,13.13587,1.2234176,-5.7145805,-3.8914545,12.014858,-9.461412,2.0498965,0.428799,-0.47689247,0.13839291,-0.7546874,-13.824833,1.1177188,1.5900679,-4.3676586,-5.8910465,1.9297539,0
0.49000000000000027,21.0,-0.9539472783132046,-5.412361587161611,-5.99999842753024,13.13587,1.2234176,-5.7145805,-3.8914545,11.877929,-9.449916,2.0660765,0.42924282,-0.5060448,0.14598876,-0.7337283,-13.560524,1.1822647,1.6423829,-4.0149736,-5.6369014,1.6346374,0
0.5000000000000002,21.0,-0.9539472783132046,-5.412361587161611,-5.99999842753024,13.13587,1.2234176,-5.7145805,-3.8914545,11.743652,-9.437752,2.0826676,0.42871794,-0.5332127,0.15198126,-0.71329343,-13.294579,1.2513243,1.6724623,-3.7200015,-5.4197264,1.3468299,0
0.5100000000000002,21.0,-0.9539472783132046,-5.412361587161611,-5.99999842753024,13.13587,1.2234176,-5.7145805,-3.8914545,11.612035,-9.424875,2.0994544,0.4272612,-0.5586988,0.15651317,-0.6934031,-13.029025,1.3246261,1.6817871,-3.4739778,-5.233506,1.0661503,0
0.5200000000000002,20.999999989456764,-0.0965679530065962,-3.4070043677672603,-5.999999749539221,10.447729,3.6274335,-3.1332164,-5.0981803,11.483065,-9.411246,2.1162367,0.42490038,-0.5827539,0.15970181,-0.6740575,-12.7655115,1.4018358,1.6717584,-3.2695665,-5.073103,0.7924223,0
0.5300000000000002,20.999999989456764,-0.0965679530065962,-3.4070043677672603,-5.999999749539221,10.447729,3.6274335,-3.1332164,-5.0981803,11.356713,-9.396827,2.1328275,0.42190892,-0.60496855,0.16150762,-0.65568423,-12.505402,1.4825623,1.6437848,-2.8777943,-4.710524,0.5254735,0
0.5400000000000003,20.999999989456764,-0.0965679530065962,-3.4070043677672603,-5.999999749539221,10.447729,3.6274335,-3.1332164,-5.0981803,11.232941,-9.381584,2.149057,0.4185382,-0.62507206,0.16192484,-0.63866395,-12.249885,1.5663283,1.5997224,-2.55144,-4.400173,0.26513612,0
0.5500000000000003,20.999999989456764,-0.0965679530065962,-3.4070043677672603,-5.999999749539221,10.447729,3.6274335,-3.1332164,-5.0981803,11.111696,-9.365491,2.164773,0.41477153,-0.6434338,0.16108277,-0.62290484,-11.999856,1.6526546,1.5413979,-2.2801483,-4.134051,0.011246435,0
0.5600000000000003,20.9999995055867,0.7637376457529723,-0.5449169672017242,-5.999999607522562,10.409467,3.4129465,0.52557474,-4.4145837,10.992923,-9.348523,2.1798413,0.41058826,-0.6603549,0.159085,-0.60831016,-11.755942,1.7410929,1.470398,-2.055257,-3.90533,-0.2363553,0
0.5700000000000003,20.9999995055867,0.7637376457529723,-0.5449169672017242,-5.999999607522562,10.409467,3.4129465,0.52557474,-4.4145837,10.876555,-9.330663,2.1941423,0.4063504,-0.67533463,0.15587184,-0.5954049,-11.518567,1.8312168,1.3882139,-1.5789387,-3.418261,-0.47782475,0
0.5800000000000003,20.9999995055867,0.7637376457529723,-0.5449169672017242,-5.999999607522562,10.409467,3.4129465,0.52557474,-4.4145837,10.762527,-9.311894,2.2075741,0.40237692,-0.6880276,0.15141004,-0.58462495,-11.287996,1.9226038,1.2967952,-1.1798971,-3.0041428,-0.7133138,0
0.5900000000000003,20.9999995055867,0.7637376457529723,-0.5449169672017242,-5.999999607522562,10.409467,3.4129465,0.52557474,-4.4145837,10.650771,-9.292208,2.2200532,0.39858055,-0.6988527,0.14580585,-0.5757428,-11.064321,2.0148935,1.1979836,-0.84549934,-2.6521795,-0.94297063,0
0.6000000000000003,19.825084130792273,1.4792087392718878,2.086484165920871,-5.999999458364367,12.123037,2.8133051,1.330253,-3.8647747,10.541218,-9.271595,2.2315137,0.39487794,-0.70814407,0.13914189,-0.5685452,-10.8475,2.1077936,1.0932866,-0.56518334,-2.3531592,-1.1669396,0
0.6100000000000003,19.825084130792273,1.4792087392718878,2.086484165920871,-5.999999458364367,12.123037,2.8133051,1.330253,-3.8647747,10.433771,-9.250063,2.2419047,0.39158806,-0.7155273,0.13137667,-0.5634007,-10.642723,2.1987088,0.9843123,-0.06814927,-1.8392444,-1.3798382,0
0.6200000000000003,19.825084130792273,1.4792087392718878,2.086484165920871,-5.999999458364367,12.123037,2.8133051,1.330253,-3.8647747,10.328342,-9.22762,2.2511904,0.38897908,-0.7207243,0.122476585,-0.5605817,-10.444313,2.2898185,0.87247014,0.35248306,-1.4065789,-1.587464,0
0.6300000000000003,19.825084130792273,1.4792087392718878,2.086484165920871,-5.999999458364367,12.123037,2.8133051,1.330253,-3.8647747,10.22487,-9.204265,2.259349,0.38688803,-0.7240907,0.11252779,-0.5597752,-10.251032,2.3814974,0.75910896,0.6970606,-1.0308971,-1.7888937,0
0.6400000000000003,19.825084130792273,1.4792087392718878,2.086484165920871,-5.999999458364367,13.2550125,3.0853536,2.0005906,-4.096269,10.12331,-9.179986,2.266371,0.38509068,-0.72588843,0.10169829,-0.5607576,-10.06132,2.4743361,0.6452356,0.9601598,-0.6859791,-1.9829239,0
0.6500000000000004,19.825084130792273,1.4792087392718878,2.086484165920871,-5.999999458364367,13.2550125,3.0853536,2.0005906,-4.096269,10.02363,-9.154775,2.2722554,0.38336393,-0.7263171,0.090165354,-0.5633527,-9.875149,2.5681796,0.531751,1.153652,-0.36618367,-2.1699915,0
0.6600000000000004,19.825084130792273,1.4792087392718878,2.086484165920871,-5.999999458364367,13.2550125,3.0853536,2.0005906,-4.096269,9.925794,-9.128621,2.27701,0.38151264,-0.7255326,0.07808488,-0.56740975,-9.692473,2.6628382,0.4193818,1.2876868,-0.066881485,-2.3505008,0
0.6700000000000004,19.825084130792273,1.4792087392718878,2.086484165920871,-5.999999458364367,13.2550125,3.0853536,2.0005906,-4.096269,9.829767,-9.101517,2.280649,0.37936768,-0.723656,0.065595135,-0.57280004,-9.513232,2.7580948,0.30871204,1.3709519,0.21571127,-2.5248253,0
0.6800000000000004,18.73928613494399,2.214633728158298,4.647152637386746,-5.999999289632017,14.201606,2.6416452,3.2333062,-3.4563167,9.735517,-9.073459,2.2831917,0.3767836,-0.7207803,0.05281977,-0.57941383,-9.33736,2.8537107,0.2002101,1.4108924,0.48467454,-2.693311,0
0.6900000000000004,18.73928613494399,2.214633728158298,4.647152637386746,-5.999999289632017,14.201606,2.6416452,3.2333062,-3.4563167,9.643002,-9.044446,2.2846622,0.3740065,-0.7163167,0.039854556,-0.5877258,-9.1659355,2.94879,0.09438676,1.6284707,1.042113,-2.847397,0
0.7000000000000004,18.73928613494399,2.214633728158298,4.647152637386746,-5.999999289632017,14.201606,2.6416452,3.2333062,-3.4563167,9.552186,-9.014483,2.2850912,0.3712265,-0.7097722,0.026782649,-0.5980782,-8.99772,3.0437038,-0.007990973,1.781021,1.5438035,-2.996702,0
0.7100000000000004,18.73928613494399,2.214633728158298,4.647152637386746,-5.999999289632017,14.201606,2.6416452,3.2333062,-3.4563167,9.463036,-8.983573,2.284517,0.3682492,-0.70133066,0.013694201,-0.6101974,-8.832642,3.138216,-0.10609318,1.8788049,1.9983146,-3.1414487,0
0.7200000000000004,17.858588322319715,2.5050781726540294,5.99999965147759,-5.999998404152482,16.128012,2.0113416,4.7564106,-3.072752,9.375522,-8.951721,2.2829862,0.36491042,-0.69113475,0.00066923513,-0.62383765,-8.670315,3.2323108,-0.19924043,1.9352407,2.4081016,-3.2814388,0
0.7300000000000004,17.858588322319715,2.5050781726540294,5.99999965147759,-5.999998404152482,16.128012,2.0113416,4.7564106,-3.072752,9.289604,-8.918939,2.2805502,0.36128,-0.67895424,-0.012255721,-0.6390214,-8.513752,3.324033,-0.28704602,2.0580797,2.935222,-3.4119005,0
0.7400000000000004,17.858588322319715,2.5050781726540294,5.99999965147759,-5.999998404152482,16.128012,2.0113416,4.7564106,-3.072752,9.2052355,-8.885243,2.277266,0.35738057,-0.6645763,-0.025018325,-0.6557379,-8.360262,3.4148188,-0.3687573,2.1341214,3.4078264,-3.5384357,0
0.7500000000000004,17.858588322319715,2.5050781726540294,5.99999965147759,-5.999998404152482,16.128012,2.0113416,4.7564106,-3.072752,9.122394,-8.850642,2.273199,0.3530918,-0.648151,-0.037604503,-0.67365646,-8.208242,3.505559,-0.44351014,2.1932008,3.811767,-3.6592255,0
0.7600000000000005,16.831276845253264,1.9117922378704781,5.99999981274419,-5.99998587552131,17.347145,0.9198858,5.2369957,-2.980457,9.041065,-8.815133,2.2684224,0.34836295,-0.6298272,-0.05006803,-0.69242674,-8.057623,3.5963423,-0.510625,2.2429595,4.152735,-3.774088,0
0.7700000000000005,16.831276845253264,1.9117922378704781,5.99999981274419,-5.99998587552131,17.347145,0.9198858,5.2369957,-2.980457,8.961192,-8.778741,2.2630038,0.3430033,-0.60981935,-0.062284194,-0.71175164,-7.917411,3.6818137,-0.57185435,2.1923368,4.440784,-3.8833132,0
0.7800000000000005,16.831276845253264,1.9117922378704781,5.99999981274419,-5.99998587552131,17.347145,0.9198858,5.2369957,-2.980457,8.88271,-8.741496,2.2570126,0.3368651,-0.588313,-0.074143074,-0.73137754,-7.779385,3.7670224,-0.6250984,2.1495166,4.6839066,-3.987179,0
0.7900000000000005,16.831276845253264,1.9117922378704781,5.99999981274419,-5.99998587552131,17.347145,0.9198858,5.2369957,-2.980457,8.805596,-8.703401,2.25053,0.32996577,-0.5653945,-0.08570026,-0.75107104,-7.6440344,3.8518114,-0.67014986,2.1132903,4.8891096,-4.085948,0
0.8000000000000005,16.63086077310883,1.1388811671172676,5.9999998015554725,-5.999986668273427,19.169418,-0.63147503,4.4879217,-3.0242698,8.729819,-8.66446,2.2436385,0.32231954,-0.5411452,-0.09699642,-0.77062595,-7.5118995,3.9360642,-0.70689327,2.082637,5.062307,-4.17987,0
0.8100000000000005,16.63086077310883,1.1388811671172676,5.9999998015554725,-5.999986668273427,19.169418,-0.63147503,4.4879217,-3.0242698,8.655337,-8.624685,2.2364168,0.3137749,-0.51574177,-0.10781947,-0.7898932,-7.3850756,4.0186863,-0.7361368,1.9361601,5.2088256,-4.2691836,0
0.8200000000000005,16.63086077310883,1.1388811671172676,5.9999998015554725,-5.999986668273427,19.169418,-0.63147503,4.4879217,-3.0242698,8.582103,-8.584088,2.2289438,0.30422583,-0.4893384,-0.117991365,-0.80874795,-7.262495,4.1005154,-0.7572316,1.8124632,5.332453,-4.354115,0
0.8300000000000005,16.63086077310883,1.1388811671172676,5.9999998015554725,-5.999986668273427,19.169418,-0.63147503,4.4879217,-3.0242698,8.510071,-8.542678,2.2213,0.29374468,-0.46198034,-0.12758347,-0.82704973,-7.1446624,4.181397,-0.7703299,1.708,5.436763,-4.434879,0
0.8400000000000005,16.63086077310883,1.1388811671172676,5.9999998015554725,-5.999986668273427,19.934029,-1.4430434,3.5793831,-3.3334417,8.439192,-8.5004635,2.2135642,0.2823939,-0.43371508,-0.13665304,-0.84467244,-7.032101,4.261223,-0.7756438,1.6197762,5.5247726,-4.511679,0
0.8500000000000005,16.63086077310883,1.1388811671172676,5.9999998015554725,-5.999986668273427,19.934029,-1.4430434,3.5793831,-3.3334417,8.369408,-8.457458,2.205813,0.2702282,-0.40459195,-0.1452453,-0.86150247,-6.925343,4.3399267,-0.77344525,1.5452653,5.5990295,-4.5847106,0
0.8600000000000005,16.63086077310883,1.1388811671172676,5.9999998015554725,-5.999986668273427,19.934029,-1.4430434,3.5793831,-3.3334417,8.300661,-8.413671,2.1981199,0.2572966,-0.37466237,-0.15339538,-0.8774378,-6.8249197,4.4174795,-0.76406497,1.4823331,5.6616817,-4.654159,0
0.8700000000000006,16.63086077310883,1.1388811671172676,5.9999998015554725,-5.999986668273427,19.934029,-1.4430434,3.5793831,-3.3334417,8.232884,-8.369112,2.1905549,0.24364388,-0.3439794,-0.16112988,-0.89238644,-6.7313533,4.4938855,-0.747891,1.4291778,5.7145424,-4.7201996,0
0.8800000000000006,16.833356933334,0.5185401380071768,5.9999995707513145,-5.99999532069321,21.347702,-2.0668895,2.5705125,-2.9265664,8.166008,-8.323796,2.1831834,0.22931176,-0.31259766,-0.16846828,-0.9062658,-6.6451473,4.5691795,-0.7253665,1.3842788,5.759141,-4.7829986,0
0.8900000000000006,16.833356933334,0.5185401380071768,5.9999995707513145,-5.99999532069321,21.347702,-2.0668895,2.5705125,-2.9265664,8.099958,-8.277728,2.176075,0.21426514,-0.28062874,-0.17519818,-0.9190451,-6.565815,4.6443114,-0.6954431,1.2496104,5.797073,-4.8427167,0
0.9000000000000006,16.833356933334,0.5185401380071768,5.9999995707513145,-5.99999532069321,21.347702,-2.0668895,2.5705125,-2.9265664,8.034661,-8.230914,2.1692932,0.1984932,-0.24817054,-0.18114667,-0.9306977,-6.494797,4.718348,-0.66011363,1.1359167,5.8290358,-4.8995047,0
0.9100000000000006,16.833356933334,0.5185401380071768,5.9999995707513145,-5.99999532069321,21.347702,-2.0668895,2.5705125,-2.9265664,7.970032,-8.183365,2.1628895,0.1820659,-0.21526198,-0.18637982,-0.94115746,-6.432444,4.7912793,-0.6199333,1.0399289,5.855967,-4.953506,0
0.9200000000000006,15.921788910852236,-0.08267382633946393,5.094190393164071,-5.999992447064225,21.727634,-2.2418516,1.8783356,-2.9062288,7.9059825,-8.135092,2.1569092,0.16504584,-0.18194623,-0.19095264,-0.9503647,-6.3790803,4.863133,-0.57549304,0.9588883,5.878658,-5.0048575,0
0.9300000000000006,15.921788910852236,-0.08267382633946393,5.094190393164071,-5.999992447064225,21.727634,-2.2418516,1.8783356,-2.9062288,7.842407,-8.086125,2.1513526,0.14738029,-0.1486547,-0.19473961,-0.95825773,-6.337357,4.930126,-0.5353377,0.7962431,5.7568245,-5.0536895,0
0.9400000000000006,15.921788910852236,-0.08267382633946393,5.094190393164071,-5.999992447064225,21.727634,-2.2418516,1.8783356,-2.9062288,7.7792053,-8.036492,2.1462123,0.12904695,-0.11574366,-0.19763958,-0.9648261,-6.3044305,4.996177,-0.49238133,0.65900886,5.6539183,-5.100125,0
0.9500000000000006,15.921788910852236,-0.08267382633946393,5.094190393164071,-5.999992447064225,21.727634,-2.2418516,1.8783356,-2.9062288,7.716289,-7.9862046,2.1415126,0.110139504,-0.08315714,-0.19972977,-0.9700839,-6.2802773,5.0613256,-0.4472463,0.54321516,5.5669975,-5.1442814,0
0.9600000000000006,13.881349042244237,0.022746219811531673,2.9933226354440885,-5.382345715555844,21.638874,-2.1407523,0.652247,-3.3869872,7.6535707,-7.9352694,2.1372726,0.090739526,-0.05085423,-0.20107734,-0.97403723,-6.264868,5.1256413,-0.4005353,0.4455125,5.493578,-5.1862717,0
0.9700000000000006,13.881349042244237,0.022746219811531673,2.9933226354440885,-5.382345715555844,21.638874,-2.1407523,0.652247,-3.3869872,7.5909576,-7.883735,2.133412,0.070827074,-0.019639628,-0.20185016,-0.9766549,-6.258969,5.181081,-0.37152693,0.37829876,5.103888,-5.1958933,0
0.9800000000000006,13.881349042244237,0.022746219811531673,2.9933226354440885,-5.382345715555844,21.638874,-2.1407523,0.652247,-3.3869872,7.528367,-7.8316493,2.1298432,0.05040613,0.009838767,-0.20218165,-0.9780007,-6.260219,5.23605,-0.34218168,0.32176644,4.7749343,-5.205043,0
0.9900000000000007,13.881349042244237,0.022746219811531673,2.9933226354440885,-5.382345715555844,21.638874,-2.1407523,0.652247,-3.3869872,7.4657307,-7.779015,2.1265676,0.029574703,0.03782141,-0.20208298,-0.9781911,-6.2681627,5.2907248,-0.31294963,0.274219,4.4972515,-5.213743,0
1.0000000000000007,12.329903123913992,0.5381950918032169,0.9190283705822899,-4.225332315768145,19.770702,-1.9480883,0.25980672,-4.6948504,7.4029827,-7.7258353,2.1235824,0.008416442,0.0645121,-0.20156755,-0.9773118,-6.2823887,5.345271,-0.28420895,0.23422928,4.2628484,-5.222017,0
1.0100000000000007,12.329903123913992,0.5381950918032169,0.9190283705822899,-4.225332315768145,19.770702,-1.9480883,0.25980672,-4.6948504,7.340074,-7.6721406,2.12081,-0.0130389705,0.08924355,-0.20086329,-0.97545886,-6.30023,5.393758,-0.270365,0.2797394,3.7412333,-5.1731095,0
1.0200000000000007,12.329903123913992,0.5381950918032169,0.9190283705822899,-4.225332315768145,19.770702,-1.9480883,0.25980672,-4.6948504,7.276963,-7.61796,2.1181717,-0.034749303,0.11149339,-0.20014973,-0.9727807,-6.3226767,5.442484,-0.25745586,0.31846222,3.3009894,-5.126602,0
1.0300000000000007,12.329903123913992,0.5381950918032169,0.9190283705822899,-4.225332315768145,19.770702,-1.9480883,0.25980672,-4.6948504,7.2136073,-7.5632896,2.115657,-0.056631982,0.13161814,-0.19937922,-0.9693905,-6.349116,5.49164,-0.24561907,0.35140452,2.9294221,-5.082377,0
1.0400000000000007,12.329903123913992,0.5381950918032169,0.9190283705822899,-4.225332315768145,19.02926,-1.5715073,-0.048962027,-4.331304,7.149969,-7.5081253,2.1132553,-0.07861756,0.14992101,-0.19851628,-0.96536773,-6.379016,5.54138,-0.23493655,0.37942487,2.6158185,-5.0403214,0
1.0500000000000007,12.329903123913992,0.5381950918032169,0.9190283705822899,-4.225332315768145,19.02926,-1.5715073,-0.048962027,-4.331304,7.0860167,-7.4524593,2.1109543,-0.10064727,0.16665916,-0.19753543,-0.96076804,-6.411916,5.591827,-0.22545135,0.40325496,2.3511362,-5.00033,0
1.0600000000000007,12.329903123913992,0.5381950918032169,0.9190283705822899,-4.225332315768145,19.02926,-1.5715073,-0.048962027,-4.331304,7.021722,-7.396285,2.108742,-0.12267124,0.18205017,-0.19641921,-0.9556305,-6.4474163,5.6430798,-0.21717992,0.42351875,2.1277432,-4.962301,0
1.0700000000000007,12.329903123913992,0.5381950918032169,0.9190283705822899,-4.225332315768145,19.02926,-1.5715073,-0.048962027,-4.331304,6.9570603,-7.3395944,2.1066065,-0.14464693,0.19627783,-0.19515653,-0.9499826,-6.4851713,5.695216,-0.21012083,0.4407474,1.9391989,-4.9261374,0
1.0800000000000007,11.606501887648557,1.1583659066209104,-0.6059268295537066,-3.1011906497171187,20.164066,-1.6187426,-0.6168193,-4.333628,6.892011,-7.2823772,2.1045353,-0.16653791,0.20949718,-0.19374129,-0.9438438,-6.5248804,5.748298,-0.20426081,0.4553939,1.7800663,-4.8917484,0
1.0900000000000007,11.606501887648557,1.1583659066209104,-0.6059268295537066,-3.1011906497171187,20.164066,-1.6187426,-0.6168193,-4.333628,6.8265667,-7.224638,2.1024916,-0.18835671,0.22121911,-0.19236135,-0.9373269,-6.564089,5.7995596,-0.20492509,0.5718808,1.4157342,-4.804629,0
1.1000000000000008,11.606501887648557,1.1583659066209104,-0.6059268295537066,-3.1011906497171187,20.164066,-1.6187426,-0.6168193,-4.333628,6.760726,-7.1663837,2.1004314,-0.2100949,0.23102383,-0.19110695,-0.9305735,-6.604167,5.851468,-0.20726414,0.66229534,1.1002091,-4.7210407,0
1.1100000000000008,11.606501887648557,1.1583659066209104,-0.6059268295537066,-3.1011906497171187,20.164066,-1.6187426,-0.6168193,-4.333628,6.694481,-7.1076055,2.0983436,-0.23170143,0.23917443,-0.18991563,-0.9236032,-6.644958,5.904404,-0.2104706,0.7387953,0.8339402,-4.6415544,0
1.1200000000000008,10.854081036896002,1.6823995177802658,-1.8127275531034008,-2.021612058064189,18.426542,-1.220236,-1.3853284,-3.1336272,6.627826,-7.0482926,2.0962195,-0.25313473,0.24590239,-0.18875107,-0.9164216,-6.686103,5.9583697,-0.21441244,0.80351776,0.60923684,-4.565968,0
1.1300000000000008,10.854081036896002,1.6823995177802658,-1.8127275531034008,-2.021612058064189,18.426542,-1.220236,-1.3853284,-3.1336272,6.560751,-6.9884243,2.0940716,-0.27442503,0.2510823,-0.18802792,-0.9090076,-6.728744,6.0153217,-0.21562828,1.0546306,0.34572482,-4.451967,0
1.1400000000000008,10.854081036896002,1.6823995177802658,-1.8127275531034008,-2.021612058064189,18.426542,-1.220236,-1.3853284,-3.1336272,6.493255,-6.927986,2.0918996,-0.29557595,0.2545837,-0.18802175,-0.90137154,-6.770241,6.0723786,-0.2190685,1.2507666,0.10757108,-4.341568,0
1.1500000000000008,10.854081036896002,1.6823995177802658,-1.8127275531034008,-2.021612058064189,18.426542,-1.220236,-1.3853284,-3.1336272,6.425351,-6.8669763,2.0896838,-0.31651896,0.2565702,-0.18848896,-0.893566,-6.8103127,6.1296887,-0.22435063,1.3971552,-0.11252422,-4.2348666,0
1.1600000000000008,10.571287215791594,2.0746713262509897,-2.3222801414669454,-1.0086302686353847,16.35122,-0.21536787,-1.7889665,-1.5802561,6.357055,-6.805392,2.0874066,-0.33719575,0.25718454,-0.18921866,-0.8856366,-6.8486395,6.187184,-0.23134531,1.5013272,-0.31762266,-4.131662,0
1.1700000000000008,10.571287215791594,2.0746713262509897,-2.3222801414669454,-1.0086302686353847,16.35122,-0.21536787,-1.7889665,-1.5802561,6.28835,-6.7431765,2.0851378,-0.35758445,0.25637072,-0.19026428,-0.87761474,-6.891868,6.255705,-0.22289002,1.6793653,-0.5414052,-4.0046186,0
1.1800000000000008,10.571287215791594,2.0746713262509897,-2.3222801414669454,-1.0086302686353847,16.35122,-0.21536787,-1.7889665,-1.5802561,6.2192283,-6.680279,2.0829403,-0.37765595,0.25410974,-0.19170879,-0.86951286,-6.9320555,6.3236346,-0.2170104,1.8227234,-0.73719656,-3.880721,0
1.1900000000000008,10.571287215791594,2.0746713262509897,-2.3222801414669454,-1.0086302686353847,16.35122,-0.21536787,-1.7889665,-1.5802561,6.1497207,-6.6167054,2.0807896,-0.39735597,0.2505711,-0.19343054,-0.8613406,-6.968991,6.3908577,-0.21350192,1.9371371,-0.9090407,-3.7598922,0
1.2000000000000008,10.147380253846087,2.0684796445664726,-2.4302271480880893,-0.08869171499592438,17.381018,-0.78772956,-1.8501769,-1.0347782,6.0798607,-6.552464,2.0786626,-0.41664007,0.24590263,-0.19533053,-0.8531058,-7.002537,6.457236,-0.21218762,2.0274196,-1.0603762,-3.6420557,0
1.2100000000000009,10.147380253846087,2.0684796445664726,-2.4302271480880893,-0.08869171499592438,17.381018,-0.78772956,-1.8501769,-1.0347782,6.0096545,-6.487505,2.0766268,-0.43543717,0.24019732,-0.1973497,-0.8448393,-7.038057,6.534444,-0.19529949,2.105552,-1.2020434,-3.506347,0
1.2200000000000009,10.147380253846087,2.0684796445664726,-2.4302271480880893,-0.08869171499592438,17.381018,-0.78772956,-1.8501769,-1.0347782,5.9391136,-6.42178,2.0747485,-0.45368472,0.23353778,-0.19944154,-0.83657277,-7.06944,6.610285,-0.1806696,2.1658087,-1.3273188,-3.373999,0
1.2300000000000009,10.147380253846087,2.0684796445664726,-2.4302271480880893,-0.08869171499592438,17.381018,-0.78772956,-1.8501769,-1.0347782,5.86828,-6.3553047,2.073006,-0.47136253,0.22603074,-0.20154977,-0.828315,-7.096693,6.6845703,-0.16816962,2.2112696,-1.4384677,-3.244929,0
1.2400000000000009,10.147380253846087,2.0684796445664726,-2.4302271480880893,-0.08869171499592438,14.738758,-0.90423495,-1.8306555,0.13449909,5.7971945,-6.288095,2.0713782,-0.4884564,0.21776974,-0.20362917,-0.8200747,-7.1198664,6.7571177,-0.15769504,2.2445161,-1.53742,-3.1190557,0
1.2500000000000009,10.147380253846087,2.0684796445664726,-2.4302271480880893,-0.08869171499592438,14.738758,-0.90423495,-1.8306555,0.13449909,5.7258964,-6.220169,2.0698457,-0.5049573,0.20883685,-0.20564353,-0.81186,-7.1390452,6.8277564,-0.14916226,2.2677112,-1.6258209,-2.9962997,0
1.260000000000001,10.147380253846087,2.0684796445664726,-2.4302271480880893,-0.08869171499592438,14.738758,-0.90423495,-1.8306555,0.13449909,5.654427,-6.151547,2.068389,-0.5208604,0.19930416,-0.20756403,-0.80367917,-7.1543407,6.8963265,-0.14250562,2.2826662,-1.7050717,-2.876584,0
1.270000000000001,10.147380253846087,2.0684796445664726,-2.4302271480880893,-0.08869171499592438,14.738758,-0.90423495,-1.8306555,0.13449909,5.5828233,-6.08225,2.0669894,-0.5361645,0.1892351,-0.2093678,-0.7955398,-7.1658874,6.962684,-0.13767481,2.2908976,-1.7763677,-2.7598333,0
1.280000000000001,9.457603284597392,1.718792984467874,-2.221979482512607,0.7316435595912278,12.936798,-0.1467088,-1.0188078,0.36359802,5.5111217,-6.012301,2.065629,-0.5508714,0.17868558,-0.21103683,-0.78744936,-7.1738358,7.0267015,-0.1346325,2.2936752,-1.8407284,-2.6459742,0
1.290000000000001,9.457603284597392,1.718792984467874,-2.221979482512607,0.7316435595912278,12.936798,-0.1467088,-1.0188078,0.36359802,5.4393544,-5.9416766,2.064367,-0.56490934,0.16784595,-0.21254039,-0.7794438,-7.1790524,7.0977373,-0.118073165,2.2489712,-1.8551009,-2.5178607,0
1.300000000000001,9.457603284597392,1.718792984467874,-2.221979482512607,0.7316435595912278,12.936798,-0.1467088,-1.0188078,0.36359802,5.367553,-5.870356,2.0632603,-0.5782245,0.15687247,-0.21386328,-0.7715639,-7.180565,7.165863,-0.103543855,2.2082777,-1.8702081,-2.3929203,0
1.310000000000001,9.457603284597392,1.718792984467874,-2.221979482512607,0.7316435595912278,12.936798,-0.1467088,-1.0188078,0.36359802,5.295755,-5.7983694,2.062289,-0.59084564,0.14576484,-0.21501316,-0.76382214,-7.178632,7.2310205,-0.09104622,2.1711411,-1.8857629,-2.271074,0
1.320000000000001,8.907437615982772,1.1371652961886738,-2.033942816593875,1.483393251024306,13.006844,-0.5171185,-1.0841173,0.9150981,5.223992,-5.725746,2.0614324,-0.6027998,0.13452394,-0.21599658,-0.75622886,-7.1735015,7.293169,-0.080582455,2.1371756,-1.9015256,-2.1522455,0
1.330000000000001,8.907437615982772,1.1371652961886738,-2.033942816593875,1.483393251024306,13.006844,-0.5171185,-1.0841173,0.9150981,5.1523004,-5.652475,2.0607443,-0.6140297,0.123352684,-0.2168033,-0.7488316,-7.1642985,7.360467,-0.05742068,2.0464807,-1.8568386,-2.0203283,0
1.340000000000001,8.907437615982772,1.1371652961886738,-2.033942816593875,1.483393251024306,13.006844,-0.5171185,-1.0841173,0.9150981,5.0807166,-5.578548,2.0602758,-0.6244961,0.11241344,-0.21743527,-0.7416809,-7.1520586,7.42435,-0.03659919,1.9684626,-1.8206006,-1.891678,0
1.350000000000001,8.907437615982772,1.1371652961886738,-2.033942816593875,1.483393251024306,13.006844,-0.5171185,-1.0841173,0.9150981,5.009269,-5.5039997,2.0600042,-0.63424665,0.10165299,-0.21791306,-0.7347874,-7.137095,7.4848742,-0.018134588,1.9012508,-1.7913866,-1.7662139,0
1.360000000000001,8.331853862017383,0.1660519502282349,-1.3926140021081268,2.1633032843104663,12.802849,-1.3217287,-1.3268899,2.0927937,4.9379835,-5.4288616,2.0599053,-0.64332384,0.09102664,-0.21825314,-0.7281586,-7.119688,7.5421042,-0.0020357072,1.8432705,-1.7679886,-1.6438572,0
1.370000000000001,8.331853862017383,0.1660519502282349,-1.3926140021081268,2.1633032843104663,12.802849,-1.3217287,-1.3268899,2.0927937,4.8668942,-5.353136,2.0600216,-0.6516431,0.080932416,-0.21844839,-0.7218672,-7.0977883,7.6025214,0.024936054,1.6680936,-1.623028,-1.5103978,0
1.380000000000001,8.331853862017383,0.1660519502282349,-1.3926140021081268,2.1633032843104663,12.802849,-1.3217287,-1.3268899,2.0927937,4.796035,-5.2768235,2.0603948,-0.6591497,0.07168487,-0.2185077,-0.71598756,-7.0738516,7.6595416,0.0492345,1.5203303,-1.5005891,-1.3802438,0
1.390000000000001,8.331853862017383,0.1660519502282349,-1.3926140021081268,2.1633032843104663,12.802849,-1.3217287,-1.3268899,2.0927937,4.7254233,-5.1999564,2.0609972,-0.6659172,0.0631364,-0.21846226,-0.71052325,-7.0482492,7.713379,0.07084994,1.3956757,-1.3971869,-1.2533131,0
1.400000000000001,7.681565616534608,-0.9715658026411912,-0.7914330865138273,2.7500633794605163,12.266462,-1.3642049,-1.0156711,2.0479822,4.6550746,-5.122566,2.0618024,-0.6720077,0.055162035,-0.21833579,-0.7054737,-7.021289,7.7642317,0.08978865,1.2905132,-1.3098639,-1.129526,0
1.410000000000001,7.681565616534608,-0.9715658026411912,-0.7914330865138273,2.7500633794605163,12.266462,-1.3642049,-1.0156711,2.0479822,4.5850143,-5.0446587,2.0628386,-0.67736125,0.04812939,-0.21813901,-0.7009148,-6.990583,7.8168664,0.116938055,1.0666642,-1.1000861,-0.99732983,0
1.420000000000001,7.681565616534608,-0.9715658026411912,-0.7914330865138273,2.7500633794605163,12.266462,-1.3642049,-1.0156711,2.0479822,4.515266,-4.966239,2.0641313,-0.6819395,0.04232404,-0.21788982,-0.69691616,-6.9590697,7.8667607,0.14118683,0.8785278,-0.92222464,-0.86840767,0
1.430000000000001,7.681565616534608,-0.9715658026411912,-0.7914330865138273,2.7500633794605163,12.266462,-1.3642049,-1.0156711,2.0479822,4.4458346,-4.8873324,2.0656524,-0.6858178,0.037537716,-0.2176115,-0.693463,-6.9270916,7.9142246,0.16255966,0.7203864,-0.77144814,-0.74267846,0
1.440000000000001,7.681565616534608,-0.9715658026411912,-0.7914330865138273,2.7500633794605163,11.611084,-2.0124993,-0.6667505,2.1319313,4.3767242,-4.8079615,2.0673728,-0.68905807,0.033594508,-0.21732037,-0.6905383,-6.8949194,7.9595256,0.1810938,0.58743936,-0.6436547,-0.6200631,0
1.450000000000001,7.681565616534608,-0.9715658026411912,-0.7914330865138273,2.7500633794605163,11.611084,-2.0124993,-0.6667505,2.1319313,4.3079357,-4.728148,2.0692647,-0.69171166,0.030346021,-0.21702754,-0.6881236,-6.8627667,8.002893,0.1968347,0.4756554,-0.53536177,-0.5004845,0
1.460000000000001,7.681565616534608,-0.9715658026411912,-0.7914330865138273,2.7500633794605163,11.611084,-2.0124993,-0.6667505,2.1319313,4.2394676,-4.647909,2.0713,-0.6938216,0.027667224,-0.21674037,-0.6862001,-6.8308,8.044522,0.20983313,0.3816487,-0.4436133,-0.38386753,0
1.470000000000001,7.681565616534608,-0.9715658026411912,-0.7914330865138273,2.7500633794605163,11.611084,-2.0124993,-0.6667505,2.1319313,4.171318,-4.567262,2.073452,-0.69542414,0.025452873,-0.21646348,-0.6847494,-6.79915,8.08458,0.22014314,0.3025753,-0.36590022,-0.27013874,0
1.480000000000001,7.067441900488448,-2.119355118578229,-0.4488981099050938,3.2155211226172256,10.621193,-2.15869,-0.9225666,2.9624753,4.1034827,-4.4862223,2.075694,-0.69655013,0.02361447,-0.21619953,-0.6837535,-6.767917,8.123211,0.2278207,0.23604636,-0.3000936,-0.15922661,0
1.490000000000001,7.067441900488448,-2.119355118578229,-0.4488981099050938,3.2155211226172256,10.621193,-2.15869,-0.9225666,2.9624753,4.03597,-4.4047875,2.0780413,-0.6971399,0.022484632,-0.2159544,-0.68326783,-6.7347393,8.163534,0.2411659,0.063880295,-0.12814702,-0.042420674,0
1.500000000000001,7.067441900488448,-2.119355118578229,-0.4488981099050938,3.2155211226172256,10.621193,-2.15869,-0.9225666,2.9624753,3.9687858,-4.322956,2.0805082,-0.6971462,0.022322707,-0.21573271,-0.68333673,-6.7022786,8.202681,0.25178376,-0.081349924,0.017071448,0.07149239,0
1.5100000000000011,7.067441900488448,-2.119355118578229,-0.4488981099050938,3.2155211226172256,10.621193,-2.15869,-0.9225666,2.9624753,3.9019217,-4.240738,2.0830677,-0.69660866,0.022961589,-0.21553248,-0.68392664,-6.670692,8.240861,0.25972903,-0.20401229,0.1395627,0.1825842,0
1.5200000000000011,6.677343891163244,-3.0879963778636434,-0.7441359281931523,3.566184133446339,10.703459,-2.3798285,-0.9863089,3.0834043,3.8353684,-4.158141,2.0856936,-0.69555986,0.024260577,-0.21535018,-0.6850058,-6.6400976,8.278242,0.26505756,-0.30777442,0.24272238,0.29092467,0
1.5300000000000011,6.677343891163244,-3.0879963778636434,-0.7441359281931523,3.566184133446339,10.703459,-2.3798285,-0.9863089,3.0834043,3.7691252,-4.075163,2.0883927,-0.6939825,0.02628356,-0.21518302,-0.68658173,-6.6086783,8.317346,0.27436495,-0.44828597,0.3818799,0.40343273,0
1.5400000000000011,6.677343891163244,-3.0879963778636434,-0.7441359281931523,3.566184133446339,10.703459,-2.3798285,-0.9863089,3.0834043,3.70319,-3.9917965,2.0911715,-0.6918603,0.029074682,-0.21502602,-0.688657,-6.578531,8.355904,0.28100032,-0.56753063,0.4986894,0.5131543,0
1.5500000000000012,6.677343891163244,-3.0879963778636434,-0.7441359281931523,3.566184133446339,10.703459,-2.3798285,-0.9863089,3.0834043,3.6375499,-3.9080467,2.0940037,-0.68921953,0.032498196,-0.21487154,-0.69119555,-6.549752,8.394052,0.28501734,-0.668996,0.5964651,0.6201585,0
1.5600000000000012,6.698203377001154,-4.194569806312465,-0.739673496237592,3.673343179508734,10.340352,-1.7813514,-0.7855347,2.1199942,3.57219,-3.823917,2.096863,-0.6860817,0.03643973,-0.21471192,-0.69416404,-6.5224137,8.431888,0.28646868,-0.75560963,0.67802,0.7245125,0
1.5700000000000012,6.698203377001154,-4.194569806312465,-0.739673496237592,3.673343179508734,10.340352,-1.7813514,-0.7855347,2.1199942,3.5070999,-3.739405,2.0997374,-0.6824032,0.041108217,-0.214537,-0.6975749,-6.495877,8.470511,0.28802907,-0.916664,0.8321725,0.8290341,0
1.5800000000000012,6.698203377001154,-4.194569806312465,-0.739673496237592,3.673343179508734,10.340352,-1.7813514,-0.7855347,2.1199942,3.442267,-3.6545074,2.1026146,-0.67814505,0.04666377,-0.2143327,-0.70143014,-6.470986,8.509017,0.28705066,-1.0543039,0.9605804,0.93096703,0
1.5900000000000012,6.698203377001154,-4.194569806312465,-0.739673496237592,3.673343179508734,10.340352,-1.7813514,-0.7855347,2.1199942,3.3776743,-3.5692246,2.1054697,-0.6733294,0.052951556,-0.21408628,-0.70568526,-6.4478393,8.547503,0.28357375,-1.1723905,1.067049,1.0303754,0
1.6000000000000012,7.1194934578988835,-5.159768200536712,-0.966481193528315,3.5630621948099273,11.635125,-3.1059554,-0.9657741,2.5613415,3.313304,-3.4835565,2.1082783,-0.6679751,0.059840593,-0.2137822,-0.71030027,-6.426462,8.586122,0.27784163,-1.276669,1.1522995,1.1271077,0
1.6100000000000012,7.1194934578988835,-5.159768200536712,-0.966481193528315,3.5630621948099273,11.635125,-3.1059554,-0.9657741,2.5613415,3.2491453,-3.3974886,2.1110492,-0.6621053,0.067417525,-0.21308896,-0.71530795,-6.4055977,8.62754,0.27602267,-1.5108587,1.1930951,1.2134191,0
1.6200000000000012,7.1194934578988835,-5.159768200536712,-0.966481193528315,3.5630621948099273,11.635125,-3.1059554,-0.9657741,2.5613415,3.185185,-3.3110046,2.1137922,-0.65574044,0.07573965,-0.21167965,-0.7207362,-6.3867664,8.669307,0.27233052,-1.7286196,1.2074058,1.297293,0
1.6300000000000012,7.1194934578988835,-5.159768200536712,-0.966481193528315,3.5630621948099273,11.635125,-3.1059554,-0.9657741,2.5613415,3.121402,-3.2241015,2.1164892,-0.64889437,0.08466342,-0.20951954,-0.7265472,-6.370151,8.711353,0.2667838,-1.932532,1.199345,1.3788505,0
1.6400000000000012,7.1194934578988835,-5.159768200536712,-0.966481193528315,3.5630621948099273,12.159578,-3.621158,-1.342796,2.4379737,3.0577736,-3.136777,2.1191218,-0.6415761,0.0940655,-0.2065801,-0.7327056,-6.355903,8.753583,0.2594029,-2.1247296,1.1724279,1.4582032,0
1.6500000000000012,7.1194934578988835,-5.159768200536712,-0.966481193528315,3.5630621948099273,12.159578,-3.621158,-1.342796,2.4379737,2.9942753,-3.0490298,2.1216714,-0.63379073,0.103839524,-0.20283836,-0.7391781,-6.3441477,8.795876,0.25020927,-2.3069751,1.1296606,1.5354536,0
1.6600000000000013,7.1194934578988835,-5.159768200536712,-0.966481193528315,3.5630621948099273,12.159578,-3.621158,-1.342796,2.4379737,2.9308817,-2.9608598,2.12412,-0.6255396,0.11389334,-0.1982763,-0.745933,-6.3349843,8.838092,0.2392245,-2.4807236,1.0736127,1.6106961,0
1.6700000000000013,7.1194934578988835,-5.159768200536712,-0.966481193528315,3.5630621948099273,12.159578,-3.621158,-1.342796,2.4379737,2.8675668,-2.8722687,2.1264498,-0.616821,0.12414672,-0.19288035,-0.7529393,-6.328489,8.880079,0.22646964,-2.6471741,1.0064828,1.6840178,0
1.6800000000000013,7.749762400282477,-5.798470815683095,-1.4696053369730835,3.285475842261628,12.936213,-4.255287,-1.6931916,2.1397777,2.804303,-2.7832596,2.1286435,-0.60763043,0.13452935,-0.18664098,-0.7601665,-6.3247147,8.921675,0.21196465,-2.8073142,0.93015134,1.7554996,0
1.6900000000000013,7.749762400282477,-5.798470815683095,-1.4696053369730835,3.285475842261628,12.936213,-4.255287,-1.6931916,2.1397777,2.7410634,-2.6938257,2.1307065,-0.5979873,0.14498083,-0.17919089,-0.76764786,-6.3236456,8.96499,0.20030634,-3.0738966,0.7552063,1.8127028,0
1.7000000000000013,7.749762400282477,-5.798470815683095,-1.4696053369730835,3.285475842261628,12.936213,-4.255287,-1.6931916,2.1397777,2.67782,-2.6039636,2.1326418,-0.5878954,0.15543757,-0.17021118,-0.7754013,-6.3255596,9.007232,0.18645956,-3.3241346,0.58230543,1.8693557,0
1.7100000000000013,7.749762400282477,-5.798470815683095,-1.4696053369730835,3.285475842261628,12.936213,-4.255287,-1.6931916,2.1397777,2.6145422,-2.5136855,2.1344283,-0.5773237,0.16583669,-0.15976606,-0.78337175,-6.33049,9.048152,0.17052367,-3.5597794,0.41192845,1.9254141,0
1.7200000000000013,8.385110535364777,-5.759605324471514,-2.573255682626958,2.9362482810968067,12.902937,-4.7494216,-1.9877865,2.0558567,2.5512,-2.4230058,2.1360455,-0.56623995,0.17612194,-0.14791657,-0.79150176,-6.338438,9.087508,0.15257697,-3.7823534,0.24443604,1.9808395,0
1.7300000000000013,8.385110535364777,-5.759605324471514,-2.573255682626958,2.9362482810968067,12.902937,-4.7494216,-1.9877865,2.0558567,2.4877605,-2.3319328,2.1374912,-0.55470526,0.18587357,-0.13439412,-0.79980767,-6.349861,9.126744,0.136205,-4.0121503,-0.117297634,2.020718,0
1.7400000000000013,8.385110535364777,-5.759605324471514,-2.573255682626958,2.9362482810968067,12.902937,-4.7494216,-1.9877865,2.0558567,2.4241922,-2.2404792,2.1387615,-0.54275346,0.19474235,-0.11897499,-0.8082946,-6.364245,9.163564,0.11750785,-4.2340126,-0.45050466,2.0611331,0
1.7500000000000013,8.385110535364777,-5.759605324471514,-2.573255682626958,2.9362482810968067,12.902937,-4.7494216,-1.9877865,2.0558567,2.360466,-2.148671,2.139834,-0.53031224,0.2027749,-0.10177911,-0.8168803,-6.3814487,9.197659,0.09662124,-4.4479103,-0.75836766,2.1019452,0
1.7600000000000013,9.363270897710771,-5.188599096857499,-2.5746374983814184,2.3917450029413563,12.373189,-5.0017304,-2.7733269,2.8633597,2.296554,-2.0565362,2.1406875,-0.51731426,0.21000856,-0.08292392,-0.82547385,-6.4014096,9.228898,0.073975466,-4.649841,-1.0395827,2.1426785,0
1.7700000000000014,9.363270897710771,-5.188599096857499,-2.5746374983814184,2.3917450029413563,12.373189,-5.0017304,-2.7733269,2.8633597,2.232414,-1.9640845,2.1413572,-0.5038171,0.21638162,-0.062780134,-0.8339107,-6.42714,9.260985,0.05998174,-4.7335157,-1.2791282,2.1549003,0
1.7800000000000014,9.363270897710771,-5.188599096857499,-2.5746374983814184,2.3917450029413563,12.373189,-5.0017304,-2.7733269,2.8633597,2.1679997,-1.8713269,2.1418872,-0.48989564,0.22187142,-0.041727938,-0.84204227,-6.456254,9.289998,0.046001166,-4.8041906,-1.4812977,2.1665223,0
1.7900000000000014,9.363270897710771,-5.188599096857499,-2.5746374983814184,2.3917450029413563,12.373189,-5.0017304,-2.7733269,2.8633597,2.103278,-1.7782961,2.1422768,-0.47552693,0.22656935,-0.019927574,-0.8497909,-6.488597,9.31561,0.031944737,-4.8638864,-1.6519228,2.1775742,0
1.8000000000000014,10.122647441760057,-3.805680075571084,-2.3179902774739296,1.8846257869091863,11.93877,-3.843833,-1.9570674,1.530398,2.0382173,-1.6850272,2.142525,-0.46069652,0.23055397,0.0024827858,-0.85708725,-6.523995,9.33753,0.017700057,-4.914309,-1.795925,2.1880836,0
1.8100000000000014,10.122647441760057,-3.805680075571084,-2.3179902774739296,1.8846257869091863,11.93877,-3.843833,-1.9570674,1.530398,1.972773,-1.5915514,2.1426632,-0.44558495,0.23373152,0.024875475,-0.8638322,-6.5653424,9.356982,0.009914473,-4.7413216,-1.8770483,2.1731927,0
1.8200000000000014,10.122647441760057,-3.805680075571084,-2.3179902774739296,1.8846257869091863,11.93877,-3.843833,-1.9570674,1.530398,1.9069011,-1.4979028,2.1427214,-0.43037033,0.23605044,0.046745494,-0.8699872,-6.6094375,9.372071,0.0016627559,-4.5953293,-1.9455639,2.1590328,0
1.8300000000000014,10.122647441760057,-3.805680075571084,-2.3179902774739296,1.8846257869091863,11.93877,-3.843833,-1.9570674,1.530398,1.840576,-1.4041251,2.1426942,-0.4150413,0.23762815,0.06814912,-0.87557447,-6.6559362,9.382741,-0.007168657,-4.4721203,-2.0034313,2.1455677,0
1.8400000000000014,10.122647441760057,-3.805680075571084,-2.3179902774739296,1.8846257869091863,11.735895,-2.5275347,-1.9787298,1.3889705,1.7737752,-1.3102632,2.1425755,-0.39958924,0.23856284,0.089134194,-0.8806093,-6.7045183,9.38895,-0.016690325,-4.3681374,-2.052305,2.1327631,0
1.8500000000000014,10.122647441760057,-3.805680075571084,-2.3179902774739296,1.8846257869091863,11.735895,-2.5275347,-1.9787298,1.3889705,1.7064795,-1.2163615,2.1423576,-0.38400805,0.23893657,0.10974104,-0.8851019,-6.754884,9.390673,-0.027010718,-4.280381,-2.0935829,2.1205869,0
1.8600000000000014,10.122647441760057,-3.805680075571084,-2.3179902774739296,1.8846257869091863,11.735895,-2.5275347,-1.9787298,1.3889705,1.6386724,-1.1224651,2.1420321,-0.36829385,0.23881805,0.13000332,-0.8890592,-6.806751,9.387895,-0.038236845,-4.20632,-2.128445,2.109008,0
1.8700000000000014,10.122647441760057,-3.805680075571084,-2.3179902774739296,1.8846257869091863,11.735895,-2.5275347,-1.9787298,1.3889705,1.5703403,-1.0286192,2.1415894,-0.35244477,0.23826475,0.14994876,-0.892485,-6.8598514,9.380614,-0.050474457,-4.143815,-2.157889,2.0979977,0
1.8800000000000014,10.492855792533046,-2.1825384153984273,-1.9444391752250931,1.3515874108218082,12.072941,-2.2442458,-1.8737063,1.5532237,1.5014721,-0.93486845,2.141019,-0.33646065,0.23732482,0.16959994,-0.8953818,-6.9139295,9.368838,-0.06382811,-4.091064,-2.1827567,2.0875273,0
1.8900000000000015,10.492855792533046,-2.1825384153984273,-1.9444391752250931,1.3515874108218082,12.072941,-2.2442458,-1.8737063,1.5532237,1.4320493,-0.8412607,2.1403244,-0.32058567,0.23594922,0.18836069,-0.8978166,-6.9707336,9.352018,-0.07533383,-3.793532,-2.145097,2.0514145,0
1.9000000000000015,10.492855792533046,-2.1825384153984273,-1.9444391752250931,1.3515874108218082,12.072941,-2.2442458,-1.8737063,1.5532237,1.3620559,-0.7478433,2.139508,-0.3050377,0.23411931,0.20576957,-0.8998892,-7.02798,9.330788,-0.08810762,-3.542388,-2.1133895,2.0170739,0
1.9100000000000015,10.492855792533046,-2.1825384153984273,-1.9444391752250931,1.3515874108218082,12.072941,-2.2442458,-1.8737063,1.5532237,1.291489,-0.65465933,2.1385577,-0.2897796,0.23190956,0.2220252,-0.90163845,-7.0853825,9.305386,-0.10213483,-3.3303995,-2.0866926,1.984418,0
1.9200000000000015,10.52288124283911,-0.37204380769146245,-1.6789663502147363,0.6863516092945798,12.0086975,-0.43937308,-1.5960628,0.7473588,1.2203485,-0.5617493,2.137461,-0.27477774,0.22937952,0.23729539,-0.9030916,-7.1426964,9.276024,-0.117399134,-3.151462,-2.064213,1.9533647,0
1.9300000000000015,10.52288124283911,-0.37204380769146245,-1.6789663502147363,0.6863516092945798,12.0086975,-0.43937308,-1.5960628,0.7473588,1.1486353,-0.46915218,2.1362066,-0.26027003,0.22646031,0.25105926,-0.90440357,-7.199862,9.2428255,-0.13363336,-2.7181716,-2.0034719,1.8911921,0
1.9400000000000015,10.52288124283911,-0.37204380769146245,-1.6789663502147363,0.6863516092945798,12.0086975,-0.43937308,-1.5960628,0.7473588,1.076353,-0.3769044,2.1347845,-0.2464598,0.22311263,0.26292232,-0.9057325,-7.2564754,9.20623,-0.15093805,-2.3524325,-1.9523234,1.8320701,0
1.9500000000000015,10.52288124283911,-0.37204380769146245,-1.6789663502147363,0.6863516092945798,12.0086975,-0.43937308,-1.5960628,0.7473588,1.0035082,-0.28503802,2.133185,-0.23326918,0.21941558,0.27318427,-0.9070909,-7.31233,9.166598,-0.1691506,-2.0437136,-1.9092497,1.7758493,0
1.9600000000000015,11.29539355983904,1.1940702358152724,-0.9907558404781971,0.19533181067117672,12.812931,1.363283,-1.6498058,-0.21393429,0.9301095,-0.1935818,2.1313994,-0.22062863,0.21543096,0.28209692,-0.9084795,-7.3672595,9.12424,-0.18812415,-1.7831248,-1.8729731,1.7223874,0
1.9700000000000015,11.29539355983904,1.1940702358152724,-0.9907558404781971,0.19533181067117672,12.812931,1.363283,-1.6498058,-0.21393429,0.8561468,-0.1025779,2.1294496,-0.20874584,0.21130633,0.28925708,-0.9100035,-7.425092,9.076164,-0.20194998,-1.3190727,-1.7348057,1.6474544,0
1.9800000000000015,11.29539355983904,1.1940702358152724,-0.9907558404781971,0.19533181067117672,12.812931,1.363283,-1.6498058,-0.21393429,0.78161186,-0.01206594,2.1273592,-0.19779104,0.20716792,0.2943648,-0.9117624,-7.481705,9.025928,-0.21620823,-0.9273496,-1.6183072,1.5761983,0
1.9900000000000015,11.29539355983904,1.1940702358152724,-0.9907558404781971,0.19533181067117672,12.812931,1.363283,-1.6498058,-0.21393429,0.7065171,0.077934735,2.1251247,-0.18765436,0.20302747,0.2977514,-0.9137347,-7.537047,8.973969,-0.23066644,-0.5966835,-1.5200745,1.508439,0
2.0000000000000013,,,,,13.3127775,2.434765,-1.298215,-0.7485913,0.63087535,0.16740882,2.1227455,-0.1782396,0.19889016,0.2996934,-0.9158921,-7.5910873,8.920661,-0.24512315,-0.31755847,-1.4372395,1.4440044,0
2.010000000000001,,,,,13.3127775,2.434765,-1.298215,-0.7485913,0.55468583,0.25633016,2.120245,-0.16966587,0.194886,0.3000156,-0.9182727,-7.646602,8.863471,-0.25496998,0.07798447,-1.2750956,1.3609564,0
2.020000000000001,,,,,13.3127775,2.434765,-1.298215,-0.7485913,0.47794792,0.34467608,2.117648,-0.16202751,0.19111861,0.29859293,-0.92090404,-7.700778,8.805641,-0.26440242,0.4118844,-1.138331,1.2819837,0
2.0300000000000007,,,,,13.3127775,2.434765,-1.298215,-0.7485913,0.4006747,0.43244222,2.1149592,-0.15521257,0.18755116,0.29570407,-0.92373914,-7.7536726,8.747579,-0.27321568,0.6937463,-1.0229685,1.2068862,0
2.0400000000000005,,,,,13.3127775,2.434765,-1.298215,-0.7485913,0.32287866,0.51962805,2.1121864,-0.14912446,0.18414983,0.29158166,-0.9267319,-7.805343,8.689629,-0.28124166,0.9316788,-0.925655,1.1354737,0
2.0500000000000003,,,,,13.284634,3.2731647,-0.54478544,-1.3537992,0.2445718,0.6062363,2.1093376,-0.14367996,0.18088433,0.28642035,-0.9298395,-7.8558416,8.632089,-0.28834525,1.1325272,-0.84356254,1.0675656,1
2.06,,,,,13.284634,3.2731647,-0.54478544,-1.3537992,0.16572593,0.6922266,2.1064966,-0.13899706,0.1777257,0.2801296,-0.93307126,-7.9129972,8.566273,-0.27992088,1.4165239,-0.7471634,0.95321083,1
2.07,,,,,13.284634,3.2731647,-0.54478544,-1.3537992,0.08631919,0.77756923,2.103738,-0.13517778,0.17456342,0.27258763,-0.93645704,-7.9680243,8.502628,-0.27184954,1.6789765,-0.6885563,0.8424379,1
2.0799999999999996,,,,,13.284634,3.2731647,-0.54478544,-1.3537992,0.006372554,0.86228764,2.101059,-0.13213424,0.17126161,0.2638998,-0.939983,-8.021011,8.441433,-0.2639626,1.9223561,-0.66096354,0.73514503,1
2.0899999999999994,,,,,13.874647,3.4512146,-0.047077328,-1.6531515,-0.07409643,0.9464045,2.0984633,-0.1297922,0.16775006,0.2541853,-0.9436127,-8.072595,8.382249,-0.2549,2.1329622,-0.6428865,0.63263994,1
2.099999999999999,,,,,13.874647,3.4512146,-0.047077328,-1.6531515,-0.15508638,1.0299269,2.0959907,-0.12818494,0.16421118,0.24350896,-0.9472634,-8.125199,8.322588,-0.23931994,2.338464,-0.5500561,0.5204755,1
2.109999999999999,,,,,13.874647,3.4512146,-0.047077328,-1.6531515,-0.23659617,1.1128649,2.0936828,-0.1273358,0.16079743,0.2319356,-0.95086116,-8.176571,8.265392,-0.22192395,2.511937,-0.47173193,0.41381502,1
2.1199999999999988,,,,,13.874647,3.4512146,-0.047077328,-1.6531515,-0.3186137,1.1952443,2.0915582,-0.1271719,0.1574769,0.21960251,-0.9543607,-8.226753,8.210951,-0.20268953,2.6583717,-0.40564305,0.31238833,1
2.1299999999999986,,,,,13.836407,3.1580966,0.10919961,-1.7246932,-0.40112728,1.2770941,2.0896351,-0.12762968,0.15422326,0.2066257,-0.95772284,-8.275775,8.159514,-0.18162303,2.7819817,-0.34987423,0.21593872,1
2.1399999999999983,,,,,13.836407,3.1580966,0.10919961,-1.7246932,-0.48412466,1.3584464,2.08793,-0.12865682,0.15108833,0.19320948,-0.9608804,-8.3235235,8.111433,-0.15909274,2.8406088,-0.2784498,0.12071134,1
2.149999999999998,,,,,13.836407,3.1580966,0.10919961,-1.7246932,-0.56759405,1.4393345,2.086459,-0.13020822,0.14811376,0.17952265,-0.96378475,-8.370169,8.066722,-0.13484682,2.8901029,-0.21816263,0.030156806,1
2.159999999999998,,,,,13.836407,3.1580966,0.10919961,-1.7246932,-0.6515244,1.5197929,2.0852387,-0.13224147,0.14526637,0.16560805,-0.96642905,-8.415741,8.02551,-0.108979136,2.9318857,-0.16727434,-0.055954188,1
2.1699999999999977,,,,,13.684305,2.465902,-0.07238665,-1.6360639,-0.7359053,1.5998571,2.0842845,-0.13471879,0.14251886,0.15150206,-0.96880734,-8.460257,7.987904,-0.08158973,2.9671578,-0.1243179,-0.1378397,1
2.1799999999999975,,,,,13.684305,2.465902,-0.07238665,-1.6360639,-0.82072353,1.6795654,2.0836048,-0.13754617,0.13981807,0.137513,-0.97088796,-8.50324,7.9543586,-0.05418322,2.8889823,-0.11635081,-0.211358,1
2.1899999999999973,,,,,13.684305,2.465902,-0.07238665,-1.6360639,-0.90596646,1.7589564,2.0832052,-0.14064741,0.13712354,0.123889185,-0.97266036,-8.545173,7.9244275,-0.025513615,2.822999,-0.109614454,-0.28126872,1
2.199999999999997,,,,,13.684305,2.465902,-0.07238665,-1.6360639,-0.9916234,1.8380661,2.0830982,-0.14401408,0.1344319,0.110577956,-0.97414666,-8.586043,7.8980494,0.0042873337,2.7673063,-0.10391862,-0.3477489,1
2.209999999999997,,,,,12.578512,1.226915,-0.6687729,-1.4000103,-1.0776837,1.9169295,2.0832944,-0.14763692,0.1317406,0.0975345,-0.97536457,-8.625835,7.875171,0.035098635,2.7202995,-0.09910274,-0.41096687,1
2.2199999999999966,,,,,12.578512,1.226915,-0.6687729,-1.4000103,-1.1641206,1.9955894,2.0837507,-0.15139113,0.12889215,0.08523669,-0.9763214,-8.661398,7.8572855,0.056315556,2.4873774,-0.18795936,-0.4594995,1
2.2299999999999964,,,,,12.578512,1.226915,-0.6687729,-1.4000103,-1.2509078,2.0740852,2.0844228,-0.1551788,0.12576574,0.07406339,-0.9770457,-8.695893,7.842304,0.07824382,2.2907789,-0.2629524,-0.5056507,1
