time-since-start [s],throttle_mpc,roll_mpc,pitch_mpc,yaw_mpc,throttle_nw,roll_nw,pitch_nw,yaw_nw,position_x [m],position_y [m],position_z [m],rotation_w [quaternion],rotation_x [quaternion],rotation_y [quaternion],rotation_z [quaternion],velocity_x [m/s],velocity_y [m/s],velocity_z [m/s],omega_x [rad/s],omega_y [rad/s],omega_z [rad/s],network_used
0.0,10.980869944925516,5.9999997978308794,-5.99999992705688,-3.5572287994693124,15.225924,-0.07046095,-3.8176718,-1.4239657,16.427908,-10.433682,2.219563,0.12565067,-0.4000597,0.33828384,0.84245366,-12.4194355,-2.4938538,0.37275848,2.1962318,-0.07443921,-0.97920495,0
0.01,10.980869944925516,5.9999997978308794,-5.99999992705688,-3.5572287994693124,13.09315,-0.068475164,-5.0310063,-0.82967556,16.30327,-10.45811,2.2231405,0.13505799,-0.39896098,0.34559268,0.83854353,-12.507739,-2.3916075,0.3423069,2.3593864,-0.5690723,-1.0672691,0
0.02,10.980869944925516,5.9999997978308794,-5.99999992705688,-3.5572287994693124,13.09315,-0.068475164,-5.0310063,-0.82967556,16.177769,-10.481515,2.2264,0.14596494,-0.39584035,0.35305494,0.83507895,-12.591759,-2.289224,0.30920482,2.5340924,-1.0236148,-1.154322,0
0.03,10.980869944925516,5.9999997978308794,-5.99999992705688,-3.5572287994693124,13.09315,-0.068475164,-5.0310063,-0.82967556,16.051449,-10.503894,2.2293172,0.15832588,-0.39083076,0.36069754,0.8319143,-12.67104,-2.1866047,0.27393556,2.7173305,-1.4430962,-1.2403042,0
0.04,10.980869944925516,5.9999997978308794,-5.99999992705688,-3.5572287994693124,13.586065,2.9990613,-4.6503577,-3.0223408,15.924363,-10.525246,2.2318728,0.17209058,-0.38404006,0.36852965,0.8289052,-12.745171,-2.0836926,0.23690456,2.906624,-1.8318338,-1.3251655,0
0.05,10.980869944925516,5.9999997978308794,-5.99999992705688,-3.5572287994693124,13.586065,2.9990613,-4.6503577,-3.0223408,15.796563,-10.545567,2.2340505,0.18720417,-0.3755554,0.37654567,0.8259092,-12.813779,-1.9804747,0.19844946,3.0999491,-2.1935387,-1.4088641,0
0.060000000000000005,10.980869944925516,5.9999997978308794,-5.99999992705688,-3.5572287994693124,13.586065,2.9990613,-4.6503577,-3.0223408,15.668107,-10.564854,2.235838,0.20360711,-0.3654473,0.38472763,0.82278615,-12.876523,-1.8769883,0.15884835,3.295657,-2.5314028,-1.4913657,0
0.07,10.980869944925516,5.9999997978308794,-5.99999992705688,-3.5572287994693124,13.586065,2.9990613,-4.6503577,-3.0223408,15.539054,-10.583106,2.2372243,0.22123508,-0.353773,0.393047,0.8193984,-12.933092,-1.7733212,0.11832707,3.4924102,-2.8481755,-1.5726423,0
0.08,14.118343062922975,5.999999895267246,-5.999999959315176,-3.107436913399871,15.324917,1.6010172,-5.4152975,-1.2173487,15.409468,-10.600322,2.2382016,0.2400188,-0.3405792,0.40146622,0.8156112,-12.983204,-1.6696131,0.07706529,3.6891313,-3.1462274,-1.6526723,0
0.09,14.118343062922975,5.999999895267246,-5.999999959315176,-3.107436913399871,15.324917,1.6010172,-5.4152975,-1.2173487,15.279383,-10.616429,2.2388022,0.26013997,-0.32549584,0.41015598,0.8112655,-13.032531,-1.55184,0.042922527,4.0323324,-3.575271,-1.7225453,0
0.09999999999999999,14.118343062922975,5.999999895267246,-5.999999959315176,-3.107436913399871,15.324917,1.6010172,-5.4152975,-1.2173487,15.148844,-10.631355,2.2390606,0.2817,-0.3082196,0.41920564,0.8061715,-13.074171,-1.4331707,0.008944794,4.3385906,-3.953941,-1.7905023,0
0.10999999999999999,14.118343062922975,5.999999895267246,-5.999999959315176,-3.107436913399871,15.324917,1.6010172,-5.4152975,-1.2173487,15.017926,-10.645086,2.2389843,0.30442604,-0.28899258,0.42840487,0.8001733,-13.10791,-1.3125575,-0.024030648,4.5971355,-4.2735176,-1.8551247,0
0.11999999999999998,14.118343062922975,5.999999895267246,-5.999999959315176,-3.107436913399871,15.324917,1.6010172,-5.4152975,-1.2173487,14.886715,-10.657602,2.2385838,0.32805157,-0.26805425,0.43755972,0.79313964,-13.133061,-1.1904316,-0.055956163,4.815405,-4.543218,-1.9165759,0
0.12999999999999998,19.323295946074815,5.999999934089368,-5.999999971041794,-2.4201373038823095,14.619944,0.26758704,-5.3954754,-0.54622406,14.755298,-10.668891,2.237869,0.35233712,-0.24561675,0.4465053,0.7849611,-13.149042,-1.0673392,-0.086835876,4.9996767,-4.770823,-1.9750118,0
0.13999999999999999,19.323295946074815,5.999999934089368,-5.999999971041794,-2.4201373038823095,14.619944,0.26758704,-5.3954754,-0.54622406,14.623753,-10.67872,2.236976,0.37700078,-0.22183207,0.45512274,0.7755799,-13.157716,-0.89842415,-0.09157051,5.1553593,-4.9627857,-1.9968542,0
0.15,19.323295946074815,5.999999934089368,-5.999999971041794,-2.4201373038823095,14.619944,0.26758704,-5.3954754,-0.54622406,14.49219,-10.686862,2.236042,0.40178776,-0.196836,0.46331227,0.7649601,-13.152698,-0.7300541,-0.095065944,5.286801,-5.124781,-2.0176249,0
0.16,20.999998244062038,4.531780166575192,-5.524022918186749,-0.868522248973897,16.811798,0.5405212,-5.0915446,-1.2062123,14.360747,-10.693327,2.235078,0.42653126,-0.170788,0.470971,0.75305307,-13.133642,-0.5632995,-0.09749631,5.3977766,-5.2614865,-2.0373762,0
0.17,20.999998244062038,4.531780166575192,-5.524022918186749,-0.868522248973897,16.811798,0.5405212,-5.0915446,-1.2062123,14.22958,-10.698066,2.2341363,0.45075798,-0.14414468,0.477695,0.7401669,-13.097527,-0.38505915,-0.09068411,5.26287,-5.302053,-1.98002,0
0.18000000000000002,20.999998244062038,4.531780166575192,-5.524022918186749,-0.868522248973897,16.811798,0.5405212,-5.0915446,-1.2062123,14.098849,-10.701043,2.233267,0.47410378,-0.117293395,0.4832025,0.72662455,-13.046312,-0.21104118,-0.08306875,5.149002,-5.336339,-1.9254785,0
0.19000000000000003,20.999998244062038,4.531780166575192,-5.524022918186749,-0.868522248973897,16.811798,0.5405212,-5.0915446,-1.2062123,13.968704,-10.702306,2.2324777,0.49657503,-0.09027462,0.4875767,0.71241325,-12.980501,-0.042423368,-0.07478285,5.0528913,-5.3653164,-1.8736132,0
0.20000000000000004,20.23254416158538,3.126669931283096,-3.881353824337787,-0.518679345926798,16.783186,-1.5323547,-4.281406,-0.0054395325,13.839288,-10.701914,2.2317734,0.5181729,-0.06312611,0.49088767,0.697525,-12.900651,0.119686395,-0.065991625,4.9717674,-5.389807,-1.8242933,0
0.21000000000000005,20.23254416158538,3.126669931283096,-3.881353824337787,-0.518679345926798,16.783186,-1.5323547,-4.281406,-0.0054395325,13.71072,-10.699967,2.2311392,0.5385222,-0.03661403,0.4931639,0.6822336,-12.810853,0.26864308,-0.060809046,4.684521,-5.154027,-1.7602264,0
0.22000000000000006,20.23254416158538,3.126669931283096,-3.881353824337787,-0.518679345926798,16.783186,-1.5323547,-4.281406,-0.0054395325,13.583111,-10.696569,2.2305574,0.55737865,-0.011350894,0.49449554,0.66683906,-12.709244,0.409751,-0.055542286,4.442,-4.955099,-1.6993034,0
0.23000000000000007,20.23254416158538,3.126669931283096,-3.881353824337787,-0.518679345926798,16.783186,-1.5323547,-4.281406,-0.0054395325,13.456573,-10.691801,2.230028,0.57491326,0.01284142,0.49501154,0.6513627,-12.596921,0.54258025,-0.05038636,4.237242,-4.787262,-1.6413698,0
0.24000000000000007,20.23254416158538,3.126669931283096,-3.881353824337787,-0.518679345926798,15.704126,-2.2611973,-2.542449,0.048808206,13.331206,-10.685748,2.2295487,0.5912665,0.03611585,0.49481356,0.6358137,-12.474881,0.6667802,-0.04551309,4.064367,-4.645655,-1.586279,0
0.25000000000000006,20.23254416158538,3.126669931283096,-3.881353824337787,-0.518679345926798,15.704126,-2.2611973,-2.542449,0.048808206,13.207106,-10.678497,2.2291162,0.60655403,0.058602642,0.4939817,0.6201935,-12.344035,0.7820601,-0.04107767,3.9184117,-4.526178,-1.5338916,0
0.26000000000000006,20.23254416158538,3.126669931283096,-3.881353824337787,-0.518679345926798,15.704126,-2.2611973,-2.542449,0.048808206,13.0843525,-10.670138,2.2287252,0.62087107,0.08041191,0.4925791,0.6044988,-12.205221,0.8881757,-0.037223585,3.7951846,-4.4253716,-1.4840748,0
0.2700000000000001,20.23254416158538,3.126669931283096,-3.881353824337787,-0.518679345926798,15.704126,-2.2611973,-2.542449,0.048808206,12.963025,-10.660766,2.2283692,0.63429606,0.10163606,0.49065575,0.5887236,-12.059219,0.98491955,-0.034086086,3.6911466,-4.3403172,-1.4367026,0
0.2800000000000001,18.546974794911208,1.410153889384101,-1.8740810987523147,0.27859071590004264,14.797229,-2.7105026,-1.1765088,0.42341638,12.843191,-10.650473,2.2280407,0.64689374,0.12235209,0.48825112,0.57286066,-11.90676,1.0721142,-0.031794712,3.6033094,-4.268554,-1.391655,0
0.2900000000000001,18.546974794911208,1.410153889384101,-1.8740810987523147,0.27859071590004264,14.797229,-2.7105026,-1.1765088,0.42341638,12.724844,-10.639389,2.2276886,0.65837085,0.14177142,0.4855273,0.5574154,-11.761757,1.1432282,-0.038748708,3.2618358,-3.8946528,-1.3096955,0
0.3000000000000001,18.546974794911208,1.410153889384101,-1.8740810987523147,0.27859071590004264,14.797229,-2.7105026,-1.1765088,0.42341638,12.60797,-10.627637,2.2272625,0.66855717,0.15929429,0.48266652,0.54285336,-11.612353,1.205926,-0.04662711,2.9735188,-3.5791478,-1.2317579,0
0.3100000000000001,18.546974794911208,1.410153889384101,-1.8740810987523147,0.27859071590004264,14.797229,-2.7105026,-1.1765088,0.42341638,12.49261,-10.615298,2.226753,0.6776586,0.17523366,0.47971362,0.52910006,-11.459329,1.2607329,-0.0554338,2.7300873,-3.3129158,-1.1576446,0
0.3200000000000001,17.169906651037977,-0.26271212066238553,0.2148803989937745,1.3168892254134035,16.929892,-3.7820034,0.9862394,1.8883086,12.378796,-10.6024475,2.2261508,0.68584114,0.18985283,0.47669595,0.5160803,-11.303321,1.308123,-0.065159254,2.5245562,-3.088259,-1.0871681,0
0.3300000000000001,17.169906651037977,-0.26271212066238553,0.2148803989937745,1.3168892254134035,16.929892,-3.7820034,0.9862394,1.8883086,12.266495,-10.589174,2.2254143,0.69291455,0.20254792,0.4738438,0.5042974,-11.156644,1.345596,-0.08227205,2.0904481,-2.5726662,-0.96920025,0
0.34000000000000014,17.169906651037977,-0.26271212066238553,0.2148803989937745,1.3168892254134035,16.929892,-3.7820034,0.9862394,1.8883086,12.155669,-10.575556,2.2245028,0.6987686,0.21287464,0.47136688,0.4941864,-11.008258,1.3775327,-0.10012322,1.7239065,-2.137591,-0.85702115,0
0.35000000000000014,17.169906651037977,-0.26271212066238553,0.2148803989937745,1.3168892254134035,16.929892,-3.7820034,0.9862394,1.8883086,12.046333,-10.561641,2.2234097,0.7036209,0.22124726,0.4692388,0.4855742,-10.858612,1.4048374,-0.118602514,1.4144238,-1.7704519,-0.7503468,0
0.36000000000000015,17.721578272033035,-3.241414645073845,3.3489757174210846,2.3497192042673447,17.651276,-4.5488415,3.1055398,2.6919594,11.938499,-10.547472,2.2221289,0.70764124,0.22801018,0.4674241,0.47829908,-10.708038,1.4282892,-0.13760398,1.1531245,-1.4606354,-0.6489069,0
0.37000000000000016,17.721578272033035,-3.241414645073845,3.3489757174210846,2.3497192042673447,17.651276,-4.5488415,3.1055398,2.6919594,11.832199,-10.533082,2.2206686,0.7105961,0.23206905,0.46618003,0.47315258,-10.551951,1.449337,-0.15447335,0.46818778,-0.7102412,-0.50176346,0
0.38000000000000017,17.721578272033035,-3.241414645073845,3.3489757174210846,2.3497192042673447,17.651276,-4.5488415,3.1055398,2.6919594,11.727461,-10.518491,2.2190387,0.7123118,0.2325831,0.46571624,0.47077116,-10.395575,1.4686754,-0.1714695,-0.110105544,-0.07702656,-0.3618404,0
0.3900000000000002,17.721578272033035,-3.241414645073845,3.3489757174210846,2.3497192042673447,17.651276,-4.5488415,3.1055398,2.6919594,11.624287,-10.503709,2.2172396,0.7129632,0.23014705,0.46591204,0.4707885,-10.239262,1.4877918,-0.18829302,-0.59834254,0.45732206,-0.22878341,0
0.4000000000000002,20.704283289405964,-5.564839345646274,5.656856555763995,3.049428850360618,18.703342,-5.9805536,4.633745,3.3462887,11.522675,-10.48873,2.2152743,0.71266854,0.22525087,0.46664497,0.47287226,-10.083298,1.5079446,-0.20469767,-1.0105338,0.90825397,-0.10225555,0
0.4100000000000002,20.704283289405964,-5.564839345646274,5.656856555763995,3.049428850360618,18.703342,-5.9805536,4.633745,3.3462887,11.42275,-10.473523,2.2132173,0.71123683,0.21723832,0.4679922,0.47742337,-9.901826,1.5340532,-0.20660995,-1.7208878,1.6486738,0.05239851,0
0.4200000000000002,20.704283289405964,-5.564839345646274,5.656856555763995,3.049428850360618,18.703342,-5.9805536,4.633745,3.3462887,11.3246355,-10.458034,2.211146,0.7084585,0.20559758,0.46996984,0.48471084,-9.721616,1.5645154,-0.20744486,-2.3205857,2.2735078,0.19946365,0
0.4300000000000002,20.704283289405964,-5.564839345646274,5.656856555763995,3.049428850360618,18.703342,-5.9805536,4.633745,3.3462887,11.2283125,-10.442212,2.2090733,0.7043614,0.19089237,0.47237426,0.49426496,-9.543284,1.6010433,-0.20692357,-2.8268464,2.8008182,0.33931226,0
0.4400000000000002,20.704283289405964,-5.564839345646274,5.656856555763995,3.049428850360618,19.725786,-6.5307736,5.5444,3.1786435,11.13376,-10.425988,2.207013,0.6989459,0.17359477,0.4750178,0.50566554,-9.36751,1.6450427,-0.20488155,-3.2542124,3.2458413,0.47229844,1
0.45000000000000023,20.704283289405964,-5.564839345646274,5.656856555763995,3.049428850360618,19.725786,-6.5307736,5.5444,3.1786435,11.04091,-10.409294,2.2049568,0.69224125,0.15401334,0.47760898,0.5186248,-9.203202,1.6951597,-0.20605326,-3.6828368,3.603852,0.60509956,1
0.46000000000000024,20.704283289405964,-5.564839345646274,5.656856555763995,3.049428850360618,19.725786,-6.5307736,5.5444,3.1786435,10.949682,-10.392055,2.2028968,0.6842539,0.13241962,0.47989753,0.5328791,-9.042894,1.7543284,-0.20565332,-4.0446362,3.9060054,0.7313841,1
0.47000000000000025,20.704283289405964,-5.564839345646274,5.656856555763995,3.049428850360618,19.725786,-6.5307736,5.5444,3.1786435,10.860035,-10.374174,2.200849,0.6749437,0.109136544,0.48178414,0.5481099,-8.887496,1.8231813,-0.20369838,-4.35002,4.1610274,0.8514718,1
0.48000000000000026,20.999997355203664,-5.999994406225591,5.773743675099215,3.332623034422752,20.078508,-6.07979,5.9413366,2.3872604,10.771914,-10.355556,2.1988282,0.664279,0.08444455,0.48318464,0.56403494,-8.737959,1.9021366,-0.20029123,-4.6077776,4.3762784,0.9656668,1
0.49000000000000027,20.999997355203664,-5.999994406225591,5.773743675099215,3.332623034422752,20.078508,-6.07979,5.9413366,2.3872604,10.685266,-10.336088,2.196857,0.65221494,0.058451198,0.4841408,0.5803508,-8.592709,1.9930204,-0.19377795,-4.8252563,4.6199927,1.035425,1
0.5000000000000002,20.999997355203664,-5.999994406225591,5.773743675099215,3.332623034422752,20.078508,-6.07979,5.9413366,2.3872604,10.600032,-10.315659,2.1949563,0.6387259,0.031253606,0.48467588,0.59677637,-8.455437,2.0945287,-0.18627137,-5.008804,4.825716,1.1017599,1
0.5100000000000002,20.999997355203664,-5.999994406225591,5.773743675099215,3.332623034422752,20.078508,-6.07979,5.9413366,2.3872604,10.516126,-10.294162,2.1931338,0.6238213,0.0030708099,0.48470178,0.6131084,-8.327163,2.206597,-0.17813757,-5.16371,4.9993734,1.1648399,1
0.5200000000000002,20.999996079198013,-5.918792777682243,4.2220427173698205,2.844199993582396,19.873268,-6.151491,6.3299184,2.012621,10.433454,-10.271492,2.1913943,0.607518,-0.02590059,0.4841469,0.6291685,-8.208888,2.3289766,-0.16978359,-5.294441,5.145966,1.2248244,0
0.5300000000000002,20.999996079198013,-5.918792777682243,4.2220427173698205,2.844199993582396,19.873268,-6.151491,6.3299184,2.012621,10.351935,-10.2475195,2.189762,0.59014493,-0.055000138,0.4825685,0.6448502,-8.096632,2.4672704,-0.15673298,-5.391953,5.0015235,1.3042876,0
0.5400000000000003,20.999996079198013,-5.918792777682243,4.2220427173698205,2.844199993582396,19.873268,-6.151491,6.3299184,2.012621,10.271479,-10.222116,2.1882584,0.5719952,-0.083672866,0.47965693,0.6601135,-7.996622,2.614965,-0.14408238,-5.474251,4.8796244,1.3798515,0
0.5500000000000003,20.999996079198013,-5.918792777682243,4.2220427173698205,2.844199993582396,19.873268,-6.151491,6.3299184,2.012621,10.191958,-10.195193,2.1868782,0.5530436,-0.111899294,0.47553778,0.67489666,-7.9095297,2.7710214,-0.13198797,-5.543709,4.776753,1.4517075,0
0.5600000000000003,20.202781026644985,-5.063280201222139,2.1082282100928014,2.364244690470984,20.411919,-6.697291,5.91849,2.3673,10.113241,-10.166671,2.1856158,0.5332756,-0.13966118,0.47031876,0.6891389,-7.8359365,2.9343758,-0.12063084,-5.60233,4.689942,1.5200374,0
0.5700000000000003,20.202781026644985,-5.063280201222139,2.1082282100928014,2.364244690470984,20.411919,-6.697291,5.91849,2.3673,10.035179,-10.136516,2.184442,0.51318437,-0.16620459,0.46388587,0.7027289,-7.778541,3.0974622,-0.11429216,-5.5179834,4.287259,1.5614629,0
0.5800000000000003,20.202781026644985,-5.063280201222139,2.1082282100928014,2.364244690470984,20.411919,-6.697291,5.91849,2.3673,9.957624,-10.104706,2.1833274,0.49321562,-0.19094142,0.4562118,0.71564704,-7.734544,3.265162,-0.1087533,-5.4468293,3.947373,1.6008557,0
0.5900000000000003,20.202781026644985,-5.063280201222139,2.1082282100928014,2.364244690470984,20.411919,-6.697291,5.91849,2.3673,9.880444,-10.071201,2.1822646,0.4732945,-0.21408275,0.44749033,0.7279515,-7.703768,3.4361935,-0.10388658,-5.3868055,3.66049,1.6383154,0
0.6000000000000003,18.201815243533424,-3.7334239444080652,-0.24880679775662137,1.808923375196192,18.653704,-6.7790637,5.144047,2.0751374,9.803504,-10.0359745,2.1812475,0.4533556,-0.23581015,0.43787834,0.7396789,-7.686006,3.6094007,-0.0995863,-5.336173,3.4183457,1.673937,0
0.6100000000000003,18.201815243533424,-3.7334239444080652,-0.24880679775662137,1.808923375196192,18.653704,-6.7790637,5.144047,2.0751374,9.726674,-9.999096,2.1802208,0.43394223,-0.25537497,0.42747024,0.7508309,-7.6814466,3.7664406,-0.105824485,-5.085614,2.8467062,1.6805607,0
0.6200000000000003,18.201815243533424,-3.7334239444080652,-0.24880679775662137,1.808923375196192,18.653704,-6.7790637,5.144047,2.0751374,9.649837,-9.960646,2.1791308,0.41552162,-0.2722167,0.41639763,0.7614807,-7.6876082,3.923472,-0.1121341,-4.8742228,2.3641734,1.6868595,0
0.6300000000000003,18.201815243533424,-3.7334239444080652,-0.24880679775662137,1.808923375196192,18.653704,-6.7790637,5.144047,2.0751374,9.572887,-9.92063,2.177979,0.3979307,-0.28673232,0.40481347,0.7717265,-7.7036777,4.079628,-0.11814487,-4.695876,1.9568579,1.692849,0
0.6400000000000003,18.201815243533424,-3.7334239444080652,-0.24880679775662137,1.808923375196192,16.981617,-6.063334,3.720479,0.50856805,9.49573,-9.879061,2.17677,0.38102403,-0.29925764,0.39283195,0.781632,-7.728922,4.2341948,-0.12353103,-4.545409,1.6130345,1.6985449,0
0.6500000000000004,18.201815243533424,-3.7334239444080652,-0.24880679775662137,1.808923375196192,16.981617,-6.063334,3.720479,0.50856805,9.418279,-9.835955,2.1755114,0.36467442,-0.31007642,0.38053855,0.7912367,-7.7626805,4.386577,-0.12801142,-4.4184647,1.3228061,1.7039611,0
0.6600000000000004,18.201815243533424,-3.7334239444080652,-0.24880679775662137,1.808923375196192,16.981617,-6.063334,3.720479,0.50856805,9.34045,-9.791338,2.1742134,0.34877232,-0.3194284,0.36799717,0.8005632,-7.8043575,4.5362706,-0.13134764,-4.3113647,1.0778183,1.7091117,0
0.6700000000000004,18.201815243533424,-3.7334239444080652,-0.24880679775662137,1.808923375196192,16.981617,-6.063334,3.720479,0.50856805,9.262167,-9.745239,2.1728888,0.33322427,-0.32751614,0.35525545,0.80962235,-7.8534145,4.68284,-0.13334087,-4.221008,0.87101895,1.7140094,0
0.6800000000000004,17.1709563442397,-2.247761011601778,-2.4268450271638216,1.0564804163516792,16.221315,-5.169749,1.6977844,-0.55191743,9.183358,-9.697694,2.1715517,0.31795168,-0.33451054,0.34234914,0.8184171,-7.90936,4.8259053,-0.13382836,-4.144777,0.69645536,1.7186668,0
0.6900000000000004,17.1709563442397,-2.247761011601778,-2.4268450271638216,1.0564804163516792,16.221315,-5.169749,1.6977844,-0.55191743,9.103975,-9.648775,2.1701899,0.30346313,-0.3396894,0.32949337,0.82701594,-7.968138,4.957255,-0.13826525,-3.8483887,0.20979169,1.6861732,0
0.7000000000000004,17.1709563442397,-2.247761011601778,-2.4268450271638216,1.0564804163516792,16.221315,-5.169749,1.6977844,-0.55191743,9.023979,-9.598562,2.168793,0.2901716,-0.34250447,0.3168837,0.83550936,-8.032054,5.0847735,-0.14079031,-3.5983243,-0.20104325,1.6552739,0
0.7100000000000004,17.1709563442397,-2.247761011601778,-2.4268450271638216,1.0564804163516792,16.221315,-5.169749,1.6977844,-0.55191743,8.943322,-9.547094,2.1673818,0.27788457,-0.34331948,0.30450872,0.8439114,-8.100214,5.20832,-0.14105505,-3.3873408,-0.5478637,1.625891,0
0.7200000000000004,16.711006191960173,-0.8257472308830868,-4.164398616590819,0.4094700486412568,15.238533,-3.208394,-0.2046475,-1.2705005,8.861964,-9.4944105,2.1659808,0.26643738,-0.34243804,0.29234907,0.85222036,-8.171842,5.327795,-0.13877244,-3.2093291,-0.84064287,1.5979497,0
0.7300000000000004,16.711006191960173,-0.8257472308830868,-4.164398616590819,0.4094700486412568,15.238533,-3.208394,-0.2046475,-1.2705005,8.779886,-9.440568,2.1646028,0.2561547,-0.339395,0.2806597,0.8604802,-8.244208,5.4400535,-0.13645002,-2.8371227,-1.3584851,1.5396308,0
0.7400000000000004,16.711006191960173,-0.8257472308830868,-4.164398616590819,0.4094700486412568,15.238533,-3.208394,-0.2046475,-1.2705005,8.697075,-9.385623,2.1632628,0.24728793,-0.33383876,0.26964867,0.86872905,-8.318258,5.548359,-0.13106024,-2.5230756,-1.7956592,1.4841734,0
0.7500000000000004,16.711006191960173,-0.8257472308830868,-4.164398616590819,0.4094700486412568,15.238533,-3.208394,-0.2046475,-1.2705005,8.61352,-9.329615,2.1619933,0.23960803,-0.32615253,0.259224,0.8769354,-8.393036,5.652814,-0.1222905,-2.258095,-2.1647286,1.4314374,0
0.7600000000000005,17.089180215914226,0.21263712974782034,-5.2336970319817615,-0.25393758426350893,14.766686,-1.7693422,-1.6611497,-1.7423112,8.529217,-9.272579,2.1608293,0.23292084,-0.31665552,0.24929975,0.8850577,-8.46771,5.753515,-0.10990634,-2.034511,-2.476301,1.3812891,0
0.7700000000000005,17.089180215914226,0.21263712974782034,-5.2336970319817615,-0.25393758426350893,14.766686,-1.7693422,-1.6611497,-1.7423112,8.444161,-9.214545,2.159821,0.22737066,-0.30515948,0.2400422,0.8930623,-8.543185,5.852755,-0.0911461,-1.6838338,-2.9059107,1.301048,0
0.7800000000000005,17.089180215914226,0.21263712974782034,-5.2336970319817615,-0.25393758426350893,14.766686,-1.7693422,-1.6611497,-1.7423112,8.358358,-9.155537,2.1590204,0.22306348,-0.29152673,0.23157738,0.90090346,-8.616851,5.9484315,-0.068329915,-1.3879346,-3.2686071,1.2247444,0
0.7900000000000005,17.089180215914226,0.21263712974782034,-5.2336970319817615,-0.25393758426350893,14.766686,-1.7693422,-1.6611497,-1.7423112,8.271832,-9.095588,2.158469,0.21979666,-0.27607083,0.2237756,0.90851474,-8.687821,6.040714,-0.041337233,-1.1382502,-3.5748084,1.1521851,0
0.8000000000000005,18.218094053998904,0.8524897987475906,-5.532255496298428,-0.7780196694971064,14.261975,-0.7728829,-3.0470033,-1.4917145,8.184614,-9.034733,2.1582081,0.2173996,-0.259056,0.21652319,0.91583043,-8.75532,6.1297317,-0.010129733,-0.927558,-3.8333108,1.0831861,0
0.8100000000000005,18.218094053998904,0.8524897987475906,-5.532255496298428,-0.7780196694971064,14.261975,-0.7728829,-3.0470033,-1.4917145,8.09672,-8.972975,2.1583245,0.21587864,-0.24055502,0.20991428,0.92274916,-8.822827,6.221262,0.034074455,-0.65001696,-4.098025,0.99185634,0
0.8200000000000005,18.218094053998904,0.8524897987475906,-5.532255496298428,-0.7780196694971064,14.261975,-0.7728829,-3.0470033,-1.4917145,8.008176,-8.910318,2.1589048,0.21523388,-0.22063915,0.20401736,0.92917705,-8.885122,6.3095794,0.08261923,-0.41580147,-4.3215165,0.905008,0
0.8300000000000005,18.218094053998904,0.8524897987475906,-5.532255496298428,-0.7780196694971064,14.261975,-0.7728829,-3.0470033,-1.4917145,7.919038,-8.846794,2.1599913,0.21532494,-0.19951442,0.19870606,0.9350644,-8.941502,6.3948145,0.13532126,-0.21814322,-4.510202,0.8224214,0
0.8400000000000005,18.218094053998904,0.8524897987475906,-5.532255496298428,-0.7780196694971064,14.438185,-0.68244,-4.041925,-1.445673,7.829368,-8.782433,2.1616247,0.21603367,-0.17735764,0.19387276,0.9403656,-8.991348,6.477052,0.19193596,-0.051332116,-4.669498,0.7438873,0
0.8500000000000005,18.218094053998904,0.8524897987475906,-5.532255496298428,-0.7780196694971064,14.438185,-0.68244,-4.041925,-1.445673,7.739235,-8.717263,2.1638424,0.21726044,-0.15432148,0.18942621,0.94504017,-9.03413,6.556335,0.25216478,0.08944994,-4.80398,0.6692069,0
0.8600000000000005,18.218094053998904,0.8524897987475906,-5.532255496298428,-0.7780196694971064,14.438185,-0.68244,-4.041925,-1.445673,7.6487107,-8.651317,2.1666791,0.21892112,-0.1305385,0.18528947,0.94905293,-9.069386,6.632671,0.31566226,0.20826773,-4.9175115,0.5981911,0
0.8700000000000006,18.218094053998904,0.8524897987475906,-5.532255496298428,-0.7780196694971064,14.438185,-0.68244,-4.041925,-1.445673,7.5578737,-8.58462,2.1701658,0.22094448,-0.10612443,0.18139791,0.95237404,-9.096721,6.7060375,0.38204262,0.30855066,-5.013355,0.53066003,0
0.8800000000000006,18.346210562426986,0.8534051935789592,-4.9766985724129205,-1.060695938441003,14.091872,-0.9859578,-3.54035,-1.3632977,7.4668045,-8.517205,2.1743288,0.22326982,-0.08118085,0.17769757,0.9549787,-9.115803,6.776387,0.45088577,0.39319253,-5.094264,0.46644276,0
0.8900000000000006,18.346210562426986,0.8534051935789592,-4.9766985724129205,-1.060695938441003,14.091872,-0.9859578,-3.54035,-1.3632977,7.3755865,-8.4491005,2.1791964,0.22584037,-0.05601618,0.17419165,0.956826,-9.12645,6.8441358,0.5229277,0.46470886,-5.07593,0.39150566,0
0.9000000000000006,18.346210562426986,0.8534051935789592,-4.9766985724129205,-1.060695938441003,14.091872,-0.9859578,-3.54035,-1.3632977,7.2843056,-8.380334,2.1847925,0.22861695,-0.03088494,0.17088516,0.9579034,-9.128418,6.9087567,0.5965012,0.5250868,-5.0604644,0.32024568,0
0.9100000000000006,18.346210562426986,0.8534051935789592,-4.9766985724129205,-1.060695938441003,14.091872,-0.9859578,-3.54035,-1.3632977,7.1930485,-8.310937,2.19113,0.23157443,-0.005797655,0.16773911,0.9582293,-9.121664,6.9702196,0.67110974,0.57606244,-5.0474157,0.25248247,0
0.9200000000000006,19.21585796736045,0.6582131072214527,-3.937004056542115,-1.2922761899276514,18.197624,-1.3810347,-4.3743076,-0.14464672,7.1019025,-8.240942,2.1982164,0.23469017,0.01923474,0.16472115,0.95781916,-9.106174,7.0284805,0.7462648,0.61910033,-5.0364056,0.18804443,0
0.9300000000000006,19.21585796736045,0.6582131072214527,-3.937004056542115,-1.2922761899276514,18.197624,-1.3810347,-4.3743076,-0.14464672,7.01096,-8.170367,2.2060964,0.23790666,0.043779656,0.16182959,0.95671046,-9.080852,7.086103,0.82970303,0.62494814,-4.864983,0.11540466,0
0.9400000000000006,19.21585796736045,0.6582131072214527,-3.937004056542115,-1.2922761899276514,18.197624,-1.3810347,-4.3743076,-0.14464672,6.9203153,-8.099232,2.214809,0.24118987,0.06749311,0.15906925,0.95497066,-9.046701,7.140334,0.91274035,0.62991196,-4.720293,0.04632937,0
0.9500000000000006,19.21585796736045,0.6582131072214527,-3.937004056542115,-1.2922761899276514,18.197624,-1.3810347,-4.3743076,-0.14464672,6.8300548,-8.027572,2.2243483,0.24455039,0.09048475,0.15642358,0.9526485,-9.004045,7.191198,0.99495065,0.6341245,-4.598166,-0.019356389,0
0.9600000000000006,19.080353651101827,0.20853926982308582,-2.523519751313137,-1.3464293721616893,19.24084,-2.3850696,-4.640003,1.2754431,6.740262,-7.95542,2.234704,0.24799456,0.1128472,0.15387832,0.94978184,-8.953183,7.238706,1.0759453,0.63769925,-4.495084,-0.08181893,0
0.9700000000000006,19.080353651101827,0.20853926982308582,-2.523519751313137,-1.3464293721616893,19.24084,-2.3850696,-4.640003,1.2754431,6.6510158,-7.882811,2.2458553,0.25146878,0.13407695,0.15139347,0.9465023,-8.894858,7.2825623,1.154127,0.57061803,-4.187639,-0.1438737,0
0.9800000000000006,19.080353651101827,0.20853926982308582,-2.523519751313137,-1.3464293721616893,19.24084,-2.3850696,-4.640003,1.2754431,6.5623894,-7.8097796,2.25778,0.25494364,0.15378484,0.14894472,0.9429577,-8.829281,7.3231783,1.2305293,0.51402473,-3.928135,-0.20288345,0
0.9900000000000007,19.080353651101827,0.20853926982308582,-2.523519751313137,-1.3464293721616893,19.24084,-2.3850696,-4.640003,1.2754431,6.4744525,-7.736358,2.2704592,0.2584513,0.17219739,0.14654012,0.9391894,-8.757036,7.360646,1.3049943,0.4662773,-3.7090967,-0.2589976,0
1.0000000000000007,18.870555338912617,-0.3163870959893273,-1.2468219503024196,-1.2860501464626823,19.364473,-3.965505,-4.3829446,2.673295,6.3872695,-7.6625776,2.2838728,0.262015,0.18950628,0.14418505,0.93522507,-8.678629,7.395043,1.3773975,0.42599145,-3.524215,-0.3123582,0
1.0100000000000007,18.870555338912617,-0.3163870959893273,-1.2468219503024196,-1.2860501464626823,19.364473,-3.965505,-4.3829446,2.673295,6.3008943,-7.5884695,2.2979906,0.26561335,0.20534337,0.14182062,0.9312198,-8.595461,7.4261,1.4458063,0.3101909,-3.169043,-0.36013755,0
1.0200000000000007,18.870555338912617,-0.3163870959893273,-1.2468219503024196,-1.2860501464626823,19.364473,-3.965505,-4.3829446,2.673295,6.215377,-7.5140657,2.3127818,0.26923743,0.21943161,0.13940507,0.92732245,-8.507313,7.4543114,1.5121478,0.21246128,-2.8692572,-0.40557235,0
1.0300000000000007,18.870555338912617,-0.3163870959893273,-1.2468219503024196,-1.2860501464626823,19.364473,-3.965505,-4.3829446,2.673295,6.1307635,-7.439393,2.3282266,0.27291602,0.23204267,0.13696276,0.9235334,-8.414802,7.4797997,1.5765276,0.12998042,-2.6162217,-0.44877765,0
1.0400000000000007,18.870555338912617,-0.3163870959893273,-1.2468219503024196,-1.2860501464626823,19.853947,-4.008335,-3.9396167,3.3152828,6.0470943,-7.364479,2.344306,0.2766692,0.24340525,0.1345121,0.9198446,-8.318447,7.5026717,1.6390536,0.06036731,-2.402646,-0.4898629,0
1.0500000000000007,18.870555338912617,-0.3163870959893273,-1.2468219503024196,-1.2860501464626823,19.853947,-4.008335,-3.9396167,3.3152828,5.964406,-7.289348,2.3610017,0.28051051,0.25371188,0.13206698,0.91624343,-8.218685,7.5230203,1.6998298,0.0016133673,-2.222377,-0.528932,0
1.0600000000000007,18.870555338912617,-0.3163870959893273,-1.2468219503024196,-1.2860501464626823,19.853947,-4.008335,-3.9396167,3.3152828,5.882731,-7.2140265,2.3782966,0.2844486,0.26312456,0.12963776,0.9127147,-8.115881,7.5409236,1.7589535,-0.047976535,-2.0702217,-0.56608397,0
1.0700000000000007,18.870555338912617,-0.3163870959893273,-1.2468219503024196,-1.2860501464626823,19.853947,-4.008335,-3.9396167,3.3152828,5.802098,-7.138538,2.3961751,0.28848836,0.27177963,0.127232,0.9092425,-8.0103445,7.5564504,1.8165125,-0.08983276,-1.9417955,-0.60141295,0
1.0800000000000007,18.543303061475285,-0.7906271876832827,-0.19160370266546714,-1.1067397295161228,21.083416,-3.9118583,-4.1670446,3.7709472,5.7225327,-7.0629053,2.414622,0.2926319,0.27979195,0.12485511,0.90581113,-7.90234,7.5696588,1.8725853,-0.12516166,-1.8333983,-0.63500834,0
1.0900000000000007,18.543303061475285,-0.7906271876832827,-0.19160370266546714,-1.1067397295161228,21.083416,-3.9118583,-4.1670446,3.7709472,5.644049,-6.9871535,2.433609,0.296861,0.28682363,0.12245753,0.9025572,-7.794032,7.5804157,1.924613,-0.22885881,-1.577315,-0.6581564,0
1.1000000000000008,18.543303061475285,-0.7906271876832827,-0.19160370266546714,-1.1067397295161228,21.083416,-3.9118583,-4.1670446,3.7709472,5.5666585,-6.911305,2.4531102,0.30116215,0.2926152,0.12000209,0.89959806,-7.6839366,7.589048,1.9754732,-0.3163935,-1.361172,-0.6801685,0
1.1100000000000008,18.543303061475285,-0.7906271876832827,-0.19160370266546714,-1.1067397295161228,21.083416,-3.9118583,-4.1670446,3.7709472,5.490376,-6.83538,2.4731152,0.30553997,0.29736045,0.11750779,0.896891,-7.572435,7.595659,2.0253887,-0.3902855,-1.1787404,-0.70110047,0
1.1200000000000008,18.09202557715549,-1.2217498379240368,0.7613748022059096,-0.8602687567435414,21.922535,-4.193556,-4.098569,4.593556,5.4152136,-6.7593985,2.4936156,0.30999607,0.30122197,0.11498921,0.8943963,-7.459848,7.600339,2.0745544,-0.4526616,-1.0247626,-0.72100526,0
1.1300000000000008,18.09202557715549,-1.2217498379240368,0.7613748022059096,-0.8602687567435414,21.922535,-4.193556,-4.098569,4.593556,5.3411674,-6.6833797,2.514587,0.3145117,0.30394572,0.112413235,0.8922232,-7.3492293,7.603107,2.1195898,-0.5724732,-0.7461567,-0.72783893,0
1.1400000000000008,18.09202557715549,-1.2217498379240368,0.7613748022059096,-0.8602687567435414,21.922535,-4.193556,-4.098569,4.593556,5.2682304,-6.607342,2.5360067,0.31906906,0.30533805,0.10975444,0.8904589,-7.2382307,7.6042027,2.1643538,-0.6736181,-0.5110072,-0.73433733,0
1.1500000000000008,18.09202557715549,-1.2217498379240368,0.7613748022059096,-0.8602687567435414,21.922535,-4.193556,-4.098569,4.593556,5.1964035,-6.531301,2.5578742,0.3236678,0.30560562,0.107032485,0.8890376,-7.127231,7.603753,2.2091205,-0.7590054,-0.31253606,-0.7405169,0
1.1600000000000008,17.798675608666052,-1.4918316154189455,1.3377978844330474,-0.5697344053927749,21.850546,-4.0879226,-3.7600985,4.658908,5.125685,-6.4552717,2.5801902,0.3283056,0.30492184,0.104262576,0.88790023,-7.0165505,7.601873,2.2541225,-0.8310901,-0.14502244,-0.7463932,0
1.1700000000000008,17.798675608666052,-1.4918316154189455,1.3377978844330474,-0.5697344053927749,21.850546,-4.0879226,-3.7600985,4.658908,5.0560613,-6.3792677,2.6029465,0.3329562,0.30319563,0.10142579,0.88708776,-6.9082603,7.598721,2.2972398,-0.9340206,0.086267255,-0.7377245,0
1.1800000000000008,17.798675608666052,-1.4918316154189455,1.3377978844330474,-0.5697344053927749,21.850546,-4.0879226,-3.7600985,4.658908,4.9875164,-6.303301,2.6261373,0.33759296,0.30036148,0.09850659,0.88662827,-6.8008947,7.5943923,2.3410304,-1.0209186,0.28147906,-0.72948116,0
1.1900000000000008,17.798675608666052,-1.4918316154189455,1.3377978844330474,-0.5697344053927749,21.850546,-4.0879226,-3.7600985,4.658908,4.920039,-6.2273836,2.6497703,0.34221163,0.29658785,0.09551981,0.88645476,-6.6947665,7.5890102,2.3857129,-1.0942813,0.4462407,-0.7216423,0
1.2000000000000008,17.032864720103234,-1.6394076799044441,1.5710294616908687,-0.28687726518757867,22.10488,-4.151029,-3.7661338,4.5541425,4.853616,-6.151525,2.6738553,0.3468077,0.29201636,0.09247719,0.8865089,-6.590144,7.5826845,2.4314637,-1.1562165,0.5853021,-0.71418816,0
1.2100000000000009,17.032864720103234,-1.6394076799044441,1.5710294616908687,-0.28687726518757867,22.10488,-4.151029,-3.7661338,4.5541425,4.7882085,-6.0757318,2.6983726,0.35135403,0.2866662,0.08935805,0.88678473,-6.4916935,7.5758257,2.4721868,-1.2315084,0.739044,-0.6932199,0
1.2200000000000009,17.032864720103234,-1.6394076799044441,1.5710294616908687,-0.28687726518757867,22.10488,-4.151029,-3.7661338,4.5541425,4.723776,-6.0000105,2.7233036,0.35582343,0.28055826,0.08614515,0.88727385,-6.3951516,7.5682573,2.5142074,-1.2950728,0.86880356,-0.6732806,0
1.2300000000000009,17.032864720103234,-1.6394076799044441,1.5710294616908687,-0.28687726518757867,22.10488,-4.151029,-3.7661338,4.5541425,4.6602983,-5.9243684,2.7486615,0.36021152,0.27380487,0.0828516,0.8879264,-6.3007402,7.5600686,2.5576372,-1.3487356,0.9783222,-0.65431964,0
1.2400000000000009,17.032864720103234,-1.6394076799044441,1.5710294616908687,-0.28687726518757867,22.474415,-4.258403,-4.050553,4.0562253,4.597753,-5.8488107,2.7744613,0.3645145,0.26650107,0.07948832,0.88869965,-6.208654,7.551341,2.6025584,-1.3940388,1.0707576,-0.6362891,0
1.2500000000000009,17.032864720103234,-1.6394076799044441,1.5710294616908687,-0.28687726518757867,22.474415,-4.258403,-4.050553,4.0562253,4.536116,-5.7733426,2.800718,0.3687293,0.25872722,0.07606439,0.88955736,-6.119064,7.54215,2.6490273,-1.4322845,1.1487746,-0.61914337,0
1.260000000000001,17.032864720103234,-1.6394076799044441,1.5710294616908687,-0.28687726518757867,22.474415,-4.258403,-4.050553,4.0562253,4.4753623,-5.697969,2.8274472,0.37285334,0.2505514,0.072587475,0.8904687,-6.0321217,7.5325627,2.6970782,-1.4645715,1.2146225,-0.602839,0
1.270000000000001,17.032864720103234,-1.6394076799044441,1.5710294616908687,-0.28687726518757867,22.474415,-4.258403,-4.050553,4.0562253,4.415464,-5.6226926,2.8546648,0.3768847,0.24203137,0.06906406,0.8914079,-5.9479613,7.522642,2.746727,-1.4918281,1.2701997,-0.58733463,0
1.280000000000001,15.509769573834134,-1.636632174409091,1.5952255505317081,-0.050589275181520316,21.503717,-4.606084,-4.329816,4.5497622,4.3563933,-5.547517,2.8823872,0.38082197,0.23321615,0.06549967,0.89235294,-5.866704,7.5124454,2.7979732,-1.5148376,1.3171082,-0.5725911,0
1.290000000000001,15.509769573834134,-1.636632174409091,1.5952255505317081,-0.050589275181520316,21.503717,-4.606084,-4.329816,4.5497622,4.2980847,-5.47244,2.9105625,0.3846372,0.22414112,0.061897017,0.89329886,-5.795454,7.5029583,2.8373067,-1.5338378,1.3604618,-0.5469763,0
1.300000000000001,15.509769573834134,-1.636632174409091,1.5952255505317081,-0.050589275181520316,21.503717,-4.606084,-4.329816,4.5497622,4.2404747,-5.397458,2.9391384,0.38830483,0.21483685,0.058257997,0.89424247,-5.727035,7.493316,2.8780603,-1.5498776,1.3970542,-0.5226184,0
1.310000000000001,15.509769573834134,-1.636632174409091,1.5952255505317081,-0.050589275181520316,21.503717,-4.606084,-4.329816,4.5497622,4.1835337,-5.3225737,2.9681287,0.39182737,0.20533553,0.054586075,0.89516926,-5.6615286,7.483565,2.920204,-1.5634179,1.42794,-0.49945584,0
1.320000000000001,12.755712840541172,-1.4797353454688604,1.4139753138702826,0.18677554531093654,19.04431,-4.6625266,-3.8236585,4.5255313,4.1272335,-5.2477875,2.9975471,0.39520752,0.19566451,0.050884396,0.8960671,-5.5990076,7.473746,2.9636986,-1.5748479,1.454009,-0.47742984,0
1.330000000000001,12.755712840541172,-1.4797353454688604,1.4139753138702826,0.18677554531093654,19.04431,-4.6625266,-3.8236585,4.5255313,4.0714903,-5.1730905,3.0272806,0.3984135,0.18593869,0.047177695,0.8969207,-5.5500917,7.4656453,2.9831226,-1.560048,1.447728,-0.44483706,0
1.340000000000001,12.755712840541172,-1.4797353454688604,1.4139753138702826,0.18677554531093654,19.04431,-4.6625266,-3.8236585,4.5255313,4.0162234,-5.0984745,3.0572133,0.40141854,0.17625141,0.043485407,0.89772296,-5.5036964,7.457545,3.0035641,-1.5475539,1.4424294,-0.41384363,0
1.350000000000001,12.755712840541172,-1.4797353454688604,1.4139753138702826,0.18677554531093654,19.04431,-4.6625266,-3.8236585,4.5255313,3.9614077,-5.023939,3.0873554,0.40423217,0.16659516,0.039803233,0.8984749,-5.459825,7.4494658,3.024964,-1.5370065,1.4379596,-0.3843711,0
1.360000000000001,10.3327068026692,-1.2371082647892635,1.1790100597311763,0.3873982040850539,20.538958,-4.495403,-4.577901,3.6676273,3.907018,-4.949485,3.1177158,0.40686312,0.15696365,0.036127828,0.89917666,-5.418484,7.441427,3.0472658,-1.5281022,1.4341891,-0.35634476,0
1.370000000000001,10.3327068026692,-1.2371082647892635,1.1790100597311763,0.3873982040850539,20.538958,-4.495403,-4.577901,3.6676273,3.8529918,-4.875103,3.1481888,0.40928584,0.14747676,0.032501813,0.89982134,-5.3870454,7.4349623,3.0473793,-1.4827642,1.394348,-0.3198491,0
1.380000000000001,10.3327068026692,-1.2371082647892635,1.1790100597311763,0.3873982040850539,20.538958,-4.495403,-4.577901,3.6676273,3.7992702,-4.8007855,3.1786659,0.4114801,0.13823025,0.02895875,0.90040934,-5.357622,7.428556,3.048119,-1.4444922,1.3607256,-0.2851443,0
1.390000000000001,10.3327068026692,-1.2371082647892635,1.1790100597311763,0.3873982040850539,20.538958,-4.495403,-4.577901,3.6676273,3.7458324,-4.7265315,3.2091532,0.41346073,0.12918639,0.025484258,0.90094995,-5.3301735,7.422217,3.0494301,-1.412185,1.3323507,-0.25214243,0
1.400000000000001,8.290419877850017,-0.9734573624265683,0.8134590455723784,0.5774658100580939,22.083899,-0.94303447,-4.7114816,-1.0169011,3.6926596,-4.652341,3.2396562,0.41524082,0.12031325,0.022066457,0.9014499,-5.304667,7.415953,3.0512617,-1.3849126,1.3084043,-0.22075999,0
1.410000000000001,8.290419877850017,-0.9734573624265683,0.8134590455723784,0.5774658100580939,22.083899,-0.94303447,-4.7114816,-1.0169011,3.6397088,-4.578206,3.2700808,0.41680205,0.111760184,0.018727077,0.9019059,-5.2857313,7.4109917,3.0337207,-1.320789,1.231175,-0.18159083,0
1.420000000000001,8.290419877850017,-0.9734573624265683,0.8134590455723784,0.5774658100580939,22.083899,-0.94303447,-4.7114816,-1.0169011,3.5869398,-4.504121,3.3003318,0.41813025,0.10364477,0.015482776,0.90232164,-5.268264,7.406089,3.0165143,-1.2666589,1.1659954,-0.1443437,0
1.430000000000001,8.290419877850017,-0.9734573624265683,0.8134590455723784,0.5774658100580939,22.083899,-0.94303447,-4.7114816,-1.0169011,3.5343385,-4.430084,3.3304121,0.41924208,0.09589904,0.012317806,0.90271086,-5.2522016,7.401238,2.9996018,-1.2209651,1.110985,-0.10892429,0
1.440000000000001,8.290419877850017,-0.9734573624265683,0.8134590455723784,0.5774658100580939,21.073357,-0.477672,-4.8044147,-1.0210992,3.4818912,-4.356096,3.3603246,0.42015225,0.08846537,0.00921908,0.9030837,-5.2374907,7.396431,2.9829478,-1.1823933,1.0645573,-0.07524293,0
1.450000000000001,8.290419877850017,-0.9734573624265683,0.8134590455723784,0.5774658100580939,21.073357,-0.477672,-4.8044147,-1.0210992,3.4295843,-4.2821555,3.390072,0.42087364,0.08129499,0.0061757406,0.90344757,-5.2240844,7.3916616,2.966521,-1.1498333,1.0253729,-0.04321433,0
1.460000000000001,8.290419877850017,-0.9734573624265683,0.8134590455723784,0.5774658100580939,21.073357,-0.477672,-4.8044147,-1.0210992,3.377405,-4.208263,3.419656,0.4214178,0.07434661,0.0031787863,0.9038078,-5.211945,7.386925,2.9502938,-1.1223483,0.9923017,-0.012757372,0
1.470000000000001,8.290419877850017,-0.9734573624265683,0.8134590455723784,0.5774658100580939,21.073357,-0.477672,-4.8044147,-1.0210992,3.325341,-4.1344175,3.4490788,0.42179516,0.06758528,0.00022076757,0.9041681,-5.20104,7.3822165,2.9342418,-1.0991473,0.96439034,0.016205061,0
1.480000000000001,6.876006877711182,-0.8178635662910664,0.7687285974095353,0.7575415512726851,19.755753,-1.2119514,-4.3735433,0.3817017,3.27338,-4.0606184,3.4783416,0.42201504,0.060981456,-0.0027044723,0.90453094,-5.1913404,7.377531,2.9183426,-1.0795628,0.94083357,0.04374628,0
1.490000000000001,6.876006877711182,-0.8178635662910664,0.7687285974095353,0.7575415512726851,19.755753,-1.2119514,-4.3735433,0.3817017,3.2215028,-3.9868622,3.507376,0.42206225,0.054552577,-0.005554562,0.9049064,-5.184275,7.373662,2.8885288,-1.0387712,0.91397125,0.078772426,0
1.500000000000001,6.876006877711182,-0.8178635662910664,0.7687285974095353,0.7575415512726851,19.755753,-1.2119514,-4.3735433,0.3817017,3.169691,-3.913145,3.5361125,0.42192367,0.048311133,-0.008296069,0.90530473,-5.1781607,7.3698125,2.8588078,-1.004339,0.8913006,0.112079814,0
1.5100000000000011,6.876006877711182,-0.8178635662910664,0.7687285974095353,0.7575415512726851,19.755753,-1.2119514,-4.3735433,0.3817017,3.1179361,-3.839466,3.5645523,0.42161036,0.04222737,-0.0109456675,0.9057266,-5.17297,7.3659854,2.8291643,-0.97527486,0.87216765,0.14375281,0
1.5200000000000011,5.585937662665315,-0.7961137058750528,1.148495903600956,0.9368040421017586,18.649796,-1.1769403,-4.038467,0.9489091,3.0662286,-3.7658253,3.5926962,0.42113224,0.036276158,-0.013517341,0.9061721,-5.1686788,7.3621836,2.7995842,-0.95074207,0.85602003,0.1738716,0
1.5300000000000011,5.585937662665315,-0.7961137058750528,1.148495903600956,0.9368040421017586,18.649796,-1.1769403,-4.038467,0.9489091,3.014556,-3.6922188,3.62048,0.42047995,0.030301863,-0.015951727,0.9066548,-5.1659102,7.35912,2.7571902,-0.92665505,0.9016116,0.21130891,0
1.5400000000000011,5.585937662665315,-0.7961137058750528,1.148495903600956,0.9368040421017586,18.649796,-1.1769403,-4.038467,0.9489091,2.9629078,-3.6186428,3.6478405,0.4196441,0.024179816,-0.018202333,0.90718347,-5.1638613,7.3561015,2.7148297,-0.9063242,0.94009477,0.24690917,0
1.5500000000000012,5.585937662665315,-0.7961137058750528,1.148495903600956,0.9368040421017586,18.649796,-1.1769403,-4.038467,0.9489091,2.9112763,-3.5450966,3.6747775,0.41863313,0.017932208,-0.020297216,0.90775096,-5.162537,7.3531523,2.672495,-0.88916355,0.9725779,0.28076252,0
1.5600000000000012,4.449376450619805,-0.7559894946499326,1.7256494806180689,1.0685746321574308,17.431463,-0.8254177,-3.7154644,1.0157062,2.8596547,-3.4715793,3.701291,0.41745493,0.011577857,-0.022259938,0.90835065,-5.161942,7.350291,2.6301775,-0.8746785,0.9999965,0.31295463,0
1.5700000000000012,4.449376450619805,-0.7559894946499326,1.7256494806180689,1.0685746321574308,17.431463,-0.8254177,-3.7154644,1.0157062,2.808035,-3.3980882,3.727334,0.41611007,0.004954002,-0.024066139,0.90898174,-5.1620593,7.3480096,2.5782712,-0.8744069,1.0949483,0.34839982,0
1.5800000000000012,4.449376450619805,-0.7559894946499326,1.7256494806180689,1.0685746321574308,17.431463,-0.8254177,-3.7154644,1.0157062,2.756411,-3.3246188,3.7528539,0.41459566,-0.0020814757,-0.02566039,0.909641,-5.1627965,7.3458815,2.5255568,-0.86575323,1.1835215,0.38285896,0
1.5900000000000012,4.449376450619805,-0.7559894946499326,1.7256494806180689,1.0685746321574308,17.431463,-0.8254177,-3.7154644,1.0157062,2.704777,-3.2511702,3.7778428,0.41291407,-0.009485808,-0.027019575,0.9103192,-5.164158,7.3439307,2.4720705,-0.85051334,1.266222,0.4163384,0
1.6000000000000012,4.060288289522118,-0.6934327054313306,2.170795960373957,1.1000392276503868,15.749955,-0.47488132,-3.3266897,1.1952217,2.653126,-3.1777399,3.802295,0.41106865,-0.017214986,-0.028144829,0.91100675,-5.166167,7.3421593,2.4183831,-0.8358196,1.3378559,0.44834384,0
1.6100000000000012,4.060288289522118,-0.6934327054313306,2.170795960373957,1.1000392276503868,15.749955,-0.47488132,-3.3266897,1.1952217,2.601452,-3.104326,3.8262012,0.4090673,-0.025344701,-0.029044097,0.9116892,-5.1687264,7.3406563,2.3626826,-0.8333725,1.4480392,0.47855505,0
1.6200000000000012,4.060288289522118,-0.6934327054313306,2.170795960373957,1.1000392276503868,15.749955,-0.47488132,-3.3266897,1.1952217,2.5497494,-3.0309258,3.849546,0.4069153,-0.033945072,-0.029691469,0.91235155,-5.171894,7.339398,2.3061464,-0.82297397,1.5493762,0.5080288,0
1.6300000000000012,4.060288289522118,-0.6934327054313306,2.170795960373957,1.1000392276503868,15.749955,-0.47488132,-3.3266897,1.1952217,2.498012,-2.957537,3.8723214,0.40461338,-0.042963408,-0.030070256,0.9129826,-5.17567,7.3384066,2.248776,-0.80599576,1.6431149,0.5367895,0
1.6400000000000012,4.060288289522118,-0.6934327054313306,2.170795960373957,1.1000392276503868,14.22356,-0.12916723,-2.518797,1.0481436,2.446234,-2.8841565,3.8945203,0.40216285,-0.052350014,-0.030179223,0.9135716,-5.180103,7.3376946,2.1910293,-0.78850144,1.7253984,0.5644283,0
1.6500000000000012,4.060288289522118,-0.6934327054313306,2.170795960373957,1.1000392276503868,14.22356,-0.12916723,-2.518797,1.0481436,2.3944077,-2.810782,3.9161415,0.39956546,-0.062048946,-0.03005243,0.91410804,-5.185238,7.3372808,2.1332033,-0.77373165,1.79485,0.59071094,0
1.6600000000000013,4.060288289522118,-0.6934327054313306,2.170795960373957,1.1000392276503868,14.22356,-0.12916723,-2.518797,1.0481436,2.342527,-2.7374098,3.937184,0.3968231,-0.072010115,-0.029724792,0.91458285,-5.19109,7.3371854,2.0752814,-0.7612619,1.853471,0.6157038,0
1.6700000000000013,4.060288289522118,-0.6934327054313306,2.170795960373957,1.1000392276503868,14.22356,-0.12916723,-2.518797,1.0481436,2.2905834,-2.664037,3.9576468,0.39393783,-0.082190834,-0.029225638,0.91498786,-5.197671,7.3374267,2.017246,-0.75073326,1.9029502,0.63947034,0
1.6800000000000013,4.262045946804125,-0.6325883711796101,2.426285550881762,1.070847414839047,12.850878,-0.0006600972,-1.836062,1.0416663,2.2385707,-2.59066,3.9775286,0.39091194,-0.09255465,-0.028579619,0.9153163,-5.2049913,7.3380175,1.9590784,-0.7418432,1.9447134,0.6620706,0
1.6900000000000013,4.262045946804125,-0.6325883711796101,2.426285550881762,1.070847414839047,12.850878,-0.0006600972,-1.836062,1.0416663,2.1864789,-2.517275,3.9968379,0.38775614,-0.103154376,-0.027745662,0.915551,-5.2134614,7.3390164,1.902736,-0.72486377,2.019812,0.6821294,0
1.7000000000000013,4.262045946804125,-0.6325883711796101,2.426285550881762,1.070847414839047,12.850878,-0.0006600972,-1.836062,1.0416663,2.1342983,-2.4438782,4.015583,0.3844793,-0.11402969,-0.026692621,0.9156743,-5.222731,7.340413,1.8462119,-0.7105275,2.083199,0.7012039,0
1.7100000000000013,4.262045946804125,-0.6325883711796101,2.426285550881762,1.070847414839047,12.850878,-0.0006600972,-1.836062,1.0416663,2.0820215,-2.3704655,4.0337615,0.3810813,-0.12513389,-0.025452904,0.9156799,-5.2328124,7.3422246,1.7894824,-0.69842255,2.1367006,0.7193424,0
1.7200000000000013,4.926590977062612,-0.6078104906724408,2.4403550019392135,1.0224627098484695,12.1644125,-0.20472541,-1.0354155,1.3954298,2.0296392,-2.2970324,4.051372,0.3775625,-0.136427,-0.02405379,0.91556245,-5.243716,7.3444653,1.7325226,-0.68820137,2.181858,0.73659086,0
1.7300000000000013,4.926590977062612,-0.6078104906724408,2.4403550019392135,1.0224627098484695,12.1644125,-0.20472541,-1.0354155,1.3954298,1.9771348,-2.2235727,4.0684433,0.37393057,-0.14787614,-0.022507874,0.9153147,-5.257279,7.3475623,1.6816822,-0.6757041,2.2221706,0.75061864,0
1.7400000000000013,4.926590977062612,-0.6078104906724408,2.4403550019392135,1.0224627098484695,12.1644125,-0.20472541,-1.0354155,1.3954298,1.9244902,-2.1500795,4.085004,0.37019306,-0.15945303,-0.02082652,0.9149301,-5.271808,7.3511753,1.6305171,-0.6651524,2.2561958,0.76395816,0
1.7500000000000013,4.926590977062612,-0.6078104906724408,2.4403550019392135,1.0224627098484695,12.1644125,-0.20472541,-1.0354155,1.3954298,1.8716954,-2.0765476,4.101052,0.3663504,-0.17113212,-0.019029254,0.9144059,-5.287307,7.3553104,1.5789974,-0.6562431,2.2849145,0.77664304,0
1.7600000000000013,6.324404039855881,-0.6427264941450064,2.505769168798868,0.953515234554702,12.411694,-0.37556532,-0.4322599,1.3340974,1.8187407,-2.0029714,4.116583,0.36240345,-0.18289138,-0.017132549,0.9137396,-5.3037767,7.3599706,1.5270929,-0.6487206,2.309154,0.78870547,0
1.7700000000000014,6.324404039855881,-0.6427264941450064,2.505769168798868,0.953515234554702,12.411694,-0.37556532,-0.4322599,1.3340974,1.765592,-1.9293389,4.1316576,0.3583588,-0.19474062,-0.015155223,0.9129209,-5.326169,7.3666267,1.487763,-0.647814,2.339813,0.7967927,0
1.7800000000000014,6.324404039855881,-0.6427264941450064,2.505769168798868,0.953515234554702,12.411694,-0.37556532,-0.4322599,1.3340974,1.7122129,-1.8556366,4.146336,0.3542226,-0.20668592,-0.013113383,0.9119399,-5.3498135,7.3739557,1.4478595,-0.64704585,2.365691,0.8044831,0
1.7900000000000014,6.324404039855881,-0.6427264941450064,2.505769168798868,0.953515234554702,12.411694,-0.37556532,-0.4322599,1.3340974,1.6585913,-1.7818577,4.160613,0.34999552,-0.21870458,-0.011016209,0.91079587,-5.374713,7.3819537,1.4073415,-0.646395,2.3875332,0.8117962,0
1.8000000000000014,8.067105669045379,-0.6631889928053742,2.3888206396473235,0.8471525424290628,12.561399,-0.48580173,-0.07963927,1.3362664,1.6047143,-1.7079954,4.1744814,0.34567848,-0.23077704,-0.008871467,0.90948814,-5.4008665,7.390614,1.3661677,-0.6458436,2.4059694,0.8187504,0
1.8100000000000014,8.067105669045379,-0.6631889928053742,2.3888206396473235,0.8471525424290628,12.561399,-0.48580173,-0.07963927,1.3362664,1.5505321,-1.6340305,4.188012,0.34128234,-0.24284665,-0.00671235,0.90802306,-5.435822,7.4024925,1.339793,-0.64854944,2.4032934,0.82014406,0
1.8200000000000014,8.067105669045379,-0.6631889928053742,2.3888206396473235,0.8471525424290628,12.561399,-0.48580173,-0.07963927,1.3362664,1.4959924,-1.5599427,4.201274,0.33681828,-0.25486764,-0.004565935,0.9064073,-5.4723606,7.4151807,1.3124846,-0.6508334,2.4010346,0.8214693,0
1.8300000000000014,8.067105669045379,-0.6631889928053742,2.3888206396473235,0.8471525424290628,12.561399,-0.48580173,-0.07963927,1.3362664,1.4410795,-1.4857242,4.214258,0.33228785,-0.26683906,-0.0024301142,0.9046408,-5.5104656,7.4286532,1.2841983,-0.6527612,2.399128,0.8227296,0
1.8400000000000014,8.067105669045379,-0.6631889928053742,2.3888206396473235,0.8471525424290628,12.706942,-0.6526364,0.22600548,1.1560609,1.3857778,-1.411367,4.2269545,0.3276925,-0.27875975,-0.00030317425,0.90272343,-5.5501213,7.442885,1.2548904,-0.65438825,2.3975189,0.82392806,0
1.8500000000000014,8.067105669045379,-0.6631889928053742,2.3888206396473235,0.8471525424290628,12.706942,-0.6526364,0.22600548,1.1560609,1.3300718,-1.3368639,4.239352,0.32303363,-0.29062846,0.0018162641,0.9006554,-5.59131,7.45785,1.2245182,-0.65576184,2.396161,0.82506776,0
1.8600000000000014,8.067105669045379,-0.6631889928053742,2.3888206396473235,0.8471525424290628,12.706942,-0.6526364,0.22600548,1.1560609,1.2739463,-1.2622076,4.2514415,0.3183126,-0.3024438,0.003929297,0.89843667,-5.634012,7.4735227,1.1930395,-0.65692115,2.3950152,0.8261515,0
1.8700000000000014,8.067105669045379,-0.6631889928053742,2.3888206396473235,0.8471525424290628,12.706942,-0.6526364,0.22600548,1.1560609,1.2173864,-1.1873912,4.26321,0.31353068,-0.3142043,0.0060367854,0.8960674,-5.6782084,7.4898763,1.1604128,-0.6578997,2.3940485,0.827182,0
1.8800000000000014,9.299644304833459,-0.5981048384711164,1.9961484040567232,0.69058094020048,12.069278,-0.84315896,1.1866839,0.88219035,1.1603771,-1.1124078,4.274646,0.30868924,-0.32590836,0.0081393905,0.89354765,-5.7238774,7.506885,1.1265975,-0.6587255,2.3932323,0.82816195,0
1.8900000000000015,9.299644304833459,-0.5981048384711164,1.9961484040567232,0.69058094020048,12.069278,-0.84315896,1.1866839,0.88219035,1.1028681,-1.0372379,4.285785,0.30381718,-0.33740678,0.010206329,0.8909246,-5.7781925,7.527214,1.1011921,-0.64922816,2.3313155,0.82141083,0
1.9000000000000015,9.299644304833459,-0.5981048384711164,1.9961484040567232,0.69058094020048,12.069278,-0.84315896,1.1866839,0.88219035,1.0448077,-0.96186113,4.2966638,0.29894242,-0.34858337,0.012212841,0.88824147,-5.8341217,7.548216,1.074358,-0.6412178,2.2790532,0.814991,0
1.9100000000000015,9.299644304833459,-0.5981048384711164,1.9961484040567232,0.69058094020048,12.069278,-0.84315896,1.1866839,0.88219035,0.98618025,-0.8862713,4.307267,0.29406434,-0.3594811,0.014167353,0.8854929,-5.8916054,7.569842,1.0460857,-0.634462,2.2349405,0.8088861,0
1.9200000000000015,10.008582771580148,-0.48370738445117345,1.0921055696080553,0.4846523793331477,11.391276,-0.83620316,1.5220245,0.29825985,0.9269704,-0.8104623,4.3175807,0.2891821,-0.37013602,0.016076839,0.8826741,-5.9505906,7.592047,1.0163643,-0.6287641,2.1977065,0.80308086,0
1.9300000000000015,10.008582771580148,-0.48370738445117345,1.0921055696080553,0.4846523793331477,11.391276,-0.83620316,1.5220245,0.29825985,0.8671405,-0.7344198,4.327615,0.28434128,-0.38024756,0.017874116,0.8799098,-6.015627,7.6165175,0.99029386,-0.6060317,2.0253067,0.7874555,0
1.9400000000000015,10.008582771580148,-0.48370738445117345,1.0921055696080553,0.4846523793331477,11.391276,-0.83620316,1.5220245,0.29825985,0.8066529,-0.6581302,4.337381,0.27958503,-0.3895844,0.019506535,0.877311,-6.0821047,7.6414795,0.96272326,-0.5868624,1.8797903,0.77259684,0
1.9500000000000015,10.008582771580148,-0.48370738445117345,1.0921055696080553,0.4846523793331477,11.391276,-0.83620316,1.5220245,0.29825985,0.74549377,-0.5815889,4.346864,0.27490833,-0.39826703,0.02099865,0.87485236,-6.1499104,7.66685,0.9337285,-0.57069725,1.7569647,0.7584673,0
1.9600000000000015,10.067409062011635,-0.362645313056366,-0.049511077050598956,0.2621888004289536,11.620812,-0.5798436,0.67055935,-0.48820332,0.68365043,-0.5047921,4.3560514,0.27030584,-0.4063966,0.022370873,0.87251073,-6.2189484,7.692561,0.9033756,-0.55706555,1.653292,0.7450312,0
1.9700000000000015,10.067409062011635,-0.362645313056366,-0.049511077050598956,0.2621888004289536,11.620812,-0.5798436,0.67055935,-0.48820332,0.62110883,-0.42773595,4.36493,0.2658272,-0.41364825,0.023548627,0.87044555,-6.2895365,7.7187004,0.8721272,-0.52659535,1.3877637,0.721338,0
1.9800000000000015,10.067409062011635,-0.362645313056366,-0.049511077050598956,0.2621888004289536,11.620812,-0.5798436,0.67055935,-0.48820332,0.5578562,-0.35041746,4.37349,0.2615175,-0.41977376,0.024474101,0.86879146,-6.3611236,7.745019,0.83973664,-0.500905,1.163641,0.69880736,0
1.9900000000000015,10.067409062011635,-0.362645313056366,-0.049511077050598956,0.2621888004289536,11.620812,-0.5798436,0.67055935,-0.48820332,0.49388337,-0.2728353,4.3817215,0.25736418,-0.4249532,0.025185065,0.8674925,-6.4335666,7.771423,0.80636674,-0.47924364,0.9744671,0.6773823,0
2.0000000000000013,,,,,10.723681,-0.35226217,-0.11229737,-1.2178773,0.42918235,-0.194989,4.3896146,0.25335506,-0.42933723,0.02571295,0.86649793,-6.506747,7.797836,0.7721585,-0.46097884,0.8147926,0.65700865,0
2.010000000000001,,,,,10.723681,-0.35226217,-0.11229737,-1.2178773,0.3637972,-0.11689701,4.3971186,0.24952577,-0.43258408,0.025952715,0.86598694,-6.57036,7.820546,0.728524,-0.43826115,0.47109807,0.62623554,0
2.020000000000001,,,,,10.723681,-0.35226217,-0.11229737,-1.2178773,0.29777378,-0.038578592,4.404184,0.24590738,-0.43443063,0.025822798,0.86610144,-6.634372,7.8431063,0.6844835,-0.41912103,0.18099988,0.59697247,0
2.0300000000000007,,,,,10.723681,-0.35226217,-0.11229737,-1.2178773,0.23110884,0.039964274,4.410808,0.2424817,-0.43509713,0.025378432,0.86674565,-6.698644,7.8654222,0.64023614,-0.40299362,-0.063859865,0.5691454,0
2.0400000000000005,,,,,10.723681,-0.35226217,-0.11229737,-1.2178773,0.1638004,0.11872875,4.41699,0.23923141,-0.43476745,0.024665741,0.8678342,-6.763057,7.8874173,0.5959514,-0.38940346,-0.27053568,0.5426838,0
2.0500000000000003,,,,,8.872379,0.38038453,-1.1663835,-1.6512759,0.09584756,0.1977113,4.422729,0.2361406,-0.43359533,0.02372332,0.86929226,-6.8275113,7.9090295,0.55177253,-0.37795025,-0.44498214,0.51752067,1
2.06,,,,,8.872379,0.38038453,-1.1663835,-1.6512759,0.027197713,0.27692524,4.428071,0.23333555,-0.4320501,0.022583239,0.87084806,-6.902162,7.9335775,0.51640886,-0.3738727,-0.4433035,0.4221079,1
2.07,,,,,8.872379,0.38038453,-1.1663835,-1.6512759,-0.04219132,0.35637984,4.433055,0.23095214,-0.4304935,0.02126893,0.8722862,-6.9754844,7.9572124,0.48026264,-0.36170945,-0.45060462,0.32980216,1
2.0799999999999996,,,,,8.872379,0.38038453,-1.1663835,-1.6512759,-0.112308405,0.43606678,4.4376745,0.22900178,-0.4288615,0.019822514,0.8736373,-7.0477653,7.9800525,0.44358042,-0.337919,-0.47028932,0.24081762,1
2.0899999999999994,,,,,5.8635087,0.18973193,-2.7193465,-1.8164337,-0.18314287,0.5159782,4.4419246,0.22749567,-0.4270904,0.018286359,0.87493104,-7.1189523,8.002113,0.40634307,-0.30386487,-0.5008808,0.15495078,1
2.099999999999999,,,,,5.8635087,0.18973193,-2.7193465,-1.8164337,-0.25463083,0.5960903,4.445754,0.22624058,-0.42500713,0.016256353,0.87630993,-7.178391,8.020174,0.35941988,-0.43806526,-0.63568246,0.07856122,1
2.109999999999999,,,,,5.8635087,0.18973193,-2.7193465,-1.8164337,-0.32670566,0.6763786,4.44911,0.22506145,-0.42251635,0.013386764,0.8778652,-7.236415,8.037359,0.31169838,-0.5487302,-0.7520684,0.0042962544,1
2.1199999999999988,,,,,5.8635087,0.18973193,-2.7193465,-1.8164337,-0.39935607,0.75683475,4.4519873,0.22400035,-0.41963863,0.009811628,0.8795625,-7.293529,8.053725,0.26366934,-0.63211,-0.86033225,-0.06729512,1
2.1299999999999986,,,,,5.6106668,1.83694,-3.6554835,-2.5183194,-0.47257304,0.8374501,4.454383,0.22309774,-0.4163699,0.005657878,0.88137996,-7.3497195,8.069194,0.21537484,-0.69171095,-0.9624917,-0.13633713,1
2.1399999999999983,,,,,5.6106668,1.83694,-3.6554835,-2.5183194,-0.5464092,0.9182318,4.45635,0.22247949,-0.41280323,0.0011721263,0.8832294,-7.417313,8.086963,0.17792733,-0.6768877,-1.0029662,-0.21929182,1
2.149999999999998,,,,,5.6106668,1.83694,-3.6554835,-2.5183194,-0.6209152,0.9991853,4.4579406,0.22225533,-0.4090037,-0.0034403256,0.8850457,-7.4836965,8.103569,0.14018513,-0.65089434,-1.0506195,-0.29938108,1
2.159999999999998,,,,,5.6106668,1.83694,-3.6554835,-2.5183194,-0.6960787,1.0802991,4.459152,0.22243296,-0.40492663,-0.008133167,0.88684326,-7.548816,8.119034,0.10213763,-0.61517435,-1.1046321,-0.37677228,1
2.1699999999999977,,,,,5.817147,3.5674515,-4.122487,-3.7262187,-0.77188694,1.1615621,4.459982,0.22301705,-0.40053213,-0.012865456,0.8886344,-7.6126175,8.133383,0.06378128,-0.5710084,-1.1642504,-0.4516191,1
2.1799999999999975,,,,,5.817147,3.5674515,-4.122487,-3.7262187,-0.8484242,1.2429842,4.4605193,0.22413766,-0.39611736,-0.017454596,0.89025164,-7.6944213,8.150778,0.043540105,-0.48130283,-1.069941,-0.56006694,1
2.1899999999999973,,,,,5.817147,3.5674515,-4.122487,-3.7262187,-0.92576706,1.3245729,4.4608493,0.22589658,-0.39196926,-0.021789992,0.8915466,-7.7738514,8.16678,0.022240661,-0.40387714,-0.9920492,-0.66563505,1
2.199999999999997,,,,,5.817147,3.5674515,-4.122487,-3.7262187,-1.003896,1.406316,4.4609632,0.2282675,-0.38799888,-0.025909007,0.89256865,-7.8517046,8.181689,0.0005410882,-0.32543182,-0.93941003,-0.7674624,1
2.209999999999997,,,,,5.5912824,4.3605027,-4.2870216,-3.8516023,-1.082796,1.4882033,4.460859,0.23123579,-0.3840906,-0.029818045,0.89337254,-7.92806,8.195637,-0.021546207,-0.24407892,-0.9101377,-0.86564624,1
