time-since-start [s],throttle_mpc,roll_mpc,pitch_mpc,yaw_mpc,throttle_nw,roll_nw,pitch_nw,yaw_nw,position_x [m],position_y [m],position_z [m],rotation_w [quaternion],rotation_x [quaternion],rotation_y [quaternion],rotation_z [quaternion],velocity_x [m/s],velocity_y [m/s],velocity_z [m/s],omega_x [rad/s],omega_y [rad/s],omega_z [rad/s],network_used
0.0,11.21034813255273,5.999998603144543,-5.999999861514431,-2.0232606678256766,12.954314,1.3355734,-4.806732,0.0877579,16.51671,-10.684831,1.7399113,-0.13681072,0.33349127,-0.33012393,-0.8724016,-10.328047,-2.0819068,-0.01346625,1.263984,-0.03871185,0.1115009,0
0.01,11.21034813255273,5.999998603144543,-5.999999861514431,-2.0232606678256766,14.314366,1.1748159,-5.3035436,-0.5162293,16.41306,-10.705144,1.7397087,-0.13936865,0.3310399,-0.3362862,-0.87057483,-10.4016695,-1.9808127,-0.027555373,1.6013812,-0.5672219,0.042645417,0
0.02,11.21034813255273,5.999998603144543,-5.999999861514431,-2.0232606678256766,14.314366,1.1748159,-5.3035436,-0.5162293,16.30869,-10.724451,1.7393502,-0.14362146,0.32623616,-0.34340182,-0.8689177,-10.47169,-1.8807961,-0.044559132,1.9286872,-1.055915,-0.02663838,0
0.03,11.21034813255273,5.999998603144543,-5.999999861514431,-2.0232606678256766,14.314366,1.1748159,-5.3035436,-0.5162293,16.20364,-10.7427635,1.7388086,-0.14949152,0.31923565,-0.35142377,-0.8673189,-10.537514,-1.7815341,-0.06413446,2.2456162,-1.5091342,-0.09616268,0
0.04,11.21034813255273,5.999998603144543,-5.999999861514431,-2.0232606678256766,13.944849,2.1636786,-5.52225,-0.43771884,16.097956,-10.760085,1.7380596,-0.15690097,0.31017005,-0.36029476,-0.8656582,-10.5986185,-1.6827711,-0.08601287,2.5520604,-1.9306798,-0.1657609,0
0.05,11.21034813255273,5.999998603144543,-5.999999861514431,-2.0232606678256766,13.944849,2.1636786,-5.52225,-0.43771884,15.991687,-10.77642,1.737081,-0.16577134,0.2991515,-0.36994928,-0.86380875,-10.654541,-1.5843223,-0.10999343,2.8480513,-2.3238816,-0.23528562,0
0.060000000000000005,11.21034813255273,5.999998603144543,-5.999999861514431,-2.0232606678256766,13.944849,2.1636786,-5.52225,-0.43771884,15.884887,-10.791772,1.735853,-0.17602326,0.28627646,-0.38031495,-0.8616391,-10.704869,-1.4860737,-0.13593611,3.1337256,-2.6916623,-0.3046066,0
0.07,11.21034813255273,5.999998603144543,-5.999999861514431,-2.0232606678256766,13.944849,2.1636786,-5.52225,-0.43771884,15.777611,-10.806142,1.734356,-0.18757609,0.27162892,-0.39131358,-0.8590148,-10.749235,-1.387982,-0.16375545,3.4093006,-3.0365887,-0.373609,0
0.08,12.41965555699146,5.999998951390318,-5.999999895857708,-2.579957455254453,15.316383,1.8266547,-5.2902327,-0.23444869,15.669922,-10.819531,1.7325716,-0.20034747,0.25528333,-0.40286192,-0.85579985,-10.787315,-1.2900733,-0.19341443,3.6750512,-3.3609211,-0.44219196,0
0.09,12.41965555699146,5.999998951390318,-5.999999895857708,-2.579957455254453,15.316383,1.8266547,-5.2902327,-0.23444869,15.561864,-10.831879,1.7305261,-0.21422789,0.23745415,-0.41478363,-0.85186636,-10.823062,-1.1793407,-0.2159818,3.8862047,-3.6216447,-0.53355783,0
0.09999999999999999,12.41965555699146,5.999998951390318,-5.999999895857708,-2.579957455254453,15.316383,1.8266547,-5.2902327,-0.23444869,15.453486,-10.843119,1.7282453,-0.22912017,0.21832977,-0.42692277,-0.8470967,-10.851241,-1.0687836,-0.24046473,4.0950623,-3.8723848,-0.6231812,0
0.10999999999999999,12.41965555699146,5.999998951390318,-5.999999895857708,-2.579957455254453,15.316383,1.8266547,-5.2902327,-0.23444869,15.344865,-10.853255,1.7257097,-0.2449556,0.19793953,-0.4392186,-0.84137005,-10.871646,-0.95868677,-0.266968,4.30127,-4.113982,-0.7110837,0
0.11999999999999998,12.41965555699146,5.999998951390318,-5.999999895857708,-2.579957455254453,15.316383,1.8266547,-5.2902327,-0.23444869,15.23608,-10.862294,1.7228985,-0.26166055,0.17631383,-0.4516042,-0.8345662,-10.88411,-0.84938705,-0.29561964,4.504552,-4.34717,-0.797288,0
0.12999999999999998,16.387495081533515,5.385093335782218,-5.999999882539937,-2.202718950478801,15.982819,1.2876561,-5.9262786,-0.7033446,15.127211,-10.870246,1.7197894,-0.27915615,0.15348524,-0.46400636,-0.82656646,-10.888515,-0.7412702,-0.32656687,4.704696,-4.572589,-0.8818175,0
0.13999999999999999,16.387495081533515,5.385093335782218,-5.999999882539937,-2.202718950478801,15.982819,1.2876561,-5.9262786,-0.7033446,15.018341,-10.876959,1.7164596,-0.29730117,0.12951294,-0.476165,-0.81737703,-10.883611,-0.6013037,-0.33963132,4.8104734,-4.795457,-0.94663453,0
0.15,16.387495081533515,5.385093335782218,-5.999999882539937,-2.202718950478801,15.982819,1.2876561,-5.9262786,-0.7033446,14.909575,-10.882271,1.7129914,-0.315906,0.10455681,-0.48781666,-0.8070354,-10.867747,-0.46118218,-0.35430822,4.89977,-4.9835567,-1.008271,0
0.16,19.23082551399782,2.3239072383859005,-5.999999781451044,-0.12036681679373491,16.812836,0.19021326,-5.1530223,-0.36087787,14.801024,-10.886185,1.709367,-0.3348246,0.07878938,-0.4988878,-0.7954845,-10.84065,-0.32168847,-0.37084994,4.975156,-5.14231,-1.0668828,0
0.17,19.23082551399782,2.3239072383859005,-5.999999781451044,-0.12036681679373491,16.812836,0.19021326,-5.1530223,-0.36087787,14.692833,-10.888589,1.7056363,-0.35364074,0.052655507,-0.5083761,-0.7834023,-10.795541,-0.15972653,-0.37566805,4.561762,-5.27564,-1.020437,0
0.18000000000000002,19.23082551399782,2.3239072383859005,-5.999999781451044,-0.12036681679373491,16.812836,0.19021326,-5.1530223,-0.36087787,14.585159,-10.889387,1.7018459,-0.37204993,0.02653139,-0.5155377,-0.7714245,-10.737487,-0.0006452985,-0.3827109,4.2128496,-5.38825,-0.9762703,0
0.19000000000000003,19.23082551399782,2.3239072383859005,-5.999999781451044,-0.12036681679373491,16.812836,0.19021326,-5.1530223,-0.36087787,14.478127,-10.888614,1.6979754,-0.3900719,0.0004607709,-0.5206584,-0.7594462,-10.667015,0.1544611,-0.39167735,3.9183598,-5.4833565,-0.93427086,0
0.20000000000000004,19.883175456117616,0.2138786979783844,-5.999999624546149,0.8294764227002628,16.431738,-2.1606023,-4.421578,-0.193496,14.3718605,-10.886314,1.6940067,-0.40771276,-0.025521932,-0.52397674,-0.7473736,-10.58467,0.30460572,-0.40233898,3.6698015,-5.5636797,-0.89433235,0
0.21000000000000005,19.883175456117616,0.2138786979783844,-5.999999624546149,0.8294764227002628,16.431738,-2.1606023,-4.421578,-0.193496,14.266489,-10.882518,1.6899382,-0.42491403,-0.051101327,-0.5250665,-0.7356235,-10.487881,0.4537793,-0.41155794,3.131123,-5.6312356,-0.80974454,0
0.22000000000000006,19.883175456117616,0.2138786979783844,-5.999999624546149,0.8294764227002628,16.431738,-2.1606023,-4.421578,-0.193496,14.16214,-10.877263,1.6857721,-0.44165117,-0.0760209,-0.52362525,-0.7245562,-10.380316,0.5960105,-0.42178568,2.6764483,-5.688363,-0.7293075,0
0.23000000000000007,19.883175456117616,0.2138786979783844,-5.999999624546149,0.8294764227002628,16.431738,-2.1606023,-4.421578,-0.193496,14.058916,-10.870625,1.6815009,-0.45795646,-0.10033779,-0.5199973,-0.7140106,-10.262887,0.7305271,-0.43249133,2.2926748,-5.7366652,-0.65281755,0
0.24000000000000007,19.883175456117616,0.2138786979783844,-5.999999624546149,0.8294764227002628,15.716979,-3.9498034,-3.1482434,-0.12520854,13.956912,-10.862682,1.6771221,-0.4738447,-0.12410312,-0.51446724,-0.7038418,-10.136453,0.8566593,-0.44325638,1.9687444,-5.7775,-0.5800809,0
0.25000000000000006,19.883175456117616,0.2138786979783844,-5.999999624546149,0.8294764227002628,15.716979,-3.9498034,-3.1482434,-0.12520854,13.856215,-10.853523,1.6726367,-0.48931828,-0.14736131,-0.5072713,-0.6939224,-10.00183,0.9738204,-0.45376346,1.695323,-5.812019,-0.5109135,0
0.26000000000000006,19.883175456117616,0.2138786979783844,-5.999999624546149,0.8294764227002628,15.716979,-3.9498034,-3.1482434,-0.12520854,13.7569,-10.84324,1.6680485,-0.5043711,-0.17015007,-0.49860665,-0.68414205,-9.859803,1.0814929,-0.46378553,1.4645333,-5.8411937,-0.44514015,0
0.2700000000000001,19.883175456117616,0.2138786979783844,-5.999999624546149,0.8294764227002628,15.716979,-3.9498034,-3.1482434,-0.12520854,13.6590395,-10.831929,1.6633631,-0.51899153,-0.19250059,-0.48863867,-0.6744063,-9.711132,1.1792197,-0.47317567,1.2697264,-5.8658504,-0.38259438,0
0.2800000000000001,19.61108625900108,-1.7859613767751128,-5.999997970164625,1.4466378152315338,15.294032,-4.120991,0.05186259,0.17848308,13.562697,-10.819693,1.6585873,-0.53316426,-0.21443799,-0.47750676,-0.6646351,-9.5565605,1.2665979,-0.48185712,1.1052904,-5.8866863,-0.32311764,0
0.2900000000000001,19.61108625900108,-1.7859613767751128,-5.999997970164625,1.4466378152315338,15.294032,-4.120991,0.05186259,0.17848308,13.4679165,-10.806641,1.6537224,-0.5470001,-0.23558827,-0.46478444,-0.65518314,-9.399037,1.342227,-0.49098817,0.65473175,-5.904224,-0.23627523,0
0.3000000000000001,19.61108625900108,-1.7859613767751128,-5.999997970164625,1.4466378152315338,15.294032,-4.120991,0.05186259,0.17848308,13.374732,-10.792886,1.6487714,-0.5605991,-0.2556472,-0.4501488,-0.6463278,-9.237383,1.4070174,-0.49898338,0.27442333,-5.9190855,-0.15369417,0
0.3100000000000001,19.61108625900108,-1.7859613767751128,-5.999997970164625,1.4466378152315338,15.294032,-4.120991,0.05186259,0.17848308,13.28318,-10.778539,1.6437479,-0.573922,-0.2747271,-0.43384525,-0.63790065,-9.072548,1.4607354,-0.50547117,-0.046590135,-5.9316735,-0.0751654,0
0.3200000000000001,17.758685152734245,-3.7501064866849583,-2.0824861943227924,1.709081612139841,15.028392,-4.9587574,2.4415631,0.52454066,13.193289,-10.76371,1.6386681,-0.5869254,-0.2929215,-0.41607928,-0.6297571,-8.905432,1.5031905,-0.51019675,-0.3175553,-5.9423304,-0.000490075,0
0.3300000000000001,17.758685152734245,-3.7501064866849583,-2.0824861943227924,1.709081612139841,15.028392,-4.9587574,2.4415631,0.52454066,13.104998,-10.748529,1.6335057,-0.59915316,-0.30888233,-0.39746004,-0.6226019,-8.752855,1.5314244,-0.5219686,-0.85256547,-5.340435,0.08339911,0
0.34000000000000014,17.758685152734245,-3.7501064866849583,-2.0824861943227924,1.709081612139841,15.028392,-4.9587574,2.4415631,0.52454066,13.018232,-10.733113,1.6282359,-0.6103425,-0.321581,-0.37854642,-0.61706626,-8.600032,1.550176,-0.5316172,-1.3042101,-4.832451,0.16317181,0
0.35000000000000014,17.758685152734245,-3.7501064866849583,-2.0824861943227924,1.709081612139841,15.028392,-4.9587574,2.4415631,0.52454066,12.932994,-10.717554,1.6228819,-0.62068874,-0.33151507,-0.35941178,-0.6129167,-8.447863,1.5603344,-0.53876364,-1.6854728,-4.403718,0.23903005,0
0.36000000000000015,16.220248683608183,-5.018905982824367,4.0108900832448455,2.272000914416594,14.818781,-5.8723006,5.007264,0.9169037,12.84927,-10.701933,1.6174704,-0.630332,-0.33909982,-0.34010142,-0.60993797,-8.297089,1.562668,-0.5430893,-2.0073168,-4.041867,0.3111659,0
0.37000000000000016,16.220248683608183,-5.018905982824367,4.0108900832448455,2.272000914416594,14.818781,-5.8723006,5.007264,0.9169037,12.7669935,-10.686323,1.6119977,-0.6387654,-0.34290174,-0.3217583,-0.6089903,-8.159075,1.5583678,-0.5512916,-2.503334,-2.8125849,0.4050006,0
0.38000000000000017,16.220248683608183,-5.018905982824367,4.0108900832448455,2.272000914416594,14.818781,-5.8723006,5.007264,0.9169037,12.686072,-10.670781,1.6064506,-0.6455855,-0.34182927,-0.30546173,-0.610791,-8.025614,1.5494013,-0.5575987,-2.8961525,-1.7490878,0.49658257,0
0.3900000000000002,16.220248683608183,-5.018905982824367,4.0108900832448455,2.272000914416594,14.818781,-5.8723006,5.007264,0.9169037,12.606471,-10.655344,1.6008584,-0.65105975,-0.33663738,-0.2909764,-0.6149224,-7.8950424,1.5374773,-0.5602198,-3.2274337,-0.8511119,0.5837028,0
0.4000000000000002,15.478354483570667,-5.533943955606654,5.999999062570901,2.0523754055094066,13.813981,-7.1401,5.843811,1.4836258,12.52816,-10.640036,1.5952603,-0.6553929,-0.32793978,-0.27801487,-0.62098616,-7.7676945,1.524079,-0.5587687,-3.5070937,-0.09318012,0.66654813,0
0.4100000000000002,15.478354483570667,-5.533943955606654,5.999999062570901,2.0523754055094066,13.813981,-7.1401,5.843811,1.4836258,12.451077,-10.62486,1.5896745,-0.65857935,-0.3156017,-0.26671904,-0.62891185,-7.649577,1.5111285,-0.55769235,-3.823628,0.8567418,0.7345511,0
0.4200000000000002,15.478354483570667,-5.533943955606654,5.999999062570901,2.0523754055094066,13.813981,-7.1401,5.843811,1.4836258,12.375157,-10.609809,1.5841215,-0.6605864,-0.29952022,-0.25717357,-0.6385729,-7.535231,1.4993695,-0.5521512,-4.0908017,1.6585304,0.7992171,0
0.4300000000000002,15.478354483570667,-5.533943955606654,5.999999062570901,2.0523754055094066,13.813981,-7.1401,5.843811,1.4836258,12.300359,-10.594865,1.5786474,-0.66147774,-0.28020334,-0.24905545,-0.6495421,-7.4250665,1.4900459,-0.5419421,-4.3163033,2.3352902,0.8607099,0
0.4400000000000002,15.478354483570667,-5.533943955606654,5.999999062570901,2.0523754055094066,12.884484,-7.1306214,6.079541,1.731967,12.22664,-10.579997,1.5732989,-0.66127855,-0.25808057,-0.24208423,-0.6614382,-7.319538,1.4841956,-0.52698195,-4.5066233,2.9065216,0.9191853,0
0.45000000000000023,15.478354483570667,-5.533943955606654,5.999999062570901,2.0523754055094066,12.884484,-7.1306214,6.079541,1.731967,12.153951,-10.5651655,1.5681238,-0.6599913,-0.23352061,-0.23601906,-0.6739249,-7.219143,1.4826767,-0.507308,-4.667244,3.3886826,0.9747912,0
0.46000000000000024,15.478354483570667,-5.533943955606654,5.999999062570901,2.0523754055094066,12.884484,-7.1306214,6.079541,1.731967,12.082236,-10.550325,1.5631683,-0.65760636,-0.20684421,-0.23065495,-0.686708,-7.124414,1.4861872,-0.4830742,-4.802794,3.7956645,1.0276686,0
0.47000000000000025,15.478354483570667,-5.533943955606654,5.999999062570901,2.0523754055094066,12.884484,-7.1306214,6.079541,1.731967,12.011441,-10.535423,1.558477,-0.6541089,-0.17833398,-0.22581872,-0.6995318,-7.0359106,1.4952804,-0.45454422,-4.9171815,4.139192,1.0779512,0
0.48000000000000026,15.389233920265623,-5.254392695845783,5.999999538924775,1.229190274833556,14.272225,-5.5329294,6.225451,1.6915629,11.941496,-10.520399,1.554091,-0.64948326,-0.1482416,-0.22136502,-0.7121754,-6.9542046,1.5103768,-0.4220833,-5.013706,4.4291606,1.1257665,0
0.49000000000000027,15.389233920265623,-5.254392695845783,5.999999538924775,1.229190274833556,14.272225,-5.5329294,6.225451,1.6915629,11.872329,-10.505195,1.5500433,-0.6437745,-0.11684349,-0.21726777,-0.72435975,-6.880287,1.5316514,-0.38692382,-5.0514364,4.674088,1.1308415,0
0.5000000000000002,15.389233920265623,-5.254392695845783,5.999999538924775,1.229190274833556,14.272225,-5.5329294,6.225451,1.6915629,11.803862,-10.489744,1.5463623,-0.63704103,-0.084381856,-0.21350335,-0.73584986,-6.814198,1.5593789,-0.348872,-5.0832553,4.880824,1.1356676,0
0.5100000000000002,15.389233920265623,-5.254392695845783,5.999999538924775,1.229190274833556,14.272225,-5.5329294,6.225451,1.6915629,11.736015,-10.473984,1.5430737,-0.62928873,-0.051025588,-0.20996343,-0.7465305,-6.7564096,1.5936469,-0.3085536,-5.1100883,5.055324,1.1402568,0
0.5200000000000002,16.242336551668473,-3.85045049666576,5.999999494204167,1.1222697320896273,14.696004,-4.6319823,6.364261,0.9475943,11.668703,-10.457849,1.5401968,-0.62052476,-0.016930247,-0.20655765,-0.75630456,-6.7073627,1.6344488,-0.26664373,-5.132717,5.202615,1.1446208,0
0.5300000000000002,16.242336551668473,-3.85045049666576,5.999999494204167,1.1222697320896273,14.696004,-4.6319823,6.364261,0.9475943,11.601848,-10.44126,1.5377829,-0.61077076,0.017416453,-0.2036398,-0.764975,-6.665209,1.6843159,-0.21606036,-4.9328375,5.327119,1.143524,0
0.5400000000000003,16.242336551668473,-3.85045049666576,5.999999494204167,1.1222697320896273,14.696004,-4.6319823,6.364261,0.9475943,11.535364,-10.42414,1.5358759,-0.60009426,0.051616915,-0.20149961,-0.77241224,-6.632787,1.7408516,-0.1654222,-4.7641144,5.4321833,1.1424811,0
0.5500000000000003,16.242336551668473,-3.85045049666576,5.999999494204167,1.1222697320896273,14.696004,-4.6319823,6.364261,0.9475943,11.469157,-10.406422,1.534472,-0.5885607,0.08565659,-0.19997881,-0.7786321,-6.610118,1.8038695,-0.11558476,-4.6216908,5.520843,1.1414893,0
0.5600000000000003,16.99149589873072,-1.8335818580940184,5.999999168477017,1.0393486352023031,14.592987,-3.2917101,6.1614842,0.8424924,11.403128,-10.3880415,1.5335588,-0.57622284,0.11951511,-0.19894187,-0.783649,-6.597208,1.8731234,-0.067370296,-4.5014687,5.5956593,1.1405462,0
0.5700000000000003,16.99149589873072,-1.8335818580940184,5.999999168477017,1.0393486352023031,14.592987,-3.2917101,6.1614842,0.8424924,11.33718,-10.368922,1.5331495,-0.5632438,0.15270978,-0.19890785,-0.78731954,-6.5938406,1.9517976,-0.014942094,-4.085442,5.6590376,1.1355804,0
0.5800000000000003,16.99149589873072,-1.8335818580940184,5.999999168477017,1.0393486352023031,14.592987,-3.2917101,6.1614842,0.8424924,11.271217,-10.348985,1.5332483,-0.5498111,0.18486944,-0.20029156,-0.7895661,-6.6001883,2.0364535,0.034108836,-3.7342877,5.7124815,1.1308582,0
0.5900000000000003,16.99149589873072,-1.8335818580940184,5.999999168477017,1.0393486352023031,14.592987,-3.2917101,6.1614842,0.8424924,11.205144,-10.328173,1.5338174,-0.5359859,0.216118,-0.20284134,-0.7904858,-6.615752,2.1268477,0.07900315,-3.43789,5.757548,1.1263678,0
0.6000000000000003,17.468113158632033,-0.016113540997081465,5.999938461770293,0.8890872962091255,15.917775,-0.38149202,6.1118526,0.72375786,11.138871,-10.306429,1.5348119,-0.5218093,0.24655376,-0.2063404,-0.79015833,-6.6400833,2.2227037,0.1190361,-3.1877105,5.7955503,1.1220976,0
0.6100000000000003,17.468113158632033,-0.016113540997081465,5.999938461770293,0.8890872962091255,15.917775,-0.38149202,6.1118526,0.72375786,11.072309,-10.283688,1.536198,-0.5075129,0.2758836,-0.21117389,-0.7884952,-6.6736355,2.326566,0.15728188,-2.6930819,5.8278065,1.1106638,0
0.6200000000000003,17.468113158632033,-0.016113540997081465,5.999938461770293,0.8890872962091255,15.917775,-0.38149202,6.1118526,0.72375786,11.005371,-10.259881,1.5379359,-0.49331525,0.3038936,-0.21763663,-0.7854446,-6.7149954,2.4355466,0.1892451,-2.2755883,5.8549685,1.0997908,0
0.6300000000000003,17.468113158632033,-0.016113540997081465,5.999938461770293,0.8890872962091255,15.917775,-0.38149202,6.1118526,0.72375786,10.937984,-10.234961,1.5399595,-0.4792118,0.330756,-0.22543165,-0.78111285,-6.763416,2.5494587,0.21436699,-1.9232014,5.8778424,1.0894514,0
0.6400000000000003,17.468113158632033,-0.016113540997081465,5.999938461770293,0.8890872962091255,17.858696,1.3579786,6.2740707,1.0601913,10.870081,-10.208876,1.5421981,-0.46518594,0.3566083,-0.23430412,-0.7755864,-6.8182406,2.668079,0.2321462,-1.6257678,5.8971047,1.0796194,0
0.6500000000000004,17.468113158632033,-0.016113540997081465,5.999938461770293,0.8890872962091255,17.858696,1.3579786,6.2740707,1.0601913,10.8015995,-10.181582,1.5445757,-0.4512143,0.3815595,-0.24403575,-0.76893747,-6.8788857,2.791144,0.24212869,-1.3747187,5.9133267,1.07027,0
0.6600000000000004,17.468113158632033,-0.016113540997081465,5.999938461770293,0.8890872962091255,17.858696,1.3579786,6.2740707,1.0601913,10.732485,-10.153038,1.5470124,-0.4372704,0.40569505,-0.25443977,-0.76122713,-6.944826,2.9183524,0.24390145,-1.16282,5.926988,1.0613793,0
0.6700000000000004,17.468113158632033,-0.016113540997081465,5.999938461770293,0.8890872962091255,17.858696,1.3579786,6.2740707,1.0601913,10.662686,-10.123202,1.5494243,-0.42332703,0.4290814,-0.26535645,-0.7525088,-7.0155845,3.0493665,0.2370891,-0.98396677,5.9384933,1.052925,0
0.6800000000000004,16.555005005704935,1.4101243226704008,2.151994420105293,0.7563612314806007,18.600441,1.7878902,5.510503,1.2885256,10.592157,-10.092039,1.5517236,-0.40935776,0.4517693,-0.27664933,-0.74282974,-7.0907197,3.1838129,0.22135215,-0.8330062,5.9481835,1.0448854,0
0.6900000000000004,16.555005005704935,1.4101243226704008,2.151994420105293,0.7563612314806007,18.600441,1.7878902,5.510503,1.2885256,10.520878,-10.059551,1.5538003,-0.39605677,0.47244596,-0.2880025,-0.732795,-7.1656237,3.3140852,0.19266532,-0.48273897,5.356413,1.0307274,0
0.7000000000000004,16.555005005704935,1.4101243226704008,2.151994420105293,0.7563612314806007,18.600441,1.7878902,5.510503,1.2885256,10.448835,-10.025749,1.5555487,-0.38405043,0.49015275,-0.29920793,-0.7230008,-7.2434535,3.4467416,0.15576907,-0.18716982,4.8568854,1.0172641,0
0.7100000000000004,16.555005005704935,1.4101243226704008,2.151994420105293,0.7563612314806007,18.600441,1.7878902,5.510503,1.2885256,10.376002,-9.99061,1.5568895,-0.37320557,0.5053914,-0.31029594,-0.71345186,-7.323447,3.5813906,0.11126661,0.062243823,4.4352236,1.0044615,0
0.7200000000000004,15.851205649152398,2.1105131754125592,-3.2626599664844083,0.9060094553810508,17.329618,2.1265597,1.9108003,1.4286416,10.302361,-9.954116,1.5577497,-0.3633916,0.51857436,-0.3212856,-0.7041326,-7.404979,3.7177382,0.05969365,0.2727103,4.079291,0.9922872,0
0.7300000000000004,15.851205649152398,2.1105131754125592,-3.2626599664844083,0.9060094553810508,17.329618,2.1265597,1.9108003,1.4286416,10.227916,-9.91628,1.5580524,-0.35533205,0.5284276,-0.33162287,-0.6960817,-7.4839773,3.8496857,-3.217254e-05,0.5600626,2.9345016,0.9880535,0
0.7400000000000004,15.851205649152398,2.1105131754125592,-3.2626599664844083,0.9060094553810508,17.329618,2.1265597,1.9108003,1.4286416,10.1526785,-9.877118,1.5577326,-0.34963807,0.53401583,-0.34091222,-0.6901878,-7.5632067,3.9828057,-0.064568974,0.80248135,1.9682112,0.98402756,0
0.7500000000000004,15.851205649152398,2.1105131754125592,-3.2626599664844083,0.9060094553810508,17.329618,2.1265597,1.9108003,1.4286416,10.076653,-9.83662,1.5567496,-0.34601668,0.53607595,-0.34935722,-0.6861812,-7.642018,4.116975,-0.13245797,1.0069938,1.1525881,0.98019916,0
0.7600000000000005,15.57315245456399,1.9871557937609527,-5.9999989817969235,0.8456685138272824,16.014029,2.291401,-4.633051,1.644495,9.999842,-9.794775,1.5550761,-0.34419203,0.5351958,-0.35710892,-0.6837913,-7.719879,4.2521563,-0.20246269,1.1795275,0.46413982,0.9765586,0
0.7700000000000005,15.57315245456399,1.9871557937609527,-5.9999989817969235,0.8456685138272824,16.014029,2.291401,-4.633051,1.644495,9.922266,-9.751585,1.5526944,-0.34428427,0.53111845,-0.36386573,-0.6833617,-7.7949896,4.385954,-0.2739421,1.3061154,-0.5438641,0.9701358,0
0.7800000000000005,15.57315245456399,1.9871557937609527,-5.9999989817969235,0.8456685138272824,16.014029,2.291401,-4.633051,1.644495,9.843948,-9.707052,1.5495986,-0.34636638,0.523642,-0.36937883,-0.6851194,-7.8682494,4.5207,-0.34505525,1.4128549,-1.3946838,0.9640282,0
0.7900000000000005,15.57315245456399,1.9871557937609527,-5.9999989817969235,0.8456685138272824,16.014029,2.291401,-4.633051,1.644495,9.764909,-9.661167,1.5457989,-0.35012782,0.5132605,-0.3738112,-0.68865037,-7.939211,4.656334,-0.4145309,1.5028597,-2.1128294,0.9582202,0
0.8000000000000005,15.525177750642703,1.3053580388352253,-5.9999997018364795,0.42729928479589296,15.10642,1.3337435,-5.5451665,0.23955798,9.685173,-9.613922,1.5413172,-0.35528818,0.5003715,-0.37728572,-0.69358057,-8.007449,4.792766,-0.48131663,1.5787538,-2.7189898,0.9526972,1
0.8100000000000005,15.525177750642703,1.3053580388352253,-5.9999997018364795,0.42729928479589296,15.10642,1.3337435,-5.5451665,0.23955798,9.604781,-9.56533,1.5361798,-0.36145228,0.48555028,-0.3797436,-0.69956255,-8.0706215,4.9257493,-0.54560375,1.5407465,-3.1597896,0.9177033,1
0.8200000000000005,15.525177750642703,1.3053580388352253,-5.9999997018364795,0.42729928479589296,15.10642,1.3337435,-5.5451665,0.23955798,9.523773,-9.515405,1.5304191,-0.36830112,0.46927893,-0.3811384,-0.70630366,-8.13051,5.0591555,-0.6058336,1.5086106,-3.5318398,0.8844265,1
0.8300000000000005,15.525177750642703,1.3053580388352253,-5.9999997018364795,0.42729928479589296,15.10642,1.3337435,-5.5451665,0.23955798,9.4421835,-9.464145,1.5240786,-0.3757042,0.45173356,-0.38157478,-0.71357095,-8.186889,5.1927247,-0.6615288,1.481442,-3.8458633,0.8527826,1
0.8400000000000005,15.525177750642703,1.3053580388352253,-5.9999997018364795,0.42729928479589296,15.159329,0.33845842,-5.8351073,0.21432325,9.360048,-9.41155,1.5172055,-0.38354564,0.43306395,-0.381141,-0.7211655,-8.239527,5.3261724,-0.71231914,1.4584754,-4.1109104,0.82269144,1
0.8500000000000005,15.525177750642703,1.3053580388352253,-5.9999997018364795,0.42729928479589296,15.159329,0.33845842,-5.8351073,0.21432325,9.277405,-9.35762,1.509851,-0.39159948,0.41346985,-0.37957826,-0.72911775,-8.288384,5.4596415,-0.7577324,1.2838686,-4.379916,0.7928387,1
0.8600000000000005,15.525177750642703,1.3053580388352253,-5.9999997018364795,0.42729928479589296,15.159329,0.33845842,-5.8351073,0.21432325,9.194293,-9.30236,1.5020696,-0.3996865,0.3931219,-0.37668213,-0.737439,-8.333192,5.5922475,-0.7976552,1.1364644,-4.6069493,0.76445085,1
0.8700000000000006,15.525177750642703,1.3053580388352253,-5.9999997018364795,0.42729928479589296,15.159329,0.33845842,-5.8351073,0.21432325,9.110754,-9.24578,1.4939175,-0.40777123,0.37210038,-0.37259722,-0.74594575,-8.373888,5.723544,-0.83186966,1.0120269,-4.79856,0.7374559,1
0.8800000000000006,16.38770484708999,0.2352425390808256,-5.999999711458935,0.5221580427804676,15.042301,-0.9407855,-5.841655,0.50107664,9.026829,-9.187895,1.4854523,-0.41581866,0.35047543,-0.36744833,-0.75448215,-8.410394,5.8530865,-0.8602404,0.9069789,-4.960275,0.7117856,0
0.8900000000000006,16.38770484708999,0.2352425390808256,-5.999999711458935,0.5221580427804676,15.042301,-0.9407855,-5.841655,0.50107664,8.942547,-9.128673,1.4767631,-0.42377552,0.32826233,-0.36129785,-0.7629691,-8.445234,5.9907475,-0.87657315,0.80226624,-5.1224732,0.7024805,0
0.9000000000000006,16.38770484708999,0.2352425390808256,-5.999999711458935,0.5221580427804676,15.042301,-0.9407855,-5.841655,0.50107664,8.857941,-9.068089,1.4679428,-0.4315883,0.3054762,-0.35420203,-0.7713343,-8.475354,6.1255336,-0.8864946,0.7138714,-5.2593675,0.693632,0
0.9100000000000006,16.38770484708999,0.2352425390808256,-5.999999711458935,0.5221580427804676,15.042301,-0.9407855,-5.841655,0.50107664,8.773057,-9.006173,1.4590551,-0.43922397,0.28217664,-0.34625438,-0.77946544,-8.500655,6.2569494,-0.8900456,0.63925225,-5.374906,0.68521774,0
0.9200000000000006,17.700701769103464,-0.6889253481197581,-5.999999521635042,0.5956404431102801,16.412321,-1.3667777,-5.764297,0.19813174,8.687945,-8.942963,1.4501634,-0.4466519,0.25841814,-0.3375369,-0.7872679,-8.52104,6.384508,-0.88733536,0.5762621,-5.4724197,0.6772163,0
0.9300000000000006,17.700701769103464,-0.6889253481197581,-5.999999521635042,0.5956404431102801,16.412321,-1.3667777,-5.764297,0.19813174,8.602648,-8.8784485,1.4413718,-0.45374432,0.23441379,-0.32783222,-0.79479057,-8.537672,6.5175986,-0.8699614,0.37897858,-5.5547833,0.6732133,0
0.9400000000000006,17.700701769103464,-0.6889253481197581,-5.999999521635042,0.5956404431102801,16.412321,-1.3667777,-5.764297,0.19813174,8.51721,-8.812629,1.4327862,-0.46040648,0.21034217,-0.3169725,-0.80206627,-8.548997,6.645434,-0.8461853,0.2124559,-5.624288,0.6694068,0
0.9500000000000006,17.700701769103464,-0.6889253481197581,-5.999999521635042,0.5956404431102801,16.412321,-1.3667777,-5.764297,0.19813174,8.431686,-8.745561,1.4244695,-0.4666536,0.18620376,-0.30509314,-0.8089998,-8.555125,6.7674556,-0.81623507,0.07189812,-5.682942,0.665787,0
0.9600000000000006,18.0199414129051,-1.3045934334983418,-5.999998949372598,0.6201472262235935,16.03856,-1.9168009,-5.8390427,0.39693296,8.346126,-8.677302,1.4164819,-0.47249457,0.1620018,-0.29231212,-0.8155107,-8.55615,6.883139,-0.78039545,-0.046743013,-5.732438,0.6623449,0
0.9700000000000006,18.0199414129051,-1.3045934334983418,-5.999998949372598,0.6201472262235935,16.03856,-1.9168009,-5.8390427,0.39693296,8.26058,-8.607911,1.4088932,-0.47789332,0.13785797,-0.27853167,-0.82160395,-8.5521,6.9939494,-0.7364812,-0.24289393,-5.7742486,0.6602742,0
0.9800000000000006,18.0199414129051,-1.3045934334983418,-5.999998949372598,0.6201472262235935,16.03856,-1.9168009,-5.8390427,0.39693296,8.1751,-8.537449,1.4017705,-0.48282477,0.11387345,-0.26368135,-0.8272757,-8.54314,7.0972853,-0.68725604,-0.4084577,-5.8095255,0.65830517,0
0.9900000000000007,18.0199414129051,-1.3045934334983418,-5.999998949372598,0.6201472262235935,16.03856,-1.9168009,-5.8390427,0.39693296,8.089734,-8.465993,1.3951648,-0.48730516,0.090027116,-0.24789542,-0.83245206,-8.529471,7.192658,-0.6331049,-0.5482039,-5.8392897,0.65643275,0
1.0000000000000007,17.659796234137094,-1.596511813660383,-5.145143650120706,0.6261712894619401,16.16821,-2.4543185,-5.0598965,0.6194544,8.004527,-8.393624,1.3891237,-0.49134463,0.06630393,-0.23129126,-0.8370713,-8.511271,7.2796226,-0.57445985,-0.66615874,-5.864402,0.6546522,0
1.0100000000000007,17.659796234137094,-1.596511813660383,-5.145143650120706,0.6261712894619401,16.16821,-2.4543185,-5.0598965,0.6194544,7.9195213,-8.320438,1.3836734,-0.49486715,0.04303875,-0.21404383,-0.841094,-8.489176,7.3562326,-0.5150127,-0.81129974,-5.752295,0.6532546,0
1.0200000000000007,17.659796234137094,-1.596511813660383,-5.145143650120706,0.6261712894619401,16.16821,-2.4543185,-5.0598965,0.6194544,7.8347564,-8.246531,1.3788351,-0.4978326,0.020502033,-0.1963068,-0.8445151,-8.463111,7.4239974,-0.4521555,-0.9337982,-5.6576614,0.65192556,0
1.0300000000000007,17.659796234137094,-1.596511813660383,-5.145143650120706,0.6261712894619401,16.16821,-2.4543185,-5.0598965,0.6194544,7.750271,-8.17199,1.3746401,-0.5002913,-0.0014025918,-0.17814697,-0.8473311,-8.433378,7.4827566,-0.3864199,-1.0371865,-5.5777774,0.6506618,0
1.0400000000000007,17.659796234137094,-1.596511813660383,-5.145143650120706,0.6261712894619401,15.614956,-2.4627693,-2.1607058,0.65538895,7.6661005,-8.096907,1.3711149,-0.50228196,-0.02275588,-0.15962277,-0.84953827,-8.400244,7.532378,-0.31833082,-1.1244458,-5.5103445,0.64946,0
1.0500000000000007,17.659796234137094,-1.596511813660383,-5.145143650120706,0.6261712894619401,15.614956,-2.4627693,-2.1607058,0.65538895,7.5822773,-8.021375,1.3682799,-0.5038343,-0.043625016,-0.14078559,-0.8511328,-8.363948,7.572756,-0.24840862,-1.1980925,-5.4534216,0.6483172,0
1.0600000000000007,17.659796234137094,-1.596511813660383,-5.145143650120706,0.6261712894619401,15.614956,-2.4627693,-2.1607058,0.65538895,7.4988317,-7.9454846,1.3661512,-0.50497085,-0.06406547,-0.12168101,-0.8521112,-8.324709,7.6038074,-0.1771706,-1.26025,-5.4053707,0.64723057,0
1.0700000000000007,17.659796234137094,-1.596511813660383,-5.145143650120706,0.6261712894619401,15.614956,-2.4627693,-2.1607058,0.65538895,7.4157925,-7.869331,1.3647393,-0.5057088,-0.08412262,-0.10234974,-0.8524707,-8.282726,7.625478,-0.105131835,-1.3127106,-5.3648095,0.64619714,0
1.0800000000000007,16.501833119880732,-1.5527675893214192,-1.1878806065311025,0.7498797544100259,14.858659,-2.0126266,-0.29464757,0.6404021,7.3331857,-7.7930074,1.3640496,-0.5060611,-0.1038332,-0.08282841,-0.852209,-8.238184,7.637737,-0.032805257,-1.3569872,-5.3305707,0.6452145,0
1.0900000000000007,16.501833119880732,-1.5527675893214192,-1.1878806065311025,0.7498797544100259,14.858659,-2.0126266,-0.29464757,0.6404021,7.2510214,-7.7166095,1.3640265,-0.5059149,-0.12189016,-0.06396634,-0.8515286,-8.1943865,7.640496,0.02815254,-1.3877747,-4.6845374,0.6503505,0
1.1000000000000008,16.501833119880732,-1.5527675893214192,-1.1878806065311025,0.7498797544100259,14.858659,-2.0126266,-0.29464757,0.6404021,7.1693034,-7.640225,1.3646107,-0.5052637,-0.13727273,-0.046444464,-0.85071,-8.148905,7.635256,0.08857819,-1.4137229,-4.139251,0.65523446,0
1.1100000000000008,16.501833119880732,-1.5527675893214192,-1.1878806065311025,0.7498797544100259,14.858659,-2.0126266,-0.29464757,0.6404021,7.088047,-7.5639296,1.3657956,-0.5042422,-0.1503952,-0.030061975,-0.84983355,-8.102249,7.6228228,0.14826275,-1.435592,-3.6790004,0.65987873,0
1.1200000000000008,15.399925479836076,-1.172289480665868,3.698309233807131,0.8382670440285643,13.452958,-1.7617877,4.3574705,0.7809162,7.0072613,-7.487791,1.3675729,-0.5029487,-0.1616081,-0.014645847,-0.8489467,-8.054841,7.6038837,0.20707577,-1.4540228,-3.2905238,0.66429514,0
1.1300000000000008,15.399925479836076,-1.172289480665868,3.698309233807131,0.8382670440285643,13.452958,-1.7617877,4.3574705,0.7809162,6.9269357,-7.411864,1.3698817,-0.50141066,-0.16962741,-0.0011574624,-0.84841746,-8.010269,7.580805,0.25455928,-1.4105453,-2.2006083,0.67283195,0
1.1400000000000008,15.399925479836076,-1.172289480665868,3.698309233807131,0.8382670440285643,13.452958,-1.7617877,4.3574705,0.7809162,6.8470554,-7.3361893,1.3726621,-0.49970052,-0.17346166,0.009654717,-0.848597,-7.965965,7.5535665,0.30140752,-1.3737855,-1.2806665,0.68094987,0
1.1500000000000008,15.399925479836076,-1.172289480665868,3.698309233807131,0.8382670440285643,13.452958,-1.7617877,4.3574705,0.7809162,6.7676134,-7.2608023,1.3759089,-0.49791455,-0.17377113,0.018214567,-0.8494425,-7.9225183,7.5234423,0.34794587,-1.3427038,-0.5041909,0.68866944,0
1.1600000000000008,14.780444905418252,-0.5383113136773947,5.999997955975085,0.7528282753047916,14.487899,-1.2027593,5.753553,0.9710584,6.6886,-7.1857266,1.379621,-0.49610278,-0.1711058,0.024879703,-0.85087335,-7.880428,7.491492,0.39449346,-1.3164222,0.1511922,0.69601023,1
1.1700000000000008,14.780444905418252,-0.5383113136773947,5.999997955975085,0.7528282753047916,14.487899,-1.2027593,5.753553,0.9710584,6.6099863,-7.110966,1.383757,-0.4942946,-0.16521747,0.029556742,-0.8529373,-7.842529,7.4605894,0.43276897,-1.2991009,1.0248737,0.709507,1
1.1800000000000008,14.780444905418252,-0.5383113136773947,5.999997955975085,0.7528282753047916,14.487899,-1.2027593,5.753553,0.9710584,6.5317416,-7.0365143,1.3882786,-0.49249372,-0.15592532,0.032187458,-0.8556289,-7.8068414,7.4298277,0.47167075,-1.2844313,1.7623045,0.7223414,1
1.1900000000000008,14.780444905418252,-0.5383113136773947,5.999997955975085,0.7528282753047916,14.487899,-1.2027593,5.753553,0.9710584,6.4538403,-6.9623656,1.3931935,-0.4906718,-0.14374167,0.033095103,-0.85876876,-7.7738676,7.400122,0.5114813,-1.2720062,2.3847334,0.73454607,1
1.2000000000000008,14.58567856408247,0.09746705336699245,5.99999897902556,0.6038381409165764,14.503672,-0.19315939,6.004217,0.6411936,6.376253,-6.8885055,1.398512,-0.4887886,-0.12909761,0.032550704,-0.8621831,-7.7440567,7.3722463,0.5523877,-1.2614802,2.9100945,0.74615175,1
1.2100000000000009,14.58567856408247,0.09746705336699245,5.99999897902556,0.6038381409165764,14.503672,-0.19315939,6.004217,0.6411936,6.298947,-6.8149123,1.4042461,-0.4867877,-0.11247139,0.030379798,-0.8657163,-7.717764,7.3468466,0.594635,-1.0950989,3.392048,0.7410014,1
1.2200000000000009,14.58567856408247,0.09746705336699245,5.99999897902556,0.6038381409165764,14.503672,-0.19315939,6.004217,0.6411936,6.2218847,-6.7415576,1.4104086,-0.4846282,-0.0942626,0.026454292,-0.8692237,-7.69526,7.324635,0.6380752,-0.9546262,3.7988272,0.73610383,1
1.2300000000000009,14.58567856408247,0.09746705336699245,5.99999897902556,0.6038381409165764,14.503672,-0.19315939,6.004217,0.6411936,6.145028,-6.668406,1.4170113,-0.4822855,-0.07470432,0.021047628,-0.8725689,-7.67673,7.306227,0.6826313,-0.8360278,4.142158,0.73144656,1
1.2400000000000009,14.58567856408247,0.09746705336699245,5.99999897902556,0.6038381409165764,15.673845,0.7564704,6.050457,0.4137992,6.068336,-6.595418,1.4240645,-0.47973344,-0.053997803,0.014391976,-0.87563264,-7.662348,7.292144,0.7281537,-0.735898,4.4319367,0.7270178,0
1.2500000000000009,14.58567856408247,0.09746705336699245,5.99999897902556,0.6038381409165764,15.673845,0.7564704,6.050457,0.4137992,5.991767,-6.5225472,1.4315809,-0.4769451,-0.032373637,0.0065828254,-0.87831175,-7.652212,7.2827716,0.7752437,-0.6060327,4.6765394,0.7209733,0
1.260000000000001,14.58567856408247,0.09746705336699245,5.99999897902556,0.6038381409165764,15.673845,0.7564704,6.050457,0.4137992,5.915277,-6.4497447,1.4395709,-0.47389945,-0.0100283725,-0.0022922251,-0.8805187,-7.6465087,7.2785783,0.82281554,-0.49640086,4.8829856,0.71522546,0
1.270000000000001,14.58567856408247,0.09746705336699245,5.99999897902556,0.6038381409165764,15.673845,0.7564704,6.050457,0.4137992,5.8388214,-6.376957,1.4480377,-0.4705799,0.012919928,-0.012060126,-0.8821802,-7.6453214,7.279889,0.87054753,-0.4038506,5.0572276,0.70975965,0
1.280000000000001,14.628221905303178,0.6593884251271963,5.9999986495041115,0.482834302612155,16.119505,1.4224805,4.5879064,0.2032251,5.7623544,-6.304127,1.4569812,-0.46697113,0.03636649,-0.022572432,-0.88323593,-7.6487207,7.286961,0.91807806,-0.3257208,5.2042894,0.70456207,0
1.290000000000001,14.628221905303178,0.6593884251271963,5.9999986495041115,0.482834302612155,16.119505,1.4224805,4.5879064,0.2032251,5.685831,-6.231197,1.4663993,-0.4630827,0.060113594,-0.03389954,-0.88362396,-7.656777,7.300036,0.9654359,-0.17211267,5.328451,0.6936818,0
1.300000000000001,14.628221905303178,0.6593884251271963,5.9999986495041115,0.482834302612155,16.119505,1.4224805,4.5879064,0.2032251,5.6092033,-6.1581054,1.4762863,-0.4589295,0.08399627,-0.0460877,-0.88329154,-7.6694436,7.319288,1.0117748,-0.042451136,5.4332376,0.6833355,0
1.310000000000001,14.628221905303178,0.6593884251271963,5.9999986495041115,0.482834302612155,16.119505,1.4224805,4.5879064,0.2032251,5.5324264,-6.0847898,1.4866298,-0.45450464,0.10797013,-0.058985036,-0.88220656,-7.686657,7.3448668,1.0566535,0.066996336,5.521672,0.67349684,0
1.320000000000001,14.722112101059906,0.9536466732290214,5.999994623806486,0.3918185922475634,14.209559,1.6619568,2.9163678,0.115347855,5.455455,-6.0111866,1.4974128,-0.44980076,0.13199319,-0.07246055,-0.8803444,-7.7083497,7.3768644,1.0996168,0.15938082,5.596307,0.664141,0
1.330000000000001,14.722112101059906,0.9536466732290214,5.999994623806486,0.3918185922475634,14.209559,1.6619568,2.9163678,0.115347855,5.3782434,-5.9372296,1.5086184,-0.44483715,0.15597373,-0.08650301,-0.8776725,-7.734613,7.4155717,1.1410902,0.28326827,5.659313,0.6507781,0
1.340000000000001,14.722112101059906,0.9536466732290214,5.999994623806486,0.3918185922475634,14.209559,1.6619568,2.9163678,0.115347855,5.300748,-5.862853,1.5202248,-0.43963256,0.1798338,-0.101094015,-0.874164,-7.765185,7.460801,1.1796951,0.3878383,5.7124834,0.6380708,0
1.350000000000001,14.722112101059906,0.9536466732290214,5.999994623806486,0.3918185922475634,14.209559,1.6619568,2.9163678,0.115347855,5.2229257,-5.7879915,1.5322008,-0.43417904,0.20355317,-0.11611801,-0.8698109,-7.799929,7.51253,1.2149571,0.47610247,5.757354,0.6259872,0
1.360000000000001,14.106856933839603,1.059689033236451,3.2025546058874426,0.38844248989807584,13.279786,1.9082102,0.65102226,0.19655666,5.1447353,-5.71258,1.5445108,-0.42846885,0.22711071,-0.13147478,-0.8646093,-7.838706,7.570687,1.2464044,0.55060315,5.79522,0.6144964,0
1.370000000000001,14.106856933839603,1.059689033236451,3.2025546058874426,0.38844248989807584,13.279786,1.9082102,0.65102226,0.19655666,5.066147,-5.6365695,1.557088,-0.42266724,0.24950589,-0.1466395,-0.85883397,-7.879549,7.6324153,1.2683743,0.63019574,5.3909225,0.6034039,0
1.380000000000001,14.106856933839603,1.059689033236451,3.2025546058874426,0.38844248989807584,13.279786,1.9082102,0.65102226,0.19655666,4.987133,-5.559913,1.5698638,-0.41695884,0.2699707,-0.16120943,-0.85280263,-7.9236846,7.69971,1.2861165,0.69734395,5.0496693,0.5928557,0
1.390000000000001,14.106856933839603,1.059689033236451,3.2025546058874426,0.38844248989807584,13.279786,1.9082102,0.65102226,0.19655666,4.9076633,-5.482558,1.5827956,-0.4113545,0.2887982,-0.17526795,-0.84656,-7.9706955,7.7721004,1.2995781,0.7539938,4.76163,0.582825,0
1.400000000000001,13.398085411288797,0.8483212079071702,-1.1963233307944703,0.43605749521869414,12.725808,1.7264265,-2.0190241,0.14679511,4.827711,-5.4044547,1.5958405,-0.40585527,0.3062349,-0.18888433,-0.8401333,-8.020227,7.8491793,1.3087274,0.80178726,4.5185065,0.57328665,1
1.410000000000001,13.398085411288797,0.8483212079071702,-1.1963233307944703,0.43605749521869414,12.725808,1.7264265,-2.0190241,0.14679511,4.747275,-5.325596,1.6089091,-0.40096062,0.32068184,-0.20147912,-0.834146,-8.067115,7.9229913,1.3041033,0.938965,3.5064654,0.5530488,1
1.420000000000001,13.398085411288797,0.8483212079071702,-1.1963233307944703,0.43605749521869414,12.725808,1.7264265,-2.0190241,0.14679511,4.666365,-5.245985,1.6219101,-0.39716727,0.3308631,-0.21264517,-0.82919806,-8.114991,7.9995956,1.2956293,1.0621142,2.644799,0.5331138,1
1.430000000000001,13.398085411288797,0.8483212079071702,-1.1963233307944703,0.43605749521869414,12.725808,1.7264265,-2.0190241,0.14679511,4.584973,-5.165595,1.6348127,-0.39439768,0.3374819,-0.22262852,-0.8252228,-8.163442,8.078821,1.2845329,1.16599,1.9175001,0.514157,1
1.440000000000001,13.398085411288797,0.8483212079071702,-1.1963233307944703,0.43605749521869414,12.149025,1.6573603,-5.2418795,-0.23148476,4.503096,-5.0844016,1.647594,-0.3925556,0.34112588,-0.23162505,-0.8221209,-8.2119,8.160202,1.2714213,1.2536108,1.303616,0.4961305,0
1.450000000000001,13.398085411288797,0.8483212079071702,-1.1963233307944703,0.43605749521869414,12.149025,1.6573603,-5.2418795,-0.23148476,4.420724,-5.002363,1.6602583,-0.39131448,0.34267947,-0.23964608,-0.8197641,-8.262459,8.247762,1.2612286,1.1905338,0.91372925,0.4931827,0
1.460000000000001,13.398085411288797,0.8483212079071702,-1.1963233307944703,0.43605749521869414,12.149025,1.6573603,-5.2418795,-0.23148476,4.337849,-4.9194417,1.6728145,-0.39039028,0.34285808,-0.24670725,-0.8180336,-8.312318,8.336871,1.2498714,1.1372727,0.5846487,0.4903795,0
1.470000000000001,13.398085411288797,0.8483212079071702,-1.1963233307944703,0.43605749521869414,12.149025,1.6573603,-5.2418795,-0.23148476,4.25448,-4.835622,1.6852527,-0.38974777,0.34188107,-0.25296056,-0.81683815,-8.361324,8.427258,1.2376754,1.0923003,0.30689076,0.4877139,0
1.480000000000001,13.081081820334274,0.33799742858303294,-4.890790668434075,0.388616855775792,11.8912,0.60645556,-5.5489783,1.1081936,4.170626,-4.750893,1.697566,-0.38935307,0.3399311,-0.2585327,-0.8160953,-8.409351,8.518693,1.2249188,1.0543265,0.07245149,0.48517913,0
1.490000000000001,13.081081820334274,0.33799742858303294,-4.890790668434075,0.388616855775792,11.8912,0.60645556,-5.5489783,1.1081936,4.0863023,-4.6652565,1.70974,-0.38949454,0.3360349,-0.26278535,-0.81628305,-8.455151,8.608763,1.2098924,0.94285774,-0.7016014,0.4804408,0
1.500000000000001,13.081081820334274,0.33799742858303294,-4.890790668434075,0.388616855775792,11.8912,0.60645556,-5.5489783,1.1081936,4.0015273,-4.578717,1.7217652,-0.39040092,0.32942373,-0.26521355,-0.81775826,-8.499562,8.699171,1.1952503,0.84873056,-1.3549352,0.47593495,0
1.5100000000000011,13.081081820334274,0.33799742858303294,-4.890790668434075,0.388616855775792,11.8912,0.60645556,-5.5489783,1.1081936,3.916317,-4.491274,1.7336485,-0.3919515,0.32050666,-0.26608834,-0.820272,-8.542263,8.789433,1.1816503,0.76924753,-1.9063766,0.4716502,0
1.5200000000000011,12.790690419676887,-0.2469900427136032,-5.999996021079408,0.2592945119762245,11.902979,-1.7437147,-5.9587517,3.3213837,3.830689,-4.4029303,1.7454035,-0.39403287,0.30962223,-0.26563263,-0.82359654,-8.582968,8.879126,1.1696273,0.70213085,-2.3718166,0.46757573,0
1.5300000000000011,12.790690419676887,-0.2469900427136032,-5.999996021079408,0.2592945119762245,11.902979,-1.7437147,-5.9587517,3.3213837,3.7446697,-4.313705,1.7570382,-0.39659902,0.296782,-0.26365674,-0.8277165,-8.620559,8.965877,1.1576697,0.554269,-2.937678,0.45735535,0
1.5400000000000011,12.790690419676887,-0.2469900427136032,-5.999996021079408,0.2592945119762245,11.902979,-1.7437147,-5.9587517,3.3213837,3.6582866,-4.223618,1.7685653,-0.3995997,0.2820027,-0.2600107,-0.8325797,-8.65569,9.051202,1.1481377,0.42943382,-3.4152849,0.44763646,0
1.5500000000000012,12.790690419676887,-0.2469900427136032,-5.999996021079408,0.2592945119762245,11.902979,-1.7437147,-5.9587517,3.3213837,3.5715656,-4.1326866,1.7800107,-0.40292865,0.26555166,-0.25491726,-0.8379427,-8.688127,9.13462,1.1414032,0.32404056,-3.818402,0.43839443,0
1.5600000000000012,12.702134482342037,-0.6737743858108002,-5.999997282553763,0.16048232134165957,12.985236,-0.39758813,-6.070439,1.4151278,3.4845343,-4.040933,1.7914038,-0.40648946,0.24765551,-0.24856408,-0.8435929,-8.717646,9.215685,1.1377238,0.2350622,-4.158647,0.42960593,0
1.5700000000000012,12.702134482342037,-0.6737743858108002,-5.999997282553763,0.16048232134165957,12.985236,-0.39758813,-6.070439,1.4151278,3.3972242,-3.9483855,1.8027728,-0.4101651,0.22858079,-0.24096292,-0.8493834,-8.743864,9.2934265,1.1365823,0.09337184,-4.4458456,0.41639996,0
1.5800000000000012,12.702134482342037,-0.6737743858108002,-5.999997282553763,0.16048232134165957,12.985236,-0.39758813,-6.070439,1.4151278,3.309668,-3.8550758,1.8141466,-0.41386026,0.20855336,-0.23213193,-0.8551841,-8.766848,9.367977,1.1387122,-0.026236849,-4.6882467,0.403842,0
1.5900000000000012,12.702134482342037,-0.6737743858108002,-5.999997282553763,0.16048232134165957,12.985236,-0.39758813,-6.070439,1.4151278,3.2218988,-3.7610383,1.8255583,-0.4175229,0.18769933,-0.22222815,-0.86084735,-8.786475,9.438921,1.1441169,-0.12720416,-4.8928394,0.39190024,0
1.6000000000000012,12.458402255720749,-0.7807415070243867,-5.999996460687887,0.10486956079666591,12.653829,-4.022653,-6.0483046,4.4000597,3.1339505,-3.666311,1.8370401,-0.42110613,0.16612932,-0.21138717,-0.8662483,-8.802636,9.505876,1.152728,-0.21243475,-5.06552,0.3805445,0
1.6100000000000012,12.458402255720749,-0.7807415070243867,-5.999996460687887,0.10486956079666591,12.653829,-4.022653,-6.0483046,4.4000597,3.0458598,-3.5709417,1.8486129,-0.42456722,0.14396057,-0.19968837,-0.8712879,-8.814988,9.56728,1.1623075,-0.30107164,-5.2112703,0.36701706,0
1.6200000000000012,12.458402255720749,-0.7807415070243867,-5.999996460687887,0.10486956079666591,12.653829,-4.022653,-6.0483046,4.4000597,2.957663,-3.474981,1.860296,-0.42787045,0.12129572,-0.18720385,-0.87588173,-8.823766,9.624087,1.1747231,-0.3758911,-5.334286,0.3541534,0
1.6300000000000012,12.458402255720749,-0.7807415070243867,-5.999996460687887,0.10486956079666591,12.653829,-4.022653,-6.0483046,4.4000597,2.869397,-3.3784766,1.8721164,-0.4309857,0.09820744,-0.17403403,-0.87995374,-8.828907,9.67599,1.1897484,-0.43904668,-5.4381146,0.341921,0
1.6400000000000012,12.458402255720749,-0.7807415070243867,-5.999996460687887,0.10486956079666591,13.991146,-0.6636717,-5.813793,0.79539526,2.7810974,-3.2814791,1.8840989,-0.43388614,0.07476133,-0.1602671,-0.8834409,-8.83036,9.72271,1.2071154,-0.49235612,-5.5257483,0.33028883,0
1.6500000000000012,12.458402255720749,-0.7807415070243867,-5.999996460687887,0.10486956079666591,13.991146,-0.6636717,-5.813793,0.79539526,2.6928024,-3.184041,1.8962655,-0.43654808,0.051017046,-0.14598086,-0.8862914,-8.828089,9.763997,1.2265209,-0.5373541,-5.599713,0.31922743,0
1.6600000000000013,12.458402255720749,-0.7807415070243867,-5.999996460687887,0.10486956079666591,13.991146,-0.6636717,-5.813793,0.79539526,2.6045487,-3.0862184,1.908635,-0.43895057,0.02702911,-0.13124421,-0.8884631,-8.822068,9.799634,1.2476314,-0.5753359,-5.662141,0.30870882,0
1.6700000000000013,12.458402255720749,-0.7807415070243867,-5.999996460687887,0.10486956079666591,13.991146,-0.6636717,-5.813793,0.79539526,2.516374,-2.988068,1.9212227,-0.4410752,0.0028476277,-0.11611844,-0.8899219,-8.812287,9.829426,1.2700883,-0.60739535,-5.714832,0.29870638,0
1.6800000000000013,12.20497694731274,-0.6588675175961296,-5.836768656937968,0.08797447206161552,14.500182,-0.16722079,-5.5294123,0.35497147,2.4283159,-2.88965,1.9340401,-0.4429059,-0.021481104,-0.10065837,-0.8906407,-8.798751,9.853212,1.2935126,-0.63445556,-5.759304,0.28919476,0
1.6900000000000013,12.20497694731274,-0.6588675175961296,-5.836768656937968,0.08797447206161552,14.500182,-0.16722079,-5.5294123,0.35497147,2.3404102,-2.7910268,1.9470824,-0.4444234,-0.04587737,-0.08498581,-0.89059556,-8.781831,9.870504,1.315024,-0.63829744,-5.771381,0.2793208,0
1.7000000000000013,12.20497694731274,-0.6588675175961296,-5.836768656937968,0.08797447206161552,14.500182,-0.16722079,-5.5294123,0.35497147,2.2526917,-2.692261,1.9603411,-0.4456139,-0.070272386,-0.06920325,-0.8897758,-8.761286,9.881715,1.3366921,-0.641539,-5.781575,0.26993138,0
1.7100000000000013,12.20497694731274,-0.6588675175961296,-5.836768656937968,0.08797447206161552,14.500182,-0.16722079,-5.5294123,0.35497147,2.1651967,-2.5934136,1.9738154,-0.4464717,-0.09463973,-0.05333109,-0.8881792,-8.737164,9.886801,1.3581096,-0.64427364,-5.7901793,0.26100272,0
1.7200000000000013,11.591487983030783,-0.3206277848885739,-3.475952214853532,0.07295563049068567,14.543544,0.050331507,-5.51445,0.22111075,2.0779605,-2.494546,1.987501,-0.44699192,-0.11895381,-0.03738887,-0.88580495,-8.709526,9.885745,1.3788676,-0.64658046,-5.797442,0.2525122,0
1.7300000000000013,11.591487983030783,-0.3206277848885739,-3.475952214853532,0.07295563049068567,14.543544,0.050331507,-5.51445,0.22111075,1.9910102,-2.395718,2.0013595,-0.44713265,-0.14241664,-0.021938162,-0.88278466,-8.680034,9.878956,1.3926467,-0.59583914,-5.435395,0.24370131,0
1.7400000000000013,11.591487983030783,-0.3206277848885739,-3.475952214853532,0.07295563049068567,14.543544,0.050331507,-5.51445,0.22111075,1.9043702,-2.2969859,2.0153494,-0.4469052,-0.16440617,-0.0074274675,-0.87931305,-8.647521,9.866688,1.4051162,-0.55299675,-5.129811,0.23532276,0
1.7500000000000013,11.591487983030783,-0.3206277848885739,-3.475952214853532,0.07295563049068567,14.543544,0.050331507,-5.51445,0.22111075,1.8180693,-2.1984022,2.0294566,-0.44637164,-0.18513784,0.006280222,-0.87546396,-8.61223,9.849301,1.4160384,-0.5168238,-4.871885,0.22735536,0
1.7600000000000013,10.828336249344208,0.06609813457244722,0.39564473401885436,0.09036936758062254,14.344483,0.20639385,-4.346549,0.21367216,1.7321343,-2.1000164,2.043664,-0.44557944,-0.20479397,0.019301834,-0.8712899,-8.574372,9.827114,1.4252156,-0.4862823,-4.654183,0.21977893,0
1.7700000000000014,10.828336249344208,0.06609813457244722,0.39564473401885436,0.09036936758062254,14.344483,0.20639385,-4.346549,0.21367216,1.6465769,-2.0018668,2.0579195,-0.44457668,-0.2222544,0.030913485,-0.86717886,-8.536815,9.802226,1.4255716,-0.4002677,-3.8666515,0.21342875,0
1.7800000000000014,10.828336249344208,0.06609813457244722,0.39564473401885436,0.09036936758062254,14.344483,0.20639385,-4.346549,0.21367216,1.5614045,-1.9039843,2.0721698,-0.443453,-0.23666511,0.040552977,-0.86353624,-8.497423,9.773808,1.4242435,-0.3276432,-3.2019372,0.2073902,0
1.7900000000000014,10.828336249344208,0.06609813457244722,0.39564473401885436,0.09036936758062254,14.344483,0.20639385,-4.346549,0.21367216,1.4766335,-1.8064008,2.086399,-0.442282,-0.24852246,0.048530497,-0.86038846,-8.456552,9.742504,1.4214011,-0.2663252,-2.640887,0.20164795,0
1.8000000000000014,10.424060412595626,0.4705341124125763,3.0653722833601296,-0.025131842512828458,13.631371,0.33315584,-0.055730857,0.41858274,1.3922775,-1.7091423,2.1005933,-0.4411102,-0.25824082,0.055108238,-0.8577277,-8.414482,9.708851,1.4172288,-0.21455392,-2.167334,0.1961875,0
1.8100000000000014,10.424060412595626,0.4705341124125763,3.0653722833601296,-0.025131842512828458,13.631371,0.33315584,-0.055730857,0.41858274,1.3083391,-1.6122236,2.1147225,-0.43999958,-0.26532412,0.059894428,-0.8558132,-8.373071,9.674661,1.4084704,-0.10782898,-1.351282,0.1853273,0
1.8200000000000014,10.424060412595626,0.4705341124125763,3.0653722833601296,-0.025131842512828458,13.631371,0.33315584,-0.055730857,0.41858274,1.2248182,-1.5156531,2.12876,-0.439006,-0.2694005,0.06259163,-0.8548564,-8.33104,9.639295,1.3989635,-0.017721478,-0.6624962,0.17500003,0
1.8300000000000014,10.424060412595626,0.4705341124125763,3.0653722833601296,-0.025131842512828458,13.631371,0.33315584,-0.055730857,0.41858274,1.1417195,-1.4194397,2.1427004,-0.4381356,-0.27094966,0.063529015,-0.8547442,-8.288666,9.603348,1.3890581,0.058354855,-0.081129,0.1651795,0
1.8400000000000014,10.424060412595626,0.4705341124125763,3.0653722833601296,-0.025131842512828458,13.165657,0.703067,2.7652392,-0.107339464,1.0590452,-1.3235866,2.156541,-0.4373799,-0.27036873,0.0629824,-0.85535544,-8.246174,9.567314,1.3790618,0.12258355,0.40957224,0.15584086,0
1.8500000000000014,10.424060412595626,0.4705341124125763,3.0653722833601296,-0.025131842512828458,13.165657,0.703067,2.7652392,-0.107339464,0.9767957,-1.2280924,2.1702826,-0.43672273,-0.2679876,0.06118309,-0.85657024,-8.20376,9.531612,1.3692367,0.17680888,0.82374734,0.14696048,0
1.8600000000000014,10.424060412595626,0.4705341124125763,3.0653722833601296,-0.025131842512828458,13.165657,0.703067,2.7652392,-0.107339464,0.89496917,-1.1329521,2.1839275,-0.4361442,-0.26408124,0.05832532,-0.85827595,-8.161589,9.496593,1.3598002,0.222588,1.1733307,0.13851586,0
1.8700000000000014,10.424060412595626,0.4705341124125763,3.0653722833601296,-0.025131842512828458,13.165657,0.703067,2.7652392,-0.107339464,0.8135626,-1.0381572,2.197481,-0.4356234,-0.25887945,0.054572474,-0.86036944,-8.119806,9.462556,1.3509277,0.26123598,1.4683956,0.13048562,0
1.8800000000000014,10.03297666259438,0.6195972528538938,5.796656810718488,-0.022696949482248922,13.061231,0.9810125,1.8433551,-0.49357304,0.73257124,-0.94369674,2.2109487,-0.43514,-0.2525751,0.050062224,-0.8627589,-8.078539,9.429758,1.3427565,0.29386327,1.7174445,0.12284944,0
1.8900000000000015,10.03297666259438,0.6195972528538938,5.796656810718488,-0.022696949482248922,13.061231,0.9810125,1.8433551,-0.49357304,0.65198195,-0.849551,2.2243218,-0.43470955,-0.24441051,0.044383597,-0.8656335,-8.039451,9.399632,1.3320081,0.34462118,2.3535979,0.11570744,0
1.9000000000000015,10.03297666259438,0.6195972528538938,5.796656810718488,-0.022696949482248922,13.061231,0.9810125,1.8433551,-0.49357304,0.57177925,-0.7556976,2.2375925,-0.43432045,-0.23378149,0.037216045,-0.8690955,-8.001244,9.371381,1.3222687,0.38747582,2.8905425,0.108915895,0
1.9100000000000015,10.03297666259438,0.6195972528538938,5.796656810718488,-0.022696949482248922,13.061231,0.9810125,1.8433551,-0.49357304,0.49195307,-0.6621154,2.2507715,-0.43391374,-0.22104338,0.028788894,-0.8729433,-7.9641905,9.345453,1.3137238,0.42365694,3.34375,0.10245762,0
1.9200000000000015,9.709610758137803,0.6854976550037909,4.585407989304712,-0.11658800036866959,13.098579,0.8512233,1.2896205,-0.6419458,0.4124906,-0.56877923,2.2638712,-0.43343484,-0.20649622,0.019296879,-0.8769956,-7.9285417,9.322238,1.3064828,0.4542031,3.7262797,0.096316256,0
1.9300000000000015,9.709610758137803,0.6854976550037909,4.585407989304712,-0.11658800036866959,13.098579,0.8512233,1.2896205,-0.6419458,0.3333711,-0.47565684,2.2768905,-0.43283474,-0.19083379,0.009090688,-0.880996,-7.8956127,9.3027115,1.2976074,0.49029112,3.8602593,0.085868984,0
1.9400000000000015,9.709610758137803,0.6854976550037909,4.585407989304712,-0.11658800036866959,13.098579,0.8512233,1.2896205,-0.6419458,0.2545725,-0.3827142,2.2898276,-0.43208972,-0.1746287,-0.0015415903,-0.8847604,-7.8643785,9.286309,1.2899611,0.52075285,3.9733443,0.075934365,0
1.9500000000000015,9.709610758137803,0.6854976550037909,4.585407989304712,-0.11658800036866959,13.098579,0.8512233,1.2896205,-0.6419458,0.1760774,-0.28991947,2.3026936,-0.431189,-0.1579539,-0.012530385,-0.88823956,-7.834928,9.273158,1.2834375,0.546465,4.068793,0.06648726,0
1.9600000000000015,9.287744684937968,0.46659037634562794,4.670864971701246,0.0008464153205601034,11.709253,0.44688708,0.7817094,-0.52742654,0.09786751,-0.19723949,2.3154998,-0.43012345,-0.14087315,-0.023815492,-0.89139295,-7.807348,9.263369,1.2779111,0.5681677,4.1493564,0.05750369,0
1.9700000000000015,9.287744684937968,0.46659037634562794,4.670864971701246,0.0008464153205601034,11.709253,0.44688708,0.7817094,-0.52742654,0.019918099,-0.104638726,2.3282347,-0.4288834,-0.12337448,-0.035279192,-0.8941997,-7.782833,9.257305,1.2691828,0.5523314,4.2306843,0.054723505,0
1.9800000000000015,9.287744684937968,0.46659037634562794,4.670864971701246,0.0008464153205601034,11.709253,0.44688708,0.7817094,-0.52742654,-0.057795897,-0.012081815,2.3408856,-0.4274563,-0.10545354,-0.04682381,-0.8966427,-7.7602806,9.254606,1.2611332,0.5389649,4.299329,0.052079737,0
1.9900000000000015,9.287744684937968,0.46659037634562794,4.670864971701246,0.0008464153205601034,11.709253,0.44688708,0.7817094,-0.52742654,-0.13529457,0.08046512,2.3534591,-0.425832,-0.08717321,-0.05842764,-0.89869577,-7.7397823,9.255317,1.2536106,0.5276833,4.357269,0.0495657,0
2.0000000000000013,,,,,11.490824,-0.4566292,-1.548935,-0.53997594,-0.21259889,0.17303637,2.3659594,-0.42400277,-0.06858865,-0.07007126,-0.9003372,-7.7214217,9.25947,1.2464532,0.5181611,4.4061728,0.047175027,0
2.010000000000001,,,,,11.490824,-0.4566292,-1.548935,-0.53997594,-0.28973418,0.26566476,2.378369,-0.42209,-0.051161,-0.08092102,-0.9014845,-7.705954,9.266696,1.2354283,0.4554512,3.8116848,0.050148178,0
2.020000000000001,,,,,11.490824,-0.4566292,-1.548935,-0.53997594,-0.36672446,0.35838032,2.3906684,-0.42024252,-0.03605835,-0.09032581,-0.90218467,-7.692376,9.276836,1.2244292,0.40252027,3.3099072,0.052975427,0
2.0300000000000007,,,,,11.490824,-0.4566292,-1.548935,-0.53997594,-0.4435874,0.45121017,2.4028575,-0.41848147,-0.022926504,-0.09851522,-0.9025754,-7.680452,9.289498,1.2133434,0.35784322,2.8863814,0.055663966,0
2.0400000000000005,,,,,11.490824,-0.4566292,-1.548935,-0.53997594,-0.5203385,0.54417783,2.4149349,-0.41681555,-0.01146319,-0.105682574,-0.9027538,-7.6699767,9.30435,1.2020986,0.32013273,2.5289042,0.058220565,0
2.0500000000000003,,,,,11.824177,-0.53237176,-4.260591,-0.009397626,-0.59699124,0.6373037,2.4268987,-0.41524556,-0.0014113069,-0.11199049,-0.9027884,-7.660774,9.32111,1.1906512,0.28830236,2.2271755,0.060651712,1
2.06,,,,,11.824177,-0.53237176,-4.260591,-0.009397626,-0.67354393,0.73063576,2.4388907,-0.4140063,0.0058026495,-0.116537005,-0.90276456,-7.6499505,9.345587,1.2077224,0.16036151,1.2154065,0.05721438,1
2.07,,,,,11.824177,-0.53237176,-4.260591,-0.009397626,-0.7499933,0.82422,2.4510524,-0.41330254,0.0090606455,-0.11862016,-0.9027889,-7.640016,9.371386,1.2245865,0.052362863,0.36142367,0.053945716,1
2.0799999999999996,,,,,11.824177,-0.53237176,-4.260591,-0.009397626,-0.8263453,0.91806513,2.4633825,-0.41307142,0.008979519,-0.118630216,-0.90289414,-7.6303897,9.397649,1.2413719,-0.03880147,-0.35938,0.050837435,1
2.0899999999999994,,,,,10.696251,-1.5603253,-5.4357734,0.19785705,-0.9026005,1.0121721,2.4758804,-0.41324115,0.006079785,-0.116891235,-0.9030675,-7.62058,9.423658,1.2581995,-0.11575517,-0.967774,0.047881685,1
2.099999999999999,,,,,10.696251,-1.5603253,-5.4357734,0.19785705,-0.97875977,1.1065233,2.4884923,-0.41376695,0.00054296735,-0.11310704,-0.90332896,-7.6111646,9.446379,1.2641957,-0.34100547,-1.6645645,0.055241022,1
2.109999999999999,,,,,10.696251,-1.5603253,-5.4357734,0.19785705,-1.0548208,1.2010947,2.5011652,-0.41459182,-0.007464405,-0.10705251,-0.9036578,-7.6008916,9.467629,1.2704197,-0.53112626,-2.2526917,0.06223924,1
2.1199999999999988,,,,,10.696251,-1.5603253,-5.4357734,0.19785705,-1.1307737,1.2958688,2.513902,-0.4156263,-0.017556349,-0.09907162,-0.903953,-7.589496,9.486789,1.2769307,-0.69159746,-2.749101,0.06889403,1
2.1299999999999986,,,,,12.651251,-3.1336153,-5.700902,1.8916389,-1.206606,1.3908217,2.526705,-0.4167872,-0.029405084,-0.08945417,-0.9041136,-7.576759,9.503326,1.2837327,-0.8270434,-3.1680956,0.075222276,1
2.1399999999999983,,,,,12.651251,-3.1336153,-5.700902,1.8916389,-1.2822845,1.4859439,2.5397215,-0.4178302,-0.042454418,-0.07816937,-0.90415967,-7.5586896,9.5204115,1.3190788,-1.090739,-3.4673376,0.15576221,1
2.149999999999998,,,,,12.651251,-3.1336153,-5.700902,1.8916389,-1.3577747,1.5812136,2.5530772,-0.41854212,-0.05629915,-0.06505983,-0.9041127,-7.5391383,9.532745,1.3515865,-1.34562,-3.7522738,0.23524128,1
2.159999999999998,,,,,12.651251,-3.1336153,-5.700902,1.8916389,-1.4330626,1.6765815,2.5667436,-0.41889125,-0.07088046,-0.05018706,-0.90387326,-7.5182047,9.54003,1.3812082,-1.592037,-4.024106,0.31361964,1
2.1699999999999977,,,,,9.217091,-2.5460467,-5.989699,1.7406331,-1.5081344,1.7719959,2.5806913,-0.41884384,-0.08613998,-0.033614606,-0.90333784,-7.4959464,9.542013,1.4080944,-1.8275709,-4.281133,0.39062637,1
2.1799999999999975,,,,,9.217091,-2.5460467,-5.989699,1.7406331,-1.5830045,1.8674059,2.5947516,-0.41835862,-0.102145635,-0.015781857,-0.9023817,-7.4779344,9.539317,1.4035959,-1.9063572,-4.514667,0.45390338,1
2.1899999999999973,,,,,9.217091,-2.5460467,-5.989699,1.7406331,-1.6576898,1.9627675,2.6087549,-0.41739795,-0.118937336,0.0029378985,-0.9009016,-7.458986,9.532348,1.396688,-1.9932212,-4.732164,0.515897,1
2.199999999999997,,,,,9.217091,-2.5460467,-5.989699,1.7406331,-1.7321806,2.058038,2.6226783,-0.41593346,-0.13640289,0.022522774,-0.8988247,-7.438954,9.521012,1.3878384,-2.0790823,-4.9282928,0.57598644,1
