time-since-start [s],throttle,roll,pitch,yaw,position_x [m],position_y [m],position_z [m],rotation_w [quaternion],rotation_x [quaternion],rotation_y [quaternion],rotation_z [quaternion],velocity_x [m],velocity_y [m],velocity_z [m],network_used
0.0,0.5000005222930415,-5.9999996582487025,-5.999999860512358,5.999995690928738,-0.7065824866294861,1.8399144411087036,2.67277193069458,0.27277079224586487,-0.41633141040802,0.05168206989765167,0.8657905459403992,-7.92290735244751,9.085355758666992,0.40607595443725586,0
0.016666666666666666,0.5000005222930415,-5.9999996582487025,-5.999999860512358,5.999995690928738,-0.8386789338642182,1.9913560646332973,2.678223752581747,0.2103034546239959,-0.38257633455822987,0.015421998188435143,0.8995387825774667,-7.928651142856686,9.087461255628439,0.24822438064828942,0
0.03333333333333333,0.5000005222930415,-5.9999996582487025,-5.999999860512358,5.999995690928738,-0.9708698010173147,2.1428239102411997,2.681048672832665,0.14625982763901474,-0.3459537307985089,-0.020953666125915753,0.9265446977981034,-7.934204856251249,9.088504726218183,0.09083964030984469,0
0.05,8.383415656818311,-5.999999538063738,-5.9999997664893066,3.6451525866556747,-1.1031502965596773,2.2943004813928094,2.6812540284871815,0.08111993801241121,-0.3067380968338676,-0.05717227623227521,0.9466058739574462,-7.939375101326078,9.088515890004858,-0.06613369091466799,0
0.06666666666666667,8.383415656818311,-5.999999538063738,-5.9999997664893066,3.6451525866556747,-1.2361321328744552,2.4456629250261095,2.6797418415750203,0.03397628959753745,-0.26433356052145063,-0.09903026352362007,0.9587316838431068,-8.016665022903332,9.072334347768793,-0.11450508300391873,0
0.08333333333333333,8.383415656818311,-5.999999538063738,-5.9999997664893066,3.6451525866556747,-1.3703069373387518,2.596626683474785,2.6774598528805504,-0.013368491463826274,-0.22036422389613045,-0.1403020120223711,0.9651819993422539,-8.082169465387057,9.040875173052964,-0.15880080880572608,0
0.09999999999999999,8.383415656818311,-5.999999538063738,-5.9999997664893066,3.6451525866556747,-1.505461012074036,2.7469481851501047,2.6744612114982025,-0.06063413380517295,-0.1750903763875774,-0.18074320146575393,0.9659186359137607,-8.133866288395552,8.995522767155832,-0.2008069060114184,0
0.11666666666666665,17.750160542557595,-5.999999358479914,-5.999999637666708,-2.169861736106981,-1.6413496161280947,2.8964097203410746,2.6707687882918085,-0.1075408345449409,-0.12878002986159312,-0.2201144283297806,0.9609372328206224,-8.17005982074333,8.937990024786675,-0.24236354859619372,0
0.13333333333333333,17.750160542557595,-5.999999358479914,-5.999999637666708,-2.169861736106981,-1.7779113211130755,3.0442061971912526,2.6674992023963635,-0.10732334790339697,-0.07108408282776635,-0.2644869151921489,0.9557591108746375,-8.211374208424846,8.794129669881425,-0.1509704289558843,0
0.15,17.750160542557595,-5.999999358479914,-5.999999637666708,-2.169861736106981,-1.914863498022684,3.189437457313592,2.665687570709941,-0.10653440737934008,-0.013009641496972627,-0.3074511150646297,0.9454919541070048,-8.216967486539067,8.630498009481796,-0.068367650146442,0
0.16666666666666666,19.9933118580453,-4.314418210343774,-5.999999326073332,-2.333563556876919,-2.051615453368638,3.3317918119952252,2.6651400789696926,-0.10517821376536862,0.04513407096899151,-0.3487782607748793,0.9301904310191408,-8.18752456440342,8.449301446778646,-0.0001909297285072626,0
0.18333333333333332,19.9933118580453,-4.314418210343774,-5.999999326073332,-2.333563556876919,-2.187537356316582,3.4708116718079576,2.665816357072023,-0.10268789334108121,0.10207382200065758,-0.37533917435348735,0.9155089785360973,-8.117179110986546,8.231586086997966,0.07827612050870161,0
0.19999999999999998,19.9933118580453,-4.314418210343774,-5.999999326073332,-2.333563556876919,-2.321996060166392,3.60613424153126,2.6676347742300757,-0.09976942972187675,0.15858799012426383,-0.400335162330276,0.8970104359726878,-8.012287445253676,8.005995905276846,0.13614306129292936,0
0.21666666666666665,16.07431497744997,0.6175370367046866,-2.5236894578536777,-4.071166114752007,-2.4544347040625634,3.7376470714531123,2.67021687459407,-0.09643499104459698,0.2144409472076971,-0.42366200733546217,0.8747719304843794,-7.875211617487152,7.774805345534343,0.16925856584285823,0
0.2333333333333333,16.07431497744997,0.6175370367046866,-2.5236894578536777,-4.071166114752007,-2.584640334057495,3.8656803913991657,2.6728972957016417,-0.07669783158902795,0.2465327424213168,-0.4095176558130441,0.87500536757274,-7.747795303716194,7.5901313891192315,0.1521232570670912,0
0.24999999999999997,16.07431497744997,0.6175370367046866,-2.5236894578536777,-4.071166114752007,-2.7126392719711263,3.9906824847930973,2.675276134716367,-0.056836455710203716,0.2782252640851562,-0.39471006756787685,0.8738216845830298,-7.610431540825137,7.411042292302138,0.13291567570300453,0
0.26666666666666666,11.964185558795027,1.940865749150459,1.4480381506732447,-3.4071851393580013,-2.838267053866812,4.11274553931217,2.6773112440507565,-0.03688303001598644,0.3094671843897652,-0.379263224316402,0.8712227985559814,-7.463290211585579,7.237424883584704,0.11072538750659501,0
0.2833333333333333,11.964185558795027,1.940865749150459,1.4480381506732447,-3.4071851393580013,-2.9617203066631372,4.232318168342238,2.678678503183227,-0.012557482456330458,0.3089384479297095,-0.3566049354065469,0.8816078035207588,-7.351549657144859,7.111855785621033,0.05447578283710595,0
0.3,10.168393829256907,2.0220406789014267,2.484847487070213,-2.8280676437234504,-3.0833332269050913,4.349827620519622,2.6791642283802726,0.011783300571196833,0.30803488938138324,-0.33351399265424414,0.8909231906371732,-7.2424218837886505,6.989926002177721,0.004907578927853538,0
0.31666666666666665,10.168393829256907,2.0220406789014267,2.484847487070213,-2.8280676437234504,-3.2032883739346425,4.465486007529341,2.678733604955287,0.03448322414735868,0.2974519434790733,-0.3107914199851895,0.9020764912114415,-7.152924455322319,6.889653887758079,-0.05539325915052618,0
0.3333333333333333,10.168393829256907,2.0220406789014267,2.484847487070213,-2.8280676437234504,-3.321788194941992,4.579503486063967,2.6773566778617552,0.057139423111576826,0.2864918295154218,-0.2876747648435637,0.9120859618366006,-7.067773806190133,6.793113613439642,-0.10869481977643512,0
0.35,7.63856458222679,1.3321762496151905,4.284398894121415,-1.6439178677405262,-3.438904627497613,4.691947029852973,2.6751477063678646,0.07972316947995996,0.27516844487797787,-0.2641933390701382,0.9209389105376492,-6.986905236823056,6.7008749490125465,-0.1552903419886933,0
0.36666666666666664,7.63856458222679,1.3321762496151905,4.284398894121415,-1.6439178677405262,-3.554878981008293,4.803072578707233,2.6719662164868576,0.0986489911996538,0.24658154555411654,-0.24714858319247168,0.9318709942439192,-6.931160958062334,6.634641110511939,-0.2254855254066608,0
0.3833333333333333,7.63856458222679,1.3321762496151905,4.284398894121415,-1.6439178677405262,-3.669981892227356,4.913118337600976,2.6676636539771685,0.11741841169021322,0.2176037080530127,-0.2297119901381655,0.941325660217663,-6.882357114075855,6.571395371474625,-0.2898982099709704,0
0.39999999999999997,6.173011143156633,1.0547048965021524,4.281210275054743,-0.9717479818957694,-3.7843301596497043,5.0221388134316625,2.662332336856448,0.13600167331905466,0.18828087475428637,-0.2119112044330525,0.9492879187325656,-6.840621245901534,6.511698903168651,-0.34902108721883707,0
0.41666666666666663,6.173011143156633,1.0547048965021524,4.281210275054743,-0.9717479818957694,-3.8981000137489334,5.130286544050925,2.655882315456305,0.14949491396318823,0.1571987968320865,-0.19704443251526096,0.9560927542598014,-6.812758383806316,6.4665390558026505,-0.4244046588476671,0
0.4333333333333333,6.173011143156633,1.0547048965021524,4.281210275054743,-0.9717479818957694,-4.011455546996722,5.237708060282604,2.6482034853941783,0.16277654609219042,0.1258942056276877,-0.1818987462272476,0.9615442503141876,-6.790913804715538,6.424608696868865,-0.4965541513987216,0
0.44999999999999996,6.194639015911337,0.29240621611700657,3.3639132685338615,-0.39846998715623116,-4.124497522208232,5.344459910589287,2.6393458980463134,0.17582776969220895,0.09441141246838483,-0.16649558413237947,0.9656346903590554,-6.775136774079398,6.38623146258298,-0.5659343923678901,0
0.4666666666666666,6.194639015911337,0.29240621611700657,3.3639132685338615,-0.39846998715623116,-4.237324261475967,5.450598178806961,2.6293525590433546,0.18339989724125264,0.06828905376843934,-0.15883438220426316,0.9677152349822327,-6.7649302249339796,6.350744240451531,-0.6330342334207646,0
0.4833333333333333,6.194639015911337,0.29240621611700657,3.3639132685338615,-0.39846998715623116,-4.350023833469335,5.556164566403108,2.618251668888474,0.19082480283782371,0.0421118768925869,-0.15104567798078225,0.9690189584158966,-6.759877801226664,6.317629368044315,-0.6988900555849547,0
0.49999999999999994,6.89128877766719,0.2582443030187344,2.996847402930294,-0.11111636804023399,-4.4626821492979785,5.661199770005843,2.6060614746806174,0.19809652623267834,0.015900895239132833,-0.1431357237459362,0.9695448141125178,-6.759977826344252,6.287024434381047,-0.7638008307399519,0
0.5166666666666666,6.89128877766719,0.2582443030187344,2.996847402930294,-0.11111636804023399,-4.575387345461012,5.765719148415962,2.5928879585991313,0.20247192776926703,-0.007755924355457266,-0.13604300883888393,0.9697614748011287,-6.765492926479275,6.255743854331414,-0.8169379093090179,0
0.5333333333333333,6.89128877766719,0.2582443030187344,2.996847402930294,-0.11111636804023399,-4.688226757632533,5.869739565585988,2.578832220378968,0.2067199455574914,-0.031407864366357334,-0.128864703457164,0.9693680170746068,-6.77607954231461,6.227163126125542,-0.86971333667544,0
0.55,8.330325675774668,-0.14252976531064157,2.064892559832184,0.10859534677949803,-4.8012846654249985,5.973306702025954,2.563897993124279,0.21083790698769667,-0.05504004434664382,-0.12160532377966846,0.9683646884740339,-6.79170607478787,6.20136305758919,-0.9224025367013711,0
0.5666666666666668,8.330325675774668,-0.14252976531064157,2.064892559832184,0.10859534677949803,-4.914674784321768,6.076421923697089,2.548276795037961,0.2119572112178963,-0.07205453349965324,-0.11905969492838414,0.9673195583766738,-6.815848563936645,6.1727531422819375,-0.9522129594361441,0
0.5833333333333335,8.330325675774668,-0.14252976531064157,2.064892559832184,0.10859534677949803,-5.028504220341995,6.179074864371961,2.532154722688499,0.21301328475646467,-0.08904752747463983,-0.11647854840439377,0.9659858592594012,-6.8444193783086495,6.145893525914716,-0.9825342836645772,0
0.6000000000000002,9.358170986369696,-0.5696049554635789,1.9798187421257656,0.28240541493444027,-5.1428465266918755,6.281294899267033,2.5155219211351674,0.21400581255745516,-0.10601395695239645,-0.1138626542106568,0.9643639889889225,-6.877387374471163,6.12080828604129,-1.0135271816848603,0
0.6166666666666669,9.358170986369696,-0.5696049554635789,1.9798187421257656,0.28240541493444027,-5.257812986412546,6.383084531030381,2.4985006888818777,0.2130795594721259,-0.1231915141906997,-0.11464281056799011,0.962433391103635,-6.919439836881515,6.094105108085954,-1.0292346550822413,0
0.6333333333333336,9.358170986369696,-0.5696049554635789,1.9798187421257656,0.28240541493444027,-5.373522788770478,6.484437007587952,2.4812064696346168,0.21208932663813143,-0.14033208166736116,-0.11538854401669442,0.960213810799657,-6.966580248366829,6.068350741378152,-1.0463154130825998,0
0.6500000000000004,10.990645351320575,-0.6539160698351775,1.0862378730547495,0.34097008259988654,-5.4900603038635545,6.5853681932902,2.4636148904709243,0.21103541138501383,-0.15743051271696704,-0.11609963064116408,0.9577059145331717,-7.018756109151111,6.043551094930113,-1.0649473444313415,0
0.6666666666666671,10.990645351320575,-0.6539160698351775,1.0862378730547495,0.34097008259988654,-5.607584625474957,6.68585517047739,2.4459089476093485,0.20849463422917133,-0.16756990715186207,-0.11895383738808869,0.9561905419135932,-7.084758226524723,6.014834925208605,-1.0600079735559913,0
0.6833333333333338,10.990645351320575,-0.6539160698351775,1.0862378730547495,0.34097008259988654,-5.726238678141821,6.785860958309759,2.428273003427062,0.2059288990747092,-0.177689242511727,-0.12179380468122443,0.9545607078244741,-7.154318298028094,5.985806912735216,-1.0565604054202167,0
0.7000000000000005,15.72372885047246,-0.7774006560611934,1.1746508890841016,0.4596624894943116,-5.846081479491746,6.8853802868455505,2.410681551434941,0.20333851305478068,-0.18778730745431843,-0.12461919256026467,0.9528166073662644,-7.227402248118812,5.956458375237138,-1.0546816911066157,0
0.7166666666666672,15.72372885047246,-0.7774006560611934,1.1746508890841016,0.4596624894943116,-5.967445593620514,6.9843005680969865,2.393695590609468,0.19967663882029602,-0.19889425237220154,-0.12807251902224803,0.9508773844790032,-7.3372025933411305,5.913843304611959,-0.9840850126135212,0
0.733333333333334,15.72372885047246,-0.7774006560611934,1.1746508890841016,0.4596624894943116,-6.0906850754926065,7.082503932224754,2.3778633019963733,0.19598432196749987,-0.20997087395408956,-0.1315063196006036,0.9487931912164004,-7.452434548213913,5.870424590914569,-0.9162631009538397,0
0.7500000000000007,17.041140177371204,-0.7556164081461063,0.323295608511029,0.4677608502220191,-6.21588985131545,7.179976800076241,2.363137340482791,0.19226212542550253,-0.22101548346280725,-0.13492007077950616,0.9465643453337046,-7.573025489910546,5.82618010478845,-0.8513475472693696,0
0.7666666666666674,17.041140177371204,-0.7556164081461063,0.323295608511029,0.4677608502220191,-6.34322655299228,7.276669363704247,2.3496301745021615,0.18753829108176942,-0.22529529986706978,-0.1394966643202628,0.94583939019215,-7.707767699556398,5.776504120650358,-0.7698121084395604,0
0.7833333333333341,17.041140177371204,-0.7556164081461063,0.323295608511029,0.4677608502220191,-6.472828282590337,7.372512788101918,2.337466835521911,0.18280281019675215,-0.22956112493657133,-0.1440645948106598,0.9450556963394634,-7.844821322196757,5.724281278328757,-0.6900948968696154,0
0.8000000000000008,14.41598892211914,-0.3132804036140442,-0.530836284160614,0.3263012170791626,-6.604733186160897,7.4674645214519035,2.326616691534884,0.17805597685425253,-0.23381269375417152,-0.14862357857214414,0.9442133124447607,-7.984140963236962,5.669499181812252,-0.6122352228050848,1
0.8166666666666675,14.41598892211914,-0.3132804036140442,-0.530836284160614,0.3263012170791626,-6.738788259791973,7.561555436770594,2.316746137866101,0.17421764406213386,-0.230500887078138,-0.15123795978547822,0.9453278199826549,-8.102228794612735,5.621081369254752,-0.5721708492060006,1
0.8333333333333343,14.41598892211914,-0.3132804036140442,-0.530836284160614,0.3263012170791626,-6.87479945141102,7.654822959653086,2.307546301488782,0.17037342655053972,-0.2271812945485728,-0.15384723248657078,0.9464103962597237,-8.218871609844356,5.570694226254142,-0.5317515902681736,1
0.850000000000001,13.902663230895996,-0.13527217507362366,-0.4168543219566345,0.46730080246925354,-7.012742502362885,7.747234375502279,2.299022974905089,0.16652345416935863,-0.22385402829459414,-0.15645130853946998,0.9474610047087308,-8.334048435378628,5.518350706246155,-0.4909921242361297,1
0.8666666666666677,13.902663230895996,-0.13527217507362366,-0.4168543219566345,0.46730080246925354,-7.152559565126148,7.8387753820553465,2.291121274394873,0.16203570315883697,-0.22135653832798627,-0.15722385826116653,0.9486972258810216,-8.44379290677893,5.466389684401471,-0.45714477315711227,1
0.8833333333333344,13.902663230895996,-0.13527217507362366,-0.4168543219566345,0.46730080246925354,-7.2941953588061565,7.929441386519344,2.283787042402118,0.157543333735476,-0.2188527391600188,-0.15799192671934226,0.9499064068679507,-8.552294102021182,5.413352543310635,-0.4228966351939604,1
0.9000000000000011,15.120643615722656,-0.2974452078342438,-0.4791341722011566,0.582429051399231,-7.43762906036017,8.019214558300757,2.2770269219290578,0.15304647394276377,-0.21634270215507614,-0.15875549202217235,0.9510885132049102,-8.659539832033097,5.359251870573058,-0.38825213142074416,1
0.9166666666666679,15.120643615722656,-0.2974452078342438,-0.4791341722011566,0.582429051399231,-7.582916958620174,8.108035174272516,2.2709919440689985,0.14725671815853666,-0.21369018292637784,-0.16067037298656725,0.9522799221248064,-8.774763897422297,5.298914943329747,-0.3359007730912029,1
0.9333333333333346,15.120643615722656,-0.2974452078342438,-0.4791341722011566,0.582429051399231,-7.730112985995173,8.195834871848945,2.2658316899426083,0.14146024108406619,-0.21102791016140923,-0.16257792041654787,0.953427865796872,-8.888511201568864,5.236744805942381,-0.2832865353757955,1
0.9500000000000013,13.169487953186035,-0.2069229781627655,-0.4552564024925232,0.516818106174469,-7.879192324337305,8.28258325559492,2.2615504781410425,0.13565730728999673,-0.20835600537522372,-0.16447804724525514,0.9545322918251096,-9.000757134526244,5.172760481978352,-0.230416953992274,1
0.966666666666668,13.169487953186035,-0.2069229781627655,-0.4552564024925232,0.516818106174469,-8.030010453144165,8.368321578233463,2.2579198665393045,0.13056062768909804,-0.20567327085291592,-0.1657383474258342,0.9556062382101985,-9.097197833752071,5.115633874838245,-0.20520562151751903,1
0.9833333333333347,13.169487953186035,-0.2069229781627655,-0.4552564024925232,0.516818106174469,-8.1824248607353,8.453097614352188,2.254711969326351,0.12545925901332092,-0.20298314959094088,-0.16699269512644233,0.9566458640709103,-9.192308088477954,5.057288600814496,-0.17969214802958103,1
1.0000000000000013,14.27364444732666,-0.40742242336273193,-0.4140198826789856,0.6981011033058167,-8.33641324856036,8.5368911783816,2.2519317760312494,0.12035338447792807,-0.20028573820479637,-0.16824104529727854,0.9576511320691623,-9.286072993696422,4.997739754333667,-0.1538820792348174,1
1.016666666666668,14.27364444732666,-0.40742242336273193,-0.4140198826789856,0.6981011033058167,-8.492018547653144,8.619638156220779,2.2497156473922546,0.11351839205660381,-0.19836333194242195,-0.17073768296171274,0.9584436660451414,-9.386360663176475,4.93157140038768,-0.11205969667867959,1
1.0333333333333345,14.27364444732666,-0.40742242336273193,-0.4140198826789856,0.6981011033058167,-8.649285115379692,8.701266069790288,2.2481962256276353,0.10667689797450777,-0.1964295646039216,-0.1732245417834813,0.9591813060477954,-9.48542039045816,4.863455112560281,-0.07027820638867711,1
1.0500000000000012,14.186225891113281,-0.007642592769116163,-0.5527143478393555,0.6374160051345825,-8.808192244859171,8.781742608290896,2.2473727816227913,0.09982929407187738,-0.19448454694402872,-0.17570147933004837,0.959864009829476,-9.58322328167712,4.793409536730805,-0.028543315914078923,1
1.0666666666666678,14.186225891113281,-0.007642592769116163,-0.5527143478393555,0.6374160051345825,-8.968711912131816,8.861043061065516,2.247236176324682,0.09390661072351791,-0.1909983293221585,-0.17518501884389037,0.9612551430243861,-9.678808164951455,4.722548075551781,0.012270876970617494,1
1.0833333333333344,14.186225891113281,-0.007642592769116163,-0.5527143478393555,0.6374160051345825,-9.130808198857329,8.939157729140055,2.247785793490073,0.08797928520781456,-0.18750266991338654,-0.17465989828399156,0.9625987576559096,-9.772415791222938,4.651119917647165,0.053801939415533837,1
1.100000000000001,15.951740264892578,-0.08619056642055511,-0.539845883846283,0.4733981788158417,-9.294448060600255,9.016077395122155,2.2490335085381234,0.08204761053541623,-0.1839977415216915,-0.1741261436090943,0.9638947873039733,-9.864035407584014,4.57915238761103,0.09604115911724018,1
1.1166666666666676,15.951740264892578,-0.08619056642055511,-0.539845883846283,0.4733981788158417,-9.459691805398105,9.091717350081774,2.251204622750822,0.07732809778468956,-0.18040398968260915,-0.17445854224476376,0.9649036413015715,-9.964852564305888,4.497496631777901,0.16459833330894733,1
1.1333333333333342,15.951740264892578,-0.08619056642055511,-0.539845883846283,0.4733981788158417,-9.626597730526179,9.165989162681397,2.2545236141447185,0.07260577669967996,-0.1768036860890738,-0.17478460504754487,0.9658774527718966,-10.063494932393438,4.414979250114433,0.23378451378705165,1
1.1500000000000008,13.087206840515137,-0.1325811743736267,-0.3711550831794739,0.3227717876434326,-9.79512948464547,9.238878670120492,2.2590008705517906,0.06788081878151803,-0.17319696149376523,-0.17510432017577368,0.9668161863489146,-10.159949981241693,4.331623978792353,0.3035882127258083,1
1.1666666666666674,13.087206840515137,-0.1325811743736267,-0.3711550831794739,0.3227717876434326,-9.965110531809254,9.310497746283346,2.264296004926353,0.06454676301543281,-0.17075107249315918,-0.17591501355483874,0.967332284580778,-10.237571511885626,4.262548109840991,0.3318683873389719,1
1.183333333333334,13.087206840515137,-0.1325811743736267,-0.3711550831794739,0.3227717876434326,-10.136375045516214,9.380959731125735,2.2700644858315537,0.06121154399526443,-0.16830210623704095,-0.17672253661446016,0.9678309496653036,-10.313964930901983,4.192774564464337,0.36038898769766237,1
1.2000000000000006,13.523183822631836,-0.37989169359207153,-0.42344868183135986,0.5918378829956055,-10.308902505709483,9.450253074052775,2.2763102798800627,0.0578752218279332,-0.16585010686038895,-0.17752687480155346,0.9683121726156084,-10.389124069514287,4.122312632453505,0.3891451529717714,1
1.2166666666666672,13.523183822631836,-0.37989169359207153,-0.42344868183135986,0.5918378829956055,-10.482692483478859,9.518344173883936,2.2830899235660973,0.051946727108640914,-0.1634881023359037,-0.17997440631083447,0.968598185611541,-10.465435425048117,4.048354337940673,0.4244047945257255,1
1.2333333333333338,13.523183822631836,-0.37989169359207153,-0.42344868183135986,0.5918378829956055,-10.657742367638969,9.585189437796798,2.2904568411597483,0.04601580136945806,-0.16111844684184307,-0.18241351531910557,0.9688388698334344,-10.54030938657306,3.9728154995735565,0.4596166995667205,1
1.2500000000000004,12.85200309753418,-0.28336822986602783,-0.34864330291748047,0.3314583897590637,-10.83402802988217,9.650762683078458,2.2984101709625713,0.04008272216778323,-0.15874125127411828,-0.18484408768014723,0.9690342140176696,-10.613725390356427,3.8957153285251143,0.4947729389202717,1
1.266666666666667,12.85200309753418,-0.28336822986602783,-0.34864330291748047,0.3314583897590637,-11.011495836168136,9.715071453935764,2.306866915501475,0.03649378970682633,-0.15652936622743002,-0.18680834625080267,0.9691591493412806,-10.682217473663039,3.821153161656411,0.5200340724556469,1
1.2833333333333337,12.85200309753418,-0.28336822986602783,-0.34864330291748047,0.3314583897590637,-11.190095457072514,9.778128348732649,2.315744544501595,0.0329040672724285,-0.15431409282225564,-0.1887685610202178,0.9692631054792776,-10.749541612625356,3.7454918457770434,0.5452780083311638,1
1.3000000000000003,12.85200309753418,-0.28336822986602783,-0.34864330291748047,0.3314583897590637,-11.369807350540777,9.839915130807704,2.3250427180431106,0.029313632570561264,-0.15209547901215567,-0.19072468955603303,0.9693460801813443,-10.815688666309516,3.6687412953297405,0.5704983517823584,1
1.3166666666666669,11.733871459960938,-0.1688191145658493,-0.33715033531188965,0.4969164729118347,-11.550611823017737,9.900413729527374,2.334760989643048,0.02572256332261444,-0.1498735728229997,-0.19267668951434266,0.9694080716513442,-10.880649595701582,3.5909115190704535,0.5956887100875569,1
1.3333333333333335,11.733871459960938,-0.1688191145658493,-0.33715033531188965,0.4969164729118347,-11.732442764128463,9.959664286324411,2.3447623953181265,0.020955759281157265,-0.14798197676131028,-0.19348951884199242,0.9696515100615586,-10.93888738640524,3.5190517043084237,0.6044962376921704,1
1.35,11.733871459960938,-0.1688191145658493,-0.33715033531188965,0.4969164729118347,-11.915235519458223,10.017712029934899,2.3549114007301934,0.016188389004423234,-0.1460863821513241,-0.19429711998440677,0.9698687479946682,-10.99606622178109,3.446575739271199,0.6134003344818793,1
1.3666666666666667,12.716413497924805,-0.13018715381622314,-0.4173378646373749,0.35574692487716675,-12.098972386059833,10.074546781500935,2.365209598134645,0.011420581309182585,-0.1441868402129719,-0.19509947111979195,0.9700597795807937,-11.052179677956468,3.373494472562493,0.6223989310129692,1
1.3833333333333333,12.716413497924805,-0.13018715381622314,-0.4173378646373749,0.35574692487716675,-12.28367334773396,10.130107489974446,2.3757793267651013,0.007709723625441915,-0.14140234485940487,-0.19576199611830775,0.9703727284220524,-11.111697236599387,3.293701495548415,0.6460063901597275,1
1.4,12.716413497924805,-0.13018715381622314,-0.4173378646373749,0.35574692487716675,-12.469354329370992,10.184333896725267,2.3867443910586554,0.003998695859382783,-0.13861473006345343,-0.19642020245952999,0.9706642701089901,-11.169781175873243,3.213380287177797,0.6698382340097593,1
1.4166666666666665,12.767702102661133,-0.16973163187503815,-0.3848957419395447,0.3368151783943176,-12.655991392784987,10.237217299092942,2.398108481877045,0.00028757987907685996,-0.1358240573220026,-0.19707407562293033,0.9709343982099775,-11.226426173326573,3.132542998588192,0.6938885933080862,1
1.4333333333333331,12.767702102661133,-0.16973163187503815,-0.3848957419395447,0.3368151783943176,-12.843562662430019,10.288746123201554,2.4098812686914304,-0.0032618447778750776,-0.13326201174852906,-0.19806509647870096,0.971082317988472,-11.281901287933726,3.050811961368538,0.7188669492902485,1
1.4499999999999997,12.767702102661133,-0.16973163187503815,-0.3848957419395447,0.3368151783943176,-13.032047257173945,10.33890759705593,2.4220714025561922,-0.006811203654852499,-0.13069727874743906,-0.19905212305580844,0.9712106544408183,-11.336024268587979,2.968462790938482,0.7439693314438074,1
1.4666666666666663,12.296782493591309,-0.2867926359176636,-0.299704909324646,0.5408414602279663,-13.221422595923933,10.387691509716602,2.434680905151288,-0.010360425173729414,-0.1281299100404063,-0.20003513544938678,0.9713194049789201,-11.388789670270455,2.8855064492190072,0.7691902873899465,1
1.483333333333333,12.296782493591309,-0.2867926359176636,-0.299704909324646,0.5408414602279663,-13.41165083723617,10.435112488695733,2.4476530405269816,-0.015543796967959385,-0.12657874156848256,-0.20174993446044512,0.9710989808786564,-11.438421796980249,2.8048565543425443,0.7874458807894567,1
1.4999999999999996,12.296782493591309,-0.2867926359176636,-0.299704909324646,0.5408414602279663,-13.602697377906138,10.48118161278831,2.4609284239417972,-0.02072666727908005,-0.12502348933883708,-0.20345822449659576,0.9708472266125797,-11.486983903210238,2.7232858902807013,0.8055795722686173,1
1.5166666666666662,12.69294261932373,-0.110946424305439,-0.4220923185348511,0.5986909866333008,-13.794544300144446,10.525883637542423,2.474504999750273,-0.025908868894284655,-0.12346420352793094,-0.20515995044398197,0.970564150302934,-11.534465918316318,2.640806680848471,0.8235884908655554,1
1.5333333333333328,12.69294261932373,-0.110946424305439,-0.4220923185348511,0.5986909866333008,-13.98718504047095,10.569182757297515,2.488430340782224,-0.031586358534966136,-0.12104757619213252,-0.20534627059386967,0.9706609859087263,-11.582175799318819,2.5550294886143146,0.8474887072512207,1
1.5499999999999994,12.69294261932373,-0.110946424305439,-0.4220923185348511,0.5986909866333008,-14.180608576452098,10.611049397541324,2.502755823745424,-0.037262644164730324,-0.11862633475676686,-0.2055247633409453,0.9707208217944423,-11.628400627336008,2.468912166226191,0.8716049981582827,1
1.566666666666666,11.722051620483398,-0.252254843711853,-0.2762768268585205,0.666124165058136,-14.374790119357463,10.65147804091629,2.517485023567924,-0.04293750941454372,-0.11620057151487614,-0.20569542188141043,0.9707436556792537,-11.673135898483055,2.3824728994972446,0.8959342004592139,1
1.5833333333333326,11.722051620483398,-0.252254843711853,-0.2762768268585205,0.666124165058136,-14.569678192413202,10.69051751901622,2.5325008073119037,-0.049043071483313605,-0.11501483720282507,-0.20698797883335554,0.9703207691999454,-11.71326882681496,2.3021460451536395,0.9059429653233539,1
1.5999999999999992,11.722051620483398,-0.252254843711853,-0.2762768268585205,0.666124165058136,-14.765226920591465,10.728212329929386,2.547682557886162,-0.05514664567022425,-0.11382444094971883,-0.20827214586118376,0.9698585523321355,-11.752413021722454,2.2211149460525212,0.915850116079662,1
1.6166666666666658,12.230350494384766,-0.27721983194351196,-0.4647192358970642,0.5729290843009949,-14.961419750875175,10.764550842006969,2.563028576567433,-0.0612479845767332,-0.11262943100635096,-0.2095478709132543,0.9693570238110398,-11.790559614843884,2.139392312709447,0.9256550369059721,1
1.6333333333333324,12.230350494384766,-0.27721983194351196,-0.4647192358970642,0.5729290843009949,-15.158251706264325,10.799491820224716,2.578600085532764,-0.06694642991649401,-0.1097320069068341,-0.21100778484794183,0.9689957848591501,-11.828993725459075,2.0534036668698388,0.9429280977374215,1
1.649999999999999,12.230350494384766,-0.27721983194351196,-0.4647192358970642,0.5729290843009949,-15.355710139406202,10.832993643314698,2.5944595634695826,-0.07264198791125073,-0.10682985015522027,-0.21245859818870433,0.9685927539081668,-11.865735428640763,1.9666972593315484,0.9602102144790776,1
1.6666666666666656,11.914234161376953,-0.2120560258626938,-0.3352232575416565,0.6628277897834778,-15.55376676849607,10.865044527020526,2.6106071063560656,-0.0783344129162253,-0.10392308591916677,-0.2139002483631439,0.9681479483404868,-11.900775771479227,1.8792945230554703,0.9774947925262616,1
1.6833333333333322,11.914234161376953,-0.2120560258626938,-0.3352232575416565,0.6628277897834778,-15.75238719322312,10.895652397962037,2.6270037242562765,-0.08446155764693478,-0.10225946131347104,-0.2148138018936958,0.967607530214244,-11.933473073179869,1.793566285243346,0.990096135809222,1
1.6999999999999988,11.914234161376953,-0.2120560258626938,-0.3352232575416565,0.6628277897834778,-15.951542449123513,10.924827323088694,2.643610200787437,-0.09058520261342805,-0.10059159946643802,-0.21571845436111367,0.9670270181292355,-11.964954455461427,1.7073436309739558,1.0026776619933209,1
1.7166666666666655,12.618038177490234,-0.44964098930358887,-0.4634835720062256,0.703937292098999,-16.151212218593333,10.952561192636715,2.660426197361484,-0.09670509407525653,-0.09891956948788966,-0.216614168280056,0.9664064361396641,-11.995213678367543,1.6206422349493115,1.0152383752698317,1
1.733333333333332,12.618038177490234,-0.44964098930358887,-0.4634835720062256,0.703937292098999,-16.351388733977338,10.978801424069694,2.6775373804088685,-0.10357833162748145,-0.09609218774682492,-0.21927462294768335,0.9653789486839085,-12.025646018076548,1.5279939648923073,1.0380609490026325,1
1.7499999999999987,12.618038177490234,-0.44964098930358887,-0.4634835720062256,0.703937292098999,-16.552056301296364,11.003488023717896,2.6950267808917316,-0.11044500550078977,-0.09325871671800227,-0.22192118235172636,0.9642902859094115,-12.054137152279974,1.4342115096808656,1.060622866367394,1
1.7666666666666653,12.626604080200195,-0.3387136161327362,-0.46904700994491577,0.8925931453704834,-16.753182430581113,11.026602343732778,2.712889974664836,-0.11730468055935893,-0.09041933595629346,-0.22455367878175864,0.9631405168038926,-12.080670778028736,1.339325545066741,1.0829145538859877,1
1.7833333333333319,12.626604080200195,-0.3387136161327362,-0.46904700994491577,0.8925931453704834,-16.954734743321602,11.04812666170429,2.731123889537998,-0.12559700583390154,-0.08799035055788447,-0.2261323337050088,0.9619497451254857,-12.105290763015585,1.2434736466974992,1.1051357210638795,1
1.7999999999999985,12.626604080200195,-0.3387136161327362,-0.46904700994491577,0.8925931453704834,-17.15668155565807,11.068047593314276,2.749727172905437,-0.13387946261097297,-0.08555445151892967,-0.2276932207973421,0.9606833904460022,-12.128008703695045,1.1469248001169103,1.1272382464101178,1
1.816666666666665,13.135918617248535,-0.32370930910110474,-0.45254868268966675,0.6750825047492981,-17.35899106722323,11.086353804280504,2.7686978211682383,-0.14215140011547542,-0.08311183023462469,-0.22923621741562533,0.9593415522663645,-12.148812744554656,1.049712823503222,1.149218988015358,1
1.8333333333333317,13.135918617248535,-0.32370930910110474,-0.45254868268966675,0.6750825047492981,-17.561637946503286,11.103001757138928,2.7880961148832286,-0.14863322600442336,-0.0803978863491279,-0.23081436186169013,0.9582114216163842,-12.168490580830412,0.947940192813756,1.1785556583968595,1
1.8499999999999983,13.135918617248535,-0.32370930910110474,-0.45254868268966675,0.6750825047492981,-17.764596657420217,11.117948510438437,2.80798230688672,-0.1551071524401207,-0.07767966953380422,-0.2323802391497977,0.9570303646255532,-12.186231181314263,0.8455735178806926,1.207765808620958,1
1.866666666666665,12.197357177734375,-0.2630614638328552,-0.3638230860233307,0.5472483038902283,-17.967834845872975,11.131184395859878,2.828354239884444,-0.16157283535091801,-0.07495732425451256,-0.23393376605781277,0.9557984440638506,-12.202026594245767,0.7426407094473099,1.2368436082763532,1
1.8833333333333315,12.197357177734375,-0.2630614638328552,-0.3638230860233307,0.5472483038902283,-18.17131257230586,11.142762011162034,2.8490951238300286,-0.1668023936159639,-0.07277082233806761,-0.2351932683488895,0.9547594197404882,-12.215056702916122,0.6466062621885785,1.2520443142182234,1
1.8999999999999981,12.197357177734375,-0.2630614638328552,-0.3638230860233307,0.5472483038902283,-18.374995261382143,11.152735756505951,2.87008843570977,-0.17202614799406593,-0.07058178836188117,-0.2364445870934963,0.9536871745765213,-12.22662139254179,0.5501791599138697,1.2671343839229496,1
1.9166666666666647,13.196447372436523,0.3366958498954773,-0.38794028759002686,-0.5902696847915649,-18.578858454072567,11.16109923006396,2.8913323028069495,-0.17724391672476386,-0.06839029849335969,-0.23768767875201502,0.9525817458807054,-12.23671645174428,0.4533765022455104,1.2821103664651812,1
1.9333333333333313,13.196447372436523,0.3366958498954773,-0.38794028759002686,-0.5902696847915649,-18.782885699485526,11.167785129559103,2.9129492141267543,-0.1731310258949928,-0.06463747642171631,-0.23477329915321463,0.9543213277920044,-12.246407816353665,0.3491732839425041,1.3120565403455255,1
1.949999999999998,13.196447372436523,0.3366958498954773,-0.38794028759002686,-0.5902696847915649,-18.987067161157302,11.172746400166647,2.9350720567342066,-0.1690107736559112,-0.06088190601009009,-0.23184893715905028,0.9560203326324327,-12.255219563081681,0.24642097223898551,1.3428191744284204,1
1.9666666666666646,12.348678588867188,-0.3043845593929291,-0.396168053150177,1.0114669799804688,-19.19138803722181,11.176007219803111,2.9577142905884086,-0.16488333519774298,-0.057123746942690415,-0.22891471711133476,0.9576786881615009,-12.263134728935652,0.14511906279745196,1.3743805205086825,1
1.9833333333333312,12.348678588867188,-0.3043845593929291,-0.396168053150177,1.0114669799804688,-19.395827255793648,11.17764024999027,2.980781766277446,-0.17384872214611632,-0.0554708306564321,-0.2303079333937456,0.9558545489403444,-12.269298546530765,0.050766425074611335,1.3936854373514993,1
1.9999999999999978,12.348678588867188,-0.3043845593929291,-0.396168053150177,1.0114669799804688,-19.600355532788758,11.177696915648871,3.0041694350036936,-0.18279874454850664,-0.05381301192327733,-0.23168079533136057,0.9539459324162257,-12.273820306349103,-0.04403950551571213,1.412803727036735,1
2.0166666666666644,12.623924255371094,-0.2954835593700409,-0.43727463483810425,0.575503945350647,-19.804945430523542,11.176169921089455,3.027874188600855,-0.19173261141244036,-0.052150437259299624,-0.23303318159225314,0.9519530072704329,-12.276691698909895,-0.1392676001819179,1.4317356749118775,1
2.033333333333331,12.623924255371094,-0.2954835593700409,-0.43727463483810425,0.575503945350647,-20.00956932220271,11.173034942517857,3.0519268889671296,-0.19727152805529136,-0.0493259596655989,-0.23442352045736836,0.9506295604165541,-12.277872392383117,-0.23698207463592544,1.4545628893039664,1
2.0499999999999976,12.623924255371094,-0.2954835593700409,-0.43727463483810425,0.575503945350647,-20.214197737310485,11.168268840964842,3.076358751434962,-0.2028020918620786,-0.04649939352085973,-0.23580393340334474,0.949265862174379,-12.277233963480795,-0.3349985219990547,1.4772340788926448,1
2.066666666666664,11.847094535827637,-0.43256136775016785,-0.39347460865974426,0.8209134340286255,-20.418800330653827,11.161866775485063,3.1011671232549425,-0.2083240686586499,-0.04367085850704465,-0.23717436198098205,0.9478619702853769,-12.274773285184988,-0.4332939016959757,1.499742967848465,1
2.083333333333331,11.847094535827637,-0.43256136775016785,-0.39347460865974426,0.8209134340286255,-20.623348587211872,11.153873658791694,3.1262533202460645,-0.21573600862395662,-0.04143290333455818,-0.2396008697860141,0.9456916867889119,-12.270721810026524,-0.5259867831758469,1.5105370623966077,1
2.0999999999999974,11.847094535827637,-0.43256136775016785,-0.39347460865974426,0.8209134340286255,-20.827814507799626,11.144330411078466,3.1515162236383865,-0.22313272984544327,-0.03919202534568334,-0.24201047533963443,0.9434546910193974,-12.264891377691834,-0.6193045529082329,1.520946855201159,1
2.116666666666664,12.686419486999512,-0.465506911277771,-0.47279414534568787,0.6884118318557739,-21.032168364974492,11.133226871582352,3.176949384665747,-0.23051371053351116,-0.03694838261949216,-0.24440300866016096,0.9411511407820405,-12.257272693304687,-0.713216697279932,1.530967116006853,1
2.1333333333333306,12.686419486999512,-0.465506911277771,-0.47279414534568787,0.6884118318557739,-21.236374062804938,11.120497740700122,3.2026485134381324,-0.23701175498921093,-0.03374702252729561,-0.246925983619369,0.9389963680657569,-12.247039487961164,-0.8143723079821769,1.5528569196422595,1
2.1499999999999972,12.686419486999512,-0.465506911277771,-0.47279414534568787,0.6884118318557739,-21.440390611064707,11.1060781154398,3.2287088716655425,-0.24349475352799727,-0.030543520115630367,-0.24943328328925027,0.9367819862328852,-12.234573669993555,-0.9160701718592535,1.5743128690609238,1
2.166666666666664,12.671832084655762,-0.3090212345123291,-0.5690991878509521,0.7198966145515442,-21.644180747378048,11.089959251163101,3.2551231396752036,-0.24996229459788885,-0.02733807874838074,-0.25192474850207697,0.9345081358562214,-12.219869074180941,-1.018275116950528,1.5953243305504443,1
2.1833333333333305,12.671832084655762,-0.3090212345123291,-0.5690991878509521,0.7198966145515442,-21.847707188580145,11.072135545562373,3.2818829249510006,-0.25682547755932233,-0.023772963301077626,-0.252973609734508,0.9324590753645994,-12.202925211470255,-1.1205508165769487,1.6158254492154691,1
2.199999999999997,12.671832084655762,-0.3090212345123291,-0.5690991878509521,0.7198966145515442,-22.050932306012598,11.05260828132767,3.3089831503338636,-0.2636719380787463,-0.02020629994659655,-0.25400599932807,0.9303493005195487,-12.1837106538786,-1.2226961882516625,1.6361757924558467,1
2.2166666666666637,12.627511024475098,-0.47286999225616455,-0.4153311848640442,0.7849712371826172,-22.253818278005692,11.031379928728263,3.3364212354637597,-0.2705012303688498,-0.016638320917820647,-0.25502185006172534,0.9281789486929058,-12.162228289309123,-1.3246754619990486,1.656367274637446,1
2.2333333333333303,12.627511024475098,-0.47286999225616455,-0.4153311848640442,0.7849712371826172,-22.45632847305137,11.008454626701901,3.364188121480809,-0.2775114740873209,-0.01402752708949694,-0.25762535382298135,0.9254295442986561,-12.138646306315888,-1.4264379717105389,1.6755710320768034,1
2.249999999999997,12.627511024475098,-0.47286999225616455,-0.4153311848640442,0.7849712371826172,-22.658428178360996,10.98382952270642,3.392270648528916,-0.2845022095223226,-0.011415747165100137,-0.2602107472396189,0.9226150847857286,-12.11296856903309,-1.5286457309153925,1.6942429537702743,1
2.2666666666666635,12.279182434082031,-0.27922141551971436,-0.4414178729057312,0.8851544857025146,-22.860082418737207,10.957497494625212,3.420659890866431,-0.29147294524463024,-0.008803164745482386,-0.26277784856568376,0.9197357680027859,-12.085189660704005,-1.631262874593338,1.7123756473101714,1
2.28333333333333,12.279182434082031,-0.27922141551971436,-0.4414178729057312,0.8851544857025146,-23.06126371446791,10.929477078075836,3.449306076585405,-0.2992335021804568,-0.0066797486892810195,-0.2637711682505357,0.9169730187358912,-12.056271945626182,-1.7311610369267958,1.7251332015793868,1
2.2999999999999967,12.279182434082031,-0.27922141551971436,-0.4414178729057312,0.8851544857025146,-23.261948362239465,10.899793080258092,3.4781632154639204,-0.3069721089614556,-0.004555842642764827,-0.2647451391059952,0.9141430052770282,-12.025592404435558,-1.8308875654604966,1.737689975884834,1
2.3166666666666633,13.423294067382812,-0.2993902266025543,-0.49092698097229004,0.7166624665260315,-23.462107024660014,10.868448614654849,3.507227958804454,-0.3146881979251967,-0.002431602404219163,-0.2656996896868166,0.9112459352207111,-11.993154288416662,-1.9304121189853238,1.7500456962771995,1
2.33333333333333,13.423294067382812,-0.2993902266025543,-0.49092698097229004,0.7166624665260315,-23.661683569560044,10.835370326390446,3.5366333521045914,-0.3212140999709607,0.0004947134681363474,-0.26666344611481785,0.9086869196286468,-11.955679942643016,-2.0389281617140145,1.7785636607859996,1
2.3499999999999965,13.423294067382812,-0.2993902266025543,-0.49092698097229004,0.7166624665260315,-23.860617999781354,10.800486241847079,3.566512139640748,-0.3277211698423672,0.0034210003363781224,-0.2676115685699877,0.9060746294433802,-11.916101479306713,-2.14710234223092,1.806852212905758,1
2.366666666666663,12.623788833618164,-0.33894219994544983,-0.323521226644516,0.7303957939147949,-24.05887529568428,10.763802325010845,3.596860458438794,-0.3342090260422329,0.006347086637848957,-0.2685440014657022,0.9034092178185376,-11.874424858900374,-2.2549027206137904,1.8349066295783478,1
2.3833333333333298,12.623788833618164,-0.33894219994544983,-0.323521226644516,0.7303957939147949,-24.256443122541523,10.725377172698913,3.6275789285860567,-0.34040502237930403,0.008091957024072066,-0.27022626250587334,0.9005757948013993,-11.833448565549892,-2.3561240299096347,1.8512444565020392,1
2.3999999999999964,12.623788833618164,-0.33894219994544983,-0.323521226644516,0.7303957939147949,-24.45331472062838,10.68526464074233,3.658566424482136,-0.34658321783870877,0.009836404255736347,-0.27189439254231396,0.8976952777683133,-11.790877379961726,-2.4573843278083456,1.8671894349551221,1
2.416666666666663,11.995361328125,-0.38630205392837524,-0.4396318793296814,0.7980425357818604,-24.649463508009628,10.643464276857747,3.689816384657019,-0.3527432893426593,0.011580337110063859,-0.27354830434311866,0.8947678173508153,-11.746711309986312,-2.5586599101603187,1.8827398992023296,1
2.4333333333333296,11.995361328125,-0.38630205392837524,-0.4396318793296814,0.7980425357818604,-24.84488070008341,10.600018463247554,3.7212480450736156,-0.359646630599724,0.014174336595865339,-0.2752041085829895,0.8914685311658366,-11.703034649150482,-2.6548084487216177,1.888994346690288,1
2.449999999999996,11.995361328125,-0.38630205392837524,-0.4396318793296814,0.7980425357818604,-25.039554103877833,10.554971725913656,3.7527806865266853,-0.3665255115963409,0.016767372057718555,-0.2768411956610701,0.8881086144880405,-11.657457366931078,-2.750765466627154,1.8948570541301286,1
2.466666666666663,12.981940269470215,-0.09175785630941391,-0.32985299825668335,0.7031499743461609,-25.2334520763286,10.50832752123395,3.7844077518397823,-0.37337946448655657,0.019359267138284522,-0.27845945423591345,0.8846882958318355,-11.609983624464444,-2.846499249243736,1.9003246582834579,1
2.4833333333333294,12.981940269470215,-0.09175785630941391,-0.32985299825668335,0.7031499743461609,-25.42651214061825,10.460025280293058,3.8162395188739398,-0.37930601661157276,0.02044450518118983,-0.27821711908039515,0.8822155387320959,-11.557046098139352,-2.9496666209967226,1.9194939998248093,1
2.499999999999996,12.981940269470215,-0.09175785630941391,-0.32985299825668335,0.7031499743461609,-25.618681035741655,10.410008773568071,3.8483911106074493,-0.38521645770845,0.021528874843463573,-0.27796296664901526,0.8797053095155254,-11.5030446833555,-3.052208850168984,1.9387039203674974,1
2.5166666666666626,11.62157154083252,-0.08237410336732864,-0.2624187469482422,0.8314609527587891,-25.809941098667466,10.358288534463323,3.880863218245684,-0.39111053673112345,0.022612330066489814,-0.2776970077369018,0.8771577148041435,-11.447987623278582,-3.154112231298847,1.957956205379145,1
2.533333333333329,11.62157154083252,-0.08237410336732864,-0.2624187469482422,0.8314609527587891,-26.00032412111768,10.3049634586811,3.9134968794932403,-0.39776950017604384,0.022874273785849285,-0.2775931266854762,0.8741843641389674,-11.397847904082782,-3.2448212401133274,1.9580860993931961,1
2.549999999999996,11.62157154083252,-0.08237410336732864,-0.2624187469482422,0.8314609527587891,-26.189865141384583,10.250130377057166,3.9461328621158107,-0.40440727761737527,0.023134999175381282,-0.2774744604658171,0.8711644526563633,-11.34694845486892,-3.3350711446177224,1.9582352935337772,1
2.5666666666666624,12.414413452148438,-0.48694247007369995,-0.41681623458862305,0.710832417011261,-26.378551552429034,10.193797030440736,3.9787715139278386,-0.41102351551374106,0.023394492348327186,-0.2773410153983261,0.8680981412028907,-11.29529591783493,-3.4248512680188328,1.9584069245399542,1
2.583333333333329,12.414413452148438,-0.48694247007369995,-0.41681623458862305,0.710832417011261,-26.56633744584215,10.135919643354457,4.01150462529686,-0.41702105002827256,0.02643404268458268,-0.2795656873064255,0.8644291560684148,-11.238657290554977,-3.520400535317004,1.9694705455127963,1
2.5999999999999956,12.414413452148438,-0.48694247007369995,-0.41681623458862305,0.710832417011261,-26.753161677507588,10.0764515952313,4.044417314573265,-0.4229920537052743,0.029471911289684145,-0.28177257327343547,0.8607051760374123,-11.179897452085243,-3.615724930319991,1.97995501450026,1
2.6166666666666623,11.516393661499023,-0.3021012842655182,-0.24803204834461212,0.9407931566238403,-26.938988942602368,10.015396916882906,4.077499866688671,-0.42893614667008906,0.0325079048947345,-0.28396153289749143,0.8569264380291207,-11.11902233589253,-3.710790510478556,1.989852851990132,1
2.633333333333329,11.516393661499023,-0.3021012842655182,-0.24803204834461212,0.9407931566238403,-27.123823914126806,9.952817000940003,4.110638785417005,-0.4361439471377767,0.03313154515915639,-0.28547688036643826,0.8527507039142752,-11.06097567064933,-3.7987738206933703,1.986759567966549,1
2.6499999999999955,11.516393661499023,-0.3021012842655182,-0.24803204834461212,0.9407931566238403,-27.30768151819986,9.888772033865633,4.143723265022329,-0.4433203128164944,0.03375279748918836,-0.2869716522764463,0.8485135083516727,-11.001738600502918,-3.886593151433553,1.9833205795257873,1
2.666666666666662,11.61415958404541,-0.1046329140663147,-0.3519718647003174,0.7102044224739075,-27.49054193363141,9.82326492325573,4.176747565155436,-0.4504647264743921,0.034371617108476124,-0.28844574089281044,0.8442151567344046,-10.941313449589316,-3.974227558519386,1.9795384701465135,1
2.6833333333333287,11.61415958404541,-0.1046329140663147,-0.3519718647003174,0.7102044224739075,-27.67238180067,9.756294215467271,4.20971837227447,-0.45626713285667675,0.03553266209104163,-0.2880576137713025,0.8411781016571063,-10.879317749233325,-4.0621327368066575,1.9769675848094916,1
2.6999999999999953,11.61415958404541,-0.1046329140663147,-0.3519718647003174,0.7102044224739075,-27.853180791597563,9.687864686860262,4.242646796156143,-0.4620492854090373,0.036692129768465226,-0.2876566996890482,0.8381037064407096,-10.816409992785639,-4.149284049901843,1.9744527704107155,1
2.716666666666662,12.006001472473145,-0.42735230922698975,-0.41017013788223267,0.6987410187721252,-28.03292378975357,9.617989001823144,4.275533785725556,-0.46781092746005043,0.03784996867164153,-0.2872430164427397,0.8349921075585071,-10.752600320007893,-4.235669524063458,1.97199575440079,1
2.7333333333333285,12.006001472473145,-0.42735230922698975,-0.41017013788223267,0.6987410187721252,-28.211575126233395,9.546655174013766,4.308424176568194,-0.47350629585530574,0.04069634174346168,-0.28882964073989414,0.8310915041941827,-10.685252890175429,-4.324298758118755,1.974775269631703,1
2.749999999999995,12.006001472473145,-0.42735230922698975,-0.41017013788223267,0.6987410187721252,-28.389088673933195,9.473848823437958,4.341357086237634,-0.47917407249846317,0.04354034339301669,-0.29039943460434775,0.8271424721796901,-10.616067285909873,-4.412367557150682,1.9770972628026304,1
2.7666666666666617,11.545166015625,-0.3554765284061432,-0.3158012330532074,0.7068600654602051,-28.565433878775924,9.399579525255323,4.374324852122591,-0.4848139271217111,0.046381807897085625,-0.29195230656242105,0.8231452416296303,-10.54505343805023,-4.499847794372337,1.9789572825398847,1
2.7833333333333283,11.545166015625,-0.3554765284061432,-0.3158012330532074,0.7068600654602051,-28.740604488414593,9.323884672604526,4.407267134652205,-0.49028132855092865,0.048263296801838815,-0.2933806826528439,0.8192818210249166,-10.475185042829969,-4.583461805688301,1.9740515734505368,1
2.799999999999995,11.545166015625,-0.3554765284061432,-0.3158012330532074,0.7068600654602051,-28.91459890965492,9.246799946129267,4.440124400591324,-0.4957240204124788,0.05014235329660874,-0.2947942727226534,0.8153771096379188,-10.403911958292076,-4.666629228566548,1.968755150656295,1
2.8166666666666615,12.133942604064941,-0.175141841173172,-0.36096033453941345,0.5915952324867249,-29.087393788195897,9.168332959953712,4.472890131212596,-0.5011417284014779,0.05201888267929091,-0.2961930055286725,0.811431304261222,-10.33124109403194,-4.749329560332205,1.9630672074263298,1
2.833333333333328,12.133942604064941,-0.175141841173172,-0.36096033453941345,0.5915952324867249,-29.258935625326334,9.088457589935366,4.505625713255082,-0.5059481599929273,0.05372994154152798,-0.29612106281318795,0.8083575465718754,-10.253603386282233,-4.835574336337744,1.9651933127303474,1
2.8499999999999948,12.133942604064941,-0.175141841173172,-0.36096033453941345,0.5915952324867249,-29.429174729918053,9.00715186714417,4.538396264771245,-0.5107366391941756,0.05543909392212857,-0.29603861293256917,0.8052551062006938,-10.174914875800525,-4.92096980405392,1.967263582473311,1
2.8666666666666614,11.394720077514648,-0.14837698638439178,-0.3134523630142212,0.4695550799369812,-29.59809367332599,8.924430050832962,4.571200857100672,-0.5155069960972087,0.0571462791758075,-0.2959456588123578,0.8021240932305367,-10.095185755379335,-5.00550348995775,1.9692782498458068,1
2.883333333333328,11.394720077514648,-0.14837698638439178,-0.3134523630142212,0.4695550799369812,-29.765716489061443,8.840348861150561,4.6039545961912705,-0.5193419408851395,0.05872021578847739,-0.29581101779005,0.7995822538107157,-10.01941424100179,-5.084119217797625,1.961163940214668,1
2.8999999999999946,11.394720077514648,-0.14837698638439178,-0.3134523630142212,0.4695550799369812,-29.93206957118804,8.75496343433671,4.63657277102379,-0.5231645964054993,0.06029276289572351,-0.2956693769465032,0.7970214937540492,-9.94281889838253,-5.162010610462882,1.953010495580315,1
2.916666666666661,11.585334777832031,-0.09765468537807465,-0.27824753522872925,0.7375708222389221,-30.097139248254447,8.66828590921669,4.669054727193683,-0.5269748722022073,0.061863883286123765,-0.2955207396333864,0.7944418736561931,-9.865406822785493,-5.239169690758913,1.944817658022671,1
2.933333333333328,11.585334777832031,-0.09765468537807465,-0.27824753522872925,0.7375708222389221,-30.260901583888767,8.580317734232567,4.701421629248114,-0.532481151207387,0.062317071136220085,-0.29531910418999396,0.7908015472379127,-9.785967059139214,-5.31689434665112,1.9392146341809473,1
2.9499999999999944,11.585334777832031,-0.09765468537807465,-0.27824753522872925,0.7375708222389221,-30.42333462910493,8.491060018947751,4.733695357890694,-0.5379640984228009,0.0627675284318183,-0.29510452871438225,0.7871265701744317,-9.70589349744889,-5.393913175171317,1.9336373305651864,1
2.966666666666661,11.218441009521484,0.10254373401403427,-0.2944450378417969,0.3560141324996948,-30.58442789715157,8.400524594390491,4.765876365877142,-0.5434234736015005,0.06321523543517771,-0.2948770226086303,0.7834171034926555,-9.625195342019707,-5.4702181284096465,1.928088636616417,1
2.9833333333333276,11.218441009521484,0.10254373401403427,-0.2944450378417969,0.3560141324996948,-30.744193841319294,8.308743932009095,4.797924410485002,-0.5465210309837033,0.0637978108171898,-0.2930594231038552,0.7818956648537438,-9.546700545997316,-5.543312774383846,1.9177387068948861,1
2.9999999999999942,11.218441009521484,0.10254373401403427,-0.2944450378417969,0.3560141324996948,-30.902650688606656,8.215752458950204,4.829803051127409,-0.5496100884891086,0.06437939397108777,-0.2912372657342413,0.7803620656273287,-9.468104936115143,-5.6155151551575075,1.9077598800823492,1
3.016666666666661,11.624990463256836,-0.3076576292514801,-0.3410056233406067,0.5710673332214355,-31.059796819786666,8.121565058873813,4.861518458754821,-0.5526905980745365,0.0649599758516842,-0.2894105788392528,0.7788163296650162,-9.38941583386185,-5.686823771191598,1.898150460576621,1
3.0333333333333274,11.624990463256836,-0.3076576292514801,-0.3410056233406067,0.5710673332214355,-31.21560376546286,8.026174899923399,4.893121511070362,-0.5570424458162347,0.06721164459508369,-0.29014046660117676,0.7752450400937381,-9.307212294337011,-5.759865832563975,1.894169277564332,1
3.049999999999994,11.624990463256836,-0.3076576292514801,-0.3410056233406067,0.5710673332214355,-31.370030412158258,7.929573888541763,4.924655878415342,-0.5613735184180352,0.0694608066510131,-0.29085953344841287,0.7716448374220597,-9.22378162178131,-5.832123562223171,1.8899079694532646,1
3.0666666666666607,11.598970413208008,-0.1716393530368805,-0.31632697582244873,0.6112167835235596,-31.523056391443685,7.831775221632997,4.956116877421616,-0.5656836543507044,0.0717073781359969,-0.29156775256305084,0.7680158559211029,-9.139133901141419,-5.903582014791869,1.8853647892505134,1
3.0833333333333273,11.598970413208008,-0.1716393530368805,-0.31632697582244873,0.6112167835235596,-31.67466418577338,7.732793691032803,4.9874974327364905,-0.570251638294951,0.07305467263744798,-0.2915352384754977,0.7645151029995373,-9.053666590860344,-5.974063666594644,1.880290502263544,1
3.099999999999994,11.598970413208008,-0.1716393530368805,-0.31632697582244873,0.6112167835235596,-31.824840810686798,7.632644392326583,5.018792852166933,-0.5747996987839915,0.0743994147543023,-0.2914925387280102,0.760987639444655,-8.967395202924731,-6.043712597864787,1.8751486561673008,1
3.1166666666666605,10.526861190795898,-0.10703370720148087,-0.2998872399330139,0.2563946843147278,-31.973572946787552,7.531341283348023,5.050002018406328,-0.5793276769176613,0.07574155750395158,-0.2914396548124323,0.7574335884989988,-8.88032958369241,-6.112519329131399,1.8699402939480525,1
3.133333333333327,10.526861190795898,-0.10703370720148087,-0.2998872399330139,0.2563946843147278,-32.12091548392961,7.428950889052513,5.081002193769197,-0.5816034279359048,0.07752802012804354,-0.2908276121130144,0.755742160330143,-8.800685437564532,-6.174201261694917,1.8500855780403918,1
3.1499999999999937,10.526861190795898,-0.10703370720148087,-0.2998872399330139,0.2563946843147278,-32.26692616060847,7.3255388086344,5.111671693720207,-0.5838724288552881,0.0793135829606708,-0.29021219406359205,0.7540419610054616,-8.720507154641478,-6.235121073720809,1.83025895034514,1
3.1666666666666603,11.973413467407227,-0.0745963454246521,-0.4167831540107727,0.6025609970092773,-32.41159611593956,7.221117773510378,5.142010971683687,-0.5861346533417497,0.08109822527856204,-0.2895934078067173,0.7523330102574961,-8.639799706479492,-6.295275242191519,1.810458645146333,1
3.183333333333327,11.973413467407227,-0.0745963454246521,-0.4167831540107727,0.6025609970092773,-32.554823584379655,7.115633472230104,5.172185424941524,-0.5908567068957323,0.08261990125941215,-0.2884271022027371,0.7489139901929637,-8.547394021373293,-6.362631666821938,1.810504017927493,1
3.1999999999999935,11.973413467407227,-0.0745963454246521,-0.4167831540107727,0.6025609970092773,-32.69650587697916,7.009037047130077,5.202362047382558,-0.5955565068643829,0.08413846550606116,-0.28724993349598427,0.745466763591732,-8.454381198205168,-6.428728845301017,1.810718908088611,1
3.21666666666666,12.071036338806152,-0.20755881071090698,-0.47625279426574707,0.436728835105896,-32.836633004652334,6.901349547881281,5.232543662273471,-0.6002338762379487,0.08565386082444044,-0.28606194602246093,0.741991460287567,-8.36077683785935,-6.493559341125368,1.8111030686181955,1
3.2333333333333267,12.071036338806152,-0.20755881071090698,-0.47625279426574707,0.436728835105896,-32.97518765721499,6.792588193495106,5.262743696458928,-0.6039118284313455,0.08859437373738063,-0.2852703025813699,0.7389603839499946,-8.265614665127151,-6.557565592521444,1.8128970040643722,1
3.2499999999999933,12.071036338806152,-0.20755881071090698,-0.47625279426574707,0.436728835105896,-33.11214797678904,6.682771977921424,5.292973413741257,-0.6075704626509624,0.09153205268730118,-0.28446953389390006,0.7359056696960088,-8.169459490472585,-6.620140887668665,1.8146641794397729,1
3.26666666666666,12.497882843017578,-0.18003341555595398,-0.3807867169380188,0.6382583379745483,-33.24749754425598,6.571924839719178,5.323232325089187,-0.6112096618641523,0.09446680370352246,-0.2836596655750963,0.7328274152400227,-8.072327044527905,-6.681274542621745,1.8163994317591756,1
3.2833333333333266,12.497882843017578,-0.18003341555595398,-0.3807867169380188,0.6382583379745483,-33.38119178362117,6.460052385934156,5.353568490719298,-0.6158533851446617,0.09619854846210821,-0.28331630090368715,0.7288363156988646,-7.970843444932939,-6.743219420765166,1.823931035408666,1
3.299999999999993,12.497882843017578,-0.18003341555595398,-0.3807867169380188,0.6382583379745483,-33.51318776063593,6.347157571306876,5.384029713856269,-0.6204720986940511,0.09792638660933284,-0.2829614307917324,0.7248156182035086,-7.86853812858277,-6.8039560950765265,1.8314064049855692,1
3.3166666666666598,11.383105278015137,-0.05119037255644798,-0.3761099874973297,0.4198957681655884,-33.64347190869504,6.2332606194520945,5.4146150609110375,-0.6250656149469244,0.0996502479778992,-0.2825950696504642,0.7207654860339909,-7.765426558400324,-6.863474172300476,1.838825979464169,1
3.3333333333333264,11.383105278015137,-0.05119037255644798,-0.3761099874973297,0.4198957681655884,-33.772109016230125,6.118425428974834,5.4451971856037185,-0.6284239159849914,0.1011860000408761,-0.28128897698998284,0.7181374108047461,-7.67096505072886,-6.916560206156228,1.831056053361354,1
3.349999999999993,11.383105278015137,-0.05119037255644798,-0.3761099874973297,0.4198957681655884,-33.89916873000738,6.002714905321605,5.475651160634694,-0.6317682349827473,0.10271950077844112,-0.2799766258251459,0.7154933574658663,-7.576141075981185,-6.968513549924121,1.823447756868982,1
3.3666666666666596,10.844905853271484,-0.1550895869731903,-0.3093520998954773,0.3637427091598511,-34.02464509742371,5.886147956554874,5.505979666631441,-0.6350984975311793,0.10425071607115896,-0.2786580453549484,0.7128333848458897,-7.480965261236435,-7.019330633112016,1.815999503677758,1
3.383333333333326,10.844905853271484,-0.1550895869731903,-0.3093520998954773,0.3637427091598511,-34.14856931249954,5.768762627055585,5.536123245374513,-0.6378372909980163,0.10606358028507275,-0.2782556445226901,0.7102731570320573,-7.389848532122738,-7.066761833076885,1.8012204761466493,1
