time-since-start [s],throttle_mpc,roll_mpc,pitch_mpc,yaw_mpc,throttle_nw,roll_nw,pitch_nw,yaw_nw,position_x [m],position_y [m],position_z [m],rotation_w [quaternion],rotation_x [quaternion],rotation_y [quaternion],rotation_z [quaternion],velocity_x [m/s],velocity_y [m/s],velocity_z [m/s],omega_x [rad/s],omega_y [rad/s],omega_z [rad/s],network_used
0.0,7.320470421780715,1.728545393003749,-5.999999696986929,0.10652050733483379,8.665286,0.41284177,-1.7621964,-0.06613152,8.012527,-10.092685,0.8968496,0.48259056,-0.15508044,0.23126978,0.8304039,-4.813527,5.245339,1.0181463,0.0014901635,0.0032779723,-0.00010357609,0
0.01,7.320470421780715,1.728545393003749,-5.999999696986929,0.10652050733483379,8.859489,0.23140493,-3.3884513,0.2857497,7.964379,-10.040013,0.90688527,0.48313624,-0.15304774,0.23062505,0.830643,-4.816257,5.288524,0.9885149,0.19016291,-0.85226136,0.012371808,0
0.02,7.320470421780715,1.728545393003749,-5.999999696986929,0.10652050733483379,8.859489,0.23140493,-3.3884513,0.2857497,7.9162045,-9.986922,0.9166101,0.48470572,-0.14718206,0.22883692,0.8312829,-4.8184743,5.3294044,0.9560489,0.38731003,-1.6122668,0.020845847,0
0.03,7.320470421780715,1.728545393003749,-5.999999696986929,0.10652050733483379,8.859489,0.23140493,-3.3884513,0.2857497,7.868012,-9.9334345,0.9259981,0.48718035,-0.1378336,0.22612828,0.8321796,-4.819817,5.3678446,0.92127013,0.58765346,-2.2876887,0.025863482,0
0.04,7.320470421780715,1.728545393003749,-5.999999696986929,0.10652050733483379,9.455539,0.65022033,-3.7198546,-0.16159458,7.819812,-9.879571,0.93503577,0.49041104,-0.12538101,0.22265626,0.833187,-4.8199973,5.404793,0.8863638,0.76559216,-2.8666165,0.02982136,0
0.05,7.320470421780715,1.728545393003749,-5.999999696986929,0.10652050733483379,9.455539,0.65022033,-3.7198546,-0.16159458,7.7716174,-9.825344,0.94372797,0.49421343,-0.110276744,0.21851382,0.8341723,-4.818707,5.4404154,0.8522001,0.91578186,-3.3552604,0.033585012,0
0.060000000000000005,7.320470421780715,1.728545393003749,-5.999999696986929,0.10652050733483379,9.455539,0.65022033,-3.7198546,-0.16159458,7.7234445,-9.770768,0.9520825,0.4984188,-0.09291921,0.21377306,0.8350122,-4.8156705,5.474444,0.81883943,1.0425495,-3.7677007,0.03716397,0
0.07,7.320470421780715,1.728545393003749,-5.999999696986929,0.10652050733483379,9.455539,0.65022033,-3.7198546,-0.16159458,7.6753116,-9.715861,0.96010756,0.5028795,-0.07364816,0.20849393,0.83559436,-4.810657,5.506632,0.78629124,1.1495477,-4.115821,0.040567324,0
0.08,9.112002691976107,1.5051653094603246,-5.999999695678854,0.21432479927894113,10.899731,0.2958129,-5.93892,-0.36059827,7.627239,-9.660643,0.967811,0.5074675,-0.052754965,0.2027272,0.8358199,-4.8034782,5.5367517,0.754519,1.239859,-4.4096527,0.043803673,0
0.09,9.112002691976107,1.5051653094603246,-5.999999695678854,0.21432479927894113,10.899731,0.2958129,-5.93892,-0.36059827,7.579261,-9.6051,0.9752822,0.5120576,-0.030533671,0.19644268,0.8356283,-4.7916613,5.5714073,0.7398505,1.2812657,-4.657658,0.052171197,0
0.09999999999999999,9.112002691976107,1.5051653094603246,-5.999999695678854,0.21432479927894113,10.899731,0.2958129,-5.93892,-0.36059827,7.531416,-9.549225,0.98261046,0.5165453,-0.007236091,0.18962015,0.83496845,-4.776836,5.602978,0.7259216,1.316215,-4.8669877,0.06012812,0
0.10999999999999999,9.112002691976107,1.5051653094603246,-5.999999695678854,0.21432479927894113,10.899731,0.2958129,-5.93892,-0.36059827,7.483735,-9.493051,0.9898025,0.52085656,0.01696017,0.18231457,0.8337755,-4.7589164,5.6312375,0.7125649,1.3457133,-5.0436726,0.06769459,0
0.11999999999999998,9.112002691976107,1.5051653094603246,-5.999999695678854,0.21432479927894113,10.899731,0.2958129,-5.93892,-0.36059827,7.436249,-9.436611,0.99686307,0.5249285,0.041899662,0.17457426,0.83199614,-4.7378464,5.6559825,0.6995814,1.3706107,-5.192804,0.07488977,0
0.12999999999999998,12.182552055805075,0.7851237185931427,-5.999999415873147,0.5117284199897124,11.120824,0.031602684,-5.777726,-0.35183954,7.388989,-9.379943,1.0037947,0.5287081,0.06744572,0.166442,0.82958734,-4.7136006,5.677032,0.6867456,1.3916243,-5.3186784,0.08173189,0
0.13999999999999999,12.182552055805075,0.7851237185931427,-5.999999415873147,0.5117284199897124,11.120824,0.031602684,-5.777726,-0.35183954,7.342033,-9.323054,1.0107412,0.5321427,0.09333115,0.15771475,0.8265826,-4.6769505,5.7000194,0.70251495,1.297121,-5.4249177,0.10283195,0
0.15,12.182552055805075,0.7851237185931427,-5.999999415873147,0.5117284199897124,11.120824,0.031602684,-5.777726,-0.35183954,7.295464,-9.265962,1.0178436,0.5351958,0.11933281,0.148236,0.82301307,-4.636187,5.7176347,0.71784264,1.2173535,-5.5145907,0.12289661,0
0.16,13.511274571158525,0.18097424578280524,-5.99999900840447,0.6969671400606674,11.882318,0.38402978,-5.858029,-0.34089822,7.2493224,-9.20872,1.0250955,0.5378463,0.1453969,0.13810475,0.81884515,-4.591471,5.7296863,0.7324057,1.150023,-5.5902815,0.14197671,0
0.17,13.511274571158525,0.18097424578280524,-5.99999900840447,0.6969671400606674,11.882318,0.38402978,-5.858029,-0.34089822,7.2036734,-9.151383,1.0325487,0.54009444,0.17134695,0.12720574,0.8140983,-4.537697,5.7367077,0.7580385,0.9990068,-5.654173,0.16921026,0
0.18000000000000002,13.511274571158525,0.18097424578280524,-5.99999900840447,0.6969671400606674,11.882318,0.38402978,-5.858029,-0.34089822,7.1585817,-9.094009,1.0402508,0.5419449,0.1970367,0.115454875,0.80879015,-4.4800215,5.7372193,0.78210247,0.8715373,-5.708103,0.19510745,0
0.19000000000000003,13.511274571158525,0.18097424578280524,-5.99999900840447,0.6969671400606674,11.882318,0.38402978,-5.858029,-0.34089822,7.114085,-9.036661,1.0481842,0.5433849,0.22245955,0.102974154,0.8028947,-4.418747,5.731091,0.80424595,0.7639426,-5.753626,0.21973383,0
0.20000000000000004,13.680830407548468,-0.27167430348203875,-5.6630379710151875,0.79078815154792,11.132488,0.50569105,-3.5363386,0.055107236,7.0702186,-8.979409,1.0563278,0.5444016,0.24760641,0.08986878,0.7963922,-4.354168,5.718234,0.82410735,0.6731228,-5.7920504,0.24315181,0
0.21000000000000005,13.680830407548468,-0.27167430348203875,-5.6630379710151875,0.79078815154792,11.132488,0.50569105,-3.5363386,0.055107236,7.027017,-8.922322,1.0646644,0.54501015,0.27226216,0.07615659,0.78932655,-4.28574,5.698363,0.84277326,0.52588016,-5.771945,0.27002448,0
0.22000000000000006,13.680830407548468,-0.27167430348203875,-5.6630379710151875,0.79078815154792,11.132488,0.50569105,-3.5363386,0.055107236,6.9845133,-8.865467,1.0731729,0.5452333,0.29625666,0.061860356,0.7817448,-4.2146387,5.6716504,0.85843915,0.40159503,-5.7549763,0.2955785,0
0.23000000000000007,13.680830407548468,-0.27167430348203875,-5.6630379710151875,0.79078815154792,11.132488,0.50569105,-3.5363386,0.055107236,6.942732,-8.808912,1.0818219,0.54506826,0.31963906,0.047071166,0.77363735,-4.141233,5.63815,0.87079716,0.29668725,-5.740654,0.3198786,0
0.24000000000000007,13.680830407548468,-0.27167430348203875,-5.6630379710151875,0.79078815154792,11.565038,-0.32516703,-1.7336419,0.31105384,6.901695,-8.752727,1.0905765,0.54451066,0.34244815,0.031867616,0.76499724,-4.065871,5.597944,0.8795413,0.20813535,-5.728565,0.3429863,0
0.25000000000000006,13.680830407548468,-0.27167430348203875,-5.6630379710151875,0.79078815154792,11.565038,-0.32516703,-1.7336419,0.31105384,6.86142,-8.696976,1.0993993,0.5435554,0.3647142,0.016317831,0.75582,-3.9888847,5.551139,0.88436896,0.133389,-5.718361,0.36496007,0
0.26000000000000006,13.680830407548468,-0.27167430348203875,-5.6630379710151875,0.79078815154792,11.565038,-0.32516703,-1.7336419,0.31105384,6.8219223,-8.641726,1.1082494,0.54219705,0.38646016,0.00048116455,0.74610305,-3.9105918,5.497871,0.88498276,0.07029548,-5.709748,0.3858556,0
0.2700000000000001,13.680830407548468,-0.27167430348203875,-5.6630379710151875,0.79078815154792,11.565038,-0.32516703,-1.7336419,0.31105384,6.7832127,-8.587039,1.1170834,0.5404306,0.40770277,-0.015590367,0.7358459,-3.8312972,5.4383,0.881092,0.017037373,-5.702476,0.40572575,0
0.2800000000000001,12.582381882391815,-0.7107825470149094,-0.626193977294843,0.9832569350941023,11.005139,-1.205268,4.217114,1.0205038,6.7452993,-8.532981,1.1258547,0.53825146,0.42845377,-0.03185089,0.72504985,-3.751296,5.37261,0.87241447,-0.02791842,-5.696338,0.4246209,0
0.2900000000000001,12.582381882391815,-0.7107825470149094,-0.626193977294843,0.9832569350941023,11.005139,-1.205268,4.217114,1.0205038,6.7081566,-8.479579,1.1344802,0.5358099,0.447187,-0.047315337,0.71462697,-3.6773424,5.3068366,0.85198516,-0.1345408,-4.9056835,0.45203334,0
0.3000000000000001,12.582381882391815,-0.7107825470149094,-0.626193977294843,0.9832569350941023,11.005139,-1.205268,4.217114,1.0205038,6.671754,-8.426859,1.1428798,0.5333337,0.46277773,-0.06121281,0.7054387,-3.6033225,5.2364116,0.8273039,-0.224529,-4.23833,0.47810063,0
0.3100000000000001,12.582381882391815,-0.7107825470149094,-0.626193977294843,0.9832569350941023,11.005139,-1.205268,4.217114,1.0205038,6.6360903,-8.374864,1.1510134,0.5309004,0.4757611,-0.073796,0.69738734,-3.5294852,5.162064,0.7988467,-0.30047533,-3.6750474,0.5028888,0
0.3200000000000001,11.857589916811433,-0.989481887644026,5.9999796119504385,1.1736094628171723,11.150476,-1.6700152,5.557133,1.2205473,6.6011634,-8.323628,1.1588453,0.5285537,0.4865767,-0.0852791,0.69036245,-3.456008,5.084382,0.76705474,-0.3645685,-3.199607,0.5264606,0
0.3300000000000001,11.857589916811433,-0.989481887644026,5.9999796119504385,1.1736094628171723,11.150476,-1.6700152,5.557133,1.2205473,6.566976,-8.273192,1.166351,0.52672017,0.49375343,-0.09483995,0.68540335,-3.381977,5.0027637,0.73335904,-0.5562397,-1.8587962,0.5497937,0
0.34000000000000014,11.857589916811433,-0.989481887644026,5.9999796119504385,1.1736094628171723,11.150476,-1.6700152,5.557133,1.2205473,6.533513,-8.223569,1.173499,0.5257134,0.4961518,-0.10166328,0.6834636,-3.3111327,4.9220953,0.69575715,-0.67216086,-0.68122554,0.57608163,0
0.35000000000000014,11.857589916811433,-0.989481887644026,5.9999796119504385,1.1736094628171723,11.150476,-1.6700152,5.557133,1.2205473,6.500743,-8.174745,1.1802577,0.5253629,0.49451697,-0.105934985,0.68426865,-3.2432103,4.8430195,0.6557656,-0.72965723,0.35305303,0.6046972,0
0.36000000000000015,9.472067184638313,-2.29040473825098,5.99999979794794,-0.15904371427389002,10.284243,-0.4301548,5.776886,0.12050981,6.468645,-8.126708,1.1866153,0.5255207,0.48945257,-0.107916534,0.6874716,-3.1764226,4.764246,0.61592597,-0.770545,1.2336581,0.63261396,0
0.37000000000000016,9.472067184638313,-2.29040473825098,5.99999979794794,-0.15904371427389002,10.284243,-0.4301548,5.776886,0.12050981,6.4371715,-8.079411,1.1925449,0.5262808,0.4815077,-0.10820608,0.69243723,-3.118668,4.6957507,0.5699489,-0.9151826,1.88431,0.6020754,0
0.38000000000000017,9.472067184638313,-2.29040473825098,5.99999979794794,-0.15904371427389002,10.284243,-0.4301548,5.776886,0.12050981,6.4062624,-8.0327835,1.1980146,0.5277832,0.47098973,-0.10730767,0.69863987,-3.063491,4.63021,0.5240238,-1.071995,2.4682796,0.5699245,0
0.3900000000000002,9.472067184638313,-2.29040473825098,5.99999979794794,-0.15904371427389002,10.284243,-0.4301548,5.776886,0.12050981,6.375892,-7.986796,1.2030272,0.52997684,0.45803857,-0.10541233,0.7058418,-3.0109003,4.5677767,0.47860864,-1.2371473,2.9940267,0.53641397,0
0.4000000000000002,9.253183331399114,-3.1257896363408735,5.999999874185648,-1.3408747180419407,11.63578,-2.1769876,5.2721457,0.32253957,6.346036,-7.9414177,1.2075907,0.5327899,0.4427843,-0.102677934,0.7138161,-2.960578,4.5081496,0.43444797,-1.4001489,3.46144,0.5024131,0
0.4100000000000002,9.253183331399114,-3.1257896363408735,5.999999874185648,-1.3408747180419407,11.63578,-2.1769876,5.2721457,0.32253957,6.316714,-7.8966713,1.2117682,0.53607816,0.42583483,-0.09933665,0.7220916,-2.904337,4.4416785,0.4013541,-1.501324,3.6895359,0.42698362,0
0.4200000000000002,9.253183331399114,-3.1257896363408735,5.999999874185648,-1.3408747180419407,11.63578,-2.1769876,5.2721457,0.32253957,6.2879405,-7.852573,1.2156248,0.5397537,0.40767053,-0.09558128,0.73029727,-2.8508258,4.3785853,0.3702659,-1.6095716,3.904939,0.35321063,0
0.4300000000000002,9.253183331399114,-3.1257896363408735,5.999999874185648,-1.3408747180419407,11.63578,-2.1769876,5.2721457,0.32253957,6.259688,-7.809088,1.2191805,0.5437796,0.38829267,-0.09147413,0.7383523,-2.8001692,4.3189645,0.34116346,-1.7233198,4.1091576,0.28105503,0
0.4400000000000002,9.253183331399114,-3.1257896363408735,5.999999874185648,-1.3408747180419407,11.486048,-2.398588,4.5196667,-1.1389912,6.231927,-7.7661815,1.2224548,0.548114,0.36770362,-0.08706938,0.74617904,-2.7524967,4.262905,0.31399316,-1.8412519,4.303476,0.2104787,0
0.45000000000000023,9.253183331399114,-3.1257896363408735,5.999999874185648,-1.3408747180419407,11.486048,-2.398588,4.5196667,-1.1389912,6.204627,-7.723817,1.2254667,0.5527102,0.34590748,-0.08241436,0.75370187,-2.707938,4.2104926,0.2886689,-1.9622653,4.488986,0.1414445,0
0.46000000000000024,9.253183331399114,-3.1257896363408735,5.999999874185648,-1.3408747180419407,11.486048,-2.398588,4.5196667,-1.1389912,6.177757,-7.6819587,1.228234,0.55751765,0.3229105,-0.077550575,0.76084685,-2.666622,4.161808,0.2650735,-2.085439,4.6666193,0.07391638,0
0.47000000000000025,9.253183331399114,-3.1257896363408735,5.999999874185648,-1.3408747180419407,11.486048,-2.398588,4.5196667,-1.1389912,6.1512833,-7.640568,1.2307736,0.56248236,0.2987212,-0.072514646,0.7675415,-2.6286724,4.1169257,0.24305998,-2.2100036,4.83717,0.007859172,0
0.48000000000000026,10.538468928486157,-2.9517263381416234,5.999999885200366,-1.188050560206875,11.963079,-3.360424,5.721955,-1.0978711,6.1251717,-7.5996065,1.2331,0.5675472,0.2733512,-0.06733905,0.77371436,-2.5942063,4.0759177,0.22245273,-2.3353183,5.0013185,-0.056761313,0
0.49000000000000027,10.538468928486157,-2.9517263381416234,5.999999885200366,-1.188050560206875,11.963079,-3.360424,5.721955,-1.0978711,6.099408,-7.5590615,1.2352809,0.57262063,0.24685112,-0.06200419,0.77931046,-2.5589633,4.0336075,0.21419144,-2.4312546,5.157154,-0.112273976,0
0.5000000000000002,10.538468928486157,-2.9517263381416234,5.999999885200366,-1.188050560206875,11.963079,-3.360424,5.721955,-1.0978711,6.07398,-7.518921,1.2373941,0.57759356,0.21935649,-0.05648561,0.78426844,-2.527264,3.995088,0.20890571,-2.5122304,5.288688,-0.16506264,0
0.5100000000000002,10.538468928486157,-2.9517263381416234,5.999999885200366,-1.188050560206875,11.963079,-3.360424,5.721955,-1.0978711,6.04885,-7.479146,1.2394685,0.5823895,0.19099915,-0.050804835,0.7885176,-2.4993205,3.9605877,0.20636602,-2.580581,5.3997087,-0.21526095,0
0.5200000000000002,12.772219478793527,-2.1337440401080556,5.99999986677546,-0.33074777521890825,13.619086,-2.0637734,6.222969,-0.97598535,6.0239797,-7.439695,1.24153,0.58694273,0.16189769,-0.04498231,0.7919995,-2.4753187,3.930316,0.20629823,-2.6382768,5.493414,-0.262996,1
0.5300000000000002,12.772219478793527,-2.1337440401080556,5.99999986677546,-0.33074777521890825,13.619086,-2.0637734,6.222969,-0.97598535,5.9993596,-7.4005632,1.2437478,0.5911242,0.13236777,-0.038760018,0.79469985,-2.4495816,3.8969142,0.23767588,-2.548543,5.5724587,-0.29798257,1
0.5400000000000003,12.772219478793527,-2.1337440401080556,5.99999986677546,-0.33074777521890825,13.619086,-2.0637734,6.222969,-0.97598535,5.97497,-7.3617353,1.2462915,0.59484434,0.10267503,-0.03193587,0.7966162,-2.4291618,3.8694947,0.27138513,-2.4728084,5.6391726,-0.33125237,1
0.5500000000000003,12.772219478793527,-2.1337440401080556,5.99999986677546,-0.33074777521890825,13.619086,-2.0637734,6.222969,-0.97598535,5.950758,-7.3231516,1.2491819,0.5981021,0.07285268,-0.024604762,0.79772186,-2.4140406,3.8482955,0.30694285,-2.4088898,5.6954794,-0.3628896,1
0.5600000000000003,14.889605820250761,-1.2750629566093974,5.999999779707658,0.506937286540673,15.528967,-0.50252205,5.346394,-0.032291025,5.926671,-7.2847476,1.252435,0.600894,0.04293352,-0.01684944,0.7979965,-2.40419,3.8335156,0.3438499,-2.3549452,5.7430024,-0.3929744,1
0.5700000000000003,14.889605820250761,-1.2750629566093974,5.999999779707658,0.506937286540673,15.528967,-0.50252205,5.346394,-0.032291025,5.9026604,-7.2464647,1.2561569,0.60310316,0.013533181,-0.008405648,0.7975036,-2.398875,3.8241599,0.40064335,-2.066142,5.681053,-0.37527555,1
0.5800000000000003,14.889605820250761,-1.2750629566093974,5.999999779707658,0.506937286540673,15.528967,-0.50252205,5.346394,-0.032291025,5.8786745,-7.2082376,1.260449,0.6046683,-0.014852338,0.00093226554,0.79633784,-2.3991086,3.8224032,0.45780107,-1.822371,5.6287837,-0.3584452,1
0.5900000000000003,14.889605820250761,-1.2750629566093974,5.999999779707658,0.506937286540673,15.528967,-0.50252205,5.346394,-0.032291025,5.85466,-7.16999,1.2653124,0.6056525,-0.04235559,0.01101815,0.7945243,-2.4044664,3.8282967,0.5147654,-1.6166099,5.58468,-0.34244072,1
0.6000000000000003,16.082443324557744,-0.9482831046054925,5.99999947032502,0.9239282819856109,15.793084,-2.0496447,5.065295,0.5134865,5.830568,-7.131645,1.2707422,0.6061022,-0.069087885,0.021727137,0.79208213,-2.4145694,3.8418581,0.5710111,-1.4429319,5.5474668,-0.3272216,0
0.6100000000000003,16.082443324557744,-0.9482831046054925,5.99999947032502,0.9239282819856109,15.793084,-2.0496447,5.065295,0.5134865,5.8063507,-7.093123,1.2767558,0.60593426,-0.095453754,0.03297854,0.7890778,-2.4296107,3.863845,0.6314928,-1.3660015,5.6179676,-0.26582733,0
0.6200000000000003,16.082443324557744,-0.9482831046054925,5.99999947032502,0.9239282819856109,15.793084,-2.0496447,5.065295,0.5134865,5.781961,-7.0543413,1.2833657,0.6050457,-0.121771306,0.044706527,0.78555197,-2.4490235,3.8938248,0.69017947,-1.3010644,5.6774845,-0.20744567,0
0.6300000000000003,16.082443324557744,-0.9482831046054925,5.99999947032502,0.9239282819856109,15.793084,-2.0496447,5.065295,0.5134865,5.757356,-7.015219,1.2905513,0.60344374,-0.14800708,0.056831427,0.78148496,-2.4726434,3.931828,0.7465315,-1.2462487,5.727728,-0.15192881,0
0.6400000000000003,16.082443324557744,-0.9482831046054925,5.99999947032502,0.9239282819856109,16.384502,-2.337617,5.0762663,0.88261056,5.7324944,-6.9756775,1.2982864,0.60113573,-0.17412871,0.069283985,0.7768614,-2.500307,3.9778347,0.80000854,-1.1999755,5.7701426,-0.099136196,0
0.6500000000000004,16.082443324557744,-0.9482831046054925,5.99999947032502,0.9239282819856109,16.384502,-2.337617,5.0762663,0.88261056,5.707336,-6.935635,1.3065398,0.59812915,-0.2001049,0.08200379,0.77166945,-2.5318503,4.031777,0.8500731,-1.1609118,5.805948,-0.048934117,0
0.6600000000000004,16.082443324557744,-0.9482831046054925,5.99999947032502,0.9239282819856109,16.384502,-2.337617,5.0762663,0.88261056,5.681844,-6.8950143,1.3152745,0.594432,-0.22590528,0.09493782,0.76590014,-2.5671077,4.0935397,0.896194,-1.127933,5.836174,-0.0011954699,0
0.6700000000000004,16.082443324557744,-0.9482831046054925,5.99999947032502,0.9239282819856109,16.384502,-2.337617,5.0762663,0.88261056,5.655982,-6.8537374,1.3244483,0.59005255,-0.25150037,0.108039394,0.7595472,-2.6059108,4.162966,0.9378496,-1.1000901,5.86169,0.044200618,0
0.6800000000000004,15.801253896073318,-1.1395522796666528,5.999998870779815,0.8536327535916706,16.439936,-1.6257503,3.5201313,0.841823,5.6297145,-6.8117285,1.3340143,0.58499974,-0.2768615,0.12126707,0.7526062,-2.6480873,4.2398586,0.9745308,-1.0765822,5.8832297,0.087369114,0
0.6900000000000004,15.801253896073318,-1.1395522796666528,5.999998870779815,0.8536327535916706,16.439936,-1.6257503,3.5201313,0.841823,5.6030135,-6.7689214,1.3439088,0.57926774,-0.3020064,0.13452397,0.7450792,-2.6926737,4.3225083,1.003482,-1.086548,5.9014125,0.124969885,0
0.7000000000000004,15.801253896073318,-1.1395522796666528,5.999998870779815,0.8536327535916706,16.439936,-1.6257503,3.5201313,0.841823,5.575851,-6.7252545,1.3540639,0.57285255,-0.32694358,0.14772937,0.7369685,-2.7402637,4.4119825,1.0265865,-1.0949531,5.9167604,0.16072558,0
0.7100000000000004,15.801253896073318,-1.1395522796666528,5.999998870779815,0.8536327535916706,16.439936,-1.6257503,3.5201313,0.841823,5.548198,-6.68066,1.3644189,0.5657671,-0.3516331,0.16086987,0.7282729,-2.790714,4.507967,1.0433892,-1.102041,5.929716,0.19472674,0
0.7200000000000004,15.063729405710262,-1.433362395871619,5.764171636272763,0.5643046755885717,16.123032,-1.4748582,2.4568286,0.67472446,5.520027,-6.635074,1.3749086,0.55802494,-0.37603775,0.17393218,0.7189925,-2.8438697,4.6101193,1.053457,-1.1080174,5.9406524,0.22705944,0
0.7300000000000004,15.063729405710262,-1.433362395871619,5.764171636272763,0.5643046755885717,16.123032,-1.4748582,2.4568286,0.67472446,5.491325,-6.588463,1.3854398,0.5496384,-0.40012732,0.18675312,0.709167,-2.8969731,4.713022,1.0516695,-1.1588145,5.9131103,0.24360816,0
0.7400000000000004,15.063729405710262,-1.433362395871619,5.764171636272763,0.5643046755885717,16.123032,-1.4748582,2.4568286,0.67472446,5.46208,-6.5407968,1.3959175,0.54062515,-0.42387667,0.19920115,0.69883525,-2.9523845,4.8210235,1.0427347,-1.201687,5.889864,0.25934482,0
0.7500000000000004,15.063729405710262,-1.433362395871619,5.764171636272763,0.5643046755885717,16.123032,-1.4748582,2.4568286,0.67472446,5.4322696,-6.4920263,1.4062687,0.5310068,-0.44725907,0.21130575,0.6879969,-3.009982,4.9336777,1.0263457,-1.2378707,5.870244,0.27430928,0
0.7600000000000005,13.260474044098975,-1.5933465426336568,0.9573482162316346,0.36875822094571103,16.995413,-0.8617895,-1.6129391,-0.070428,5.401873,-6.4421086,1.4164177,0.5208042,-0.4702491,0.22308996,0.6766524,-3.06963,5.0505314,1.002222,-1.268409,5.853685,0.28853944,0
0.7700000000000005,13.260474044098975,-1.5933465426336568,0.9573482162316346,0.36875822094571103,16.995413,-0.8617895,-1.6129391,-0.070428,5.3709073,-6.3910756,1.4262457,0.5104782,-0.49158394,0.23353018,0.66574746,-3.1238139,5.156633,0.962311,-1.3189526,5.0900908,0.2924758,0
0.7800000000000005,13.260474044098975,-1.5933465426336568,0.9573482162316346,0.36875822094571103,16.995413,-0.8617895,-1.6129391,-0.070428,5.339391,-6.3389683,1.4356418,0.5004873,-0.51035094,0.24186818,0.6561653,-3.1795707,5.265237,0.9159491,-1.3616323,4.44558,0.29621896,0
0.7900000000000005,13.260474044098975,-1.5933465426336568,0.9573482162316346,0.36875822094571103,16.995413,-0.8617895,-1.6129391,-0.070428,5.3073106,-6.285765,1.4445448,0.4908269,-0.5269873,0.24847011,0.6477922,-3.2368376,5.3756547,0.8637804,-1.3976723,3.9015822,0.2997785,0
0.8000000000000005,11.999069500636821,-1.6457908663511127,-5.10325906435172,0.18831023628558655,16.201899,-0.87771094,-3.6705244,-0.1712072,5.27465,-6.231451,1.4528995,0.4814757,-0.54185057,0.25363705,0.64050454,-3.2955801,5.487344,0.8063819,-1.4281057,3.4424212,0.30316335,0
0.8100000000000005,11.999069500636821,-1.6457908663511127,-5.10325906435172,0.18831023628558655,16.201899,-0.87771094,-3.6705244,-0.1712072,5.2414184,-6.1760597,1.4606421,0.47300184,-0.5537651,0.256445,0.63549054,-3.3506935,5.5903106,0.7413499,-1.4702808,2.1235545,0.2983083,0
0.8200000000000005,11.999069500636821,-1.6457908663511127,-5.10325906435172,0.18831023628558655,16.201899,-0.87771094,-3.6705244,-0.1712072,5.207633,-6.119647,1.4677155,0.4659406,-0.56177086,0.2561914,0.6337805,-3.406574,5.692246,0.6729758,-1.4974289,0.9965368,0.29291067,0
0.8300000000000005,11.999069500636821,-1.6457908663511127,-5.10325906435172,0.18831023628558655,16.201899,-0.87771094,-3.6705244,-0.1712072,5.173282,-6.0622163,1.474096,0.46011192,-0.5665052,0.25340423,0.6349441,-3.4639425,5.793826,0.6029435,-1.5203842,0.045277596,0.28777787,0
0.8400000000000005,11.999069500636821,-1.6457908663511127,-5.10325906435172,0.18831023628558655,14.06948,-1.2901716,-6.1539226,-0.70666176,5.1383495,-6.003773,1.4797724,0.45531878,-0.56847996,0.24850552,0.6385602,-3.522886,5.894654,0.5323557,-1.5397931,-0.7576325,0.28289697,0
0.8500000000000005,11.999069500636821,-1.6457908663511127,-5.10325906435172,0.18831023628558655,14.06948,-1.2901716,-6.1539226,-0.70666176,5.102819,-5.9443264,1.4847443,0.45137265,-0.5680988,0.24183472,0.6442369,-3.5834723,5.9943976,0.4621453,-1.5562028,-1.4353288,0.27825558,0
0.8600000000000005,11.999069500636821,-1.6457908663511127,-5.10325906435172,0.18831023628558655,14.06948,-1.2901716,-6.1539226,-0.70666176,5.066674,-5.883889,1.4890192,0.4481005,-0.56568384,0.23366712,0.6516182,-3.6457431,6.092762,0.3930963,-1.570076,-2.0073388,0.27384195,0
0.8700000000000006,11.999069500636821,-1.6457908663511127,-5.10325906435172,0.18831023628558655,14.06948,-1.2901716,-6.1539226,-0.70666176,5.029898,-5.8224764,1.4926124,0.44534773,-0.56149524,0.22422804,0.6603856,-3.7097104,6.18947,0.325863,-1.5818043,-2.4901438,0.2696449,0
0.8800000000000006,10.275218826305025,-1.6778926050878646,-5.999999627763238,0.6173612590894236,13.702277,-1.1073592,-5.7428546,-0.30568707,4.992474,-5.7601066,1.4955447,0.44297883,-0.555746,0.21370348,0.670258,-3.7753553,6.284251,0.26098654,-1.5917188,-2.8976552,0.26565376,0
0.8900000000000006,10.275218826305025,-1.6778926050878646,-5.999999627763238,0.6173612590894236,13.702277,-1.1073592,-5.7428546,-0.30568707,4.9544334,-5.6968656,1.4978163,0.44090784,-0.5483631,0.2021097,0.6812112,-3.832965,6.3635325,0.19374911,-1.6050361,-3.3814845,0.28291216,0
0.9000000000000006,10.275218826305025,-1.6778926050878646,-5.999999627763238,0.6173612590894236,13.702277,-1.1073592,-5.7428546,-0.30568707,4.91581,-5.632843,1.4994293,0.4390411,-0.5392818,0.18946798,0.6931946,-3.8919044,6.44066,0.1293275,-1.6162825,-3.78986,0.29932368,0
0.9100000000000006,10.275218826305025,-1.6778926050878646,-5.999999627763238,0.6173612590894236,13.702277,-1.1073592,-5.7428546,-0.30568707,4.876591,-5.568061,1.5004138,0.43726036,-0.5286768,0.17592818,0.7059408,-3.9520779,6.5153475,0.0680706,-1.6257814,-4.1345487,0.3149299,0
0.9200000000000006,9.407337271753432,-1.7229673599838058,-5.999999819118831,1.063224442522261,12.5229845,-0.8157072,-5.9078193,-0.056178167,4.8367653,-5.5025454,1.5008025,0.43546566,-0.5166971,0.16161746,0.7192165,-4.01336,6.5873103,0.010246691,-1.6338059,-4.4254823,0.32977027,0
0.9300000000000006,9.407337271753432,-1.7229673599838058,-5.999999819118831,1.063224442522261,12.5229845,-0.8157072,-5.9078193,-0.056178167,4.796347,-5.436354,1.5006129,0.43352434,-0.50347036,0.14665994,0.7328465,-4.070342,6.6504407,-0.04765642,-1.6475484,-4.6710696,0.36576107,0
0.9400000000000006,9.407337271753432,-1.7229673599838058,-5.999999819118831,1.063224442522261,12.5229845,-0.8157072,-5.9078193,-0.056178167,4.755356,-5.369547,1.4998612,0.4313216,-0.48910785,0.13116452,0.74667925,-4.128042,6.71056,-0.10211698,-1.6591522,-4.8783555,0.39998585,0
0.9500000000000006,9.407337271753432,-1.7229673599838058,-5.999999819118831,1.063224442522261,12.5229845,-0.8157072,-5.9078193,-0.056178167,4.7137847,-5.3021545,1.4985826,0.42880583,-0.47370872,0.11521223,0.76055944,-4.1862836,6.767417,-0.15306792,-1.6689515,-5.0533133,0.43253118,0
0.9600000000000006,10.58966642268861,-1.3000535127731812,-5.999999818636495,0.6321428372473386,12.199792,-0.7926335,-6.5035505,0.3599493,4.671629,-5.2342105,1.496812,0.42593572,-0.45736173,0.09887381,0.7743526,-4.244873,6.8207717,-0.20048928,-1.677229,-5.2009845,0.4634795,0
0.9700000000000006,10.58966642268861,-1.3000535127731812,-5.999999818636495,0.6321428372473386,12.199792,-0.7926335,-6.5035505,0.3599493,4.6288495,-5.16572,1.4946185,0.42279705,-0.44008043,0.08231912,0.7879051,-4.3109765,6.8766375,-0.23759155,-1.6183424,-5.325581,0.47175586,0
0.9800000000000006,10.58966642268861,-1.3000535127731812,-5.999999818636495,0.6321428372473386,12.199792,-0.7926335,-6.5035505,0.3599493,4.5854096,-5.0966926,1.4920734,0.4194637,-0.42188692,0.06568903,0.80109024,-4.3769455,6.9281015,-0.2707997,-1.5686454,-5.430749,0.4796261,0
0.9900000000000007,10.58966642268861,-1.3000535127731812,-5.999999818636495,0.6321428372473386,12.199792,-0.7926335,-6.5035505,0.3599493,4.5413117,-5.0271735,1.4892155,0.41589078,-0.40286845,0.049002435,0.8138364,-4.4424806,6.97498,-0.30020556,-1.5267041,-5.519518,0.48711014,0
1.0000000000000007,12.333058583524153,-0.7820540067909449,-5.999999763751515,0.14002852689131376,15.360351,-0.35217467,-6.271077,0.22964971,4.4965625,-4.957209,1.4860821,0.4120429,-0.3831033,0.03227722,0.8260809,-4.5072846,7.017104,-0.32593748,-1.4913082,-5.594444,0.49422693,0
1.0100000000000007,12.333058583524153,-0.7820540067909449,-5.999999763751515,0.14002852689131376,15.360351,-0.35217467,-6.271077,0.22964971,4.4511175,-4.886817,1.4827709,0.4080213,-0.36257923,0.015679523,0.8377399,-4.581559,7.0604563,-0.3356611,-1.3807441,-5.657639,0.4768463,0
1.0200000000000007,12.333058583524153,-0.7820540067909449,-5.999999763751515,0.14002852689131376,15.360351,-0.35217467,-6.271077,0.22964971,4.4049373,-4.8160205,1.4793823,0.40391183,-0.34129614,-0.00065507274,0.8487466,-4.6542478,7.0979943,-0.34149167,-1.2874236,-5.710987,0.46031854,0
1.0300000000000007,12.333058583524153,-0.7820540067909449,-5.999999763751515,0.14002852689131376,15.360351,-0.35217467,-6.271077,0.22964971,4.358039,-4.7448773,1.4759537,0.3996693,-0.31933722,-0.016751593,0.8590731,-4.7249684,7.12964,-0.34365675,-1.208657,-5.7560225,0.44460183,0
1.0400000000000007,12.333058583524153,-0.7820540067909449,-5.999999763751515,0.14002852689131376,14.910301,0.13712528,-6.316779,0.06824465,4.3104453,-4.673448,1.4725208,0.39525753,-0.29677668,-0.032629717,0.86869407,-4.793359,7.155329,-0.3424134,-1.1421741,-5.7940407,0.42965636,0
1.0500000000000007,12.333058583524153,-0.7820540067909449,-5.999999763751515,0.14002852689131376,14.910301,0.13712528,-6.316779,0.06824465,4.262181,-4.601792,1.4691163,0.390648,-0.27368096,-0.048304472,0.8775868,-4.859078,7.1750135,-0.33804497,-1.0860586,-5.826134,0.41544423,0
1.0600000000000007,12.333058583524153,-0.7820540067909449,-5.999999763751515,0.14002852689131376,14.910301,0.13712528,-6.316779,0.06824465,4.213274,-4.5299687,1.4657698,0.3858184,-0.25011006,-0.06378683,0.885731,-4.9218044,7.188661,-0.33085793,-1.0386933,-5.8532267,0.4019295,0
1.0700000000000007,12.333058583524153,-0.7820540067909449,-5.999999763751515,0.14002852689131376,14.910301,0.13712528,-6.316779,0.06824465,4.1637564,-4.458039,1.4625077,0.38075146,-0.22611864,-0.079084255,0.8931088,-4.981237,7.1962576,-0.32117912,-0.9987137,-5.876097,0.38907796,0
1.0800000000000007,13.718826315972757,-0.3018034245049498,-5.999999601601085,-0.22001776238739074,15.139332,-0.22930351,-6.6876564,-0.07341342,4.113662,-4.386063,1.4593534,0.37543437,-0.20175667,-0.09420121,0.8997046,-5.0370936,7.197807,-0.30935282,-0.96496785,-5.8954034,0.376857,0
1.0900000000000007,13.718826315972757,-0.3018034245049498,-5.999999601601085,-0.22001776238739074,15.139332,-0.22930351,-6.6876564,-0.07341342,4.0629983,-4.3141046,1.4563893,0.36993533,-0.17699426,-0.10897508,0.90550774,-5.094951,7.1928363,-0.28318208,-0.8616564,-5.911673,0.34756818,0
1.1000000000000008,13.718826315972757,-0.3018034245049498,-5.999999601601085,-0.22001776238739074,15.139332,-0.22930351,-6.6876564,-0.07341342,4.011779,-4.242229,1.4536953,0.36431074,-0.15181425,-0.12327422,0.91051227,-5.148215,7.1812744,-0.25540647,-0.77445215,-5.925414,0.3197166,0
1.1100000000000008,13.718826315972757,-0.3018034245049498,-5.999999601601085,-0.22001776238739074,15.139332,-0.22930351,-6.6876564,-0.07341342,3.9600508,-4.1705017,1.4512854,0.358537,-0.1262779,-0.13714156,0.91471106,-5.1965847,7.163251,-0.22642046,-0.7008429,-5.9370184,0.2932317,0
1.1200000000000008,14.706968591553347,0.18526138223622407,-5.999999050649558,-0.45945651802148796,16.214018,0.07817185,-6.718061,-0.30093628,3.907865,-4.0989857,1.4491696,0.35259596,-0.100440465,-0.1506119,0.91809744,-5.2397947,7.1389074,-0.19663127,-0.6387088,-5.946818,0.26804644,0
1.1300000000000008,14.706968591553347,0.18526138223622407,-5.999999050649558,-0.45945651802148796,16.214018,0.07817185,-6.718061,-0.30093628,3.85526,-4.027755,1.4474003,0.3465191,-0.07427955,-0.16353697,0.92068547,-5.2803254,7.106209,-0.15721229,-0.51034826,-5.955077,0.23234767,0
1.1400000000000008,14.706968591553347,0.18526138223622407,-5.999999050649558,-0.45945651802148796,16.214018,0.07817185,-6.718061,-0.30093628,3.8022795,-3.956883,1.4460254,0.3403307,-0.047784083,-0.17579839,0.92248887,-5.3147955,7.0671463,-0.11780087,-0.40199926,-5.9620576,0.19840065,0
1.1500000000000008,14.706968591553347,0.18526138223622407,-5.999999050649558,-0.45945651802148796,16.214018,0.07817185,-6.718061,-0.30093628,3.7489855,-3.8864326,1.4450427,0.33400935,-0.021017512,-0.1874619,0.9235005,-5.3429604,7.021981,-0.07882337,-0.31054112,-5.9679565,0.1661194,0
1.1600000000000008,14.6143369572483,0.589968805658538,-5.999997329591261,-0.755649051393331,17.506754,0.62263155,-6.547581,-0.41110116,3.6954422,-3.8164632,1.4444458,0.327539,0.0059629637,-0.19858187,0.9237137,-5.3646183,6.9709754,-0.040714525,-0.23333985,-5.9729404,0.13542221,0
1.1700000000000008,14.6143369572483,0.589968805658538,-5.999997329591261,-0.755649051393331,17.506754,0.62263155,-6.547581,-0.41110116,3.6417165,-3.7470303,1.4442196,0.32093927,0.033165406,-0.20905308,0.9231435,-5.379506,6.9147635,-0.0047605094,-0.10511533,-5.9771457,0.09169708,0
1.1800000000000008,14.6143369572483,0.589968805658538,-5.999997329591261,-0.755649051393331,17.506754,0.62263155,-6.547581,-0.41110116,3.5878756,-3.6781855,1.4443446,0.31422636,0.060590018,-0.21879223,0.92180246,-5.3875937,6.8533454,0.029481236,0.0031206775,-5.9807024,0.050117552,0
1.1900000000000008,14.6143369572483,0.589968805658538,-5.999997329591261,-0.755649051393331,17.506754,0.62263155,-6.547581,-0.41110116,3.5339882,-3.6099799,1.4448019,0.30738598,0.08817639,-0.22786972,0.9196811,-5.388746,6.7870574,0.061598096,0.094485074,-5.9837112,0.010578351,0
1.2000000000000008,13.825295922313268,0.9581250452924317,-4.249243896207533,-1.0417171770935827,17.039602,0.2688956,-5.4523606,-0.8355465,3.4801245,-3.54246,1.445568,0.30040783,0.115869716,-0.236344,0.9167715,-5.3828697,6.716232,0.091174036,0.17160875,-5.9862547,-0.027020656,0
1.2100000000000009,13.825295922313268,0.9581250452924317,-4.249243896207533,-1.0417171770935827,17.039602,0.2688956,-5.4523606,-0.8355465,3.4263515,-3.4756494,1.4465815,0.29347035,0.14303246,-0.24391872,0.91319203,-5.370642,6.6452804,0.111078754,0.29408425,-5.71538,-0.07681211,0
1.2200000000000009,13.825295922313268,0.9581250452924317,-4.249243896207533,-1.0417171770935827,17.039602,0.2688956,-5.4523606,-0.8355465,3.3727336,-3.409566,1.447779,0.28673717,0.16916503,-0.2503784,0.9091066,-5.3519206,6.570864,0.12796053,0.3974827,-5.4867544,-0.12416027,0
1.2300000000000009,13.825295922313268,0.9581250452924317,-4.249243896207533,-1.0417171770935827,17.039602,0.2688956,-5.4523606,-0.8355465,3.3193345,-3.3442423,1.4491297,0.28017944,0.19440779,-0.2558752,0.9045619,-5.326933,6.493465,0.14163914,0.48477444,-5.2937865,-0.16918504,0
1.2400000000000009,13.825295922313268,0.9581250452924317,-4.249243896207533,-1.0417171770935827,15.906907,0.5264975,-1.7551843,-1.0116733,3.2662158,-3.2797058,1.4506003,0.27377105,0.21887891,-0.26053613,0.8995897,-5.2958956,6.413508,0.15195172,0.55846786,-5.130914,-0.21200041,0
1.2500000000000009,13.825295922313268,0.9581250452924317,-4.249243896207533,-1.0417171770935827,15.906907,0.5264975,-1.7551843,-1.0116733,3.2134368,-3.2159798,1.4521565,0.26748872,0.24267726,-0.26446727,0.8942113,-5.259013,6.33137,0.15874703,0.6206804,-4.993443,-0.25271484,0
1.260000000000001,13.825295922313268,0.9581250452924317,-4.249243896207533,-1.0417171770935827,15.906907,0.5264975,-1.7551843,-1.0116733,3.161055,-3.1530845,1.4537625,0.26131186,0.2658852,-0.26775718,0.88844043,-5.2164826,6.2473884,0.16188164,0.6732006,-4.877411,-0.29143143,0
1.270000000000001,13.825295922313268,0.9581250452924317,-4.249243896207533,-1.0417171770935827,15.906907,0.5264975,-1.7551843,-1.0116733,3.109126,-3.091037,1.4553812,0.25522247,0.2885709,-0.27047977,0.8822857,-5.1684947,6.1618686,0.16121751,0.71753824,-4.7794743,-0.3282482,0
1.280000000000001,12.751930016553008,1.2917896249567995,-0.009482746335577401,-1.267374154863722,15.571251,2.4456365,0.81018746,-1.2792162,3.0577037,-3.0298514,1.4569736,0.24920474,0.31079045,-0.2726968,0.87575215,-5.1152353,6.0750866,0.15662041,0.754968,-4.6968102,-0.36325833,0
1.290000000000001,12.751930016553008,1.2917896249567995,-0.009482746335577401,-1.267374154863722,15.571251,2.4456365,0.81018746,-1.2792162,3.0068166,-2.9695048,1.4584649,0.24369651,0.33115613,-0.2739214,0.869433,-5.061478,5.994143,0.14108527,0.83874196,-3.9658685,-0.4076236,0
1.300000000000001,12.751930016553008,1.2917896249567995,-0.009482746335577401,-1.267374154863722,15.571251,2.4456365,0.81018746,-1.2792162,2.956488,-2.9099703,1.4597839,0.23906742,0.3486129,-0.2738046,0.8639131,-5.0036383,5.912697,0.12223374,0.90946525,-3.348916,-0.4498118,0
1.310000000000001,12.751930016553008,1.2917896249567995,-0.009482746335577401,-1.267374154863722,15.571251,2.4456365,0.81018746,-1.2792162,2.9067557,-2.8512514,1.4608998,0.23520577,0.3636442,-0.27257153,0.8591537,-4.9422817,5.831109,0.10054505,0.96916616,-2.828176,-0.48992977,0
1.320000000000001,11.841660080104283,1.6255797474689861,5.695964105020017,-1.3981892009341155,15.493637,2.610589,4.0008016,-2.0205946,2.8576524,-2.7933476,1.4617866,0.23201084,0.37665114,-0.27040452,0.85509384,-4.877869,5.7496595,0.07645267,1.0195591,-2.3886437,-0.52807915,0
1.330000000000001,11.841660080104283,1.6255797474689861,5.695964105020017,-1.3981892009341155,15.493637,2.610589,4.0008016,-2.0205946,2.8092062,-2.736256,1.4624215,0.22980317,0.38630685,-0.26666766,0.8525521,-4.811317,5.669182,0.049924698,1.1992066,-1.2127061,-0.5631631,0
1.340000000000001,11.841660080104283,1.6255797474689861,5.695964105020017,-1.3981892009341155,15.493637,2.610589,4.0008016,-2.0205946,2.761425,-2.6799526,1.4627742,0.22892389,0.3914377,-0.2609569,0.8522154,-4.745008,5.5920205,0.020226657,1.3090949,-0.1783964,-0.6002587,0
1.350000000000001,11.841660080104283,1.6255797474689861,5.695964105020017,-1.3981892009341155,15.493637,2.610589,4.0008016,-2.0205946,2.714303,-2.6244037,1.4628193,0.22930253,0.39254844,-0.25369906,0.8537927,-4.679465,5.5181746,-0.01131691,1.3653578,0.73111624,-0.63880795,0
1.360000000000001,11.242063837454701,1.9079264708140438,5.999999336937634,-1.1872754975569635,14.074823,2.005151,4.818514,-1.4179919,2.6678367,-2.5695837,1.4625504,0.23080534,0.39013618,-0.2451849,0.856975,-4.613758,5.4461117,-0.042248324,1.4062966,1.5053303,-0.676071,0
1.370000000000001,11.242063837454701,1.9079264708140438,5.999999336937634,-1.1872754975569635,14.074823,2.005151,4.818514,-1.4179919,2.6220112,-2.5154583,1.4619628,0.2331996,0.38462865,-0.23547219,0.86152816,-4.551384,5.3792415,-0.0749592,1.4848694,2.2062125,-0.7011559,0
1.380000000000001,11.242063837454701,1.9079264708140438,5.999999336937634,-1.1872754975569635,14.074823,2.005151,4.818514,-1.4179919,2.5768077,-2.4619927,1.461059,0.23627578,0.376384,-0.22460487,0.86721426,-4.4894576,5.3141856,-0.10545376,1.5511578,2.7977972,-0.7250099,0
1.390000000000001,11.242063837454701,1.9079264708140438,5.999999336937634,-1.1872754975569635,14.074823,2.005151,4.818514,-1.4179919,2.5322194,-2.4091673,1.4598631,0.23988628,0.36577684,-0.21272637,0.87373245,-4.4283752,5.251226,-0.13325316,1.6070795,3.297129,-0.7476934,0
1.400000000000001,11.126039305232874,2.1468586830376943,5.999999611058826,-0.8080964568492209,12.204829,2.2285619,5.8268056,-0.5672935,2.488236,-2.35696,1.4584043,0.24390453,0.3531206,-0.1999577,0.8808135,-4.368497,5.1906424,-0.15799668,1.6542535,3.7185938,-0.76926386,0
1.410000000000001,11.126039305232874,2.1468586830376943,5.999999611058826,-0.8080964568492209,12.204829,2.2285619,5.8268056,-0.5672935,2.444841,-2.3053424,1.4567106,0.24814765,0.3386941,-0.18633464,0.8882497,-4.310755,5.1333203,-0.18022034,1.731258,4.074337,-0.77116936,0
1.420000000000001,11.126039305232874,2.1468586830376943,5.999999611058826,-0.8080964568492209,12.204829,2.2285619,5.8268056,-0.5672935,2.4020147,-2.2542837,1.4548117,0.25245926,0.3227335,-0.17189433,0.8958565,-4.2548194,5.07894,-0.19900478,1.7962265,4.374608,-0.77298135,0
1.430000000000001,11.126039305232874,2.1468586830376943,5.999999611058826,-0.8080964568492209,12.204829,2.2285619,5.8268056,-0.5672935,2.3597376,-2.2037523,1.4527425,0.25677538,0.30542794,-0.15673666,0.90344507,-4.200958,5.027808,-0.21427286,1.8510401,4.628057,-0.7747044,0
1.440000000000001,11.126039305232874,2.1468586830376943,5.999999611058826,-0.8080964568492209,11.138285,1.8179125,5.9099755,-0.21357219,2.3179877,-2.1537151,1.4505382,0.2610419,0.2869415,-0.1409501,0.9108534,-4.1494217,4.9802217,-0.22602507,1.8972859,4.8419857,-0.776343,1
1.450000000000001,11.126039305232874,2.1468586830376943,5.999999611058826,-0.8080964568492209,11.138285,1.8179125,5.9099755,-0.21357219,2.2767408,-2.104135,1.4482343,0.26517886,0.26740634,-0.12476434,0.91793627,-4.100395,4.936411,-0.2342337,1.8849018,5.008579,-0.7487277,1
1.460000000000001,11.126039305232874,2.1468586830376943,5.999999611058826,-0.8080964568492209,11.138285,1.8179125,5.9099755,-0.21357219,2.2359703,-2.054973,1.445865,0.26910996,0.24694116,-0.1083729,0.92458326,-4.0541725,4.8966556,-0.23913367,1.8744354,5.1491885,-0.7224674,1
1.470000000000001,11.126039305232874,2.1468586830376943,5.999999611058826,-0.8080964568492209,11.138285,1.8179125,5.9099755,-0.21357219,2.195647,-2.0061872,1.4434624,0.27279955,0.2256629,-0.091801025,0.9307138,-4.010976,4.861158,-0.24091572,1.8655909,5.267868,-0.69749576,1
1.480000000000001,12.044028260110965,1.852758400906508,5.9999995331024225,-0.8129759548484893,10.838617,1.4947381,5.3537154,-0.51265556,2.1557398,-1.9577345,1.4410566,0.2762192,0.2036757,-0.075073,0.9362596,-3.9710088,4.8301067,-0.2398113,1.8581179,5.3680363,-0.67374945,0
1.490000000000001,12.044028260110965,1.852758400906508,5.9999995331024225,-0.8129759548484893,10.838617,1.4947381,5.3537154,-0.51265556,2.1162302,-1.9095803,1.4387164,0.27941534,0.1810478,-0.058174323,0.94115,-3.9314842,4.8015256,-0.2278065,1.8573498,5.466583,-0.6805814,0
1.500000000000001,12.044028260110965,1.852758400906508,5.9999995331024225,-0.8129759548484893,10.838617,1.4947381,5.3537154,-0.51265556,2.0770967,-1.8616862,1.4365091,0.2824341,0.15784152,-0.041097306,0.9453184,-3.8958366,4.7781186,-0.21328604,1.8566939,5.549761,-0.687078,0
1.5100000000000011,12.044028260110965,1.852758400906508,5.9999995331024225,-0.8129759548484893,10.838617,1.4947381,5.3537154,-0.51265556,2.0382996,-1.8139997,1.4344581,0.28525412,0.13413724,-0.023874538,0.94871813,-3.8642292,4.760046,-0.19659802,1.8561343,5.619968,-0.6932559,0
1.5200000000000011,13.244115937082219,1.4226853341840504,5.999999116456419,-0.8572042151847056,11.521135,1.1767681,5.462098,-0.42068046,1.9997977,-1.7664664,1.4325835,0.28785777,0.11000767,-0.006536958,0.9513109,-3.8368037,4.7474446,-0.17811804,1.8556563,5.679227,-0.69913054,0
1.5300000000000011,13.244115937082219,1.4226853341840504,5.999999116456419,-0.8572042151847056,11.521135,1.1767681,5.462098,-0.42068046,1.9615606,-1.7190354,1.4309593,0.29025358,0.08546936,0.010722743,0.95306444,-3.8113782,4.739722,-0.14648895,1.7881866,5.729273,-0.70688725,0
1.5400000000000011,13.244115937082219,1.4226853341840504,5.999999116456419,-0.8572042151847056,11.521135,1.1767681,5.462098,-0.42068046,1.9235535,-1.6716506,1.4296573,0.29244483,0.06054326,0.027746927,0.95395994,-3.7908256,4.7381763,-0.11378032,1.731234,5.7715106,-0.7142634,0
1.5500000000000012,13.244115937082219,1.4226853341840504,5.999999116456419,-0.8572042151847056,11.521135,1.1767681,5.462098,-0.42068046,1.8857269,-1.6242505,1.4286859,0.29441202,0.035298597,0.04455466,0.95398605,-3.7752664,4.7428174,-0.08045723,1.683159,5.807158,-0.72127753,0
1.5600000000000012,13.701546382095527,0.9986468548162014,5.999998176858008,-0.6418679644202165,12.883302,0.39056107,5.6108427,-0.017206855,1.8480306,-1.576773,1.4280487,0.29613972,0.00979824,0.061159614,0.95313364,-3.7647889,4.7536383,-0.046994418,1.6425776,5.837243,-0.72794753,1
1.5700000000000012,13.701546382095527,0.9986468548162014,5.999998176858008,-0.6418679644202165,12.883302,0.39056107,5.6108427,-0.017206855,1.8104125,-1.5291588,1.4277269,0.2975295,-0.015868027,0.07713118,0.951459,-3.7596033,4.770126,-0.017444547,1.4471776,5.802062,-0.6930713,1
1.5800000000000012,13.701546382095527,0.9986468548162014,5.999998176858008,-0.6418679644202165,12.883302,0.39056107,5.6108427,-0.017206855,1.7728211,-1.4813507,1.4276972,0.2984866,-0.04162025,0.09213232,0.9490438,-3.7594945,4.792372,0.011335039,1.2822605,5.772344,-0.65990645,1
1.5900000000000012,13.701546382095527,0.9986468548162014,5.999998176858008,-0.6418679644202165,12.883302,0.39056107,5.6108427,-0.017206855,1.7352052,-1.4332924,1.4279495,0.29900748,-0.06741743,0.10629797,0.94591177,-3.7645159,4.820135,0.03892296,1.1430715,5.7472415,-0.62836903,1
1.6000000000000012,13.87139541541587,0.5989281212147921,5.258766002152313,-0.4522903814596404,13.570531,-0.3060162,5.7549024,-0.30721378,1.6975132,-1.3849298,1.4284701,0.29909274,-0.09322193,0.11974156,0.94207966,-3.7746928,4.8531847,0.06491024,1.0255973,5.7260385,-0.5983791,1
1.6100000000000012,13.87139541541587,0.5989281212147921,5.258766002152313,-0.4522903814596404,13.570531,-0.3060162,5.7549024,-0.30721378,1.6596898,-1.3362013,1.4292734,0.29874432,-0.11914099,0.13230968,0.93757683,-3.790855,4.8933234,0.09541327,0.8178815,5.7306285,-0.5840914,1
1.6200000000000012,13.87139541541587,0.5989281212147921,5.258766002152313,-0.4522903814596404,13.570531,-0.3060162,5.7549024,-0.30721378,1.6216773,-1.2870462,1.4303696,0.2979618,-0.14525516,0.14388457,0.93242466,-3.8125167,4.9384875,0.12341671,0.6425609,5.7344866,-0.57050496,1
1.6300000000000012,13.87139541541587,0.5989281212147921,5.258766002152313,-0.4522903814596404,13.570531,-0.3060162,5.7549024,-0.30721378,1.5834205,-1.2374156,1.4317318,0.29674795,-0.17149451,0.15460142,0.92662156,-3.8397233,4.9883704,0.14853467,0.49458367,5.7377295,-0.55758524,1
1.6400000000000012,13.87139541541587,0.5989281212147921,5.258766002152313,-0.4522903814596404,13.609879,-0.24158627,5.1611285,-0.523901,1.5448639,-1.1872636,1.4333291,0.29510885,-0.19779637,0.16457334,0.920164,-3.8724813,5.0426793,0.17038712,0.3696856,5.740456,-0.5452995,1
1.6500000000000012,13.87139541541587,0.5989281212147921,5.258766002152313,-0.4522903814596404,13.609879,-0.24158627,5.1611285,-0.523901,1.5059515,-1.136547,1.4351288,0.2931241,-0.22388409,0.17384367,0.91308886,-3.9108603,5.1012983,0.18894468,0.27432212,5.650144,-0.5442495,1
1.6600000000000013,13.87139541541587,0.5989281212147921,5.258766002152313,-0.4522903814596404,13.609879,-0.24158627,5.1611285,-0.523901,1.4666282,-1.0852245,1.4370944,0.29087213,-0.24953939,0.18245243,0.9054465,-3.9546285,5.163762,0.20354295,0.19383594,5.573911,-0.54325104,1
1.6700000000000013,13.87139541541587,0.5989281212147921,5.258766002152313,-0.4522903814596404,13.609879,-0.24158627,5.1611285,-0.523901,1.426841,-1.0332595,1.439185,0.2883591,-0.27478805,0.19048187,0.89724916,-4.003613,5.22977,0.21389501,0.12590586,5.509562,-0.54230154,1
1.6800000000000013,13.102481803316799,0.39040953421019886,0.810427321903321,-0.33095571758112574,13.185831,0.3714918,1.9838697,-0.27879936,1.3865386,-0.9806178,1.4413568,0.28559145,-0.29964966,0.19800079,0.8885055,-4.0576324,5.29904,0.2197285,0.06857307,5.455244,-0.5413986,0
1.6900000000000013,13.102481803316799,0.39040953421019886,0.810427321903321,-0.33095571758112574,13.185831,0.3714918,1.9838697,-0.27879936,1.3456826,-0.9272818,1.4435447,0.28298977,-0.3225296,0.20480776,0.87974095,-4.114228,5.3685803,0.21715336,0.11847588,4.7308707,-0.5310721,0
1.7000000000000013,13.102481803316799,0.39040953421019886,0.810427321903321,-0.33095571758112574,13.185831,0.3714918,1.9838697,-0.27879936,1.3042405,-0.87323785,1.445685,0.28093752,-0.34221852,0.21077299,0.87151265,-4.1747484,5.4405656,0.21026781,0.16064598,4.1194663,-0.52125233,0
1.7100000000000013,13.102481803316799,0.39040953421019886,0.810427321903321,-0.33095571758112574,13.185831,0.3714918,1.9838697,-0.27879936,1.2621765,-0.81846344,1.4477365,0.27937976,-0.35924274,0.21604195,0.8638382,-4.238505,5.514621,0.1994395,0.19628015,3.6034126,-0.51191443,0
1.7200000000000013,12.532373079235095,0.403094815251434,-4.79604593854269,-0.15527577944456575,12.642128,0.40998197,-4.7615747,-0.32005757,1.2194611,-0.7629394,1.4496614,0.2782604,-0.3740403,0.22073346,0.8567034,-4.304933,5.590452,0.18502147,0.22639082,3.1678393,-0.5030348,1
1.7300000000000013,12.532373079235095,0.403094815251434,-4.79604593854269,-0.15527577944456575,12.642128,0.40998197,-4.7615747,-0.32005757,1.1760824,-0.7066628,1.4514116,0.27802753,-0.38507545,0.22433601,0.85093474,-4.371094,5.665072,0.16461311,0.2546053,1.9312439,-0.49405602,1
1.7400000000000013,12.532373079235095,0.403094815251434,-4.79604593854269,-0.15527577944456575,12.642128,0.40998197,-4.7615747,-0.32005757,1.132035,-0.6496345,1.4529464,0.27905223,-0.39118132,0.2264599,0.8472438,-4.438511,5.740729,0.1420979,0.27849537,0.88749623,-0.4855179,1
1.7500000000000013,12.532373079235095,0.403094815251434,-4.79604593854269,-0.15527577944456575,12.642128,0.40998197,-4.7615747,-0.32005757,1.0873106,-0.59184605,1.45425,0.28116223,-0.3931658,0.22734612,0.84538823,-4.506401,5.817028,0.11850757,0.2987218,0.00652197,-0.4773987,1
1.7600000000000013,12.331281996872873,0.2577194007541082,-5.999998898582497,-0.0036777154131761094,11.736876,0.23244408,-5.745632,-0.28100246,1.0419075,-0.5332928,1.4553161,0.28419328,-0.39168444,0.22718486,0.84510565,-4.574128,5.8936486,0.09473542,0.31584507,-0.7370638,-0.4696779,1
1.7700000000000014,12.331281996872873,0.2577194007541082,-5.999998898582497,-0.0036777154131761094,11.736876,0.23244408,-5.745632,-0.28100246,0.9958545,-0.4740004,1.4561199,0.28805065,-0.38695794,0.22595683,0.8463055,-4.6363544,5.964816,0.06619288,0.30260873,-1.5181414,-0.46041954,1
1.7800000000000014,12.331281996872873,0.2577194007541082,-5.999998898582497,-0.0036777154131761094,11.736876,0.23244408,-5.745632,-0.28100246,0.94918436,-0.41399735,1.4566442,0.29263878,-0.37917224,0.22364512,0.8488656,-4.6974554,6.0357256,0.03889898,0.29148138,-2.1774116,-0.4516155,1
1.7900000000000014,12.331281996872873,0.2577194007541082,-5.999998898582497,-0.0036777154131761094,11.736876,0.23244408,-5.745632,-0.28100246,0.9019107,-0.35328773,1.4569043,0.29781228,-0.3687699,0.22039095,0.8524925,-4.7570004,6.1060853,0.013454277,0.2821258,-2.7338696,-0.4432435,1
1.8000000000000014,12.281142020476143,0.07757879902332857,-5.999999541214179,0.11903134533665814,11.47496,0.35462815,-5.9071875,-0.21743317,0.85405105,-0.29187846,1.4569212,0.30344152,-0.3561182,0.21631055,0.85692006,-4.8146048,6.1756124,-0.009664247,0.2742589,-3.2035484,-0.4352823,1
1.8100000000000014,12.281142020476143,0.07757879902332857,-5.999999541214179,0.11903134533665814,11.47496,0.35462815,-5.9071875,-0.21743317,0.8056327,-0.22978693,1.4567116,0.30943632,-0.34145206,0.21152575,0.8619256,-4.868684,6.2425046,-0.031822175,0.28669813,-3.625181,-0.42459232,1
1.8200000000000014,12.281142020476143,0.07757879902332857,-5.999999541214179,0.11903134533665814,11.47496,0.35462815,-5.9071875,-0.21743317,0.7566862,-0.16703302,1.4562947,0.31571254,-0.3249717,0.20613758,0.8673094,-4.9201894,6.308048,-0.05107308,0.29721972,-3.9810598,-0.41442695,1
1.8300000000000014,12.281142020476143,0.07757879902332857,-5.999999541214179,0.11903134533665814,11.47496,0.35462815,-5.9071875,-0.21743317,0.70723885,-0.10363152,1.4557006,0.3221721,-0.30691588,0.20020814,0.8728824,-4.9688096,6.3719788,-0.067230314,0.30611834,-4.281439,-0.40476045,1
1.8400000000000014,12.281142020476143,0.07757879902332857,-5.999999541214179,0.11903134533665814,11.380742,0.31946778,-5.997849,-0.17711993,0.6573209,-0.039599888,1.4549611,0.32873031,-0.28748935,0.19379117,0.87848186,-5.0142574,6.434034,-0.08018855,0.31364363,-4.5349736,-0.39556825,1
1.8500000000000014,12.281142020476143,0.07757879902332857,-5.999999541214179,0.11903134533665814,11.380742,0.31946778,-5.997849,-0.17711993,0.6069672,0.025039334,1.4541044,0.33531275,-0.26684085,0.1869106,0.8839824,-5.055926,6.493458,-0.09063886,0.31452644,-4.7631063,-0.38484892,1
1.8600000000000014,12.281142020476143,0.07757879902332857,-5.999999541214179,0.11903134533665814,11.380742,0.31946778,-5.997849,-0.17711993,0.55621487,0.090261064,1.4531593,0.34185427,-0.24510114,0.17958894,0.8892739,-5.093947,6.550495,-0.097904675,0.31528157,-4.9556623,-0.3746556,1
1.8700000000000014,12.281142020476143,0.07757879902332857,-5.999999541214179,0.11903134533665814,11.380742,0.31946778,-5.997849,-0.17711993,0.50510156,0.15604013,1.452157,0.34829986,-0.22241218,0.17186882,0.89424837,-5.1281023,6.6048846,-0.10206449,0.31592712,-5.1181884,-0.36496246,1
1.8800000000000014,13.124268369193075,-0.17653509284142344,-5.999999500703343,0.26752436039662375,12.291104,0.35918,-5.923904,-0.45721066,0.45366684,0.22234878,1.4511282,0.35460246,-0.19889902,0.16378821,0.89881516,-5.1581955,6.656374,-0.10324876,0.31647816,-5.2553697,-0.35574496,1
1.8900000000000015,13.124268369193075,-0.17653509284142344,-5.999999500703343,0.26752436039662375,12.291104,0.35918,-5.923904,-0.45721066,0.4019416,0.28917634,1.4501414,0.36075154,-0.17469898,0.15539955,0.902878,-5.186123,6.7085896,-0.09365782,0.32309598,-5.3596296,-0.3607239,1
1.9000000000000015,13.124268369193075,-0.17653509284142344,-5.999999500703343,0.26752436039662375,12.291104,0.35918,-5.923904,-0.45721066,0.34996063,0.35650808,1.4492646,0.36674145,-0.14993255,0.1467488,0.90635806,-5.2093196,6.757176,-0.08128177,0.3286856,-5.4476304,-0.36545858,1
1.9100000000000015,13.124268369193075,-0.17653509284142344,-5.999999500703343,0.26752436039662375,12.291104,0.35918,-5.923904,-0.45721066,0.29777193,0.4243066,1.4485244,0.37254146,-0.12468127,0.13785985,0.9092092,-5.227653,6.8019114,-0.0663942,0.33340725,-5.5219073,-0.36996093,1
1.9200000000000015,14.223245293074084,-0.4125463234063551,-5.999999005988727,0.429025688959859,14.233882,-0.23704359,-6.0431175,-0.26127547,0.24542466,0.49253237,1.4479442,0.37812513,-0.09901865,0.12875482,0.9113935,-5.2410164,6.842589,-0.04929773,0.3373959,-5.584601,-0.3742423,1
1.9300000000000015,14.223245293074084,-0.4125463234063551,-5.999999005988727,0.429025688959859,14.233882,-0.23704359,-6.0431175,-0.26127547,0.19296175,0.56117314,1.447637,0.3834297,-0.073071085,0.11922741,0.91292185,-5.250651,6.884764,-0.011810765,0.247817,-5.649359,-0.36869898,1
1.9400000000000015,14.223245293074084,-0.4125463234063551,-5.999999005988727,0.429025688959859,14.233882,-0.23704359,-6.0431175,-0.26127547,0.14043176,0.63020974,1.4477142,0.38840702,-0.046947733,0.10911606,0.91379905,-5.254439,6.9217267,0.027474219,0.1722098,-5.704023,-0.36342767,1
1.9500000000000015,14.223245293074084,-0.4125463234063551,-5.999999005988727,0.429025688959859,14.233882,-0.23704359,-6.0431175,-0.26127547,0.087892964,0.6995888,1.4481915,0.39305437,-0.020688536,0.09850141,0.91398954,-5.2524133,6.953209,0.068154335,0.108394735,-5.750165,-0.35841504,1
1.9600000000000015,14.474247768964862,-0.693417794243529,-5.999997928005135,0.683429674466054,13.508012,-0.14719081,-6.379357,-0.40338355,0.035403304,0.76925427,1.4490808,0.39736786,0.0056688357,0.08745391,0.91346467,-5.2446218,6.978977,0.10980543,0.0545327,-5.789114,-0.35364836,0
1.9700000000000015,14.474247768964862,-0.693417794243529,-5.999997928005135,0.683429674466054,13.508012,-0.14719081,-6.379357,-0.40338355,-0.016978826,0.8391497,1.4504013,0.40123892,0.03202577,0.07586728,0.91226375,-5.2309084,6.99916,0.15435706,-0.061924174,-5.821976,-0.30275866,0
1.9800000000000015,14.474247768964862,-0.693417794243529,-5.999997928005135,0.683429674466054,13.508012,-0.14719081,-6.379357,-0.40338355,-0.06919544,0.909216,1.4521681,0.40457097,0.05829736,0.06365902,0.91042334,-5.2115445,7.0131025,0.19899966,-0.1602261,-5.8497243,-0.25436613,0
1.9900000000000015,14.474247768964862,-0.693417794243529,-5.999997928005135,0.683429674466054,13.508012,-0.14719081,-6.379357,-0.40338355,-0.121190846,0.97938967,1.4543799,0.40737543,0.0844673,0.0509192,0.90791917,-5.186692,7.0206156,0.24327472,-0.24320483,-5.8731527,-0.20834821,0
2.0000000000000013,,,,,15.040342,0.022663841,-6.159454,0.27562633,-0.17291097,1.0496057,1.4570308,0.40966132,0.110518016,0.037726037,0.90473175,-5.1565175,7.0215526,0.28671393,-0.31324983,-5.8929334,-0.16458842,0
2.010000000000001,,,,,15.040342,0.022663841,-6.159454,0.27562633,-0.22430915,1.1197985,1.4600871,0.41139886,0.1359768,0.02430211,0.90092736,-5.1223607,7.0160165,0.3243064,-0.38994226,-5.7207775,-0.109631784,0
2.020000000000001,,,,,15.040342,0.022663841,-6.159454,0.27562633,-0.27534223,1.1899041,1.4635111,0.41258454,0.16047186,0.0108295325,0.8966074,-5.0835557,7.0041113,0.36023065,-0.45469764,-5.5754747,-0.057371877,0
2.0300000000000007,,,,,15.040342,0.022663841,-6.159454,0.27562633,-0.3259654,1.2598592,1.4672847,0.4132588,0.18412207,-0.0026838551,0.8918006,-5.0404305,6.985966,0.3941202,-0.50937366,-5.4528356,-0.0076763844,0
2.0400000000000005,,,,,15.040342,0.022663841,-6.159454,0.27562633,-0.37613705,1.3296022,1.4713854,0.41345432,0.20702659,-0.016231101,0.8865277,-4.9932837,6.961713,0.4256328,-0.5555389,-5.349324,0.039580543,0
2.0500000000000003,,,,,14.39962,-0.077529065,-4.7935705,0.6239668,-0.42581826,1.3990729,1.4757879,0.41319782,0.22926776,-0.029805778,0.8808035,-4.94239,6.9314885,0.45444596,-0.5945181,-5.261957,0.08451854,1
2.06,,,,,14.39962,-0.077529065,-4.7935705,0.6239668,-0.47496524,1.4682072,1.4804813,0.41247848,0.25103712,-0.043136545,0.8746316,-4.886458,6.894434,0.4837391,-0.5138083,-5.188917,0.11098943,1
2.07,,,,,14.39962,-0.077529065,-4.7935705,0.6239668,-0.52353555,1.536942,1.4854507,0.41128704,0.27248946,-0.056007084,0.86801785,-4.8270736,6.851632,0.50962305,-0.44569105,-5.127266,0.13616136,1
2.0799999999999996,,,,,14.39962,-0.077529065,-4.7935705,0.6239668,-0.5714953,1.605221,1.4906608,0.40964705,0.29363704,-0.06848533,0.8609737,-4.7643623,6.8033323,0.5317938,-0.38820174,-5.0752277,0.1600981,1
2.0899999999999994,,,,,14.4358015,-0.25437453,-3.809285,0.55826515,-0.6188118,1.6729906,1.4960728,0.4075797,0.31448844,-0.08062767,0.8535071,-4.6984563,6.749775,0.54996383,-0.3396825,-5.0313034,0.18286027,1
2.099999999999999,,,,,14.4358015,-0.25437453,-3.809285,0.55826515,-0.6654531,1.7401985,1.5016468,0.4051698,0.33468795,-0.09237873,0.84574634,-4.6293354,6.6910605,0.56415856,-0.32634306,-4.840733,0.20128147,1
2.109999999999999,,,,,14.4358015,-0.25437453,-3.809285,0.55826515,-0.7113889,1.8067955,1.5073407,0.402505,0.35396516,-0.10369829,0.8378212,-4.557404,6.6276374,0.57394177,-0.31508705,-4.6798816,0.21879876,1
2.1199999999999988,,,,,14.4358015,-0.25437453,-3.809285,0.55826515,-0.7565924,1.872736,1.51311,0.39960465,0.37243915,-0.1146497,0.82973486,-4.4829073,6.5598164,0.57921654,-0.30558875,-4.5441146,0.23545647,1
2.1299999999999986,,,,,14.606163,-0.5364086,0.03473736,0.44101435,-0.80103904,1.9379777,1.5189092,0.3964841,0.39020923,-0.12528588,0.82148635,-4.406069,6.487881,0.5798943,-0.29757378,-4.42952,0.2512968,1
2.1399999999999983,,,,,14.606163,-0.5364086,0.03473736,0.44101435,-0.8447019,2.002476,1.5246977,0.3934185,0.40606436,-0.13513234,0.81367815,-4.3262,6.411247,0.57707924,-0.33491084,-3.7333298,0.2606063,1
2.149999999999998,,,,,14.606163,-0.5364086,0.03473736,0.44101435,-0.88755727,2.0661912,1.5304364,0.39067686,0.4190948,-0.14382885,0.8068728,-4.244661,6.3313146,0.5700513,-0.36641565,-3.1457093,0.26945895,1
2.159999999999998,,,,,14.606163,-0.5364086,0.03473736,0.44101435,-0.9295908,2.129093,1.5360862,0.38824922,0.4297741,-0.15156756,0.8009889,-4.16189,6.248622,0.5593782,-0.39299828,-2.6497273,0.2778772,1
2.1699999999999977,,,,,15.247286,-1.2330178,4.3459287,-0.5818366,-0.97079206,2.1911557,1.5416132,0.38611528,0.43849325,-0.15850826,0.79593533,-4.0782337,6.1635985,0.5455721,-0.41542697,-2.231093,0.28588238,1
2.1799999999999975,,,,,15.247286,-1.2330178,4.3459287,-0.5818366,-1.0111338,2.2523375,1.547008,0.3847454,0.44413623,-0.16428159,0.7922908,-3.990163,6.072651,0.53291845,-0.5405382,-1.2080353,0.24354799,1
2.1899999999999973,,,,,15.247286,-1.2330178,4.3459287,-0.5818366,-1.0505955,2.3126035,1.5522658,0.3845554,0.4458257,-0.16860454,0.79052407,-3.9022136,5.9803886,0.518486,-0.6486777,-0.34189802,0.20304614,1
2.199999999999997,,,,,15.247286,-1.2330178,4.3459287,-0.5818366,-1.0891799,2.3719418,1.5573759,0.38540736,0.44419932,-0.17169732,0.79035896,-3.8147845,5.8871813,0.503551,-0.73989296,0.38917243,0.16453172,1
