time-since-start [s],throttle_mpc,roll_mpc,pitch_mpc,yaw_mpc,throttle_nw,roll_nw,pitch_nw,yaw_nw,position_x [m],position_y [m],position_z [m],rotation_w [quaternion],rotation_x [quaternion],rotation_y [quaternion],rotation_z [quaternion],velocity_x [m/s],velocity_y [m/s],velocity_z [m/s],omega_x [rad/s],omega_y [rad/s],omega_z [rad/s],network_used
0.0,10.285003908883933,2.137156774929399,-5.999999876953918,-0.4919826415034076,12.581077,-1.5360302,-4.22165,-0.3001408,12.614195,-11.111088,1.6987773,-0.25595623,0.26138818,-0.44270587,-0.81864166,-8.195044,1.8824284,-1.0268946,0.7010568,0.002519142,-0.08377308,0
0.01,10.285003908883933,2.137156774929399,-5.999999876953918,-0.4919826415034076,13.762315,-1.6161352,-6.0934134,-0.6469151,12.532146,-11.091823,1.6882632,-0.2739107,0.23505397,-0.44290614,-0.82070506,-8.213512,1.970658,-1.075505,2.1371567,-6.0,-0.49198264,0
0.02,10.285003908883933,2.137156774929399,-5.999999876953918,-0.4919826415034076,13.762315,-1.6161352,-6.0934134,-0.6469151,12.4499445,-11.071677,1.677276,-0.29158574,0.20847999,-0.44265458,-0.8219312,-8.225981,2.0584507,-1.1215303,2.1371567,-6.0,-0.49198264,0
0.03,10.285003908883933,2.137156774929399,-5.999999876953918,-0.4919826415034076,13.762315,-1.6161352,-6.0934134,-0.6469151,12.367648,-11.050656,1.6658407,-0.30896333,0.1816933,-0.44195142,-0.8223188,-8.2324095,2.145434,-1.1651567,2.1371567,-6.0,-0.49198264,0
0.04,10.285003908883933,2.137156774929399,-5.999999876953918,-0.4919826415034076,11.384828,-1.7379458,-4.785243,0.09148899,12.285317,-11.028772,1.6539804,-0.32602572,0.15472127,-0.44079742,-0.8218675,-8.232786,2.2312384,-1.2065803,2.1371567,-6.0,-0.49198264,0
0.05,10.285003908883933,2.137156774929399,-5.999999876953918,-0.4919826415034076,11.384828,-1.7379458,-4.785243,0.09148899,12.203012,-11.006037,1.641716,-0.3427555,0.12759142,-0.43919376,-0.82057786,-8.22712,2.3154998,-1.246006,2.1371567,-6.0,-0.49198264,0
0.060000000000000005,10.285003908883933,2.137156774929399,-5.999999876953918,-0.4919826415034076,11.384828,-1.7379458,-4.785243,0.09148899,12.120795,-10.98247,1.6290663,-0.35913563,0.10033139,-0.43714204,-0.8184511,-8.2154455,2.3978603,-1.2836471,2.1371567,-6.0,-0.49198264,0
0.07,10.285003908883933,2.137156774929399,-5.999999876953918,-0.4919826415034076,11.384828,-1.7379458,-4.785243,0.09148899,12.038724,-10.958089,1.6160485,-0.37514937,0.07296901,-0.4346444,-0.81548935,-8.1978245,2.4779692,-1.3197241,2.1371567,-6.0,-0.49198264,0
0.08,14.7463909341483,0.9099214389080177,-5.9999997027356695,0.5035038398829926,14.379898,-2.8689551,-0.09091135,0.86733586,11.956859,-10.932919,1.6026765,-0.39078042,0.045532197,-0.43170333,-0.81169564,-8.174339,2.5554852,-1.3544637,2.1371567,-6.0,-0.49198264,0
0.09,14.7463909341483,0.9099214389080177,-5.9999997027356695,0.5035038398829926,14.379898,-2.8689551,-0.09091135,0.86733586,11.875317,-10.906826,1.5891037,-0.4017124,0.01829971,-0.42358857,-0.81170505,-8.132868,2.6622252,-1.3596871,0.90992147,-5.9999995,0.50350386,0
0.09999999999999999,14.7463909341483,0.9099214389080177,-5.9999997027356695,0.5035038398829926,14.379898,-2.8689551,-0.09091135,0.86733586,11.794224,-10.879691,1.5754911,-0.41227198,-0.00894974,-0.41508117,-0.8109621,-8.084499,2.7638068,-1.3624928,0.90992147,-5.9999995,0.50350386,0
0.10999999999999999,14.7463909341483,0.9099214389080177,-5.9999997027356695,0.5035038398829926,14.379898,-2.8689551,-0.09091135,0.86733586,11.713649,-10.851569,1.5618609,-0.4224494,-0.03619089,-0.40618902,-0.8094673,-8.029386,2.8598742,-1.363264,0.90992147,-5.9999995,0.50350386,0
0.11999999999999998,14.7463909341483,0.9099214389080177,-5.9999997027356695,0.5035038398829926,14.379898,-2.8689551,-0.09091135,0.86733586,11.633658,-10.822515,1.5482315,-0.4322352,-0.063398495,-0.39692035,-0.8072222,-7.9677052,2.9500926,-1.3623918,0.90992147,-5.9999995,0.50350386,0
0.12999999999999998,17.311381703370323,-0.2326034574237886,-5.999999224642219,1.0675063541876606,16.044174,-3.2335017,1.298059,0.895523,11.5543165,-10.792588,1.5346173,-0.44162035,-0.09054732,-0.38728374,-0.8042288,-7.89966,3.0341485,-1.3602731,0.90992147,-5.9999995,0.50350386,0
0.13999999999999999,17.311381703370323,-0.2326034574237886,-5.999999224642219,1.0675063541876606,16.044174,-3.2335017,1.298059,0.895523,11.475748,-10.7617855,1.5211182,-0.44884512,-0.116181634,-0.37243873,-0.803946,-7.813042,3.1250217,-1.3392123,-0.23260346,-5.999999,1.0675063,0
0.15,17.311381703370323,-0.2326034574237886,-5.999999224642219,1.0675063541876606,16.044174,-3.2335017,1.298059,0.895523,11.398075,-10.730116,1.5078394,-0.45565256,-0.14170791,-0.35724744,-0.8029158,-7.720729,3.2074084,-1.3162726,-0.23260346,-5.999999,1.0675063,0
0.16,17.06088033477713,-0.8547419600423891,-3.8660768698772885,1.1060453890940423,15.365629,-2.3100364,2.0831025,0.12546408,11.321352,-10.697667,1.4947973,-0.46203634,-0.16710246,-0.34172398,-0.8011391,-7.62298,3.2810442,-1.2919677,-0.23260346,-5.999999,1.0675063,0
0.17,17.06088033477713,-0.8547419600423891,-3.8660768698772885,1.1060453890940423,15.365629,-2.3100364,2.0831025,0.12546408,11.245623,-10.664529,1.4819947,-0.4648279,-0.18246761,-0.32837343,-0.8017553,-7.5225005,3.345805,-1.2683563,-0.85474193,-3.866077,1.1060454,0
0.18000000000000002,17.06088033477713,-0.8547419600423891,-3.8660768698772885,1.1060453890940423,15.365629,-2.3100364,2.0831025,0.12546408,11.170911,-10.630773,1.4694341,-0.46742302,-0.19775566,-0.3148842,-0.8020327,-7.419614,3.4043567,-1.2436159,-0.85474193,-3.866077,1.1060454,0
0.19000000000000003,17.06088033477713,-0.8547419600423891,-3.8660768698772885,1.1060453890940423,15.365629,-2.3100364,2.0831025,0.12546408,11.0972395,-10.596462,1.4571255,-0.46982068,-0.21296018,-0.3012619,-0.80197126,-7.3144274,3.45662,-1.2179894,-0.85474193,-3.866077,1.1060454,0
0.20000000000000004,15.951320516627867,-0.9890721299040339,-0.8801377014494626,1.1514831607598872,15.475686,-1.3924975,3.465095,-0.07667746,11.0246315,-10.561663,1.4450765,-0.47201982,-0.22807471,-0.2875123,-0.80157095,-7.207053,3.5025256,-1.1917219,-0.85474193,-3.866077,1.1060454,0
0.21000000000000005,15.951320516627867,-0.9890721299040339,-0.8801377014494626,1.1514831607598872,15.475686,-1.3924975,3.465095,-0.07667746,10.953069,-10.526444,1.4332525,-0.46977988,-0.23091438,-0.28014696,-0.8046758,-7.105567,3.5410042,-1.1729287,-0.98907214,-0.8801377,1.1514832,0
0.22000000000000006,15.951320516627867,-0.9890721299040339,-0.8801377014494626,1.1514831607598872,15.475686,-1.3924975,3.465095,-0.07667746,10.882519,-10.4908495,1.4216211,-0.46750376,-0.23373628,-0.27276003,-0.8077188,-7.0044346,3.5776083,-1.1532301,-0.98907214,-0.8801377,1.1514832,0
0.23000000000000007,15.951320516627867,-0.9890721299040339,-0.8801377014494626,1.1514831607598872,15.475686,-1.3924975,3.465095,-0.07667746,10.812979,-10.454899,1.410191,-0.46519166,-0.23654018,-0.2653521,-0.8106996,-6.903656,3.6123219,-1.1326594,-0.98907214,-0.8801377,1.1514832,0
0.24000000000000007,15.951320516627867,-0.9890721299040339,-0.8801377014494626,1.1514831607598872,15.3497505,-1.7583722,3.4204655,-0.05090356,10.744444,-10.418611,1.3989708,-0.46284378,-0.23932588,-0.25792375,-0.81361794,-6.8032303,3.6451294,-1.1112503,-0.98907214,-0.8801377,1.1514832,0
0.25000000000000006,15.951320516627867,-0.9890721299040339,-0.8801377014494626,1.1514831607598872,15.3497505,-1.7583722,3.4204655,-0.05090356,10.676912,-10.382003,1.3879688,-0.46046025,-0.24209316,-0.25047556,-0.8164737,-6.7031565,3.6760163,-1.0890367,-0.98907214,-0.8801377,1.1514832,0
0.26000000000000006,15.951320516627867,-0.9890721299040339,-0.8801377014494626,1.1514831607598872,15.3497505,-1.7583722,3.4204655,-0.05090356,10.61038,-10.345098,1.3771927,-0.45804125,-0.2448418,-0.24300806,-0.81926656,-6.603434,3.7049682,-1.066053,-0.98907214,-0.8801377,1.1514832,0
0.2700000000000001,15.951320516627867,-0.9890721299040339,-0.8801377014494626,1.1514831607598872,15.3497505,-1.7583722,3.4204655,-0.05090356,10.544842,-10.307912,1.3666502,-0.45558703,-0.2475716,-0.23552188,-0.8219964,-6.504061,3.731972,-1.0423336,-0.98907214,-0.8801377,1.1514832,0
0.2800000000000001,14.695919914424811,-1.217612509696032,2.2061640518300583,1.0429274842720253,15.752241,-1.9049028,3.405601,-0.2733356,10.480295,-10.270465,1.3563484,-0.45309773,-0.25028235,-0.22801758,-0.824663,-6.405037,3.7570143,-1.0179132,-0.98907214,-0.8801377,1.1514832,0
0.2900000000000001,14.695919914424811,-1.217612509696032,2.2061640518300583,1.0429274842720253,15.752241,-1.9049028,3.405601,-0.2733356,10.416697,-10.232782,1.346247,-0.44776398,-0.23959324,-0.22666873,-0.8310979,-6.3150034,3.7796674,-1.0020977,-1.2176125,2.2061641,1.0429275,0
0.3000000000000001,14.695919914424811,-1.217612509696032,2.2061640518300583,1.0429274842720253,15.752241,-1.9049028,3.405601,-0.2733356,10.353985,-10.194864,1.3363122,-0.44234696,-0.22885957,-0.22527774,-0.8373783,-6.2276683,3.8042037,-0.984584,-1.2176125,2.2061641,1.0429275,0
0.3100000000000001,14.695919914424811,-1.217612509696032,2.2061640518300583,1.0429274842720253,15.752241,-1.9049028,3.405601,-0.2733356,10.292133,-10.156692,1.3265609,-0.4368477,-0.21808337,-0.22384487,-0.843503,-6.1430993,3.8305748,-0.9654293,-1.2176125,2.2061641,1.0429275,0
0.3200000000000001,13.90432238045256,-1.4144544640890826,4.962836733854587,0.8819730219183747,16.853294,-2.0391057,2.7830927,-0.56910133,10.2311125,-10.118246,1.317009,-0.43126723,-0.20726661,-0.22237037,-0.8494708,-6.0613627,3.8587308,-0.94469196,-1.2176125,2.2061641,1.0429275,0
0.3300000000000001,13.90432238045256,-1.4144544640890826,4.962836733854587,0.8819730219183747,16.853294,-2.0391057,2.7830927,-0.56910133,10.170871,-10.079516,1.3076407,-0.42332223,-0.1840499,-0.2260736,-0.85779643,-5.9876328,3.888134,-0.9286505,-1.4144545,4.9628367,0.881973,0
0.34000000000000014,13.90432238045256,-1.4144544640890826,4.962836733854587,0.8819730219183747,16.853294,-2.0391057,2.7830927,-0.56910133,10.111342,-10.040468,1.2984427,-0.4150872,-0.1607071,-0.22962192,-0.8655343,-5.9190984,3.9220774,-0.9106477,-1.4144545,4.9628367,0.881973,0
0.35000000000000014,13.90432238045256,-1.4144544640890826,4.962836733854587,0.8819730219183747,16.853294,-2.0391057,2.7830927,-0.56910133,10.052471,-10.001059,1.2894335,-0.40656775,-0.13725418,-0.23301291,-0.8726792,-5.855972,3.9604242,-0.8909617,-1.4144545,4.9628367,0.881973,0
0.36000000000000015,13.553473156675862,-1.5994576762576775,5.168277019517158,0.6171519165973745,14.391423,-1.8800098,3.4135792,-0.16631497,9.994204,-9.961245,1.2806283,-0.39776972,-0.113707215,-0.23624425,-0.8792261,-5.798449,4.0030246,-0.86987543,-1.4144545,4.9628367,0.881973,0
0.37000000000000016,13.553473156675862,-1.5994576762576775,5.168277019517158,0.6171519165973745,14.391423,-1.8800098,3.4135792,-0.16631497,9.936476,-9.92099,1.2720249,-0.3897147,-0.08849568,-0.23905297,-0.8849546,-5.748148,4.048564,-0.8506666,-1.5994576,5.168277,0.6171519,0
0.38000000000000017,13.553473156675862,-1.5994576762576775,5.168277019517158,0.6171519165973745,14.391423,-1.8800098,3.4135792,-0.16631497,9.879221,-9.8802595,1.2636182,-0.38137078,-0.06321854,-0.2416845,-0.8900271,-5.7039967,4.097991,-0.83055884,-1.5994576,5.168277,0.6171519,0
0.3900000000000002,13.553473156675862,-1.5994576762576775,5.168277019517158,0.6171519165973745,14.391423,-1.8800098,3.4135792,-0.16631497,9.822374,-9.839016,1.2554158,-0.37274417,-0.037894554,-0.24413687,-0.89444,-5.6661425,4.1511254,-0.8098764,-1.5994576,5.168277,0.6171519,0
0.4000000000000002,13.319271923377727,-1.7037274430373437,3.1749524806568123,0.39069150518668566,14.48983,-2.512603,1.4859179,-0.3641518,9.765875,-9.797224,1.2474216,-0.3638413,-0.012542479,-0.24640828,-0.8981899,-5.634716,4.207777,-0.78894514,-1.5994576,5.168277,0.6171519,0
0.4100000000000002,13.319271923377727,-1.7037274430373437,3.1749524806568123,0.39069150518668566,14.48983,-2.512603,1.4859179,-0.3641518,9.709657,-9.754857,1.2396269,-0.35822245,0.0043352926,-0.24446797,-0.90105116,-5.6095533,4.266032,-0.76994824,-1.7037275,3.1749525,0.39069152,0
0.4200000000000002,13.319271923377727,-1.7037274430373437,3.1749524806568123,0.39069150518668566,14.48983,-2.512603,1.4859179,-0.3641518,9.653667,-9.7119,1.2320235,-0.35248598,0.02121164,-0.24244736,-0.9036166,-5.588999,4.3256044,-0.7507146,-1.7037275,3.1749525,0.39069152,0
0.4300000000000002,13.319271923377727,-1.7037274430373437,3.1749524806568123,0.39069150518668566,14.48983,-2.512603,1.4859179,-0.3641518,9.597861,-9.66834,1.224613,-0.34663376,0.038081028,-0.24034715,-0.9058853,-5.573083,4.3863997,-0.7313875,-1.7037275,3.1749525,0.39069152,0
0.4400000000000002,13.319271923377727,-1.7037274430373437,3.1749524806568123,0.39069150518668566,13.952072,-2.084185,0.7265823,-0.08735515,9.542191,-9.6241665,1.2173957,-0.34066772,0.054937907,-0.23816802,-0.90785646,-5.561831,4.4483237,-0.7121106,-1.7037275,3.1749525,0.39069152,0
0.45000000000000023,13.319271923377727,-1.7037274430373437,3.1749524806568123,0.39069150518668566,13.952072,-2.084185,0.7265823,-0.08735515,9.486609,-9.579369,1.2103702,-0.33458978,0.07177674,-0.23591067,-0.90952957,-5.5552616,4.5112796,-0.6930274,-1.7037275,3.1749525,0.39069152,0
0.46000000000000024,13.319271923377727,-1.7037274430373437,3.1749524806568123,0.39069150518668566,13.952072,-2.084185,0.7265823,-0.08735515,9.431069,-9.533937,1.2035341,-0.32840198,0.08859201,-0.23357587,-0.91090393,-5.553387,4.575169,-0.6742812,-1.7037275,3.1749525,0.39069152,0
0.47000000000000025,13.319271923377727,-1.7037274430373437,3.1749524806568123,0.39069150518668566,13.952072,-2.084185,0.7265823,-0.08735515,9.375525,-9.487863,1.1968831,-0.32210636,0.10537819,-0.23116435,-0.9119792,-5.5562143,4.6398945,-0.6560148,-1.7037275,3.1749525,0.39069152,0
0.48000000000000026,13.190334705747553,-1.7221722552022989,2.0511446938250257,0.22303358885003782,13.439359,-1.7030646,-0.086721025,0.52088106,9.31993,-9.441137,1.1904117,-0.31570494,0.12212977,-0.22867692,-0.912755,-5.5637426,4.705355,-0.6383704,-1.7037275,3.1749525,0.39069152,0
0.49000000000000027,13.190334705747553,-1.7221722552022989,2.0511446938250257,0.22303358885003782,13.439359,-1.7030646,-0.086721025,0.52088106,9.264238,-9.393758,1.1841081,-0.3112618,0.13394284,-0.22417077,-0.91374123,-5.575424,4.7705193,-0.6223885,-1.7221723,2.0511446,0.22303359,0
0.5000000000000002,13.190334705747553,-1.7221722552022989,2.0511446938250257,0.22303358885003782,13.439359,-1.7030646,-0.086721025,0.52088106,9.20841,-9.345727,1.177963,-0.30676246,0.14573172,-0.21962416,-0.91456246,-5.59062,4.8354635,-0.6066954,-1.7221723,2.0511446,0.22303359,0
0.5100000000000002,13.190334705747553,-1.7221722552022989,2.0511446938250257,0.22303358885003782,13.439359,-1.7030646,-0.086721025,0.52088106,9.152413,-9.297049,1.1719729,-0.3022077,0.15749429,-0.21503788,-0.91521853,-5.609319,4.900134,-0.59136903,-1.7221723,2.0511446,0.22303359,0
0.5200000000000002,12.95828964338014,-1.684751072014979,0.27952968254569327,0.09759437660444051,13.127278,-1.6787328,-0.974678,0.64713675,9.096212,-9.247725,1.166134,-0.2975984,0.1692284,-0.21041279,-0.9157094,-5.631507,4.9644785,-0.57648665,-1.7221723,2.0511446,0.22303359,0
0.5300000000000002,12.95828964338014,-1.684751072014979,0.27952968254569327,0.09759437660444051,13.127278,-1.6787328,-0.974678,0.64713675,9.039777,-9.197765,1.1604325,-0.2954211,0.17290623,-0.20318998,-0.917357,-5.656047,5.0269275,-0.5637296,-1.684751,0.2795297,0.09759437,0
0.5400000000000003,12.95828964338014,-1.684751072014979,0.27952968254569327,0.09759437660444051,13.127278,-1.6787328,-0.974678,0.64713675,8.983088,-9.14719,1.1548609,-0.29322216,0.17657141,-0.19595231,-0.9189376,-5.682203,5.0879273,-0.5505361,-1.684751,0.2795297,0.09759437,0
0.5500000000000003,12.95828964338014,-1.684751072014979,0.27952968254569327,0.09759437660444051,13.127278,-1.6787328,-0.974678,0.64713675,8.926128,-9.096012,1.1494232,-0.29100177,0.18022369,-0.1887003,-0.920451,-5.7099643,5.1474595,-0.53693765,-1.684751,0.2795297,0.09759437,0
0.5600000000000003,12.86550248787721,-1.5786741973066143,-0.6797472320569455,0.038153257376463405,13.749092,-1.6343027,-0.4834774,0.17831972,8.868883,-9.044247,1.1441236,-0.2887601,0.18386278,-0.18143448,-0.921897,-5.7393227,5.205506,-0.52296585,-1.684751,0.2795297,0.09759437,1
0.5700000000000003,12.86550248787721,-1.5786741973066143,-0.6797472320569455,0.038153257376463405,13.749092,-1.6343027,-0.4834774,0.17831972,8.811328,-8.991891,1.139,-0.28686374,0.18382528,-0.17336053,-0.92404765,-5.7718387,5.265335,-0.5016234,-1.6343027,-0.4834774,0.17831972,1
0.5800000000000003,12.86550248787721,-1.5786741973066143,-0.6797472320569455,0.038153257376463405,13.749092,-1.6343027,-0.4834774,0.17831972,8.753444,-8.938947,1.1340936,-0.28494626,0.1837743,-0.16527383,-0.9261305,-5.8051805,5.3231144,-0.47950193,-1.6343027,-0.4834774,0.17831972,1
0.5900000000000003,12.86550248787721,-1.5786741973066143,-0.6797472320569455,0.038153257376463405,13.749092,-1.6343027,-0.4834774,0.17831972,8.695222,-8.885435,1.1294123,-0.28300792,0.18370983,-0.157175,-0.92814535,-5.839335,5.3788257,-0.45663488,-1.6343027,-0.4834774,0.17831972,1
0.6000000000000003,12.517069435866203,-1.3979338002924089,-0.9626207913394547,0.0048178135865541705,13.902037,-1.5030932,-0.45165366,0.17559913,8.636653,-8.831376,1.1249634,-0.2810488,0.18363187,-0.14906465,-0.93009204,-5.8742876,5.432452,-0.43305585,-1.6343027,-0.4834774,0.17831972,0
0.6100000000000003,12.517069435866203,-1.3979338002924089,-0.9626207913394547,0.0048178135865541705,13.902037,-1.5030932,-0.45165366,0.17559913,8.577748,-8.776815,1.120699,-0.28045022,0.18110949,-0.14121003,-0.93199104,-5.9065843,5.479344,-0.41968656,-1.3979338,-0.9626208,0.0048178136,0
0.6200000000000003,12.517069435866203,-1.3979338002924089,-0.9626207913394547,0.0048178135865541705,13.902037,-1.5030932,-0.45165366,0.17559913,8.51852,-8.721796,1.1165724,-0.27983144,0.17857409,-0.13334525,-0.93382293,-5.93895,5.5242643,-0.40552828,-1.3979338,-0.9626208,0.0048178136,0
0.6300000000000003,12.517069435866203,-1.3979338002924089,-0.9626207913394547,0.0048178135865541705,13.902037,-1.5030932,-0.45165366,0.17559913,8.458969,-8.666338,1.112591,-0.2791925,0.17602582,-0.12547088,-0.9355875,-5.9713755,5.5672007,-0.3906133,-1.3979338,-0.9626208,0.0048178136,0
0.6400000000000003,12.517069435866203,-1.3979338002924089,-0.9626207913394547,0.0048178135865541705,13.748483,-1.2123072,-0.5873146,0.24024293,8.399093,-8.610459,1.1087627,-0.27853346,0.17346488,-0.11758746,-0.93728477,-6.0038514,5.6081405,-0.3749741,-1.3979338,-0.9626208,0.0048178136,0
0.6500000000000004,12.517069435866203,-1.3979338002924089,-0.9626207913394547,0.0048178135865541705,13.748483,-1.2123072,-0.5873146,0.24024293,8.338892,-8.554182,1.1050941,-0.27785432,0.17089145,-0.109695576,-0.9389145,-6.0363684,5.6470714,-0.35864347,-1.3979338,-0.9626208,0.0048178136,0
0.6600000000000004,12.517069435866203,-1.3979338002924089,-0.9626207913394547,0.0048178135865541705,13.748483,-1.2123072,-0.5873146,0.24024293,8.278365,-8.497525,1.1015922,-0.2771552,0.16830571,-0.1017958,-0.9404766,-6.0689163,5.683983,-0.34165433,-1.3979338,-0.9626208,0.0048178136,0
0.6700000000000004,12.517069435866203,-1.3979338002924089,-0.9626207913394547,0.0048178135865541705,13.748483,-1.2123072,-0.5873146,0.24024293,8.217513,-8.44051,1.0982633,-0.27643612,0.16570784,-0.093888685,-0.94197094,-6.1014857,5.718865,-0.32403982,-1.3979338,-0.9626208,0.0048178136,0
0.6800000000000004,12.464842590690116,-1.1702560754667177,-0.7492163324200352,-0.00069540895846797,14.49889,-1.0471052,-0.92650133,0.43139717,8.156336,-8.383155,1.0951135,-0.27569714,0.16309802,-0.08597481,-0.9433975,-6.134068,5.7517056,-0.30583325,-1.3979338,-0.9626208,0.0048178136,0
0.6900000000000004,12.464842590690116,-1.1702560754667177,-0.7492163324200352,-0.00069540895846797,14.49889,-1.0471052,-0.92650133,0.43139717,8.094832,-8.325481,1.092146,-0.27506152,0.16117354,-0.07941935,-0.9444878,-6.166538,5.782507,-0.28759763,-1.170256,-0.7492163,-0.00069540896,0
0.7000000000000004,12.464842590690116,-1.1702560754667177,-0.7492163324200352,-0.00069540895846797,14.49889,-1.0471052,-0.92650133,0.43139717,8.033005,-8.267509,1.089363,-0.2744126,0.15924127,-0.07286006,-0.94553256,-6.1990595,5.8116283,-0.26894456,-1.170256,-0.7492163,-0.00069540896,0
0.7100000000000004,12.464842590690116,-1.1702560754667177,-0.7492163324200352,-0.00069540895846797,14.49889,-1.0471052,-0.92650133,0.43139717,7.970852,-8.209255,1.0867685,-0.27375045,0.15730132,-0.06629725,-0.9465316,-6.231627,5.8390636,-0.24989663,-1.170256,-0.7492163,-0.00069540896,0
0.7200000000000004,12.330783193793451,-0.8384268637090425,-0.725079713305076,-0.018411898301318782,14.277513,-0.70020056,-0.9444441,0.3709331,7.9083724,-8.150735,1.0843663,-0.27307507,0.15535377,-0.059731245,-0.947485,-6.264234,5.864807,-0.23047642,-1.170256,-0.7492163,-0.00069540896,0
0.7300000000000004,12.330783193793451,-0.8384268637090425,-0.725079713305076,-0.018411898301318782,14.277513,-0.70020056,-0.9444441,0.3709331,7.845569,-8.091967,1.0821538,-0.27272338,0.15306665,-0.05475406,-0.94825894,-6.2964506,5.888732,-0.21198143,-0.8384269,-0.7250797,-0.018411899,0
0.7400000000000004,12.330783193793451,-0.8384268637090425,-0.725079713305076,-0.018411898301318782,14.277513,-0.70020056,-0.9444441,0.3709331,7.7824435,-8.032965,1.0801277,-0.2723633,0.15077482,-0.049775194,-0.94900376,-6.3285,5.911336,-0.19317736,-0.8384269,-0.7250797,-0.018411899,0
0.7500000000000004,12.330783193793451,-0.8384268637090425,-0.725079713305076,-0.018411898301318782,14.277513,-0.70020056,-0.9444441,0.3709331,7.718999,-7.973744,1.0782912,-0.2719949,0.14847836,-0.044794798,-0.94971937,-6.360379,5.9326158,-0.17407864,-0.8384269,-0.7250797,-0.018411899,0
0.7600000000000005,12.203867062916602,-0.4716177796095712,-0.5734652825618337,-0.061887682531334934,15.748063,-0.019403342,-1.5195578,-0.1343256,7.6552362,-7.914317,1.0766472,-0.27161813,0.14617735,-0.039813027,-0.9504058,-6.392084,5.9525685,-0.1546997,-0.8384269,-0.7250797,-0.018411899,0
0.7700000000000005,12.203867062916602,-0.4716177796095712,-0.5734652825618337,-0.061887682531334934,15.748063,-0.019403342,-1.5195578,-0.1343256,7.59116,-7.8546977,1.0751921,-0.27167976,0.14410403,-0.036747567,-0.95082814,-6.423255,5.9711795,-0.13628624,-0.4716178,-0.5734653,-0.06188768,0
0.7800000000000005,12.203867062916602,-0.4716177796095712,-0.5734652825618337,-0.061887682531334934,15.748063,-0.019403342,-1.5195578,-0.1343256,7.5267725,-7.794896,1.073922,-0.2717377,0.14202873,-0.033681598,-0.95123726,-6.454162,5.988947,-0.11767106,-0.4716178,-0.5734653,-0.06188768,0
0.7900000000000005,12.203867062916602,-0.4716177796095712,-0.5734652825618337,-0.061887682531334934,15.748063,-0.019403342,-1.5195578,-0.1343256,7.462077,-7.7349215,1.0728391,-0.27179182,0.13995145,-0.030615157,-0.9516333,-6.484804,6.0058703,-0.09886068,-0.4716178,-0.5734653,-0.06188768,0
0.8000000000000005,11.991281370003259,-0.16478415831932852,-0.8340511905640285,-0.12153741455166786,13.731179,0.4888085,0.35969943,-0.25566417,7.397077,-7.674782,1.0719453,-0.27184215,0.13787222,-0.027548293,-0.95201606,-6.5151796,6.0219483,-0.07986168,-0.4716178,-0.5734653,-0.06188768,0
0.8100000000000005,11.991281370003259,-0.16478415831932852,-0.8340511905640285,-0.12153741455166786,13.731179,0.4888085,0.35969943,-0.25566417,7.3317776,-7.614487,1.0712324,-0.27241948,0.13414153,-0.025546225,-0.9524397,-6.5445957,6.0369716,-0.06268817,-0.16478416,-0.8340512,-0.12153742,0
0.8200000000000005,11.991281370003259,-0.16478415831932852,-0.8340511905640285,-0.12153741455166786,13.731179,0.4888085,0.35969943,-0.25566417,7.2661877,-7.5540447,1.0706925,-0.27299175,0.13040838,-0.023543686,-0.9528459,-6.5733,6.0513153,-0.045248963,-0.16478416,-0.8340512,-0.12153742,0
0.8300000000000005,11.991281370003259,-0.16478415831932852,-0.8340511905640285,-0.12153741455166786,13.731179,0.4888085,0.35969943,-0.25566417,7.200314,-7.493463,1.0703284,-0.273559,0.1266728,-0.021540713,-0.95323443,-6.601291,6.0649776,-0.027552493,-0.16478416,-0.8340512,-0.12153742,0
0.8400000000000005,11.991281370003259,-0.16478415831932852,-0.8340511905640285,-0.12153741455166786,13.8365135,0.56901234,0.001628425,-0.35023677,7.134164,-7.4327474,1.0701424,-0.2741212,0.1229349,-0.01953734,-0.9536054,-6.6285686,6.077956,-0.009607226,-0.16478416,-0.8340512,-0.12153742,0
0.8500000000000005,11.991281370003259,-0.16478415831932852,-0.8340511905640285,-0.12153741455166786,13.8365135,0.56901234,0.001628425,-0.35023677,7.067745,-7.3719053,1.070137,-0.27467835,0.11919473,-0.01753361,-0.9539588,-6.655131,6.090249,0.008578347,-0.16478416,-0.8340512,-0.12153742,0
0.8600000000000005,11.991281370003259,-0.16478415831932852,-0.8340511905640285,-0.12153741455166786,13.8365135,0.56901234,0.001628425,-0.35023677,7.0010643,-7.310944,1.0703148,-0.27523044,0.115452364,-0.015529554,-0.9542946,-6.6809773,6.1018543,0.026995733,-0.16478416,-0.8340512,-0.12153742,0
0.8700000000000006,11.991281370003259,-0.16478415831932852,-0.8340511905640285,-0.12153741455166786,13.8365135,0.56901234,0.001628425,-0.35023677,6.9341288,-7.2498703,1.0706778,-0.27577746,0.111707866,-0.013525214,-0.9546128,-6.7061067,6.1127706,0.04563641,-0.16478416,-0.8340512,-0.12153742,0
0.8800000000000006,11.801112019134926,0.14121346081428693,-0.6839212575438262,-0.18728111283899235,13.793037,0.5023619,0.028155187,-0.3291215,6.8669453,-7.188691,1.0712283,-0.27631938,0.10796131,-0.011520623,-0.95491344,-6.730517,6.122996,0.06449185,-0.16478416,-0.8340512,-0.12153742,0
0.8900000000000006,11.801112019134926,0.14121346081428693,-0.6839212575438262,-0.18728111283899235,13.793037,0.5023619,0.028155187,-0.3291215,6.799523,-7.1274133,1.0719589,-0.2773274,0.10451087,-0.011148783,-0.95500946,-6.7538157,6.1325274,0.08168672,0.14121346,-0.6839213,-0.18728112,0
0.9000000000000006,11.801112019134926,0.14121346081428693,-0.6839212575438262,-0.18728111283899235,13.793037,0.5023619,0.028155187,-0.3291215,6.7318716,-7.0660415,1.0728624,-0.2783318,0.10105907,-0.010776796,-0.955093,-6.77636,6.141774,0.099054515,0.14121346,-0.6839213,-0.18728112,0
0.9100000000000006,11.801112019134926,0.14121346081428693,-0.6839212575438262,-0.18728111283899235,13.793037,0.5023619,0.028155187,-0.3291215,6.6639986,-7.0045786,1.0739405,-0.27933252,0.09760595,-0.01040467,-0.9551642,-6.7981505,6.1507344,0.116589606,0.14121346,-0.6839213,-0.18728112,0
0.9200000000000006,11.499652200682451,0.516618757437123,-0.7581605568267035,-0.26436533478960667,13.290231,0.46531984,0.48895684,-0.41810694,6.595911,-6.943028,1.0751948,-0.2803296,0.09415155,-0.010032407,-0.9552227,-6.8191857,6.159407,0.13428636,0.14121346,-0.6839213,-0.18728112,0
0.9300000000000006,11.499652200682451,0.516618757437123,-0.7581605568267035,-0.26436533478960667,13.290231,0.46531984,0.48895684,-0.41810694,6.5276203,-6.881393,1.076612,-0.28187028,0.089818574,-0.011312591,-0.9551723,-6.838834,6.1676946,0.14918807,0.5166187,-0.75816053,-0.26436535,0
0.9400000000000006,11.499652200682451,0.516618757437123,-0.7581605568267035,-0.26436533478960667,13.290231,0.46531984,0.48895684,-0.41810694,6.459138,-6.819674,1.0781791,-0.2834045,0.08548355,-0.012592518,-0.9551001,-6.857442,6.1760144,0.16426335,0.5166187,-0.75816053,-0.26436535,0
0.9500000000000006,11.499652200682451,0.516618757437123,-0.7581605568267035,-0.26436533478960667,13.290231,0.46531984,0.48895684,-0.41810694,6.3904743,-6.757872,1.0798978,-0.2849323,0.081146576,-0.013872158,-0.9550061,-6.875008,6.184363,0.17950287,0.5166187,-0.75816053,-0.26436535,0
0.9600000000000006,11.227096207351758,0.8750307684389356,-0.7755722130503677,-0.3417905620167492,12.1095295,0.6462631,0.5635846,-0.5151011,6.3216405,-6.695987,1.0817697,-0.28645357,0.07680776,-0.015151481,-0.9548904,-6.8915305,6.192737,0.19489732,0.5166187,-0.75816053,-0.26436535,0
0.9700000000000006,11.227096207351758,0.8750307684389356,-0.7755722130503677,-0.3417905620167492,12.1095295,0.6462631,0.5635846,-0.5151011,6.252649,-6.6340184,1.0837828,-0.28847492,0.07187605,-0.018086884,-0.95461464,-6.9065523,6.2010555,0.20774673,0.87503076,-0.77557224,-0.34179056,0
0.9800000000000006,11.227096207351758,0.8750307684389356,-0.7755722130503677,-0.3417905620167492,12.1095295,0.6462631,0.5635846,-0.5151011,6.183513,-6.5719647,1.0859252,-0.29048556,0.06694167,-0.021021618,-0.95430356,-6.9203143,6.209716,0.22073337,0.87503076,-0.77557224,-0.34179056,0
0.9900000000000007,11.227096207351758,0.8750307684389356,-0.7755722130503677,-0.3417905620167492,12.1095295,0.6462631,0.5635846,-0.5151011,6.1142464,-6.509823,1.0881981,-0.29248542,0.06200481,-0.02395557,-0.953957,-6.932813,6.218712,0.23384252,0.87503076,-0.77557224,-0.34179056,0
1.0000000000000007,10.973776075410477,1.0797209178294174,-0.8013602380500707,-0.4140684698215745,11.439689,0.4476336,0.88671136,-0.69787323,6.044861,-6.4475894,1.0906025,-0.29447442,0.057065647,-0.026888635,-0.9535752,-6.9440465,6.228038,0.24705948,0.87503076,-0.77557224,-0.34179056,0
1.0100000000000007,10.973776075410477,1.0797209178294174,-0.8013602380500707,-0.4140684698215745,11.439689,0.4476336,0.88671136,-0.69787323,5.975371,-6.385262,1.093127,-0.29685718,0.05170941,-0.030737868,-0.9530254,-6.9537296,6.237535,0.257855,1.079721,-0.80136025,-0.41406846,0
1.0200000000000007,10.973776075410477,1.0797209178294174,-0.8013602380500707,-0.4140684698215745,11.439689,0.4476336,0.88671136,-0.69787323,5.905791,-6.3228374,1.0957599,-0.2992252,0.046350613,-0.034585573,-0.95242846,-6.96202,6.247512,0.2687226,1.079721,-0.80136025,-0.41406846,0
1.0300000000000007,10.973776075410477,1.0797209178294174,-0.8013602380500707,-0.4140684698215745,11.439689,0.4476336,0.88671136,-0.69787323,5.8361354,-6.26031,1.0985017,-0.30157846,0.040989526,-0.038431574,-0.95178443,-6.968913,6.2579613,0.2796432,1.079721,-0.80136025,-0.41406846,0
1.0400000000000007,10.973776075410477,1.0797209178294174,-0.8013602380500707,-0.4140684698215745,11.262414,0.42471805,0.9834037,-0.7956759,5.7664175,-6.197676,1.1013529,-0.30391678,0.03562641,-0.04227567,-0.95109326,-6.9744062,6.2688756,0.29059783,1.079721,-0.80136025,-0.41406846,0
1.0500000000000007,10.973776075410477,1.0797209178294174,-0.8013602380500707,-0.4140684698215745,11.262414,0.42471805,0.9834037,-0.7956759,5.696652,-6.134931,1.1043139,-0.30624005,0.030261533,-0.046117675,-0.95035505,-6.978497,6.280247,0.30156738,1.079721,-0.80136025,-0.41406846,0
1.0600000000000007,10.973776075410477,1.0797209178294174,-0.8013602380500707,-0.4140684698215745,11.262414,0.42471805,0.9834037,-0.7956759,5.626852,-6.0720696,1.1073844,-0.30854818,0.024895156,-0.0499574,-0.94956976,-6.9811816,6.292068,0.31253284,1.079721,-0.80136025,-0.41406846,0
1.0700000000000007,10.973776075410477,1.0797209178294174,-0.8013602380500707,-0.4140684698215745,11.262414,0.42471805,0.9834037,-0.7956759,5.5570326,-6.0090885,1.1105645,-0.31084105,0.019527545,-0.053794652,-0.9487375,-6.982458,6.304329,0.32347518,1.079721,-0.80136025,-0.41406846,0
1.0800000000000007,10.819176007711732,1.2407971096993002,-0.5623333792194966,-0.44942713573766535,10.874711,0.43520314,1.5345047,-0.8532082,5.4872074,-5.945982,1.1138538,-0.31311852,0.01415897,-0.05762924,-0.94785833,-6.9823256,6.3170238,0.33437532,1.079721,-0.80136025,-0.41406846,0
1.0900000000000007,10.819176007711732,1.2407971096993002,-0.5623333792194966,-0.44942713573766535,10.874711,0.43520314,1.5345047,-0.8532082,5.417391,-5.8827467,1.1172441,-0.3154903,0.009680499,-0.062596016,-0.9468126,-6.980842,6.3300686,0.3436668,1.2407972,-0.5623334,-0.44942713,0
1.1000000000000008,10.819176007711732,1.2407971096993002,-0.5623333792194966,-0.44942713573766535,10.874711,0.43520314,1.5345047,-0.8532082,5.3475957,-5.819378,1.1207268,-0.31784585,0.0052015316,-0.06755956,-0.94571817,-6.9780674,6.3438163,0.35284492,1.2407972,-0.5623334,-0.44942713,0
1.1100000000000008,10.819176007711732,1.2407971096993002,-0.5623333792194966,-0.44942713573766535,10.874711,0.43520314,1.5345047,-0.8532082,5.277834,-5.755868,1.1243007,-0.32018504,0.0007222957,-0.072519645,-0.9445751,-6.974,6.3582582,0.36189047,1.2407972,-0.5623334,-0.44942713,0
1.1200000000000008,10.661171756759302,1.32198120790288,-0.5741185373745378,-0.481066456038383,10.829937,0.44811025,1.3703644,-0.92608607,5.2081194,-5.69221,1.1279643,-0.32250774,-0.003756977,-0.077475995,-0.94338334,-6.9686365,6.3733864,0.3707842,1.2407972,-0.5623334,-0.44942713,0
1.1300000000000008,10.661171756759302,1.32198120790288,-0.5741185373745378,-0.481066456038383,10.829937,0.44811025,1.3703644,-0.92608607,5.1384645,-5.628399,1.131708,-0.32496515,-0.008410284,-0.08279263,-0.9420575,-6.9620504,6.3889837,0.377942,1.3219812,-0.57411855,-0.48106647,0
1.1400000000000008,10.661171756759302,1.32198120790288,-0.5741185373745378,-0.481066456038383,10.829937,0.44811025,1.3703644,-0.92608607,5.068883,-5.5644283,1.1355224,-0.32740378,-0.013063106,-0.08810449,-0.9406772,-6.95412,6.405299,0.3848981,1.3219812,-0.57411855,-0.48106647,0
1.1500000000000008,10.661171756759302,1.32198120790288,-0.5741185373745378,-0.481066456038383,10.829937,0.44811025,1.3703644,-0.92608607,4.9993873,-5.500291,1.1394053,-0.32982352,-0.017715173,-0.09341126,-0.9392428,-6.9448447,6.4223228,0.39163148,1.3219812,-0.57411855,-0.48106647,0
1.1600000000000008,10.614894006240227,1.3624465320861006,-0.13415477644151605,-0.4483548557365413,11.119729,0.6008653,1.1858082,-1.1185769,4.929991,-5.4359794,1.1433542,-0.33222425,-0.022366216,-0.09871264,-0.93775403,-6.9342227,6.4400444,0.39812106,1.3219812,-0.57411855,-0.48106647,0
1.1700000000000008,10.614894006240227,1.3624465320861006,-0.13415477644151605,-0.4483548557365413,11.119729,0.6008653,1.1858082,-1.1185769,4.860707,-5.3714876,1.1473644,-0.3342317,-0.025036532,-0.10492552,-0.9362974,-6.9224296,6.458496,0.4038858,1.3624465,-0.13415478,-0.44835487,0
1.1800000000000008,10.614894006240227,1.3624465320861006,-0.13415477644151605,-0.4483548557365413,11.119729,0.6008653,1.1858082,-1.1185769,4.791546,-5.306806,1.1514308,-0.33622178,-0.02770555,-0.11113296,-0.93479234,-6.9096293,6.4779506,0.40934792,1.3624465,-0.13415478,-0.44835487,0
1.1900000000000008,10.614894006240227,1.3624465320861006,-0.13415477644151605,-0.4483548557365413,11.119729,0.6008653,1.1858082,-1.1185769,4.7225175,-5.241925,1.1555502,-0.33819446,-0.03037313,-0.117334634,-0.9332387,-6.895819,6.4983993,0.4144883,1.3624465,-0.13415478,-0.44835487,0
1.2000000000000008,10.590815965693515,1.2088765454279777,-0.3739688138923279,-0.39521487022677926,11.185146,0.511236,0.9927497,-1.1897584,4.653633,-5.1768346,1.1597193,-0.34014955,-0.033039134,-0.12353021,-0.93163663,-6.8809977,6.519834,0.4192878,1.3624465,-0.13415478,-0.44835487,0
1.2100000000000009,10.590815965693515,1.2088765454279777,-0.3739688138923279,-0.39521487022677926,11.185146,0.511236,0.9927497,-1.1897584,4.5849013,-5.1115255,1.1639335,-0.34201434,-0.036592286,-0.12858789,-0.9301356,-6.8651633,6.5420885,0.4235128,1.2088765,-0.3739688,-0.39521486,0
1.2200000000000009,10.590815965693515,1.2088765454279777,-0.3739688138923279,-0.39521487022677926,11.185146,0.511236,0.9927497,-1.1897584,4.5163336,-5.045991,1.1681885,-0.34386408,-0.04014383,-0.13363992,-0.92859364,-6.848224,6.565027,0.4274093,1.2088765,-0.3739688,-0.39521486,0
1.2300000000000009,10.590815965693515,1.2088765454279777,-0.3739688138923279,-0.39521487022677926,11.185146,0.511236,0.9927497,-1.1897584,4.4479403,-4.9802227,1.1724806,-0.3456987,-0.043693613,-0.13868608,-0.9270109,-6.8301797,6.588641,0.43096158,1.2088765,-0.3739688,-0.39521486,0
1.2400000000000009,10.590815965693515,1.2088765454279777,-0.3739688138923279,-0.39521487022677926,11.58785,0.2725016,1.038231,-1.1794413,4.379733,-4.914215,1.1768066,-0.3475182,-0.047241475,-0.14372613,-0.92538744,-6.811031,6.6129227,0.43415385,1.2088765,-0.3739688,-0.39521486,0
1.2500000000000009,10.590815965693515,1.2088765454279777,-0.3739688138923279,-0.39521487022677926,11.58785,0.2725016,1.038231,-1.1794413,4.311723,-4.847962,1.1811626,-0.3493224,-0.050787263,-0.14875989,-0.92372334,-6.790777,6.637863,0.43697038,1.2088765,-0.3739688,-0.39521486,0
1.260000000000001,10.590815965693515,1.2088765454279777,-0.3739688138923279,-0.39521487022677926,11.58785,0.2725016,1.038231,-1.1794413,4.243921,-4.781456,1.1855448,-0.35111123,-0.05433082,-0.1537871,-0.92201865,-6.769419,6.6634545,0.43939564,1.2088765,-0.3739688,-0.39521486,0
1.270000000000001,10.590815965693515,1.2088765454279777,-0.3739688138923279,-0.39521487022677926,11.58785,0.2725016,1.038231,-1.1794413,4.176338,-4.7146907,1.1899492,-0.35288465,-0.057871982,-0.15880756,-0.9202734,-6.7469573,6.6896877,0.44141397,1.2088765,-0.3739688,-0.39521486,0
1.280000000000001,10.647445901638946,1.0718416468445828,0.09089016516070995,-0.31272881806717356,11.871832,-0.1812494,0.93376553,-1.2232794,4.1089854,-4.64766,1.1943717,-0.35464254,-0.061410606,-0.16382104,-0.9184878,-6.723393,6.716554,0.44300994,1.2088765,-0.3739688,-0.39521486,0
1.290000000000001,10.647445901638946,1.0718416468445828,0.09089016516070995,-0.31272881806717356,11.871832,-0.1812494,0.93376553,-1.2232794,4.041874,-4.5803566,1.1988106,-0.35566962,-0.06263667,-0.168998,-0.9170688,-6.698766,6.7442794,0.4447175,1.0718416,0.09089016,-0.31272882,0
1.300000000000001,10.647445901638946,1.0718416468445828,0.09089016516070995,-0.31272881806717356,11.871832,-0.1812494,0.93376553,-1.2232794,3.975012,-4.5127716,1.2032646,-0.35668552,-0.063860774,-0.17416966,-0.91562104,-6.673491,6.7728577,0.4460214,1.0718416,0.09089016,-0.31272882,0
1.310000000000001,10.647445901638946,1.0718416468445828,0.09089016516070995,-0.31272881806717356,11.871832,-0.1812494,0.93376553,-1.2232794,3.9084065,-4.4448967,1.2077295,-0.35769022,-0.06508286,-0.17933585,-0.9141445,-6.6475673,6.802284,0.44691005,1.0718416,0.09089016,-0.31272882,0
1.320000000000001,10.65184575389093,0.7183182309521503,-0.020612833599795037,-0.18880188463604614,12.052914,-0.605055,0.8003635,-1.1168262,3.8420634,-4.3767233,1.2122011,-0.3586837,-0.06630292,-0.18449642,-0.9126394,-6.620995,6.8325515,0.44737193,1.0718416,0.09089016,-0.31272882,0
1.330000000000001,10.65184575389093,0.7183182309521503,-0.020612833599795037,-0.18880188463604614,12.052914,-0.605055,0.8003635,-1.1168262,3.7759888,-4.3082433,1.2166758,-0.35932365,-0.0675106,-0.18779859,-0.911625,-6.593819,6.8635435,0.4474916,0.7183182,-0.020612834,-0.18880188,0
1.340000000000001,10.65184575389093,0.7183182309521503,-0.020612833599795037,-0.18880188463604614,12.052914,-0.605055,0.8003635,-1.1168262,3.7101886,-4.239451,1.22115,-0.35995862,-0.06871735,-0.19109815,-0.91059804,-6.5661454,6.895035,0.44731304,0.7183182,-0.020612834,-0.18880188,0
1.350000000000001,10.65184575389093,0.7183182309521503,-0.020612833599795037,-0.18880188463604614,12.052914,-0.605055,0.8003635,-1.1168262,3.6446676,-4.1703415,1.225621,-0.36058864,-0.069923155,-0.1943951,-0.90955853,-6.537974,6.927022,0.44683123,0.7183182,-0.020612834,-0.18880188,0
1.360000000000001,10.686066124910004,0.38830554431629305,0.17357199159150238,-0.07446668909302459,11.531077,-0.8136253,0.067643,-1.0838565,3.579431,-4.100909,1.2300856,-0.36121368,-0.07112799,-0.19768934,-0.9085065,-6.5093055,6.959503,0.4460412,0.7183182,-0.020612834,-0.18880188,0
1.370000000000001,10.686066124910004,0.38830554431629305,0.17357199159150238,-0.07446668909302459,11.531077,-0.8136253,0.067643,-1.0838565,3.5144835,-4.0311494,1.2345425,-0.36124146,-0.07096707,-0.19979273,-0.9080478,-6.4801865,6.992547,0.4453031,0.38830554,0.17357199,-0.07446669,0
1.380000000000001,10.686066124910004,0.38830554431629305,0.17357199159150238,-0.07446668909302459,11.531077,-0.8136253,0.067643,-1.0838565,3.449828,-3.961057,1.238991,-0.36126754,-0.07080582,-0.20189519,-0.9075849,-6.450942,7.0259914,0.44439054,0.38830554,0.17357199,-0.07446669,0
1.390000000000001,10.686066124910004,0.38830554431629305,0.17357199159150238,-0.07446668909302459,11.531077,-0.8136253,0.067643,-1.0838565,3.385465,-3.8906283,1.2434297,-0.36129192,-0.07064424,-0.20399673,-0.9071177,-6.421572,7.059836,0.44330168,0.38830554,0.17357199,-0.07446669,0
1.400000000000001,10.605046044060707,0.006989821349347587,-0.2883073072329791,0.08138543686766103,11.853643,-0.99005115,-0.30720812,-0.9953861,3.3213966,-3.819859,1.2478566,-0.36131462,-0.07048233,-0.20609732,-0.9066463,-6.392078,7.0940795,0.44203472,0.38830554,0.17357199,-0.07446669,0
1.410000000000001,10.605046044060707,0.006989821349347587,-0.2883073072329791,0.08138543686766103,11.853643,-0.99005115,-0.30720812,-0.9953861,3.257623,-3.7487473,1.2522664,-0.3612399,-0.07188571,-0.20557924,-0.9066835,-6.3626447,7.128234,0.43992344,0.0069898213,-0.2883073,0.08138543,0
1.420000000000001,10.605046044060707,0.006989821349347587,-0.2883073072329791,0.08138543686766103,11.853643,-0.99005115,-0.30720812,-0.9953861,3.1941447,-3.6772947,1.256655,-0.3611644,-0.073288925,-0.20506069,-0.9067187,-6.3329835,7.162184,0.43781468,0.0069898213,-0.2883073,0.08138543,0
1.430000000000001,10.605046044060707,0.006989821349347587,-0.2883073072329791,0.08138543686766103,11.853643,-0.99005115,-0.30720812,-0.9953861,3.130964,-3.605504,1.2610226,-0.36108807,-0.07469198,-0.20454171,-0.9067518,-6.3030953,7.1959295,0.4357075,0.0069898213,-0.2883073,0.08138543,0
1.440000000000001,10.605046044060707,0.006989821349347587,-0.2883073072329791,0.08138543686766103,11.7517805,-1.1545672,-0.6032452,-0.9107947,3.0680833,-3.5333767,1.2653692,-0.3610109,-0.076094866,-0.20402226,-0.9067829,-6.27298,7.2294703,0.43360105,0.0069898213,-0.2883073,0.08138543,0
1.450000000000001,10.605046044060707,0.006989821349347587,-0.2883073072329791,0.08138543686766103,11.7517805,-1.1545672,-0.6032452,-0.9107947,3.005505,-3.4609153,1.2696948,-0.36093298,-0.07749758,-0.20350233,-0.906812,-6.2426376,7.262806,0.4314944,0.0069898213,-0.2883073,0.08138543,0
1.460000000000001,10.605046044060707,0.006989821349347587,-0.2883073072329791,0.08138543686766103,11.7517805,-1.1545672,-0.6032452,-0.9107947,2.9432313,-3.3881214,1.2739992,-0.3608542,-0.07890012,-0.20298198,-0.906839,-6.212068,7.2959375,0.4293867,0.0069898213,-0.2883073,0.08138543,0
1.470000000000001,10.605046044060707,0.006989821349347587,-0.2883073072329791,0.08138543686766103,11.7517805,-1.1545672,-0.6032452,-0.9107947,2.8812644,-3.3149972,1.2782824,-0.36077464,-0.080302484,-0.20246115,-0.90686405,-6.1812716,7.328863,0.42727697,0.0069898213,-0.2883073,0.08138543,0
1.480000000000001,10.538954013890121,-0.2821601572746021,0.20141671473550143,0.18342021301682906,12.115317,-1.1189128,-1.1051855,-0.862256,2.8196065,-3.2415447,1.2825446,-0.36069426,-0.08170467,-0.20193987,-0.90688694,-6.150248,7.3615847,0.42516434,0.0069898213,-0.2883073,0.08138543,0
1.490000000000001,10.538954013890121,-0.2821601572746021,0.20141671473550143,0.18342021301682906,12.115317,-1.1189128,-1.1051855,-0.862256,2.7582586,-3.167767,1.2867827,-0.35977378,-0.08046754,-0.20094836,-0.9075832,-6.1194043,7.393955,0.4224988,-0.28216016,0.20141672,0.18342021,0
1.500000000000001,10.538954013890121,-0.2821601572746021,0.20141671473550143,0.18342021301682906,12.115317,-1.1189128,-1.1051855,-0.862256,2.6972175,-3.0936658,1.290995,-0.35885188,-0.07923009,-0.19995607,-0.9082759,-6.0888996,7.4262753,0.41995937,-0.28216016,0.20141672,0.18342021,0
1.5100000000000011,10.538954013890121,-0.2821601572746021,0.20141671473550143,0.18342021301682906,12.115317,-1.1189128,-1.1051855,-0.862256,2.6364794,-3.0192418,1.2951825,-0.35792863,-0.07799234,-0.19896303,-0.9089651,-6.058734,7.4585433,0.41754505,-0.28216016,0.20141672,0.18342021,0
1.5200000000000011,10.388031650712463,-0.7249247439127486,-0.3455780319689438,0.35897886699502746,11.898263,-1.2898481,-0.81044495,-0.7067654,2.5760412,-2.9444952,1.2993462,-0.357004,-0.076754294,-0.19796921,-0.90965086,-6.028908,7.4907594,0.41525492,-0.28216016,0.20141672,0.18342021,0
1.5300000000000011,10.388031650712463,-0.7249247439127486,-0.3455780319689438,0.35897886699502746,11.898263,-1.2898481,-0.81044495,-0.7067654,2.515898,-2.8694298,1.3034812,-0.3559881,-0.077386655,-0.19391556,-0.91086775,-5.999794,7.5222,0.41178542,-0.72492474,-0.34557804,0.35897887,0
1.5400000000000011,10.388031650712463,-0.7249247439127486,-0.3455780319689438,0.35897886699502746,11.898263,-1.2898481,-0.81044495,-0.7067654,2.456045,-2.7940536,1.307583,-0.3549653,-0.07801752,-0.18985812,-0.91206706,-5.970883,7.552892,0.40862325,-0.72492474,-0.34557804,0.35897887,0
1.5500000000000012,10.388031650712463,-0.7249247439127486,-0.3455780319689438,0.35897886699502746,11.898263,-1.2898481,-0.81044495,-0.7067654,2.3964796,-2.7183745,1.3116547,-0.35393563,-0.078646876,-0.18579702,-0.91324866,-5.942173,7.582833,0.40576172,-0.72492474,-0.34557804,0.35897887,0
1.5600000000000012,10.256279686153361,-1.0983109229306418,0.10782360398071579,0.4456093568571488,11.940119,-1.3399336,-0.53410167,-0.65452653,2.3372004,-2.6423998,1.3156992,-0.35289913,-0.07927471,-0.18173231,-0.9144126,-5.9136634,7.612018,0.40319416,-0.72492474,-0.34557804,0.35897887,0
1.5700000000000012,10.256279686153361,-1.0983109229306418,0.10782360398071579,0.4456093568571488,11.940119,-1.3399336,-0.53410167,-0.65452653,2.278203,-2.5661385,1.3197137,-0.3511929,-0.07724728,-0.17672122,-0.9162234,-5.8859296,7.640105,0.39975673,-1.098311,0.1078236,0.44560936,0
1.5800000000000012,10.256279686153361,-1.0983109229306418,0.10782360398071579,0.4456093568571488,11.940119,-1.3399336,-0.53410167,-0.65452653,2.2194788,-2.4895997,1.3236959,-0.34947425,-0.07521711,-0.17170385,-0.9180018,-5.858972,7.6674886,0.39674854,-1.098311,0.1078236,0.44560936,0
1.5900000000000012,10.256279686153361,-1.0983109229306418,0.10782360398071579,0.4456093568571488,11.940119,-1.3399336,-0.53410167,-0.65452653,2.1610208,-2.4127908,1.3276501,-0.3477432,-0.0731843,-0.1666804,-0.91974765,-5.8327904,7.694162,0.39415812,-1.098311,0.1078236,0.44560936,0
1.6000000000000012,10.111172157105115,-1.3755150639602534,-0.5909113610268423,0.5970837686845405,11.456798,-1.3353746,-1.0315968,-0.45476797,2.1028204,-2.3357186,1.3315805,-0.34599987,-0.07114888,-0.16165105,-0.9214609,-5.807385,7.720118,0.39197394,-1.098311,0.1078236,0.44560936,0
1.6100000000000012,10.111172157105115,-1.3755150639602534,-0.5909113610268423,0.5970837686845405,11.456798,-1.3353746,-1.0315968,-0.45476797,2.044869,-2.2583933,1.3354844,-0.34420463,-0.071972035,-0.15407377,-0.92336553,-5.782968,7.744744,0.3888519,-1.3755151,-0.5909114,0.59708375,0
1.6200000000000012,10.111172157105115,-1.3755150639602534,-0.5909113610268423,0.5970837686845405,11.456798,-1.3353746,-1.0315968,-0.45476797,1.9871596,-2.1808288,1.3393592,-0.34238705,-0.0727905,-0.14648649,-0.92521006,-5.7589555,7.7679825,0.38618132,-1.3755151,-0.5909114,0.59708375,0
1.6300000000000012,10.111172157105115,-1.3755150639602534,-0.5909113610268423,0.5970837686845405,11.456798,-1.3353746,-1.0315968,-0.45476797,1.9296885,-2.1030385,1.3432094,-0.34054723,-0.07360425,-0.1388897,-0.9269945,-5.735344,7.789826,0.38393936,-1.3755151,-0.5909114,0.59708375,0
1.6400000000000012,10.111172157105115,-1.3755150639602534,-0.5909113610268423,0.5970837686845405,11.679203,-1.2579671,-1.2983108,-0.36938548,1.8724513,-2.025037,1.3470393,-0.3386853,-0.07441322,-0.1312839,-0.9287188,-5.7121296,7.810266,0.3821031,-1.3755151,-0.5909114,0.59708375,0
1.6500000000000012,10.111172157105115,-1.3755150639602534,-0.5909113610268423,0.5970837686845405,11.679203,-1.2579671,-1.2983108,-0.36938548,1.8154444,-1.9468381,1.3508527,-0.33680138,-0.07521735,-0.123669565,-0.9303828,-5.68931,7.8292956,0.3806495,-1.3755151,-0.5909114,0.59708375,0
1.6600000000000013,10.111172157105115,-1.3755150639602534,-0.5909113610268423,0.5970837686845405,11.679203,-1.2579671,-1.2983108,-0.36938548,1.7586637,-1.868456,1.3546535,-0.33489558,-0.0760166,-0.116047196,-0.9319864,-5.6668806,7.8469076,0.3795555,-1.3755151,-0.5909114,0.59708375,0
1.6700000000000013,10.111172157105115,-1.3755150639602534,-0.5909113610268423,0.5970837686845405,11.679203,-1.2579671,-1.2983108,-0.36938548,1.7021054,-1.789905,1.358445,-0.33296803,-0.076810904,-0.108417295,-0.93352944,-5.6448393,7.863096,0.37879783,-1.3755151,-0.5909114,0.59708375,0
1.6800000000000013,10.011574548372126,-1.5562882771551194,0.14825242281215711,0.6510165585304097,12.327882,-1.2800696,-2.0256505,-0.29587042,1.6457655,-1.7111992,1.3622307,-0.33101887,-0.07760022,-0.10078036,-0.93501186,-5.6231813,7.877854,0.37835318,-1.3755151,-0.5909114,0.59708375,0
1.6900000000000013,10.011574548372126,-1.5562882771551194,0.14825242281215711,0.6510165585304097,12.327882,-1.2800696,-2.0256505,-0.29587042,1.5896386,-1.6323531,1.3660084,-0.32849264,-0.07465662,-0.09349387,-0.9368976,-5.6023684,7.8911686,0.37727135,-1.5562882,0.14825243,0.65101653,0
1.7000000000000013,10.011574548372126,-1.5562882771551194,0.14825242281215711,0.6510165585304097,12.327882,-1.2800696,-2.0256505,-0.29587042,1.5337145,-1.5533795,1.3697772,-0.32594284,-0.07170768,-0.08620069,-0.9387161,-5.5826077,7.9033837,0.37655354,-1.5562882,0.14825243,0.65101653,0
1.7100000000000013,10.011574548372126,-1.5562882771551194,0.14825242281215711,0.6510165585304097,12.327882,-1.2800696,-2.0256505,-0.29587042,1.4779829,-1.4742893,1.3735406,-0.32336968,-0.06875359,-0.07890132,-0.9404673,-5.563897,7.9144883,0.37617543,-1.5562882,0.14825243,0.65101653,0
1.7200000000000013,9.911512343076497,-1.7051627152872182,0.09846844750963346,0.7307723719225968,12.294423,-1.4369518,-2.4179807,-0.09428196,1.4224331,-1.3950937,1.3773019,-0.32077333,-0.06579459,-0.071596295,-0.94215107,-5.546234,7.9244733,0.37611252,-1.5562882,0.14825243,0.65101653,0
1.7300000000000013,9.911512343076497,-1.7051627152872182,0.09846844750963346,0.7307723719225968,12.294423,-1.4369518,-2.4179807,-0.09428196,1.3670539,-1.3158045,1.381059,-0.31784275,-0.06285468,-0.06347824,-0.94392526,-5.529799,7.9331856,0.3753653,-1.7051628,0.098468445,0.7307724,0
1.7400000000000013,9.911512343076497,-1.7051627152872182,0.09846844750963346,0.7307723719225968,12.294423,-1.4369518,-2.4179807,-0.09428196,1.3118335,-1.2364345,1.3848101,-0.31488475,-0.059909344,-0.055354714,-0.94561803,-5.514442,7.9406238,0.3748994,-1.7051628,0.098468445,0.7307724,0
1.7500000000000013,9.911512343076497,-1.7051627152872182,0.09846844750963346,0.7307723719225968,12.294423,-1.4369518,-2.4179807,-0.09428196,1.2567613,-1.1569965,1.3885578,-0.3118996,-0.056958843,-0.04722641,-0.9472292,-5.500159,7.946778,0.37468556,-1.7051628,0.098468445,0.7307724,0
1.7600000000000013,9.843561965323397,-1.8001368575291277,0.15904639197920933,0.7489929297942473,10.265289,-1.445238,-0.47622144,0.14624503,1.2018267,-1.0775034,1.3923045,-0.30888754,-0.05400343,-0.03909403,-0.94875866,-5.4869437,7.9516373,0.37469432,-1.7051628,0.098468445,0.7307724,1
1.7700000000000014,9.843561965323397,-1.8001368575291277,0.15904639197920933,0.7489929297942473,10.265289,-1.445238,-0.47622144,0.14624503,1.1470218,-0.9979677,1.3960698,-0.30866808,-0.054057453,-0.031462073,-0.94911075,-5.474122,7.955271,0.37837756,-1.445238,-0.47622144,0.14624503,1
1.7800000000000014,9.843561965323397,-1.8001368575291277,0.15904639197920933,0.7489929297942473,10.265289,-1.445238,-0.47622144,0.14624503,1.0923426,-0.91840315,1.3998724,-0.3084306,-0.054108318,-0.023828274,-0.94940734,-5.461772,7.9574184,0.38216123,-1.445238,-0.47622144,0.14624503,1
1.7900000000000014,9.843561965323397,-1.8001368575291277,0.15904639197920933,0.7489929297942473,10.265289,-1.445238,-0.47622144,0.14624503,1.0377847,-0.8388245,1.4037133,-0.30817512,-0.054156024,-0.016193083,-0.9496485,-5.449893,7.9580793,0.38602144,-1.445238,-0.47622144,0.14624503,1
1.8000000000000014,9.692930754125923,-1.892789508872304,0.6000295424718223,0.8011467509919836,11.195459,-1.3675046,-1.2621787,0.31219527,0.9833431,-0.75924665,1.4075931,-0.30790162,-0.054200567,-0.008556944,-0.94983417,-5.438487,7.9572525,0.3899344,-1.445238,-0.47622144,0.14624503,0
1.8100000000000014,9.692930754125923,-1.892789508872304,0.6000295424718223,0.8011467509919836,11.195459,-1.3675046,-1.2621787,0.31219527,0.92900896,-0.6796836,1.4114839,-0.30456653,-0.048468236,-0.0002740682,-0.9512567,-5.4285727,7.9551625,0.38823116,-1.8927895,0.6000295,0.80114675,0
1.8200000000000014,9.692930754125923,-1.892789508872304,0.6000295424718223,0.8011467509919836,11.195459,-1.3675046,-1.2621787,0.31219527,0.87476635,-0.6001473,1.4153583,-0.30119655,-0.042730354,0.00800884,-0.9525702,-5.4201927,7.9519157,0.3866415,-1.8927895,0.6000295,0.80114675,0
1.8300000000000014,9.692930754125923,-1.892789508872304,0.6000295424718223,0.8011467509919836,11.195459,-1.3675046,-1.2621787,0.31219527,0.82059985,-0.52064925,1.419217,-0.29779205,-0.036987573,0.016290829,-0.9537745,-5.4133415,7.947503,0.38512614,-1.8927895,0.6000295,0.80114675,0
1.8400000000000014,9.692930754125923,-1.892789508872304,0.6000295424718223,0.8011467509919836,11.141944,-1.3834269,-1.5603111,0.32661787,0.76649433,-0.44120127,1.4230609,-0.2943534,-0.031240556,0.024570951,-0.9548695,-5.4080133,7.9419127,0.38364577,-1.8927895,0.6000295,0.80114675,0
1.8500000000000014,9.692930754125923,-1.892789508872304,0.6000295424718223,0.8011467509919836,11.141944,-1.3834269,-1.5603111,0.32661787,0.71243435,-0.36181507,1.4268899,-0.290881,-0.025489956,0.032848258,-0.955855,-5.404199,7.9351354,0.3821611,-1.8927895,0.6000295,0.80114675,0
1.8600000000000014,9.692930754125923,-1.892789508872304,0.6000295424718223,0.8011467509919836,11.141944,-1.3834269,-1.5603111,0.32661787,0.6584051,-0.28250262,1.4307041,-0.2873753,-0.019736435,0.0411218,-0.9567311,-5.401892,7.927161,0.38063276,-1.8927895,0.6000295,0.80114675,0
1.8700000000000014,9.692930754125923,-1.892789508872304,0.6000295424718223,0.8011467509919836,11.141944,-1.3834269,-1.5603111,0.32661787,0.6043914,-0.20327595,1.4345025,-0.28383666,-0.013980651,0.049390625,-0.9574975,-5.401083,7.9179816,0.37902153,-1.8927895,0.6000295,0.80114675,0
1.8800000000000014,9.696731221670062,-1.7751112273274996,0.06549449055810008,0.7641561739096557,10.797442,-1.6248513,-1.4919506,0.7204929,0.5503783,-0.12414716,1.438284,-0.2802655,-0.008223265,0.057653792,-0.9581541,-5.4017625,7.907588,0.3772881,-1.8927895,0.6000295,0.80114675,0
1.8900000000000015,9.696731221670062,-1.7751112273274996,0.06549449055810008,0.7641561739096557,10.797442,-1.6248513,-1.4919506,0.7204929,0.49635154,-0.045128614,1.4420477,-0.27668345,-0.005201364,0.066094756,-0.95867115,-5.403734,7.8959007,0.3754271,-1.7751112,0.06549449,0.76415616,0
1.9000000000000015,9.696731221670062,-1.7751112273274996,0.06549449055810008,0.7641561739096557,10.797442,-1.6248513,-1.4919506,0.7204929,0.44230026,0.033766016,1.445792,-0.2730755,-0.0021789765,0.07452954,-0.95909864,-5.406675,7.8828044,0.3733597,-1.7751112,0.06549449,0.76415616,0
1.9100000000000015,9.696731221670062,-1.7751112273274996,0.06549449055810008,0.7641561739096557,10.797442,-1.6248513,-1.4919506,0.7204929,0.38821477,0.112522624,1.4495142,-0.26944205,0.0008436146,0.08295736,-0.9594365,-5.410574,7.868296,0.37105504,-1.7751112,0.06549449,0.76415616,0
1.9200000000000015,9.683798198264824,-1.5544716918593766,-0.0931929572538274,0.6857037235840362,10.168802,-1.3691257,-1.4564004,0.695867,0.33408552,0.19112708,1.4532121,-0.2657834,0.003866127,0.09137742,-0.9596845,-5.4154186,7.8523736,0.36848217,-1.7751112,0.06549449,0.76415616,0
1.9300000000000015,9.683798198264824,-1.5544716918593766,-0.0931929572538274,0.6857037235840362,10.168802,-1.3691257,-1.4564004,0.695867,0.27990347,0.26956546,1.4568822,-0.26241088,0.005797838,0.09894362,-0.9598526,-5.421098,7.835096,0.36549595,-1.5544717,-0.09319296,0.6857037,0
1.9400000000000015,9.683798198264824,-1.5544716918593766,-0.0931929572538274,0.6857037235840362,10.168802,-1.3691257,-1.4564004,0.695867,0.22566119,0.3478245,1.4605211,-0.2590194,0.0077291285,0.10650266,-0.95995116,-5.4274583,7.816504,0.36221847,-1.5544717,-0.09319296,0.6857037,0
1.9500000000000015,9.683798198264824,-1.5544716918593766,-0.0931929572538274,0.6857037235840362,10.168802,-1.3691257,-1.4564004,0.695867,0.17135197,0.42589104,1.4641256,-0.25560912,0.00965986,0.114054,-0.9599803,-5.434488,7.796598,0.35862646,-1.5544717,-0.09319296,0.6857037,0
1.9600000000000015,9.673773257672686,-1.3010052480974572,-0.32961149523238475,0.6270313504576961,10.757477,-1.3394531,-1.6068425,0.9001342,0.11696915,0.503752,1.4676925,-0.25218037,0.011589892,0.12159708,-0.9599399,-5.4421754,7.775378,0.3546967,-1.5544717,-0.09319296,0.6857037,0
1.9700000000000015,9.673773257672686,-1.3010052480974572,-0.32961149523238475,0.6270313504576961,10.757477,-1.3394531,-1.6068425,0.9001342,0.062506616,0.5813944,1.4712179,-0.24888812,0.0120292,0.1282174,-0.9599323,-5.450382,7.752904,0.35032827,-1.3010052,-0.3296115,0.6270313,0
1.9800000000000015,9.673773257672686,-1.3010052480974572,-0.32961149523238475,0.6270313504576961,10.757477,-1.3394531,-1.6068425,0.9001342,0.007960408,0.6588059,1.474698,-0.24558224,0.012467847,0.13483068,-0.95987207,-5.4589086,7.7292156,0.34563163,-1.3010052,-0.3296115,0.6270313,0
1.9900000000000015,9.673773257672686,-1.3010052480974572,-0.32961149523238475,0.6270313504576961,10.757477,-1.3394531,-1.6068425,0.9001342,-0.046672624,0.73597455,1.4781294,-0.24226287,0.012905812,0.14143656,-0.9597592,-5.4677453,7.704314,0.3405901,-1.3010052,-0.3296115,0.6270313,0
2.0000000000000013,,,,,10.121957,-0.69484806,-0.89158833,0.60675347,-0.10139553,0.812888,1.4815086,-0.2389302,0.013343067,0.14803469,-0.9595936,-5.476882,7.6782026,0.3351871,-1.3010052,-0.3296115,0.6270313,1
2.010000000000001,,,,,10.121957,-0.69484806,-0.89158833,0.60675347,-0.15621258,0.88952845,1.4848535,-0.23530783,0.0103442045,0.15239012,-0.9598439,-5.4864535,7.6497126,0.33374125,-0.69484806,-0.89158833,0.60675347,1
2.020000000000001,,,,,10.121957,-0.69484806,-0.89158833,0.60675347,-0.21112294,0.96587896,1.4881825,-0.23167577,0.0073449155,0.1567393,-0.96005464,-5.4955397,7.6202188,0.3320408,-0.69484806,-0.89158833,0.60675347,1
2.0300000000000007,,,,,10.121957,-0.69484806,-0.89158833,0.60675347,-0.2661217,1.0419295,1.4914935,-0.2280342,0.0043453253,0.16108203,-0.96022594,-5.5041323,7.5897274,0.33007482,-0.69484806,-0.89158833,0.60675347,1
2.0400000000000005,,,,,10.121957,-0.69484806,-0.89158833,0.60675347,-0.32120386,1.1176702,1.4947832,-0.22438325,0.0013455563,0.16541813,-0.9603577,-5.512224,7.558245,0.32783243,-0.69484806,-0.89158833,0.60675347,1
2.0500000000000003,,,,,10.295627,-0.6170647,-0.3226157,0.55606914,-0.3763644,1.1930912,1.4980491,-0.22072306,-0.001654268,0.16974743,-0.96045,-5.519809,7.525779,0.32530287,-0.69484806,-0.89158833,0.60675347,1
2.06,,,,,10.295627,-0.6170647,-0.3226157,0.55606914,-0.4315994,1.26818,1.5012964,-0.21778178,-0.002050573,0.17306967,-0.9605277,-5.5271845,7.491879,0.32413763,-0.6170647,-0.3226157,0.55606914,1
2.07,,,,,10.295627,-0.6170647,-0.3226157,0.55606914,-0.486908,1.3429264,1.5045309,-0.21483618,-0.0024468373,0.17638849,-0.96058637,-5.5345263,7.4573035,0.32273594,-0.6170647,-0.3226157,0.55606914,1
2.0799999999999996,,,,,10.295627,-0.6170647,-0.3226157,0.55606914,-0.54228985,1.4173237,1.5077502,-0.21188632,-0.0028430526,0.17970379,-0.96062595,-5.54183,7.422054,0.32109344,-0.6170647,-0.3226157,0.55606914,1
2.0899999999999994,,,,,10.089437,-0.44665653,0.063459106,0.52799857,-0.5977445,1.4913651,1.5109519,-0.20893225,-0.0032392119,0.18301551,-0.96064645,-5.5490913,7.386131,0.3192058,-0.6170647,-0.3226157,0.55606914,1
2.099999999999999,,,,,10.089437,-0.44665653,0.063459106,0.52799857,-0.6532712,1.565048,1.514124,-0.20646021,-0.0019846216,0.18510205,-0.9607845,-5.556269,7.3503838,0.31518176,-0.44665653,0.063459106,0.52799857,1
2.109999999999999,,,,,10.089437,-0.44665653,0.063459106,0.52799857,-0.70887077,1.6383716,1.517255,-0.20398568,-0.0007300074,0.18718636,-0.96091104,-5.563685,7.314281,0.3110032,-0.44665653,0.063459106,0.52799857,1
2.1199999999999988,,,,,10.089437,-0.44665653,0.063459106,0.52799857,-0.7645457,1.7113324,1.5203434,-0.20150867,0.0005246155,0.18926841,-0.96102595,-5.5713363,7.2778215,0.30666792,-0.44665653,0.063459106,0.52799857,1
2.1299999999999986,,,,,9.706655,-0.4823685,0.4275354,0.5099529,-0.8202983,1.7839268,1.5233878,-0.19902924,0.0017792322,0.19134818,-0.96112925,-5.5792212,7.241005,0.3021737,-0.44665653,0.063459106,0.52799857,1
2.1399999999999983,,,,,9.706655,-0.4823685,0.4275354,0.5099529,-0.8761298,1.8561584,1.5263687,-0.19698164,0.0048017125,0.19323465,-0.9611632,-5.587157,7.2052813,0.29397768,-0.4823685,0.4275354,0.5099529,1
