t,px,py,pz,qx,qy,qz,qw,vx,vy,vz,wx,wy,wz,throttle_mpc,roll_mpc,pitch_mpc,yaw_mpc,throttle_nw,roll_nw,pitch_nw,yaw_nw,network_used
-2.0,16.658035,-10.491577000000001,1.3071088,0.39882177,-0.23792987,-0.87696874,-0.123516634,-8.7808275,-3.4840910000000003,-0.582589,1.3861026,-0.16205937,-0.108736776,12.678176913294706,5.999999609728249,-5.999999884295053,-3.8941502531060364,7.492242999999999,-1.1910009,-1.9049754,-0.20330825,0
-1.99,16.569641,-10.525943,1.3013128,0.39668754,-0.24374254,-0.8757588,-0.12757328,-8.897382,-3.3890178,-0.5769678,1.5232841000000001,-0.49033590000000005,-0.24240860000000003,12.678176913294706,5.999999609728249,-5.999999884295053,-3.8941502531060364,12.235298,-1.5773865,-3.3467412000000003,0.022470202,0
-1.98,16.4801,-10.559356,1.2955616,0.39319074,-0.24970719,-0.87486607,-0.13287774,-9.010057000000002,-3.2934964,-0.5736018,1.6754732,-0.803895,-0.37278,12.678176913294706,5.999999609728249,-5.999999884295053,-3.8941502531060364,12.235298,-1.5773865,-3.3467412000000003,0.022470202,0
-1.97,16.389454,-10.591809,1.2898341,0.38837096,-0.25588536,-0.87421405,-0.13942811,-9.118438000000001,-3.1974142000000003,-0.5721425,1.8398331,-1.1045322,-0.49996802,12.678176913294706,5.999999609728249,-5.999999884295053,-3.8941502531060364,12.235298,-1.5773865,-3.3467412000000003,0.022470202,0
-1.96,16.297749,-10.623301,1.2841132,0.38225767,-0.2623233,-0.8737234,-0.14721665,-9.222127,-3.1006665,-0.5722917,2.0139593999999996,-1.3937528000000001,-0.62408316,12.678176913294706,5.999999609728249,-5.999999884295053,-3.8941502531060364,10.238325,-1.2239586,-3.632029,0.0729197,0
-1.95,16.205029999999997,-10.653821,1.2783836000000002,0.37487182,-0.26905385,-0.8733116,-0.1562301,-9.320742,-3.003167,-0.57379776,2.1958130000000002,-1.6728183999999997,-0.74522984,12.678176913294706,5.999999609728249,-5.999999884295053,-3.8941502531060364,10.238325,-1.2239586,-3.632029,0.0729197,0
-1.94,16.111355,-10.683361999999999,1.2726332,0.3662273,-0.2760982,-0.8728927,-0.1664499,-9.413911,-2.9048526000000003,-0.5764523,2.3836656,-1.9427861000000002,-0.86350673,12.678176913294706,5.999999609728249,-5.999999884295053,-3.8941502531060364,10.238325,-1.2239586,-3.632029,0.0729197,0
-1.93,16.016773,-10.711917,1.2668511,0.35633215,-0.28346688,-0.87237734,-0.17785229,-9.501275999999999,-2.8056927000000003,-0.5800871,2.576053,-2.2045424,-0.97900707,12.678176913294706,5.999999609728249,-5.999999884295053,-3.8941502531060364,10.238325,-1.2239586,-3.632029,0.0729197,0
-1.92,15.92135,-10.739474000000001,1.2610284,0.34518987,-0.29116103,-0.87167287,-0.19040832,-9.582488,-2.7056916,-0.58457196,2.771734,-2.4588308,-1.0918192,14.201350749127565,5.999999592362998,-5.999999900053601,-4.08120924895377,13.569115,-0.89721906,-4.537125,0.17902336,0
-1.91,15.825113,-10.765983,1.2551981,0.332768,-0.29918920000000004,-0.8706789,-0.20413049,-9.663813000000001,-2.595987,-0.5816066,2.9846535,-2.7213333,-1.2125466999999999,14.201350749127565,5.999999592362998,-5.999999900053601,-4.08120924895377,13.569115,-0.89721906,-4.537125,0.17902336,0
-1.9,15.7281,-10.79139,1.2493937,0.31902888,-0.30755147,-0.8692873999999999,-0.21902469,-9.737706,-2.4854856,-0.5793776999999999,3.1991954,-2.9777856,-1.3304663,14.201350749127565,5.999999592362998,-5.999999900053601,-4.08120924895377,13.569115,-0.89721906,-4.537125,0.17902336,0
-1.89,15.630386999999999,-10.81569,1.243608,0.30396494,-0.3162238,-0.8673879999999999,-0.23504360000000002,-9.803799,-2.374325,-0.57785016,3.4145462999999996,-3.2285673999999998,-1.4456656,14.201350749127565,5.999999592362998,-5.999999900053601,-4.08120924895377,13.569115,-0.89721906,-4.537125,0.17902336,0
-1.8800000000000001,15.532054,-10.838875999999999,1.2378341,0.28756836,-0.32517448,-0.8648665999999999,-0.25213352,-9.86174,-2.262701,-0.5770253000000001,3.6300172999999996,-3.4739961999999998,-1.5582274999999999,14.201350749127565,5.999999592362998,-5.999999900053601,-4.08120924895377,13.569115,-0.89721906,-4.537125,0.17902336,0
-1.87,15.433183999999999,-10.860944,1.2320648,0.26983228,-0.33436465,-0.86160547,-0.27023405,-9.911205,-2.1508667,-0.5769394,3.8450252999999996,-3.714339,-1.6682310000000002,16.05392367203397,5.25511233497738,-5.999999850124262,-3.623142651526544,12.577605,-1.3013513,-4.7897067,0.29304752,0
-1.8599999999999999,15.333851999999998,-10.88187,1.2263125,0.25045389999999995,-0.34368783,-0.8575643000000001,-0.28936931,-9.953673,-2.0341754,-0.5733224,4.0642867,-4.0712779999999995,-1.7641591,16.05392367203397,5.25511233497738,-5.999999850124262,-3.623142651526544,12.577605,-1.3013513,-4.7897067,0.29304752,0
-1.85,15.234139,-10.901621,1.2206025,0.22931089999999998,-0.35297367,-0.85267806,-0.30946052,-9.987259,-1.9156625,-0.5685021,4.2493906,-4.372526000000001,-1.8553799,16.05392367203397,5.25511233497738,-5.999999850124262,-3.623142651526544,12.577605,-1.3013513,-4.7897067,0.29304752,0
-1.84,15.134139999999999,-10.920179,1.2149464,0.20664810000000003,-0.3620973,-0.8468075,-0.33030105,-10.011289999999999,-1.795839,-0.5625349000000001,4.4056644,-4.6267676,-1.9421244999999998,16.98682628070736,3.1075957012813844,-5.563864003363796,-1.3002651620217909,14.830834,-0.71402323,-3.988521,0.10596463,0
-1.83,15.033945000000001,-10.9375,1.2093856,0.18301818,-0.37035128,-0.84022623,-0.35123172,-10.026067999999999,-1.6683308999999997,-0.5494171999999999,4.2031446,-4.772565,-1.9106281999999999,16.98682628070736,3.1075957012813844,-5.563864003363796,-1.3002651620217909,14.830834,-0.71402323,-3.988521,0.10596463,0
-1.82,14.933657,-10.953547,1.2039615,0.1588925,-0.3772072,-0.8332403,-0.37172323,-10.030096,-1.5409709999999999,-0.5352259,4.032236,-4.895675700000001,-1.8806776,16.98682628070736,3.1075957012813844,-5.563864003363796,-1.3002651620217909,14.830834,-0.71402323,-3.988521,0.10596463,0
-1.81,14.833382,-10.968324,1.1986846000000002,0.13435759,-0.38280833,-0.8257834000000001,-0.39177442,-10.023454,-1.4146469,-0.51999336,3.8880043,-4.9996305,-1.8521965,16.98682628070736,3.1075957012813844,-5.563864003363796,-1.3002651620217909,14.830834,-0.71402323,-3.988521,0.10596463,0
-1.8,14.733224,-10.981846,1.1935648,0.109487735,-0.38727644,-0.8178002,-0.4113778,-10.006264999999999,-1.2901976000000002,-0.5037996,3.7662837999999996,-5.087409,-1.8251130000000002,16.867323280581846,1.9712897630292834,-4.350152874581036,-1.0878104701293263,15.392609,-1.596119,-2.8719593999999997,0.7647678000000001,0
-1.79,14.633289999999999,-10.99414,1.1886072,0.08492473,-0.39055622,-0.8093948000000001,-0.43027106,-9.97894,-1.169263,-0.48757464,3.4866099999999998,-4.9720187000000005,-1.7889334,16.867323280581846,1.9712897630292834,-4.350152874581036,-1.0878104701293263,15.392609,-1.596119,-2.8719593999999997,0.7647678000000001,0
-1.7799999999999998,14.533679999999999,-11.005239999999999,1.1838156000000002,0.061189637000000005,-0.39264563,-0.8007098000000001,-0.44827273,-9.941888,-1.0516237,-0.47064948,3.2505193,-4.874691,-1.7545291,16.867323280581846,1.9712897630292834,-4.350152874581036,-1.0878104701293263,15.392609,-1.596119,-2.8719593999999997,0.7647678000000001,0
-1.77,14.434485,-11.015184,1.1791961000000002,0.0381758,-0.39370838,-0.7917488,-0.4654777,-9.895703999999999,-0.9378337,-0.45315474,3.0512202,-4.792597,-1.721813,16.867323280581846,1.9712897630292834,-4.350152874581036,-1.0878104701293263,15.392609,-1.596119,-2.8719593999999997,0.7647678000000001,0
-1.7599999999999998,14.335795000000001,-11.024013,1.1747538999999998,0.015790496,-0.39387953,-0.7825099,-0.48196176,-9.840945,-0.82837766,-0.43521824,2.882979,-4.7233505,-1.6907023,16.867323280581846,1.9712897630292834,-4.350152874581036,-1.0878104701293263,16.025059,-2.0764298,-0.9379436999999999,0.57362443,0
-1.75,14.237694,-11.03177,1.1704926000000002,-0.00604611,-0.39327070000000003,-0.77298814,-0.49778540000000004,-9.778131,-0.7236835,-0.41696775,2.7409556,-4.6649413,-1.6611181000000002,16.867323280581846,1.9712897630292834,-4.350152874581036,-1.0878104701293263,16.025059,-2.0764298,-0.9379436999999999,0.57362443,0
-1.7399999999999998,14.140258,-11.038505,1.1664151000000003,-0.027402166000000002,-0.3919743,-0.763177,-0.5129965999999999,-9.707751,-0.6241321999999999,-0.39853272,2.6210644,-4.615672,-1.6329858,16.867323280581846,1.9712897630292834,-4.350152874581036,-1.0878104701293263,16.025059,-2.0764298,-0.9379436999999999,0.57362443,0
-1.73,14.043563,-11.044271,1.1625223,-0.048335344,-0.39006692,-0.75306964,-0.5276334,-9.63027,-0.5300657,-0.3800453,2.5198565,-4.574113400000001,-1.6062338,16.867323280581846,1.9712897630292834,-4.350152874581036,-1.0878104701293263,16.025059,-2.0764298,-0.9379436999999999,0.57362443,0
-1.72,13.947676999999999,-11.049126,1.158814,-0.06889401,-0.38761204,-0.7426595,-0.54172575,-9.546130999999999,-0.44179237,-0.36164075,2.4344194,-4.5390573,-1.5807947,16.433129240181348,0.09852357417202937,-2.3504326067164354,0.058152144802535576,16.616989999999998,-2.358524,0.5496459,0.8615089,0
-1.71,13.852651000000002,-11.053139,1.1552738,-0.08817365,-0.38454336,-0.7323814999999999,-0.55494916,-9.458155999999999,-0.36166129999999996,-0.34643272,2.0707104,-4.197258000000001,-1.5003711000000002,16.433129240181348,0.09852357417202937,-2.3504326067164354,0.058152144802535576,16.616989999999998,-2.358524,0.5496459,0.8615089,0
-1.7,13.758531,-11.056379,1.1518846,-0.10547145,-0.38085273,-0.72265786,-0.5670909000000001,-9.364980000000001,-0.28732646,-0.33142582,1.7636262999999999,-3.9088578000000003,-1.4238939,16.433129240181348,0.09852357417202937,-2.3504326067164354,0.058152144802535576,16.616989999999998,-2.358524,0.5496459,0.8615089,0
-1.69,13.665366,-11.058905000000001,1.1486447,-0.12109803400000001,-0.37665802,-0.7134524999999999,-0.57831573,-9.267411,-0.21860293,-0.31657179999999996,1.5043544,-3.6655097000000003,-1.3511695,16.433129240181348,0.09852357417202937,-2.3504326067164354,0.058152144802535576,16.616989999999998,-2.358524,0.5496459,0.8615089,0
-1.68,13.573196,-11.06077,1.1455528999999998,-0.13531700000000002,-0.37205037,-0.7047228,-0.58875555,-9.166125,-0.15530616,-0.30181646,1.2854527,-3.460173,-1.2820136999999998,16.144620264075296,-2.0637060769327027,0.06092948498446608,1.8956241589032417,17.542633,-3.3104115,2.3195472,1.1649483,0
-1.67,13.482053,-11.06203,1.1426068999999999,-0.14725289,-0.36695793,-0.6970344,-0.59816474,-9.062267,-0.09747635,-0.2876223,0.74287426,-2.9315462,-1.1280217,16.144620264075296,-2.0637060769327027,0.06092948498446608,1.8956241589032417,17.542633,-3.3104115,2.3195472,1.1649483,0
-1.66,13.391952999999999,-11.062737,1.1397964,-0.15623482,-0.36144093,-0.6908751999999999,-0.60633504,-8.957460000000001,-0.044852585,-0.274486,0.30382955,-2.4664593,-0.9798315999999999,16.144620264075296,-2.0637060769327027,0.06092948498446608,1.8956241589032417,17.542633,-3.3104115,2.3195472,1.1649483,0
-1.65,13.302907999999999,-11.06294,1.1371185,-0.1627469,-0.35565728,-0.68609136,-0.61343265,-8.851462,0.0038359957000000003,-0.26097178,-0.06494219,-2.072083,-0.8387321,16.144620264075296,-2.0637060769327027,0.06092948498446608,1.8956241589032417,17.542633,-3.3104115,2.3195472,1.1649483,0
-1.64,13.214926,-11.062672000000001,1.1345794,-0.16719808,-0.3496645,-0.6825408000000001,-0.6196106,-8.744808,0.049246877,-0.24670345,-0.3763127,-1.7393023999999997,-0.70455647,17.724151642637253,-4.003910841930017,3.0491636469389767,2.220158110013776,17.030012,-4.794608,3.3563983,1.5134136999999999,1
-1.63,13.128041,-11.061952,1.1322187,-0.16833639,-0.34358445,-0.68066347,-0.6247476,-8.632255,0.09433311,-0.22521843,-1.0649084999999998,-0.9443876,-0.59572005,17.724151642637253,-4.003910841930017,3.0491636469389767,2.220158110013776,17.030012,-4.794608,3.3563983,1.5134136999999999,1
-1.6199999999999999,13.042277,-11.060789999999999,1.1300801,-0.16517875,-0.3375199,-0.68077767,-0.62875897,-8.520627000000001,0.13772471,-0.20224805,-1.6462718,-0.27356583,-0.49222428,17.724151642637253,-4.003910841930017,3.0491636469389767,2.220158110013776,17.030012,-4.794608,3.3563983,1.5134136999999999,1
-1.6099999999999999,12.957622,-11.059199000000001,1.1281803999999998,-0.15839672,-0.33146432,-0.6825683000000001,-0.63177705,-8.410894,0.18057147,-0.17736852,-2.1370885,0.29254702,-0.39380705,17.724151642637253,-4.003910841930017,3.0491636469389767,2.220158110013776,17.030012,-4.794608,3.3563983,1.5134136999999999,1
-1.5999999999999999,12.87405,-11.057178500000001,1.1265403,-0.14855112,-0.32539597,-0.6857404,-0.63388485,-8.303888,0.22384274,-0.15025643,-2.55145,0.770305,-0.30021918,18.72933477993774,-4.761086267158938,4.470004438782387,2.302316094535453,18.36674,-5.190975,4.1330686000000005,0.7817934,0
-1.5899999999999999,12.791585000000001,-11.054697,1.1252469999999999,-0.13584633,-0.31956409999999996,-0.6901463000000001,-0.6349193000000001,-8.19002,0.27282214,-0.10795915,-2.8960383,1.3470991,-0.17251202,18.72933477993774,-4.761086267158938,4.470004438782387,2.302316094535453,18.36674,-5.190975,4.1330686000000005,0.7817934,0
-1.5799999999999998,12.710236,-11.051714,1.1243905,-0.12046886,-0.31415606,-0.69563836,-0.6347286,-8.080731,0.32415542,-0.06289282,-3.1869798,1.8338961999999999,-0.051071487,18.72933477993774,-4.761086267158938,4.470004438782387,2.302316094535453,18.36674,-5.190975,4.1330686000000005,0.7817934,0
-1.5699999999999998,12.629953,-11.048202999999999,1.1239985000000001,-0.10283022,-0.30906066,-0.7019621,-0.6333691999999999,-7.9767399999999995,0.37869248,-0.015094992,-3.432614,2.2447464,0.06440993,18.72933477993774,-4.761086267158938,4.470004438782387,2.302316094535453,18.36674,-5.190975,4.1330686000000005,0.7817934,0
-1.5599999999999998,12.550680999999999,-11.044128,1.1240976,-0.083280794,-0.30418137,-0.7088918000000001,-0.63088065,-7.8787139999999996,0.4371067,0.03530615,-3.6399875,2.5915060000000003,0.17422464,18.72933477993774,-4.761086267158938,4.470004438782387,2.302316094535453,18.138136,-4.620566999999999,4.0784783,0.4731588,0
-1.5499999999999998,12.472356,-11.039448,1.1247128,-0.062120787999999996,-0.29943573,-0.716229,-0.627292,-7.787285000000001,0.49991333,0.08809981,-3.8150506,2.8841777000000004,0.27865070000000003,18.72933477993774,-4.761086267158938,4.470004438782387,2.302316094535453,18.138136,-4.620566999999999,4.0784783,0.4731588,0
-1.5399999999999998,12.394910000000001,-11.034114,1.1258669,-0.03960888,-0.29475474,-0.72380054,-0.6226263000000001,-7.7030435,0.56748617,0.14300174,-3.9628308,3.1312037,0.37795258,18.72933477993774,-4.761086267158938,4.470004438782387,2.302316094535453,18.138136,-4.620566999999999,4.0784783,0.4731588,0
-1.5299999999999998,12.318268,-11.028080000000001,1.127579,-0.015969161000000003,-0.29008140000000004,-0.7314558000000001,-0.6169036,-7.6265483,0.6400719,0.19966361,-4.0875745000000006,3.3397069999999998,0.47238162,18.72933477993774,-4.761086267158938,4.470004438782387,2.302316094535453,18.138136,-4.620566999999999,4.0784783,0.4731588,0
-1.5199999999999998,12.242351,-11.021294000000001,1.1298648,0.008603234,-0.28536937,-0.73906434,-0.61014277,-7.5583160000000005,0.7178029,0.25768277,-4.1928678,3.5156987,0.56217706,19.22797042863663,-4.604144492072467,4.709468943077081,2.219326352305776,20.655722,-4.020479,4.844958999999999,1.1016295,0
-1.5099999999999998,12.16708,-11.013694000000001,1.1327566999999998,0.03397342,-0.2806861,-0.7464874,-0.6023435,-7.4972389999999995,0.80292356,0.32078648,-4.25727,3.7016177000000003,0.6434938,19.22797042863663,-4.604144492072467,4.709468943077081,2.219326352305776,20.655722,-4.020479,4.844958999999999,1.1016295,0
-1.4999999999999998,12.092374000000001,-11.005217,1.136282,0.060021356,-0.27608442,-0.75360256,-0.5935132,-7.445562,0.8933515,0.38428593,-4.311624500000001,3.8585515,0.7208203000000001,19.22797042863663,-4.604144492072467,4.709468943077081,2.219326352305776,20.655722,-4.020479,4.844958999999999,1.1016295,0
-1.4899999999999998,12.018135000000001,-10.995809,1.1404418,0.08660624,-0.27151102,-0.76032764,-0.5836805,-7.403666,0.9889950999999999,0.44761297,-4.357496299999999,3.9910212,0.7943524000000001,19.22797042863663,-4.604144492072467,4.709468943077081,2.219326352305776,20.655722,-4.020479,4.844958999999999,1.1016295,0
-1.4799999999999998,11.944265,-10.985419,1.1452316,0.11360301,-0.2669229,-0.7665916,-0.57287323,-7.3718886,1.0896761000000001,0.51018256,-4.3962054,4.1028423,0.8642763000000001,18.874952251267267,-3.731247051633741,3.9961117527914207,2.0138013509669217,20.93218,-3.364094,4.255572,2.2628060000000003,0
-1.4699999999999998,11.870659,-10.974008999999999,1.1506261999999998,0.14048985,-0.26239127,-0.7722682,-0.56126213,-7.350875,1.1931901000000003,0.5684786000000001,-4.292646400000001,4.0860977,0.9206837999999999,18.874952251267267,-3.731247051633741,3.9961117527914207,2.0138013509669217,20.93218,-3.364094,4.255572,2.2628060000000003,0
-1.4599999999999997,11.797213000000001,-10.96154,1.1565946000000003,0.16685128,-0.25798666,-0.77729017,-0.54902047,-7.3400416,1.3009926,0.6249035,-4.2052307,4.0719695,0.9743234000000001,18.874952251267267,-3.731247051633741,3.9961117527914207,2.0138013509669217,20.93218,-3.364094,4.255572,2.2628060000000003,0
-1.4499999999999997,11.723824,-10.947975,1.163116,0.19272701,-0.2536752,-0.78167826,-0.5361756,-7.339301600000001,1.4126514,0.67895037,-4.1314406,4.0600486,1.0253309000000002,18.874952251267267,-3.731247051633741,3.9961117527914207,2.0138013509669217,20.93218,-3.364094,4.255572,2.2628060000000003,0
-1.4399999999999997,11.650392,-10.933276,1.1701639,0.218148,-0.2494279,-0.7854477,-0.5227514,-7.348561,1.5277284,0.7301441,-4.0691514,4.04999,1.0738355,17.7846641261472,-2.372276542927588,2.6780864732248872,1.7275790903219257,20.677683,-3.1772366,2.9456644,1.5646456,0
-1.4299999999999997,11.576822,-10.917444999999999,1.1776652,0.24245329999999998,-0.24537070000000002,-0.78858674,-0.50905854,-7.3665533,1.6389464,0.7696249,-3.8044558,3.8361477999999996,1.1059148,17.7846641261472,-2.372276542927588,2.6780864732248872,1.7275790903219257,20.677683,-3.1772366,2.9456644,1.5646456,0
-1.4199999999999997,11.50303,-10.90049,1.1855448,0.26514003,-0.24162318,-0.79114336,-0.49538997,-7.393344,1.7524532,0.8057671,-3.5810513,3.6556377,1.13642,17.7846641261472,-2.372276542927588,2.6780864732248872,1.7275790903219257,20.677683,-3.1772366,2.9456644,1.5646456,0
-1.4099999999999997,11.428927,-10.88239,1.1937685,0.28644234,-0.23814988,-0.7932004,-0.48173505,-7.4284053,1.8677825000000001,0.8384074,-3.3924972999999996,3.5032642,1.1654283,17.7846641261472,-2.372276542927588,2.6780864732248872,1.7275790903219257,20.677683,-3.1772366,2.9456644,1.5646456,0
-1.3999999999999997,11.354435,-10.86313,1.2023004,0.30655688,-0.23491701,-0.79481983,-0.4680794,-7.471275299999999,1.9845256999999998,0.86741734,-3.2333577,3.3746405,1.1930132,16.922863266548354,-0.8178311466203767,1.1180860913385688,1.3729261401703825,18.55576,-2.4788082,1.4003711,1.4787464,0
-1.3899999999999997,11.279489,-10.842725,1.2110739,0.32487807,-0.2320884,-0.7960881999999999,-0.45478877,-7.5190529999999995,2.0966063000000004,0.8867444999999999,-2.8564022000000002,3.0230083,1.2018416,16.922863266548354,-0.8178311466203767,1.1180860913385688,1.3729261401703825,18.55576,-2.4788082,1.4003711,1.4787464,0
-1.3799999999999997,11.204032000000002,-10.821195,1.2200235000000001,0.34095976,-0.22980827,-0.7971231,-0.4421872,-7.5730886,2.2093506,0.90267825,-2.538271,2.7261715,1.2102367,16.922863266548354,-0.8178311466203767,1.1180860913385688,1.3729261401703825,18.55576,-2.4788082,1.4003711,1.4787464,0
-1.3699999999999997,11.128008,-10.798535000000001,1.2291163999999999,0.35516492,-0.22801551,-0.7979973000000001,-0.43019447,-7.632654,2.3224947,0.91541934,-2.2697847,2.4755912,1.2182198,16.922863266548354,-0.8178311466203767,1.1180860913385688,1.3729261401703825,18.55576,-2.4788082,1.4003711,1.4787464,0
-1.3599999999999997,11.051362,-10.774744,1.2383215,0.367796,-0.22665258,-0.7987597,-0.41873357,-7.6971383,2.4358416000000003,0.92516303,-2.043197,2.2640586,1.2258111,16.922863266548354,-0.8178311466203767,1.1180860913385688,1.3729261401703825,17.237382999999998,-1.4999495,0.87742996,1.3177161,1
-1.3499999999999996,10.974044000000001,-10.749808,1.2476197,0.37914243,-0.22540554,-0.7995361999999999,-0.40765840000000003,-7.767322999999999,2.5513334,0.93405074,-1.9583111,2.0478764,1.2303209,16.922863266548354,-0.8178311466203767,1.1180860913385688,1.3729261401703825,17.237382999999998,-1.4999495,0.87742996,1.3177161,1
-1.3399999999999996,10.896002000000001,-10.723718,1.2569933,0.38943902,-0.22401936,-0.8004190999999999,-0.39684016,-7.841666,2.6666446,0.9402934000000001,-1.8866888,1.865398,1.2346095,16.922863266548354,-0.8178311466203767,1.1180860913385688,1.3729261401703825,17.237382999999998,-1.4999495,0.87742996,1.3177161,1
-1.3299999999999996,10.817197,-10.696475999999999,1.2664171,0.39884472,-0.22252354,-0.8013913,-0.38623616,-7.9199033,2.7815626,0.9440949000000001,-1.8262578,1.7113686999999997,1.2386875,16.922863266548354,-0.8178311466203767,1.1180860913385688,1.3729261401703825,17.237382999999998,-1.4999495,0.87742996,1.3177161,1
-1.3199999999999996,10.737591,-10.668089,1.2758673,0.40749288,-0.22094102,-0.8024352,-0.37580922,-8.001808,2.8959086,0.94563377,-1.7752695,1.581353,1.2425655,16.0546590227102,0.6600794524287816,-0.3978408263523264,1.009176614180686,16.320856,-0.8861996999999999,0.39340732,0.8437007,0
-1.3099999999999996,10.657177,-10.6386,1.2852888999999998,0.41477558,-0.21978003,-0.80354345,-0.36602740000000006,-8.0812645,3.001758,0.9384005999999999,-1.395219,1.2730166,1.231113,16.0546590227102,0.6600794524287816,-0.3978408263523264,1.009176614180686,16.320856,-0.8861996999999999,0.39340732,0.8437007,0
-1.2999999999999996,10.575955,-10.608056,1.2946298,0.42023710000000003,-0.21945253,-0.8047314999999999,-0.3572797,-8.163331,3.1070013,0.9295403,-1.0744804,1.012712,1.2202224,16.0546590227102,0.6600794524287816,-0.3978408263523264,1.009176614180686,16.320856,-0.8861996999999999,0.39340732,0.8437007,0
-1.2899999999999996,10.493903,-10.576462,1.3038752,0.42418024,-0.21984132,-0.8060049,-0.34942394,-8.247417,3.211747,0.9193756,-0.80379677,0.7929576,1.2098663,16.0546590227102,0.6600794524287816,-0.3978408263523264,1.009176614180686,16.320856,-0.8861996999999999,0.39340732,0.8437007,0
-1.2799999999999996,10.411002,-10.543822,1.3130137,0.42685500000000004,-0.22084342,-0.8073599,-0.34233487,-8.333037,3.3161072999999996,0.9081844000000001,-0.5753560000000001,0.607437,1.2000183,15.549076018965664,2.0897637799287296,-1.7732188337318284,0.6284202289579505,15.527744,0.30413726,-0.4352632000000001,0.40109766,0
-1.2699999999999996,10.327252,-10.510158,1.3220226000000002,0.42784040000000007,-0.22262469,-0.8088807,-0.33630797,-8.417007,3.4169273000000002,0.8935204999999999,-0.1594375,0.23650306,1.1719699,15.549076018965664,2.0897637799287296,-1.7732188337318284,0.6284202289579505,15.527744,0.30413726,-0.4352632000000001,0.40109766,0
-1.2599999999999996,10.2426605,-10.475486,1.3308828000000001,0.42681617,-0.22531211,-0.81062895,-0.33157709999999996,-8.501402,3.5176819999999998,0.8785069999999999,0.19156213,-0.076647095,1.1452978,15.549076018965664,2.0897637799287296,-1.7732188337318284,0.6284202289579505,15.527744,0.30413726,-0.4352632000000001,0.40109766,0
-1.2499999999999996,10.157225,-10.439803999999999,1.3395926999999999,0.42410314,-0.22876693,-0.812557,-0.32795359999999996,-8.585607000000001,3.6185722,0.86352146,0.4877774,-0.34101355,1.1199346000000001,15.549076018965664,2.0897637799287296,-1.7732188337318284,0.6284202289579505,15.527744,0.30413726,-0.4352632000000001,0.40109766,0
-1.2399999999999995,10.0709505,-10.403112,1.3481543,0.419966,-0.23286799,-0.81461555,-0.32527325,-8.669101,3.7197757000000005,0.84887093,0.7377604,-0.5641943,1.0958158000000002,15.80116877443171,3.0917870566352263,-2.8352426054214197,0.2634235012787509,15.082424,1.437757,-1.3816879,-0.19312665,0
-1.2299999999999995,9.983839999999999,-10.365397999999999,1.3565791,0.4141572,-0.23767996,-0.8168245,-0.32369727,-8.752739,3.8231040000000003,0.8361846,1.1050982,-0.91812986,1.05497,15.80116877443171,3.0917870566352263,-2.8352426054214197,0.2634235012787509,15.082424,1.437757,-1.3816879,-0.19312665,0
-1.2199999999999995,9.895902,-10.326649,1.3648813999999998,0.40648577,-0.24324317,-0.8191767,-0.32334477,-8.834548,3.9271065999999997,0.8244440000000001,1.4150962,-1.216925,1.0161285,15.80116877443171,3.0917870566352263,-2.8352426054214197,0.2634235012787509,15.082424,1.437757,-1.3816879,-0.19312665,0
-1.2099999999999995,9.807157,-10.286855000000001,1.3730723,0.3972275,-0.24942525,-0.8215872,-0.3240248,-8.913922,4.0319533,0.81394535,1.6767069,-1.4691677,0.9791931,15.80116877443171,3.0917870566352263,-2.8352426054214197,0.2634235012787509,15.082424,1.437757,-1.3816879,-0.19312665,0
-1.1999999999999995,9.717633,-10.246007,1.3811653,0.38661218,-0.25611126,-0.8239788,-0.32557220000000003,-8.990326,4.13777,0.8049057,1.8974855,-1.6821088,0.94407004,16.412557580202005,3.534597515405458,-3.339646504002558,-0.005127449880582246,15.286033999999999,1.5395685,-1.9081824,-0.09752971,0
-1.1899999999999995,9.627348,-10.204075999999999,1.3891934,0.37461588,-0.26326900000000003,-0.82630163,-0.3279913,-9.066092999999999,4.2487845,0.80099064,2.1528924,-1.940509,0.89749265,16.412557580202005,3.534597515405458,-3.339646504002558,-0.005127449880582246,15.286033999999999,1.5395685,-1.9081824,-0.09752971,0
-1.1799999999999995,9.536325,-10.161028,1.3971913999999999,0.36122593,-0.27086177,-0.82849646,-0.33127576,-9.137717,4.360973400000001,0.7989058000000001,2.368434,-2.1586459,0.85320085,16.412557580202005,3.534597515405458,-3.339646504002558,-0.005127449880582246,15.286033999999999,1.5395685,-1.9081824,-0.09752971,0
-1.1699999999999995,9.44461,-10.116853,1.4051782,0.34663576,-0.27879098,-0.83048666,-0.33527818,-9.204673,4.4743695,0.79875004,2.5503347,-2.342791,0.8110824000000001,16.412557580202005,3.534597515405458,-3.339646504002558,-0.005127449880582246,15.286033999999999,1.5395685,-1.9081824,-0.09752971,0
-1.1599999999999995,9.35225,-10.071536,1.4131732,0.33100959999999996,-0.28697172,-0.8322064,-0.33987147,-9.26649,4.5889625999999994,0.8005571,2.703847,-2.4982393,0.7710307,16.412557580202005,3.534597515405458,-3.339646504002558,-0.005127449880582246,15.178953,1.6191498,-2.3396633,-0.28441170000000005,0
-1.1499999999999995,9.2593,-10.025069,1.4211961000000002,0.3144877,-0.2953309,-0.83360034,-0.34494618,-9.322753,4.704703299999999,0.8043041,2.8334029,-2.6294615,0.7329444,16.412557580202005,3.534597515405458,-3.339646504002558,-0.005127449880582246,15.178953,1.6191498,-2.3396633,-0.28441170000000005,0
-1.1399999999999995,9.165817,-9.977439,1.4292657,0.29719052,-0.30380604,-0.83462214,-0.35040808,-9.373089,4.8215065,0.809921,2.942742,-2.7402314999999997,0.69672704,16.412557580202005,3.534597515405458,-3.339646504002558,-0.005127449880582246,15.178953,1.6191498,-2.3396633,-0.28441170000000005,0
-1.1299999999999994,9.071861,-9.928636000000001,1.4374004999999999,0.27922204,-0.31234345,-0.8352338,-0.35617596,-9.417171000000002,4.9392575999999995,0.81729686,3.0350203999999996,-2.8337362,0.66228676,16.412557580202005,3.534597515405458,-3.339646504002558,-0.005127449880582246,15.178953,1.6191498,-2.3396633,-0.28441170000000005,0
-1.1199999999999994,8.977497,-9.878651,1.4456171,0.26067245,-0.3208973,-0.83540463,-0.36217967,-9.454711,5.057815,0.82628655,3.1129012,-2.9126654,0.62953657,16.91900405570642,3.4621146312910183,-3.390105844794794,-0.2502059705177129,14.656826,1.232026,-2.359195,-0.17567584,0
-1.1099999999999994,8.882786,-9.827458,1.4539478000000001,0.24162374,-0.32938909999999993,-0.83511364,-0.36838323,-9.486410000000001,5.1806936,0.84006715,3.1673076,-2.9871886,0.58636737,16.91900405570642,3.4621146312910183,-3.390105844794794,-0.2502059705177129,14.656826,1.232026,-2.359195,-0.17567584,0
-1.0999999999999994,8.787794,-9.775035,1.4624228000000001,0.22214949,-0.3377539,-0.8343431,-0.37475833,-9.510894,5.3040332999999995,0.8551431,3.213225,-3.0500917000000003,0.5453165,16.91900405570642,3.4621146312910183,-3.390105844794794,-0.2502059705177129,14.656826,1.232026,-2.359195,-0.17567584,0
-1.0899999999999994,8.692594999999999,-9.721375,1.4710543,0.20231175,-0.34597382,-0.83307517,-0.38125855,-9.527983,5.427617,0.8713055000000001,3.2519789,-3.103186,0.5062800000000001,16.91900405570642,3.4621146312910183,-3.390105844794794,-0.2502059705177129,14.656826,1.232026,-2.359195,-0.17567584,0
-1.0799999999999994,8.59726,-9.66648,1.4798518,0.18216509,-0.35403374,-0.8312966,-0.38784295,-9.537532,5.551214,0.88832814,3.2846879999999996,-3.1479998,0.46915904,17.036293265364357,2.8748011324880216,-3.0076944323374017,-0.42050500408146346,14.035184,0.8293014000000001,-2.6798215,0.04964271,0
-1.0699999999999994,8.50187,-9.610347,1.4888268999999998,0.16198456,-0.3617829,-0.82905,-0.39439878,-9.53946,5.6754403,0.9067746999999999,3.2206705,-3.1262307000000003,0.42550296,17.036293265364357,2.8748011324880216,-3.0076944323374017,-0.42050500408146346,14.035184,0.8293014000000001,-2.6798215,0.04964271,0
-1.0599999999999994,8.406498,-9.552973,1.4979886999999998,0.14199774,-0.369109,-0.8263881999999999,-0.4008465,-9.533752999999999,5.7991834,0.92561066,3.166643,-3.107846,0.38398907,17.036293265364357,2.8748011324880216,-3.0076944323374017,-0.42050500408146346,14.035184,0.8293014000000001,-2.6798215,0.04964271,0
-1.0499999999999994,8.31122,-9.494366000000001,1.5073397,0.122184604,-0.37605175,-0.82331496,-0.4071961,-9.520515,5.922196400000001,0.9446075,3.1210468,-3.0923192999999998,0.3445123,17.036293265364357,2.8748011324880216,-3.0076944323374017,-0.42050500408146346,14.035184,0.8293014000000001,-2.6798215,0.04964271,0
-1.0399999999999994,8.216111999999999,-9.434532,1.5168805,0.10252865,-0.3826447,-0.8198334999999999,-0.41345385,-9.499846,6.0442405,0.96354216,3.0825665,-3.079206,0.30697265,16.69444001498795,1.9217949904765228,-2.3359071662484734,-0.5100402825540324,15.374648,-0.19946054,-2.9573312,1.0074352,0
-1.0299999999999994,8.121246000000001,-9.373497,1.5265978999999998,0.08339973,-0.3887171,-0.81606853,-0.41949484,-9.472446000000001,6.1626644,0.9798599,2.9014439999999997,-2.9634012999999997,0.2668816,16.69444001498795,1.9217949904765228,-2.3359071662484734,-0.5100402825540324,15.374648,-0.19946054,-2.9573312,1.0074352,0
-1.0199999999999994,8.026688,-9.311283,1.5364763000000001,0.06509465,-0.39414840000000007,-0.81214744,-0.42523703,-9.438228,6.2797217000000005,0.9957488000000001,2.7485797,-2.8656392000000004,0.22875781,16.69444001498795,1.9217949904765228,-2.3359071662484734,-0.5100402825540324,15.374648,-0.19946054,-2.9573312,1.0074352,0
-1.0099999999999993,7.932504,-9.247907000000001,1.5465108,0.047501087000000004,-0.3990316,-0.8080731,-0.43073845,-9.397545,6.3952446,1.0110798,2.6195647999999996,-2.7831092,0.19250478,16.69444001498795,1.9217949904765228,-2.3359071662484734,-0.5100402825540324,15.374648,-0.19946054,-2.9573312,1.0074352,0
-0.9999999999999991,7.838758,-9.183384,1.5566956,0.030522877,-0.40344402,-0.8038448,-0.43604493,-9.350712,6.509085,1.0257376,2.510678,-2.7134384999999996,0.15803069,16.599703892427133,0.8872907090632716,-1.548754823887594,-0.5298525299468365,16.088295000000002,-1.3685036,-4.1772885,2.1677728,0
-0.9899999999999991,7.745508,-9.117735,1.5670198,0.014513011000000001,-0.40725815,-0.7996233,-0.44105914,-9.298339,6.6204834,1.0389924000000001,2.257437,-2.5318828,0.12427606,16.599703892427133,0.8872907090632716,-1.548754823887594,-0.5298525299468365,16.088295000000002,-1.3685036,-4.1772885,2.1677728,0
-0.9799999999999991,7.6528087,-9.0509815,1.5774727,-0.00025269785,-0.4103888,-0.79555964,-0.44572,-9.240641,6.730019,1.0514618,2.043701,-2.378625,0.09217778,16.599703892427133,0.8872907090632716,-1.548754823887594,-0.5298525299468365,16.088295000000002,-1.3685036,-4.1772885,2.1677728,0
-0.9699999999999993,7.5607114,-8.983141999999999,1.5880463,-0.0139552355,-0.41295007,-0.7916329000000001,-0.4501059,-9.178098,6.8376594,1.0631566000000001,1.8633068,-2.2492552000000003,0.06165458,16.599703892427133,0.8872907090632716,-1.548754823887594,-0.5298525299468365,16.088295000000002,-1.3685036,-4.1772885,2.1677728,0
-0.9599999999999993,7.469262,-8.914236,1.5987331,-0.026748877,-0.41503578,-0.7878204000000001,-0.45427886,-9.111114500000001,6.943383,1.0740935,1.7110525,-2.1400514,0.032629155,16.599703892427133,0.8872907090632716,-1.548754823887594,-0.5298525299468365,16.674039999999998,-2.190266,-3.9901085,2.7757087000000005,0
-0.9499999999999993,7.378503299999999,-8.844282000000002,1.6095256000000002,-0.03876495,-0.41672352,-0.78409916,-0.45828786,-9.040037,7.0471770000000005,1.0842912,1.5825486,-2.0478702,0.0050280113,16.599703892427133,0.8872907090632716,-1.548754823887594,-0.5298525299468365,16.674039999999998,-2.190266,-3.9901085,2.7757087000000005,0
-0.9399999999999993,7.288474000000001,-8.7733,1.6204163999999999,-0.050115135,-0.41807730000000004,-0.7804471,-0.46217152,-8.965158,7.149029700000001,1.0937682,1.4740893999999998,-1.9700592000000001,-0.021218732,16.599703892427133,0.8872907090632716,-1.548754823887594,-0.5298525299468365,16.674039999999998,-2.190266,-3.9901085,2.7757087000000005,0
-0.9299999999999993,7.199211999999999,-8.701308000000001,1.6313986999999999,-0.06089436,-0.41915002,-0.77684397,-0.4659602,-8.886728999999999,7.248933,1.1025409,1.3825483,-1.9043784,-0.04617753,16.599703892427133,0.8872907090632716,-1.548754823887594,-0.5298525299468365,16.674039999999998,-2.190266,-3.9901085,2.7757087000000005,0
-0.9199999999999993,7.110751,-8.628327,1.642465,-0.07118326400000001,-0.41998562,-0.7732710999999999,-0.46967766,-8.804963,7.3468800000000005,1.1106226000000001,1.3052860000000002,-1.8489369999999998,-0.06991159,16.051863639441798,-0.03521077948993332,-1.0122545009785946,-0.4469885777552056,18.03021,-2.3140497000000004,-3.1432988999999996,3.2482952999999997,0
-0.9099999999999993,7.023110000000001,-8.554393,1.6535913,-0.08071523,-0.42043695,-0.7698901,-0.47327307,-8.722874000000001,7.4397,1.1145566999999998,1.0962213,-1.7184607,-0.08841487,16.051863639441798,-0.03521077948993332,-1.0122545009785946,-0.4469885777552056,18.03021,-2.3140497000000004,-3.1432988999999996,3.2482952999999997,0
-0.8999999999999992,6.936302700000001,-8.479539,1.6647543000000002,-0.08928372,-0.42039505,-0.7668383000000001,-0.47671345,-8.638085,7.530664999999999,1.1179540000000001,0.91976297,-1.6083287,-0.10601019,16.051863639441798,-0.03521077948993332,-1.0122545009785946,-0.4469885777552056,18.03021,-2.3140497000000004,-3.1432988999999996,3.2482952999999997,0
-0.8899999999999992,6.850356,-8.403785000000001,1.6759488999999999,-0.09703306,-0.41994342,-0.76406556,-0.48003770000000007,-8.5509205,7.619826299999999,1.1209395,0.7708252,-1.5153694,-0.1227421,16.051863639441798,-0.03521077948993332,-1.0122545009785946,-0.4469885777552056,18.03021,-2.3140497000000004,-3.1432988999999996,3.2482952999999997,0
-0.8799999999999992,6.765292,-8.3271475,1.6871718,-0.10408555,-0.41915074,-0.76152706,-0.48327598,-8.461649000000001,7.70723,1.1236217,0.6451157,-1.4369056999999998,-0.13865297,15.42748819577593,-0.8631950500138514,-0.4473718187033744,-0.2928362520678213,18.248642,-2.6957471,-2.98909,3.5444752999999998,0
-0.8699999999999992,6.681113000000001,-8.249663,1.6984009999999998,-0.11022042,-0.41792995,-0.7593564,-0.48637864,-8.374066000000001,7.7895927,1.1221966,0.40990314,-1.2825693999999999,-0.14621879,15.42748819577593,-0.8631950500138514,-0.4473718187033744,-0.2928362520678213,18.248642,-2.6957471,-2.98909,3.5444752999999998,0
-0.8599999999999992,6.5978164999999995,-8.171361,1.7096156999999998,-0.11526951,-0.41621745,-0.75766283,-0.48930909999999994,-8.285032000000001,7.8704089999999995,1.1207504,0.21137117,-1.1523027,-0.15341334,15.42748819577593,-0.8631950500138514,-0.4473718187033744,-0.2928362520678213,18.248642,-2.6957471,-2.98909,3.5444752999999998,0
-0.8499999999999992,6.5154157,-8.092259,1.7208165000000002,-0.11939916,-0.41409546,-0.7563744000000001,-0.49210456,-8.194867,7.949781,1.1194539,0.04379939,-1.0423527,-0.16025485,15.42748819577593,-0.8631950500138514,-0.4473718187033744,-0.2928362520678213,18.248642,-2.6957471,-2.98909,3.5444752999999998,0
-0.8399999999999992,6.433922,-8.012369999999999,1.7320058,-0.12274983,-0.41163158,-0.7554279,-0.4947939,-8.103842,8.027797999999999,1.1184535,-0.09764016,-0.9495505,-0.16676064,14.805590625499567,-1.5417539849936932,0.011083158785458498,-0.09900378230678572,17.981394,-3.30856,-3.0908604,3.5112197,0
-0.8299999999999992,6.3533225,-7.931723,1.7431675,-0.12517692,-0.4087646,-0.75491434,-0.49733984,-8.015893,8.101448,1.1139536,-0.32283092,-0.7997164999999999,-0.16343582,14.805590625499567,-1.5417539849936932,0.011083158785458498,-0.09900378230678572,17.981394,-3.30856,-3.0908604,3.5112197,0
-0.8199999999999992,6.2736044,-7.850345,1.7542868999999999,-0.12657282,-0.4054483,-0.75490373,-0.4997116,-7.9276505,8.17399,1.1100409,-0.5129064,-0.67325354,-0.16027412,14.805590625499567,-1.5417539849936932,0.011083158785458498,-0.09900378230678572,17.981394,-3.30856,-3.0908604,3.5112197,0
-0.8099999999999992,6.1947694,-7.768247,1.7653708,-0.12709661,-0.40175304,-0.7553148000000001,-0.50193703,-7.8394,8.245534,1.1068815,-0.6733424,-0.5665163000000001,-0.15726757,14.805590625499567,-1.5417539849936932,0.011083158785458498,-0.09900378230678572,17.981394,-3.30856,-3.0908604,3.5112197,0
-0.7999999999999992,6.116816,-7.6854377000000005,1.7764275,-0.12688255,-0.39773685,-0.75607705,-0.50403774,-7.7513833,8.316172,1.1046139,-0.8087605,-0.47642773,-0.15440856,13.349880918267848,-1.81052258843887,0.04368364768733479,0.0977858913592708,18.37567,-3.8829834,-3.3433455999999997,3.9019769999999996,0
-0.7899999999999991,6.039697,-7.6019607,1.7874189999999999,-0.12598938,-0.39336976,-0.7571859000000001,-0.50602067,-7.672424,8.379118,1.0938358,-0.9649734000000001,-0.3953087,-0.14203329999999997,13.349880918267848,-1.81052258843887,0.04368364768733479,0.0977858913592708,18.37567,-3.8829834,-3.3433455999999997,3.9019769999999996,0
-0.7799999999999991,5.9633655999999995,-7.517858,1.7983077,-0.12447037,-0.38862893,-0.7586339,-0.5078875,-7.594058,8.44137,1.0840828000000002,-1.0968273000000002,-0.3268443,-0.13026531,13.349880918267848,-1.81052258843887,0.04368364768733479,0.0977858913592708,18.37567,-3.8829834,-3.3433455999999997,3.9019769999999996,0
-0.7699999999999991,5.8878129999999995,-7.4331355,1.8091043000000002,-0.12242264,-0.38356784,-0.76036096,-0.5096470000000001,-7.516458999999999,8.502972,1.0754556999999998,-1.2081207,-0.26905996,-0.119074784,13.349880918267848,-1.81052258843887,0.04368364768733479,0.0977858913592708,18.37567,-3.8829834,-3.3433455999999997,3.9019769999999996,0
-0.7599999999999991,5.8130326,-7.3478007,1.8198208999999999,-0.119928166,-0.3782315,-0.7623154000000001,-0.5113061,-7.4397774000000005,8.563956,1.0680338,-1.3020597,-0.22028969,-0.10843336599999999,13.349880918267848,-1.81052258843887,0.04368364768733479,0.0977858913592708,17.331629,-3.629997,-3.5756724,3.7359278,0
-0.7499999999999991,5.7390137,-7.261858500000001,1.8304695,-0.11705614,-0.37265766,-0.76445335,-0.51287013,-7.3641453,8.624350999999999,1.0618798,-1.38135,-0.1791267,-0.098314136,13.349880918267848,-1.81052258843887,0.04368364768733479,0.0977858913592708,17.331629,-3.629997,-3.5756724,3.7359278,0
-0.7399999999999989,5.6657457,-7.175315400000001,1.8410630000000001,-0.11386504,-0.3668782,-0.7667375,-0.51434356,-7.289675999999999,8.684171000000001,1.0570403,-1.4482761999999998,-0.1443843,-0.08869144,13.349880918267848,-1.81052258843887,0.04368364768733479,0.0977858913592708,17.331629,-3.629997,-3.5756724,3.7359278,0
-0.7299999999999989,5.593216,-7.088176700000001,1.8516148000000001,-0.110404275,-0.36092009999999997,-0.7691363,-0.51573014,-7.2164725999999995,8.743432,1.0535499,-1.5047659,-0.11506089,-0.07954095,13.349880918267848,-1.81052258843887,0.04368364768733479,0.0977858913592708,17.331629,-3.629997,-3.5756724,3.7359278,0
-0.7199999999999989,5.5214114,-7.000448700000001,1.8621386999999998,-0.10671558,-0.35480618,-0.7716229,-0.5170329,-7.144622999999999,8.80214,1.0514317,-1.5524465,-0.09031103,-0.07083949,11.518178346089961,-1.668904361410951,-0.4277801540475937,0.2872996568476843,14.490917000000001,-3.5258407999999997,-1.9859927,3.1553883999999996,0
-0.7099999999999989,5.45027,-6.912176,1.8725817,-0.10301764,-0.34849963,-0.77414715,-0.5182973,-7.083862,8.852313,1.0373398,-1.5706089,-0.14295627,-0.05326551,11.518178346089961,-1.668904361410951,-0.4277801540475937,0.2872996568476843,14.490917000000001,-3.5258407999999997,-1.9859927,3.1553883999999996,0
-0.6999999999999991,5.3797296999999995,-6.823404300000001,1.8828897,-0.099487305,-0.3419724,-0.77667177,-0.5195562,-7.024348700000001,8.901954,1.0244498,-1.5859375,-0.18739091,-0.03655388,11.518178346089961,-1.668904361410951,-0.4277801540475937,0.2872996568476843,14.490917000000001,-3.5258407999999997,-1.9859927,3.1553883999999996,0
-0.6899999999999991,5.309778700000001,-6.734139,1.8930749,-0.09610060599999999,-0.33525429999999995,-0.779193,-0.5207956,-6.9660899999999994,8.950999000000001,1.0127621999999998,-1.5988746,-0.22489567,-0.020662286999999998,11.518178346089961,-1.668904361410951,-0.4277801540475937,0.2872996568476843,14.490917000000001,-3.5258407999999997,-1.9859927,3.1553883999999996,0
-0.679999999999999,5.240403,-6.6443863,1.9031491000000003,-0.09283705,-0.32837072,-0.78170717,-0.5220042,-6.909093400000001,8.999395,1.0022732,-1.6097934999999999,-0.25655118,-0.0055505103,9.876812067988666,-1.4563663549703958,-0.8423303869007177,0.4814259762688938,13.350624,-3.3224885000000004,-2.3389912,3.0572369999999998,0
-0.669999999999999,5.171551999999999,-6.554187,1.9130613,-0.089861244,-0.321321,-0.7841806,-0.52320075,-6.861301400000001,9.040293,0.98031986,-1.5858617,-0.34792793,0.018345566,9.876812067988666,-1.4563663549703958,-0.8423303869007177,0.4814259762688938,13.350624,-3.3224885000000004,-2.3389912,3.0572369999999998,0
-0.659999999999999,5.103174,-6.463582,1.9227589,-0.08730412,-0.31410605,-0.78659004,-0.5243966999999999,-6.81456,9.080513999999999,0.95937234,-1.5656598,-0.42505264,0.041069068,9.876812067988666,-1.4563663549703958,-0.8423303869007177,0.4814259762688938,13.350624,-3.3224885000000004,-2.3389912,3.0572369999999998,0
-0.649999999999999,5.035258,-6.372579,1.932252,-0.08510381,-0.3067478,-0.7889456,-0.52557427,-6.768832000000001,9.119984,0.9394133,-1.548607,-0.49014828,0.0626775,9.876812067988666,-1.4563663549703958,-0.8423303869007177,0.4814259762688938,13.350624,-3.3224885000000004,-2.3389912,3.0572369999999998,0
-0.639999999999999,4.9677935,-6.281185,1.9415505000000002,-0.08320763,-0.29926479999999994,-0.7912548,-0.5267191999999999,-6.724087,9.158638999999999,0.9204247999999999,-1.5342124,-0.54509073,0.08322563,8.898970528589743,-1.3974891086532657,-1.0519767607184545,0.6797086102366626,12.467308000000001,-2.472467,-2.8264772999999996,2.4684207000000002,0
-0.629999999999999,4.90075,-6.1894279999999995,1.9506241999999998,-0.08165689599999999,-0.29164526,-0.79352236,-0.5278236,-6.6846337,9.192677999999999,0.89446145,-1.5128743999999998,-0.624167,0.11249522,8.898970528589743,-1.3974891086532657,-1.0519767607184545,0.6797086102366626,12.467308000000001,-2.472467,-2.8264772999999996,2.4684207000000002,0
-0.619999999999999,4.834098,-6.0973344,1.9594426,-0.08048271,-0.28388032,-0.7957535,-0.5288774,-6.6460094,9.225868,0.86933845,-1.4948626,-0.6909095000000001,0.14032856,8.898970528589743,-1.3974891086532657,-1.0519767607184545,0.6797086102366626,12.467308000000001,-2.472467,-2.8264772999999996,2.4684207000000002,0
-0.6099999999999992,4.7678275,-6.004914,1.9680138999999999,-0.079629645,-0.27598870000000003,-0.7979537,-0.52986753,-6.608185000000001,9.258148,0.84503776,-1.4796592,-0.74724185,0.16679609,8.898970528589743,-1.3974891086532657,-1.0519767607184545,0.6797086102366626,12.467308000000001,-2.472467,-2.8264772999999996,2.4684207000000002,0
-0.5999999999999992,4.701931500000001,-5.912175,1.9763461,-0.07905049,-0.26798615,-0.8001271,-0.53078395,-6.571136,9.289467,0.8215405000000001,-1.4668267,-0.7947879,0.19196485,8.061047239989211,-1.2723701611441829,-0.9311698623221352,0.8507550116959828,12.996611,-2.2276485,-3.5176873,2.8172941000000002,0
-0.5899999999999992,4.6363845,-5.819142299999999,1.9844119999999998,-0.07869848,-0.25995037,-0.80227804,-0.53158516,-6.53826,9.316925999999999,0.79172724,-1.4364816,-0.81608313,0.22429186,8.061047239989211,-1.2723701611441829,-0.9311698623221352,0.8507550116959828,12.996611,-2.2276485,-3.5176873,2.8172941000000002,0
-0.5799999999999992,4.5711637000000005,-5.72584,1.9921831,-0.07853476,-0.25194398,-0.804413,-0.53223747,-6.5060487,9.343452000000001,0.76259625,-1.4108694,-0.8340554,0.2550326,8.061047239989211,-1.2723701611441829,-0.9311698623221352,0.8507550116959828,12.996611,-2.2276485,-3.5176873,2.8172941000000002,0
-0.5699999999999992,4.506261299999999,-5.632276999999999,1.9996662,-0.07853260000000001,-0.24395926,-0.80653626,-0.5327440999999999,-6.474485400000001,9.36903,0.73412013,-1.3892518,-0.8492232,0.28426490000000004,8.061047239989211,-1.2723701611441829,-0.9311698623221352,0.8507550116959828,12.996611,-2.2276485,-3.5176873,2.8172941000000002,0
-0.5599999999999992,4.441671400000001,-5.5384626,2.006868,-0.07866909,-0.23598969,-0.80865055,-0.53310865,-6.4435554,9.393644,0.7062729,-1.3710061000000002,-0.8620242,0.31206269999999997,8.061047239989211,-1.2723701611441829,-0.9311698623221352,0.8507550116959828,12.058504,-1.6812658,-2.43851,1.9527506000000001,0
-0.5499999999999992,4.3773875,-5.4444075,2.0137942,-0.07892458,-0.22802989,-0.8107576,-0.5333346999999999,-6.413248,9.41728,0.67902976,-1.3556068000000001,-0.87282765,0.33849650000000003,8.061047239989211,-1.2723701611441829,-0.9311698623221352,0.8507550116959828,12.058504,-1.6812658,-2.43851,1.9527506000000001,0
-0.5399999999999991,4.313404,-5.3501205,2.0204508000000003,-0.07928217,-0.22007535,-0.8128583,-0.53342575,-6.383553,9.439926,0.6523667,-1.3426098,-0.8819452,0.36363320000000005,8.061047239989211,-1.2723701611441829,-0.9311698623221352,0.8507550116959828,12.058504,-1.6812658,-2.43851,1.9527506000000001,0
-0.5299999999999991,4.249714,-5.255612,2.0268435,-0.07972735,-0.21212240000000002,-0.8149528,-0.5333855,-6.3544626,9.461571000000001,0.6262606,-1.3316401000000002,-0.88964003,0.3875364,8.061047239989211,-1.2723701611441829,-0.9311698623221352,0.8507550116959828,12.058504,-1.6812658,-2.43851,1.9527506000000001,0
-0.5199999999999991,4.186312,-5.160892,2.032978,-0.08024760000000002,-0.20416798,-0.8170406,-0.53321755,-6.3259697,9.482204,0.6006889,-1.3223822,-0.8961339,0.41026667,7.518698566629264,-1.1928461836200552,-0.7456581422613711,0.9795632689302104,12.671902000000001,-2.6130953,-2.8444830000000003,2.2658702999999996,0
-0.5099999999999991,4.123183,-5.0659776,2.0388346,-0.080791645,-0.19627403,-0.81912917,-0.53289515,-6.299946,9.500498,0.57071453,-1.3021715,-0.8726857,0.4382022,7.518698566629264,-1.1928461836200552,-0.7456581422613711,0.9795632689302104,12.671902000000001,-2.6130953,-2.8444830000000003,2.2658702999999996,0
-0.4999999999999991,4.0603112999999995,-4.970885,2.0443935,-0.08131827400000001,-0.1884897,-0.8212264000000001,-0.53239715,-6.274471299999999,9.517847999999999,0.541193,-1.2851132,-0.8528931999999999,0.46476692,7.518698566629264,-1.1928461836200552,-0.7456581422613711,0.9795632689302104,12.671902000000001,-2.6130953,-2.8444830000000003,2.2658702999999996,0
-0.4899999999999989,3.9976915999999996,-4.8756237,2.0496597,-0.08183107,-0.1807955,-0.823332,-0.5317346,-6.249543,9.534266,0.5121003,-1.2707155,-0.83618665,0.4900281,7.518698566629264,-1.1928461836200552,-0.7456581422613711,0.9795632689302104,12.671902000000001,-2.6130953,-2.8444830000000003,2.2658702999999996,0
-0.47999999999999887,3.9353184999999997,-4.780203299999999,2.054637,-0.08233286,-0.17317507,-0.82544476,-0.53091735,-6.2251587,9.549763,0.48341408,-1.2585633999999999,-0.8220845999999999,0.5140497,7.186324681416688,-1.190426904784828,-0.2917371677520341,1.0882004265998473,11.993975,-2.4817807999999997,-2.311132,1.9024381999999997,0
-0.46999999999999886,3.8731812999999993,-4.6846356,2.059314,-0.08267863,-0.16571073,-0.8275855999999999,-0.5299121,-6.202373000000001,9.563704,0.45202765,-1.2479516000000002,-0.73939645,0.54222345,7.186324681416688,-1.190426904784828,-0.2917371677520341,1.0882004265998473,11.993975,-2.4817807999999997,-2.311132,1.9024381999999997,0
-0.45999999999999885,3.8112695,-4.588932,2.0636787,-0.08275334,-0.15846705,-0.8297728999999999,-0.5286941999999999,-6.180121,9.576813000000001,0.42098898,-1.2389934999999999,-0.6696028,0.56901467,7.186324681416688,-1.190426904784828,-0.2917371677520341,1.0882004265998473,11.993975,-2.4817807999999997,-2.311132,1.9024381999999997,0
-0.44999999999999885,3.7495773,-4.493101599999999,2.0677347,-0.082599394,-0.15140735,-0.8320014000000001,-0.5272831,-6.1584187,9.589134,0.39027929999999994,-1.2314312,-0.6106925,0.59449124,7.186324681416688,-1.190426904784828,-0.2917371677520341,1.0882004265998473,11.993975,-2.4817807999999997,-2.311132,1.9024381999999997,0
-0.43999999999999884,3.6880991,-4.397151999999999,2.071485,-0.08225255,-0.14450069,-0.8342658000000002,-0.52569497,-6.137281,9.600700999999999,0.35988155,-1.225047,-0.56096846,0.6187176999999999,7.489700496498642,-1.3656896491510953,0.2677982047483672,1.2356659866646902,9.41802,-1.8544729,-0.9824748999999999,1.2670678999999998,0
-0.4299999999999988,3.6268339999999997,-4.301088,2.0749476000000002,-0.08152168,-0.13777858,-0.83659905,-0.52390265,-6.1158547,9.612009,0.33265135,-1.2470235,-0.4317562,0.64899147,7.489700496498642,-1.3656896491510953,0.2677982047483672,1.2356659866646902,9.41802,-1.8544729,-0.9824748999999999,1.2670678999999998,0
-0.4199999999999988,3.56578,-4.204914,2.0781393,-0.08025659,-0.13126382,-0.8390267,-0.5218847,-6.0950775,9.622631,0.30571997,-1.2655694,-0.3226926,0.6777798,7.489700496498642,-1.3656896491510953,0.2677982047483672,1.2356659866646902,9.41802,-1.8544729,-0.9824748999999999,1.2670678999999998,0
-0.4099999999999988,3.5049300000000003,-4.108638,2.0810633000000003,-0.07854017,-0.12492096400000001,-0.84153354,-0.5196615,-6.0749974,9.632629,0.27907845,-1.2812196000000002,-0.23063566,0.70515543,7.489700496498642,-1.3656896491510953,0.2677982047483672,1.2356659866646902,9.41802,-1.8544729,-0.9824748999999999,1.2670678999999998,0
-0.3999999999999988,3.4442775,-4.012264,2.0837218999999996,-0.07644240599999999,-0.11872028,-0.84410596,-0.5172502,-6.055655000000001,9.6420555,0.25271773,-1.2944255,-0.15293321,0.73118776,8.552165978807139,-1.7361627974441436,0.9238858972095132,1.4618485775336587,10.22763,-1.9822803,-0.937441,2.0189881,0
-0.3899999999999988,3.3838277000000003,-3.9157917,2.0861695,-0.07372717,-0.11264487,-0.8467825000000001,-0.5146215999999999,-6.034460500000001,9.652219,0.23684524,-1.3633941,0.01493147,0.7670415,8.552165978807139,-1.7361627974441436,0.9238858972095132,1.4618485775336587,10.22763,-1.9822803,-0.937441,2.0189881,0
-0.3799999999999988,3.323585,-3.8192208,2.08846,-0.07021007,-0.10667850000000001,-0.84958994,-0.51174974,-6.014254,9.661863,0.22128335,-1.4216014,0.15662181,0.80113596,8.552165978807139,-1.7361627974441436,0.9238858972095132,1.4618485775336587,10.22763,-1.9822803,-0.937441,2.0189881,0
-0.3699999999999988,3.2635389999999997,-3.7225556000000006,2.0905962,-0.066015296,-0.10079943400000001,-0.8524997,-0.50865144,-5.9951362999999995,9.671064,0.20603068,-1.4707253,0.27621958,0.83355725,8.552165978807139,-1.7361627974441436,0.9238858972095132,1.4618485775336587,10.22763,-1.9822803,-0.937441,2.0189881,0
-0.35999999999999877,3.2036784,-3.6258004,2.0925814999999997,-0.06124774,-0.09498981,-0.8554866,-0.5053404,-5.9771934,9.679884,0.19108167,-1.5121825,0.37716982,0.8643877000000001,8.552165978807139,-1.7361627974441436,0.9238858972095132,1.4618485775336587,11.71031,-2.5850172000000002,-0.9939921,2.6574013,0
-0.34999999999999876,3.1439908,-3.5289587999999994,2.0944188,-0.055996027000000004,-0.08923502,-0.85852814,-0.5018282000000001,-5.9605002,9.688371,0.17642686,-1.5471687,0.46238062,0.8937053,8.552165978807139,-1.7361627974441436,0.9238858972095132,1.4618485775336587,11.71031,-2.5850172000000002,-0.9939921,2.6574013,0
-0.33999999999999875,3.0844636000000003,-3.432034,2.0961108,-0.050335082999999996,-0.083523236,-0.86160475,-0.49812449999999997,-5.9451194,9.696562,0.16205336,-1.5766938,0.53430635,0.92158425,8.552165978807139,-1.7361627974441436,0.9238858972095132,1.4618485775336587,11.71031,-2.5850172000000002,-0.9939921,2.6574013,0
-0.32999999999999874,3.0250835,-3.3350286,2.0976605,-0.044328254000000004,-0.077844895,-0.8646992,-0.49423779999999995,-5.9311055999999995,9.704485,0.14794514,-1.6016096000000002,0.5950183000000001,0.9480951999999999,8.552165978807139,-1.7361627974441436,0.9238858972095132,1.4618485775336587,11.71031,-2.5850172000000002,-0.9939921,2.6574013,0
-0.31999999999999873,2.9658365,-3.2379456,2.0990705000000003,-0.038029167999999995,-0.07219237,-0.8677963,-0.49017552,-5.918505000000001,9.712161,0.13408352,-1.6226353999999998,0.6462654,0.9733052,9.777604516094133,-2.109185895994929,1.3293824409381425,1.6706188014502152,10.886505999999999,-2.5363827000000003,0.05240224,2.366688,0
-0.3099999999999987,2.9067166,-3.1407812,2.1004037999999996,-0.031271067,-0.06650808,-0.8709109,-0.4859151,-5.9057703,9.720671000000001,0.13255127,-1.6985968,0.75271124,1.0075226000000002,9.777604516094133,-2.109185895994929,1.3293824409381425,1.6706188014502152,10.886505999999999,-2.5363827000000003,0.05240224,2.366688,0
-0.2999999999999987,2.8477151000000003,-3.0435328,2.1017227000000003,-0.023924393999999998,-0.060744874000000004,-0.8740479999999999,-0.48143348,-5.894806,9.72894,0.13125664,-1.7627046000000002,0.84256345,1.0400610000000001,9.777604516094133,-2.109185895994929,1.3293824409381425,1.6706188014502152,10.886505999999999,-2.5363827000000003,0.05240224,2.366688,0
-0.2899999999999987,2.7888138,-2.9462032000000002,2.1030297000000004,-0.016081243999999998,-0.054911777,-0.8771824,-0.47673625,-5.8857155,9.736989999999999,0.13017415,-1.8168080000000002,0.91840947,1.0710026000000001,9.777604516094133,-2.109185895994929,1.3293824409381425,1.6706188014502152,10.886505999999999,-2.5363827000000003,0.05240224,2.366688,0
-0.2799999999999987,2.7299938,-2.848794,2.104327,-0.007819602,-0.04901711,-0.88029224,-0.47182843,-5.878586,9.744833,0.12927227,-1.8624676,0.982433,1.1004258,11.055753118262867,-2.2872210207750503,1.6885272940414338,1.7562989333487695,11.44977,-2.7174747000000004,0.23633121,2.757326,0
-0.2699999999999989,2.6712387000000004,-2.7513025,2.1056793,0.0009540948,-0.043073118,-0.88336647,-0.4666988,-5.8728313,9.753476,0.1412391,-1.9288093000000002,1.0924603000000002,1.1326097,11.055753118262867,-2.2872210207750503,1.6885272940414338,1.7562989333487695,11.44977,-2.7174747000000004,0.23633121,2.757326,0
-0.2599999999999989,2.612529,-2.6537254,2.107152,0.01031034,-0.03708937,-0.88639003,-0.46133620000000003,-5.8694997,9.761913999999999,0.15332152,-1.9847955000000002,1.1853358999999999,1.1632143999999998,11.055753118262867,-2.2872210207750503,1.6885272940414338,1.7562989333487695,11.44977,-2.7174747000000004,0.23633121,2.757326,0
-0.2499999999999989,2.55384,-2.5560647999999997,2.1087458,0.020156771,-0.031069887999999997,-0.8893394,-0.45574564,-5.868703400000001,9.770167,0.16546529999999998,-2.0320418,1.263734,1.1923171000000001,11.055753118262867,-2.2872210207750503,1.6885272940414338,1.7562989333487695,11.44977,-2.7174747000000004,0.23633121,2.757326,0
-0.23999999999999888,2.4951458,-2.4583225,2.1104612,0.03041492,-0.025018891,-0.8921941999999999,-0.44993190000000005,-5.870535,9.778241,0.17760983,-2.0719123,1.329912,1.219992,12.085348950021665,-2.397885621844799,1.5461224068356705,1.7850650352374502,15.2025795,-2.9967241000000002,-1.5304825,3.2318537,0
-0.22999999999999865,2.436418,-2.3604967999999995,2.112349,0.040986842999999995,-0.018875755,-0.8949414000000001,-0.44389632,-5.8754935,9.786864,0.1999503,-2.122799,1.3635511,1.2477204,12.085348950021665,-2.397885621844799,1.5461224068356705,1.7850650352374502,15.2025795,-2.9967241000000002,-1.5304825,3.2318537,0
-0.21999999999999864,2.3776255,-2.2625859,2.1144595,0.051790487,-0.012593696000000001,-0.8975696,-0.43763942,-5.883478599999999,9.795247,0.22214487,-2.1657455000000003,1.391951,1.2740879999999999,12.085348950021665,-2.397885621844799,1.5461224068356705,1.7850650352374502,15.2025795,-2.9967241000000002,-1.5304825,3.2318537,0
-0.20999999999999863,2.3187375,-2.1645927000000005,2.116791,0.06278555,-0.006195611,-0.90006477,-0.43116504,-5.894545,9.803342,0.24411483,-2.2019906000000002,1.4159278999999998,1.2991618999999999,12.085348950021665,-2.397885621844799,1.5461224068356705,1.7850650352374502,15.2025795,-2.9967241000000002,-1.5304825,3.2318537,0
-0.19999999999999862,2.2597237,-2.0665202000000003,2.1193407000000004,0.07393761,0.00029858259999999997,-0.90241474,-0.42447743,-5.908735299999999,9.811099,0.26577812,-2.23258,1.4361708999999998,1.3230053999999998,12.678742557411107,-2.4726438579369074,0.9145865928187183,1.7336615653201422,15.556354500000001,-2.8796237000000002,-1.6340968999999999,3.1149375,0
-0.18999999999999884,2.200548,-1.9683702,2.1221343999999998,0.08500154,0.007005577,-0.9046264999999999,-0.41758448,-5.9269238,9.818814999999999,0.29291314,-2.2699654,1.354768,1.3431565,12.678742557411107,-2.4726438579369074,0.9145865928187183,1.7336615653201422,15.556354500000001,-2.8796237000000002,-1.6340968999999999,3.1149375,0
-0.17999999999999883,2.1411738,-1.8701457,2.1251974,0.09578065599999999,0.014014677,-0.9067109,-0.41049373,-5.948383,9.825977,0.31956238,-2.3015293999999997,1.2860655,1.3623186,12.678742557411107,-2.4726438579369074,0.9145865928187183,1.7336615653201422,15.556354500000001,-2.8796237000000002,-1.6340968999999999,3.1149375,0
-0.16999999999999882,2.0815692,-1.7718531000000002,2.128524,0.10631310000000001,0.021273172000000003,-0.9086622999999999,-0.40320966,-5.973064,9.832443,0.34565264,-2.3281777000000003,1.2280822,1.3805405000000002,12.678742557411107,-2.4726438579369074,0.9145865928187183,1.7336615653201422,15.556354500000001,-2.8796237000000002,-1.6340968999999999,3.1149375,0
-0.1599999999999988,2.0217018,-1.6734997,2.1321082000000002,0.11663109,0.028736502,-0.9104745000000001,-0.39573717,-6.000916,9.838083000000001,0.37111077,-2.3506765,1.1791459999999998,1.3978683,12.678742557411107,-2.4726438579369074,0.9145865928187183,1.7336615653201422,15.981454999999999,-2.7365527000000003,-1.9218203999999999,2.946952,0
-0.1499999999999988,1.9615401999999997,-1.5750946000000001,2.1359437000000003,0.12676169,0.03636696,-0.91214144,-0.38808155,-6.0318885,9.842782000000001,0.39586344,-2.3696718,1.1378455,1.4143457,12.678742557411107,-2.4726438579369074,0.9145865928187183,1.7336615653201422,15.981454999999999,-2.7365527000000003,-1.9218203999999999,2.946952,0
-0.1399999999999988,1.9010534,-1.4766476,2.1400228,0.13672765,0.044132597999999995,-0.91365725,-0.38024825,-6.065929,9.846437,0.41983747,-2.3857095,1.1029892,1.4300146999999999,12.678742557411107,-2.4726438579369074,0.9145865928187183,1.7336615653201422,15.981454999999999,-2.7365527000000003,-1.9218203999999999,2.946952,0
-0.12999999999999878,1.8402112000000002,-1.3781698,2.1443374,0.14654797,0.052006315,-0.9150162000000001,-0.37224293,-6.102983,9.848956,0.44295973,-2.3992497999999998,1.0735721999999999,1.4449148,12.678742557411107,-2.4726438579369074,0.9145865928187183,1.7336615653201422,15.981454999999999,-2.7365527000000003,-1.9218203999999999,2.946952,0
-0.11999999999999877,1.7789834999999998,-1.2796726999999999,2.1488786,0.15623851,0.059965085,-0.9162129999999999,-0.36407128,-6.1429954,9.85025,0.46515733,-2.410682,1.0487454999999999,1.4590836999999999,12.517197103165287,-2.282118051094874,-0.012354481648355146,1.5213555988049428,15.6230345,-2.8365886000000002,-1.8947599,2.8197872999999998,0
-0.10999999999999877,1.7173439,-1.1811691999999998,2.1536294999999996,0.1654435,0.068057425,-0.91729873,-0.3557528,-6.185345,9.850230999999999,0.48484397,-2.3904772000000003,0.88328195,1.4621395000000001,12.517197103165287,-2.282118051094874,-0.012354481648355146,1.5213555988049428,15.6230345,-2.8365886000000002,-1.8947599,2.8197872999999998,0
