time-since-start [s],throttle_mpc,roll_mpc,pitch_mpc,yaw_mpc,throttle_nw,roll_nw,pitch_nw,yaw_nw,position_x [m],position_y [m],position_z [m],rotation_w [quaternion],rotation_x [quaternion],rotation_y [quaternion],rotation_z [quaternion],velocity_x [m/s],velocity_y [m/s],velocity_z [m/s],omega_x [rad/s],omega_y [rad/s],omega_z [rad/s],network_used
0.0,9.065565901394498,5.99999955443426,-5.99999994221076,-5.066697716491799,15.485994,1.3103745,-4.2458496,-0.392056,20.496525,-8.416842,1.864735,-0.21409737,-0.45685852,0.2695346,0.82024,-10.360852,-6.8645864,0.4285045,2.0541573,-0.5095245,-0.037589304,0
0.01,9.065565901394498,5.99999955443426,-5.99999994221076,-5.066697716491799,16.402079,1.0601927,-5.6675406,-0.9896053,20.39215,-8.485268,1.8689144,-0.20826511,-0.4567879,0.2780251,0.81894594,-10.513148,-6.8199368,0.40680283,1.9340453,-0.6305769,-0.20476158,0
0.02,9.065565901394498,5.99999955443426,-5.99999994221076,-5.066697716491799,16.402079,1.0601927,-5.6675406,-0.9896053,20.286276,-8.553235,1.8728595,-0.2018316,-0.4563268,0.2857745,0.8181459,-10.661449,-6.773221,0.3817181,1.8332181,-0.7332978,-0.36779356,0
0.03,9.065565901394498,5.99999955443426,-5.99999994221076,-5.066697716491799,16.402079,1.0601927,-5.6675406,-0.9896053,20.178936,-8.620725,1.8765383,-0.19479488,-0.45556855,0.29284483,0.8177738,-10.805696,-6.7246118,0.35357293,1.7485704,-0.8204489,-0.52678776,0
0.04,9.065565901394498,5.99999955443426,-5.99999994221076,-5.066697716491799,16.655077,1.4934722,-5.7675056,-1.2560544,20.070175,-8.68772,1.8799216,-0.1871559,-0.45459005,0.29928887,0.81776935,-10.945852,-6.6742673,0.32264394,1.6774985,-0.8943782,-0.68184423,0
0.05,9.065565901394498,5.99999955443426,-5.99999994221076,-5.066697716491799,16.655077,1.4934722,-5.7675056,-1.2560544,19.96003,-8.754203,1.8829837,-0.17890748,-0.45344424,0.30516726,0.81807905,-11.082638,-6.6220527,0.28951564,1.6272486,-0.96652025,-0.8322572,0
0.060000000000000005,9.065565901394498,5.99999955443426,-5.99999994221076,-5.066697716491799,16.655077,1.4934722,-5.7675056,-1.2560544,19.84853,-8.820153,1.8857064,-0.16999716,-0.45212644,0.31060383,0.81866235,-11.216888,-6.5677195,0.25478688,1.6066557,-1.0492524,-0.9772407,0
0.07,9.065565901394498,5.99999955443426,-5.99999994221076,-5.066697716491799,16.655077,1.4934722,-5.7675056,-1.2560544,19.735703,-8.8855505,1.8880744,-0.1603648,-0.4506119,0.3157264,0.8194809,-11.348436,-6.5113425,0.21855551,1.6118369,-1.1416736,-1.1171277,0
0.08,12.380061854293722,5.9999998315660585,-5.9999999778034585,-5.708115018455908,17.458385,1.7879481,-4.8320394,-1.0413809,19.621574,-8.950373,1.8900728,-0.14995815,-0.44887236,0.32064417,0.8204959,-11.4771185,-6.4529605,0.18090762,1.639389,-1.2428948,-1.2522235,0
0.09,12.380061854293722,5.9999998315660585,-5.9999999778034585,-5.708115018455908,17.458385,1.7879481,-4.8320394,-1.0413809,19.506035,-9.014536,1.8917528,-0.13866848,-0.44690314,0.32541233,0.8216785,-11.630283,-6.3793707,0.15486202,1.68628,-1.3520666,-1.4142778,0
0.09999999999999999,12.380061854293722,5.9999998315660585,-5.9999999778034585,-5.708115018455908,17.458385,1.7879481,-4.8320394,-1.0413809,19.38898,-9.077951,1.8931648,-0.12638497,-0.44468558,0.3300868,0.8229972,-11.779628,-6.3033133,0.12730156,1.7543354,-1.4727457,-1.5709279,0
0.10999999999999999,12.380061854293722,5.9999998315660585,-5.9999999778034585,-5.708115018455908,17.458385,1.7879481,-4.8320394,-1.0413809,19.270454,-9.140594,1.8942939,-0.11306319,-0.4421671,0.33475295,0.8244062,-11.924938,-6.2247596,0.09830247,1.8407319,-1.6036181,-1.7224815,0
0.11999999999999998,12.380061854293722,5.9999998315660585,-5.9999999778034585,-5.708115018455908,17.458385,1.7879481,-4.8320394,-1.0413809,19.150497,-9.202438,1.8951262,-0.098665886,-0.43929425,0.33948055,0.8258563,-12.0659895,-6.1436653,0.06793847,1.9429755,-1.7434638,-1.8692218,0
0.12999999999999998,18.010568032127118,5.999999963349835,-6.0,-5.296197473616504,18.104662,2.7309616,-6.4410715,-0.86493266,19.02915,-9.263459,1.8956484,-0.083162725,-0.4360129,0.34432507,0.827295,-12.202547,-6.0599813,0.036282584,2.0588634,-1.8911521,-2.011409,0
0.13999999999999999,18.010568032127118,5.999999963349835,-6.0,-5.296197473616504,18.104662,2.7309616,-6.4410715,-0.86493266,18.906319,-9.323538,1.8959175,-0.06611851,-0.43186486,0.34980845,0.828707,-12.36232,-5.955274,0.017260538,2.3957262,-2.2554994,-2.1477892,0
0.15,18.010568032127118,5.999999963349835,-6.0,-5.296197473616504,18.104662,2.7309616,-6.4410715,-0.86493266,18.781925,-9.382553,1.8959877,-0.047142223,-0.42640993,0.35636458,0.8300341,-12.51505,-5.8473754,-0.0034802197,2.725603,-2.608664,-2.2815533,0
0.16,20.99999980026251,5.999999984753798,-6.0,-4.436084035891187,18.707758,3.584756,-5.8365736,-0.6296834,18.656042,-9.440472,1.8958426,-0.02627798,-0.4196168,0.36390114,0.83114815,-12.66017,-5.735855,-0.025795452,3.048536,-2.9513342,-2.4127352,0
0.17,20.99999980026251,5.999999984753798,-6.0,-4.436084035891187,18.707758,3.584756,-5.8365736,-0.6296834,18.528694,-9.49721,1.8954965,-0.003331462,-0.41110468,0.3726755,0.83192235,-12.8083935,-5.6107945,-0.043380573,3.5078475,-3.4277194,-2.5120215,0
0.18000000000000002,20.99999980026251,5.999999984753798,-6.0,-4.436084035891187,18.707758,3.584756,-5.8365736,-0.6296834,18.399897,-9.55266,1.894976,0.021704637,-0.400647,0.382734,0.8321812,-12.9498005,-5.4782653,-0.060664397,3.895606,-3.8297381,-2.6064358,0
0.19000000000000003,20.99999980026251,5.999999984753798,-6.0,-4.436084035891187,18.707758,3.584756,-5.8365736,-0.6296834,18.269726,-9.606747,1.8942847,0.04852545,-0.38842314,0.3937028,0.8317276,-13.083111,-5.33784,-0.077535056,4.2229667,-4.1689916,-2.696217,0
0.20000000000000004,21.0,5.999999969787475,-6.0,-2.5978844286467195,18.286865,4.527148,-5.9075437,-0.74125946,18.138268,-9.659389,1.8934271,0.0768573,-0.37459016,0.40526137,0.83038443,-13.207078,-5.189386,-0.09389995,4.499345,-4.4552712,-2.7815928,0
0.21000000000000005,21.0,5.999999969787475,-6.0,-2.5978844286467195,18.286865,4.527148,-5.9075437,-0.74125946,18.005621,-9.710506,1.8924086,0.10626373,-0.35919702,0.41722056,0.8280172,-13.320502,-5.033037,-0.10968658,4.732962,-4.6965666,-2.7725782,0
0.22000000000000006,21.0,5.999999969787475,-6.0,-2.5978844286467195,18.286865,4.527148,-5.9075437,-0.74125946,17.871897,-9.760023,1.8912355,0.13634384,-0.34228587,0.42942473,0.8245272,-13.422248,-4.8691683,-0.12484688,4.9302163,-4.900165,-2.764006,0
0.23000000000000007,21.0,5.999999969787475,-6.0,-2.5978844286467195,18.286865,4.527148,-5.9075437,-0.74125946,17.737219,-9.807865,1.8899139,0.16691113,-0.32398364,0.44166407,0.81982195,-13.511259,-4.6983657,-0.13936187,5.096766,-5.0719566,-2.7558541,0
0.24000000000000007,21.0,5.999999969787475,-6.0,-2.5978844286467195,19.075455,3.522924,-5.780024,0.056629613,17.601717,-9.853968,1.8884504,0.19779538,-0.3044093,0.45375884,0.8138273,-13.586578,-4.5214033,-0.15324092,5.237391,-5.2169104,-2.7481027,0
0.25000000000000006,21.0,5.999999969787475,-6.0,-2.5978844286467195,19.075455,3.522924,-5.780024,0.056629613,17.465536,-9.898273,1.8868512,0.22884059,-0.2836751,0.4655551,0.8064855,-13.647358,-4.339216,-0.16651966,5.3561263,-5.3392196,-2.7407315,0
0.26000000000000006,21.0,5.999999969787475,-6.0,-2.5978844286467195,19.075455,3.522924,-5.780024,0.056629613,17.328825,-9.940737,1.885122,0.25990343,-0.2618876,0.47692114,0.79775393,-13.692874,-4.1528788,-0.17925769,5.456379,-5.4424224,-2.733722,0
0.2700000000000001,21.0,5.999999969787475,-6.0,-2.5978844286467195,19.075455,3.522924,-5.780024,0.056629613,17.191736,-9.981321,1.8832676,0.2908517,-0.23914836,0.48774427,0.7876033,-13.722534,-3.96358,-0.19153605,5.5410256,-5.5295033,-2.7270563,0
0.2800000000000001,21.0,5.999999872810619,-5.99999996634054,-1.9037530618273018,19.645727,2.5663147,-5.9283047,0.4026304,17.05443,-10.020003,1.8812925,0.32156327,-0.21555442,0.49792826,0.7760161,-13.735889,-3.7726007,-0.20345445,5.612496,-5.602981,-2.7207177,0
0.2900000000000001,21.0,5.999999872810619,-5.99999996634054,-1.9037530618273018,19.645727,2.5663147,-5.9283047,0.4026304,16.917074,-10.056772,1.8791994,0.35185894,-0.19115618,0.5074095,0.7630141,-13.732631,-3.5812943,-0.21512881,5.672965,-5.6648545,-2.6806293,0
0.3000000000000001,21.0,5.999999872810619,-5.99999996634054,-1.9037530618273018,19.645727,2.5663147,-5.9283047,0.4026304,16.779835,-10.091634,1.8769902,0.38157463,-0.16600275,0.51613444,0.7486317,-13.712605,-3.3910632,-0.22669087,5.7240167,-5.717067,-2.6425076,0
0.3100000000000001,21.0,5.999999872810619,-5.99999996634054,-1.9037530618273018,19.645727,2.5663147,-5.9283047,0.4026304,16.64288,-10.124603,1.8746654,0.4106233,-0.14018379,0.52404046,0.73288405,-13.675807,-3.2033386,-0.23828803,5.767116,-5.761128,-2.6062565,0
0.3200000000000001,21.0,4.475068165020813,-5.999999414283564,0.6668081938268244,19.905682,1.4454684,-4.910281,0.78706294,16.506376,-10.155714,1.8722239,0.4389248,-0.113785915,0.5310743,0.7157921,-13.62238,-3.0195627,-0.25008088,5.8035016,-5.7983108,-2.5717847,0
0.3300000000000001,21.0,4.475068165020813,-5.999999414283564,0.6668081938268244,19.905682,1.4454684,-4.910281,0.78706294,16.37049,-10.185014,1.8696626,0.46612087,-0.08699918,0.5368008,0.6978595,-13.55266,-2.8411698,-0.26220307,5.5968857,-5.828837,-2.4128664,0
0.34000000000000014,21.0,4.475068165020813,-5.999999414283564,0.6668081938268244,19.905682,1.4454684,-4.910281,0.78706294,16.235376,-10.212562,1.8669788,0.49193937,-0.059985496,0.54091096,0.67956847,-13.467359,-2.669548,-0.27458626,5.422475,-5.8547196,-2.261746,0
0.35000000000000014,21.0,4.475068165020813,-5.999999414283564,0.6668081938268244,19.905682,1.4454684,-4.910281,0.78706294,16.101192,-10.238433,1.8641702,0.5164267,-0.032782782,0.54353076,0.6609112,-13.367341,-2.5059764,-0.28713566,5.275245,-5.876664,-2.118041,0
0.36000000000000015,21.0,1.4938996608745971,-2.269063308001601,1.2493567000022943,21.185781,-1.137345,-1.8638332,1.0217664,15.968077,-10.262713,1.8612355,0.53962,-0.005426627,0.544765,0.64188194,-13.253521,-2.351619,-0.29981157,5.1509576,-5.8952675,-1.9813877,0
0.37000000000000016,21.0,1.4938996608745971,-2.269063308001601,1.2493567000022943,21.185781,-1.137345,-1.8638332,1.0217664,15.836165,-10.285501,1.8581734,0.5607197,0.020486942,0.54478806,0.6232015,-13.126985,-2.2074122,-0.31262708,4.581926,-5.3285513,-1.8228543,0
0.38000000000000017,21.0,1.4938996608745971,-2.269063308001601,1.2493567000022943,21.185781,-1.137345,-1.8638332,1.0217664,15.705575,-10.306896,1.8549823,0.57922786,0.043704186,0.5439006,0.6056052,-12.989526,-2.073439,-0.3256373,4.101396,-4.8504496,-1.6721,0
0.3900000000000002,21.0,1.4938996608745971,-2.269063308001601,1.2493567000022943,21.185781,-1.137345,-1.8638332,1.0217664,15.5764065,-10.3270035,1.8516598,0.59556293,0.06466297,0.542324,0.58907443,-12.8429,-1.9493978,-0.33887497,3.6956153,-4.4470944,-1.5287433,0
0.4000000000000002,21.0,-1.6234542081260983,1.833321282603748,1.4049781672283304,22.074802,-4.0565424,1.7555718,0.9307242,15.448744,-10.345919,1.8482038,0.6100653,0.083739,0.5402185,0.5735614,-12.688555,-1.834922,-0.3523471,3.3529642,-4.106791,-1.392421,0
0.4100000000000002,21.0,-1.6234542081260983,1.833321282603748,1.4049781672283304,22.074802,-4.0565424,1.7555718,0.9307242,15.322659,-10.363734,1.8446121,0.6222469,0.09956569,0.53801584,0.5598526,-12.527787,-1.7294583,-0.36604792,2.578024,-3.1794963,-1.2551517,0
0.4200000000000002,21.0,-1.6234542081260983,1.833321282603748,1.4049781672283304,22.074802,-4.0565424,1.7555718,0.9307242,15.198205,-10.380533,1.8408822,0.631821,0.111100115,0.536149,0.548638,-12.362217,-1.6315123,-0.3799567,1.9236529,-2.3970485,-1.1246184,0
0.4300000000000002,21.0,-1.6234542081260983,1.833321282603748,1.4049781672283304,22.074802,-4.0565424,1.7555718,0.9307242,15.075424,-10.396384,1.8370124,0.6392761,0.11906884,0.534684,0.5396869,-12.193257,-1.5393808,-0.39401966,1.3711104,-1.7368064,-1.0004903,0
0.4400000000000002,21.0,-1.6234542081260983,1.833321282603748,1.4049781672283304,22.629063,-5.669629,4.0668607,0.9664094,14.954347,-10.411335,1.8330015,0.6449854,0.12407911,0.53363353,0.5327605,-12.021981,-1.4515439,-0.40816724,0.90456593,-1.1796715,-0.8824533,0
0.45000000000000023,21.0,-1.6234542081260983,1.833321282603748,1.4049781672283304,22.629063,-5.669629,4.0668607,0.9664094,14.8349905,-10.425424,1.828849,0.64923614,0.12663722,0.53297836,0.5276266,-11.849209,-1.3666697,-0.42233014,0.5106466,-0.70953155,-0.7702084,0
0.46000000000000024,21.0,-1.6234542081260983,1.833321282603748,1.4049781672283304,22.629063,-5.669629,4.0668607,0.9664094,14.717366,-10.438674,1.824555,0.6522515,0.12716495,0.5326817,0.5240684,-11.675579,-1.2836045,-0.43644822,0.17805703,-0.3127945,-0.6634714,0
0.47000000000000025,21.0,-1.6234542081260983,1.833321282603748,1.4049781672283304,22.629063,-5.669629,4.0668607,0.9664094,14.60148,-10.451098,1.8201203,0.6542062,0.12601359,0.5326985,0.5218885,-11.501604,-1.2013592,-0.4504743,-0.102743186,0.022006564,-0.56197196,0
0.48000000000000026,21.0,-3.8734920273030613,4.224324935670655,1.7805030693591728,22.423346,-6.227998,3.8051255,1.0519941,14.487332,-10.462702,1.8155459,0.65523905,0.12347598,0.53298116,0.5209098,-11.327701,-1.1190915,-0.4643752,-0.33981186,0.30454627,-0.46545318,0
0.49000000000000027,21.0,-3.8734920273030613,4.224324935670655,1.7805030693591728,22.423346,-6.227998,3.8051255,1.0519941,14.374923,-10.473478,1.8108333,0.6550348,0.118732125,0.53363377,0.5216009,-11.154274,-1.0359803,-0.47812244,-0.89076513,0.91593874,-0.35524347,0
0.5000000000000002,21.0,-3.8734920273030613,4.224324935670655,1.7805030693591728,22.423346,-6.227998,3.8051255,1.0519941,14.264242,-10.483415,1.8059841,0.6533203,0.11114264,0.5347177,0.52430636,-10.982006,-0.9507102,-0.49165487,-1.3558961,1.4318961,-0.2504418,0
0.5100000000000002,21.0,-3.8734920273030613,4.224324935670655,1.7805030693591728,22.423346,-6.227998,3.8051255,1.0519941,14.155274,-10.492481,1.801001,0.6502418,0.10117332,0.53612,0.52870136,-10.811624,-0.8619768,-0.50493306,-1.7485625,1.8673257,-0.15078273,0
0.5200000000000002,21.0,-5.1573500665931915,4.930236821943899,1.9688427764249439,22.655409,-7.1463428,4.686183,1.3487209,14.047999,-10.500638,1.7958862,0.6459089,0.0892147,0.53773236,0.53449667,-10.643808,-0.7687135,-0.5179609,-2.0800447,2.2348034,-0.05601397,0
0.5300000000000002,21.0,-5.1573500665931915,4.930236821943899,1.9688427764249439,22.655409,-7.1463428,4.686183,1.3487209,13.942388,-10.507837,1.7906423,0.640281,0.0751251,0.53935593,0.541749,-10.479243,-0.67002535,-0.53076476,-2.560104,2.655008,0.043346316,0
0.5400000000000003,21.0,-5.1573500665931915,4.930236821943899,1.9688427764249439,22.655409,-7.1463428,4.686183,1.3487209,13.8384,-10.514017,1.7852716,0.63329726,0.058810685,0.5408013,0.55046374,-10.318795,-0.564988,-0.5433161,-2.965337,3.009636,0.13783097,0
0.5500000000000003,21.0,-5.1573500665931915,4.930236821943899,1.9688427764249439,22.655409,-7.1463428,4.686183,1.3487209,13.735992,-10.519112,1.7797768,0.62500566,0.040641245,0.5419856,0.5603288,-10.163385,-0.4528305,-0.5556163,-3.3074,3.3089294,0.22767924,0
0.5600000000000003,21.0,-5.2479309917101045,3.9593237324722987,1.7365939462842925,23.236757,-7.464794,4.6954255,1.2137543,13.635111,-10.523047,1.7741599,0.6154449,0.020932645,0.54283446,0.5710698,-10.013917,-0.33300868,-0.5677287,-3.5961335,3.561529,0.31311867,0
0.5700000000000003,21.0,-5.2479309917101045,3.9593237324722987,1.7365939462842925,23.236757,-7.464794,4.6954255,1.2137543,13.53569,-10.525745,1.7684224,0.6048798,0.00014186325,0.54302746,0.582445,-9.871274,-0.20520881,-0.5797429,-3.8539076,3.6233377,0.382969,0
0.5800000000000003,21.0,-5.2479309917101045,3.9593237324722987,1.7365939462842925,23.236757,-7.464794,4.6954255,1.2137543,13.437659,-10.527124,1.7625654,0.59353787,-0.02134684,0.54232067,0.59426093,-9.736272,-0.06943699,-0.5916434,-4.0714765,3.6755044,0.44939175,0
0.5900000000000003,21.0,-5.2479309917101045,3.9593237324722987,1.7365939462842925,23.236757,-7.464794,4.6954255,1.2137543,13.340937,-10.527107,1.7565899,0.5814036,-0.04338031,0.5407585,0.60635704,-9.609675,0.074126124,-0.6034165,-4.25511,3.719537,0.5125551,0
0.6000000000000003,21.0,-4.112073917983395,1.8536454548111396,1.2405918174867967,22.625402,-7.1215014,3.9269843,1.3225609,13.245434,-10.525616,1.7504972,0.5684693,-0.06582622,0.5383806,0.6185923,-9.492209,0.22519624,-0.6150986,-4.4100995,3.756708,0.5726191,0
0.6100000000000003,21.0,-4.112073917983395,1.8536454548111396,1.2405918174867967,22.625402,-7.1215014,3.9269843,1.3225609,13.151057,-10.522578,1.7442881,0.555268,-0.08782303,0.53503555,0.6306363,-9.384487,0.38333827,-0.62673664,-4.363586,3.4598505,0.6053967,0
0.6200000000000003,21.0,-4.112073917983395,1.8536454548111396,1.2405918174867967,22.625402,-7.1215014,3.9269843,1.3225609,13.057709,-10.517927,1.7379631,0.54227877,-0.10868611,0.5306603,0.6422782,-9.286708,0.54774,-0.63822824,-4.32433,3.2092915,0.6365659,0
0.6300000000000003,21.0,-4.112073917983395,1.8536454548111396,1.2405918174867967,22.625402,-7.1215014,3.9269843,1.3225609,12.965288,-10.511604,1.7315245,0.5294239,-0.12855095,0.5254014,0.6535586,-9.1989155,0.7175412,-0.64943725,-4.2911997,2.99781,0.6662056,0
0.6400000000000003,21.0,-4.112073917983395,1.8536454548111396,1.2405918174867967,21.443682,-6.3653617,4.049407,1.1082058,12.873695,-10.503559,1.7249756,0.51663625,-0.14753428,0.51937914,0.66450465,-9.121131,0.8919619,-0.6602578,-4.2632394,2.8193119,0.69439095,0
0.6500000000000004,21.0,-4.112073917983395,1.8536454548111396,1.2405918174867967,21.443682,-6.3653617,4.049407,1.1082058,12.78283,-10.493752,1.718321,0.50385875,-0.16573635,0.5126924,0.6751332,-9.053366,1.0702868,-0.67061174,-4.239644,2.6686535,0.72119325,0
0.6600000000000004,21.0,-4.112073917983395,1.8536454548111396,1.2405918174867967,21.443682,-6.3653617,4.049407,1.1082058,12.692594,-10.482143,1.7115653,0.4910434,-0.18324293,0.5054225,0.68545383,-8.995623,1.2518529,-0.68044573,-4.2197323,2.541493,0.7466803,0
0.6700000000000004,21.0,-4.112073917983395,1.8536454548111396,1.2405918174867967,21.443682,-6.3653617,4.049407,1.1082058,12.602883,-10.468705,1.704714,0.4781504,-0.20012726,0.49763685,0.6954705,-8.947892,1.4360404,-0.6897285,-4.2029295,2.4341652,0.7709167,0
0.6800000000000004,21.0,-2.3807227078347353,-0.17711840327086392,0.8584814417154396,21.370071,-5.6870713,3.0789452,0.9450492,12.5136,-10.453416,1.6977726,0.4651472,-0.21645162,0.4893914,0.7051831,-8.910156,1.6222639,-0.69844836,-4.1887503,2.3435774,0.7939638,0
0.6900000000000004,21.0,-2.3807227078347353,-0.17711840327086392,0.8584814417154396,21.370071,-5.6870713,3.0789452,0.9450492,12.424646,-10.436255,1.690747,0.45259702,-0.23140052,0.48084635,0.7144206,-8.882296,1.8099413,-0.70658374,-3.9065905,1.9506137,0.79712963,0
0.7000000000000004,21.0,-2.3807227078347353,-0.17711840327086392,0.8584814417154396,21.370071,-5.6870713,3.0789452,0.9450492,12.335923,-10.417214,1.6836437,0.4409809,-0.24434905,0.4721748,0.7231048,-8.863656,1.9984007,-0.7139672,-3.6684635,1.6189113,0.8001402,0
0.7100000000000004,21.0,-2.3807227078347353,-0.17711840327086392,0.8584814417154396,21.370071,-5.6870713,3.0789452,0.9450492,12.247344,-10.396287,1.676471,0.43015695,-0.255602,0.46342692,0.73134696,-8.853476,2.187046,-0.7203936,-3.4674976,1.3389195,0.803003,0
0.7200000000000004,21.0,-0.47279326497368196,-1.9722246787311308,0.6616603850910889,20.583683,-4.2238317,1.5969641,0.6967891,12.158828,-10.373474,1.6692396,0.41999972,-0.26541635,0.45463577,0.73923004,-8.8510895,2.3753955,-0.72568065,-3.2978942,1.1025773,0.80572534,0
0.7300000000000004,21.0,-0.47279326497368196,-1.9722246787311308,0.6616603850910889,20.583683,-4.2238317,1.5969641,0.6967891,12.070299,-10.348781,1.6619619,0.41095138,-0.27317148,0.44608775,0.74666077,-8.855824,2.5630474,-0.72964925,-2.8570669,0.62330824,0.798656,0
0.7400000000000004,21.0,-0.47279326497368196,-1.9722246787311308,0.6616603850910889,20.583683,-4.2238317,1.5969641,0.6967891,11.981691,-10.322216,1.6546521,0.4033703,-0.27839914,0.43803325,0.75360036,-8.866547,2.7496457,-0.732023,-2.4850292,0.21874058,0.7919336,0
0.7500000000000004,21.0,-0.47279326497368196,-1.9722246787311308,0.6616603850910889,20.583683,-4.2238317,1.5969641,0.6967891,11.892952,-10.293792,1.6473278,0.3970356,-0.28150022,0.43043172,0.76016396,-8.8821,2.9349263,-0.73251516,-2.1710463,-0.12276835,0.78554106,0
0.7600000000000005,20.99999996219607,1.0229500090386854,-2.989396871797456,0.5832990106798448,20.263506,-2.5084949,0.24535635,0.71892095,11.804036,-10.263523,1.640009,0.39175382,-0.2828092,0.42323676,0.7664326,-8.9015,3.1187043,-0.73087615,-1.9060588,-0.41104698,0.77946216,0
0.7700000000000005,20.99999996219607,1.0229500090386854,-2.989396871797456,0.5832990106798448,20.263506,-2.5084949,0.24535635,0.71892095,11.7149105,-10.231424,1.6327182,0.3877064,-0.28206405,0.41670018,0.7723244,-8.923841,3.3008523,-0.72688854,-1.4490826,-0.8128981,0.7698364,0
0.7800000000000005,20.99999996219607,1.0229500090386854,-2.989396871797456,0.5832990106798448,20.263506,-2.5084949,0.24535635,0.71892095,11.625551,-10.197513,1.62548,0.3850254,-0.27907175,0.41102067,0.77777684,-8.947963,3.4813135,-0.720341,-1.0634074,-1.1521223,0.76068294,0
0.7900000000000005,20.99999996219607,1.0229500090386854,-2.989396871797456,0.5832990106798448,20.263506,-2.5084949,0.24535635,0.71892095,11.535948,-10.161805,1.618321,0.38348624,-0.27417964,0.40607548,0.7828582,-8.97275,3.6600661,-0.7110527,-0.73790747,-1.4384788,0.7519787,0
0.8000000000000005,20.99999987570306,1.7250826750750314,-2.903149959317975,0.4688707370158869,19.957973,-1.1630671,-1.5122092,0.20216553,11.446096,-10.124318,1.611269,0.3828953,-0.26767752,0.4017527,0.7876136,-8.997254,3.8370962,-0.6988852,-0.4631933,-1.6802067,0.7437015,0
0.8100000000000005,20.99999987570306,1.7250826750750314,-2.903149959317975,0.4688707370158869,19.957973,-1.1630671,-1.5122092,0.20216553,11.356005,-10.08507,1.6043534,0.3831589,-0.25973356,0.39818355,0.7919457,-9.020649,4.012397,-0.6837544,-0.12185702,-1.8707575,0.7302155,0
0.8200000000000005,20.99999987570306,1.7250826750750314,-2.903149959317975,0.4688707370158869,19.957973,-1.1630671,-1.5122092,0.20216553,11.265689,-10.044077,1.5976039,0.38419288,-0.25049382,0.3954641,0.79577464,-9.042117,4.1860166,-0.66569054,0.16623166,-2.031623,0.71739125,0
0.8300000000000005,20.99999987570306,1.7250826750750314,-2.903149959317975,0.4688707370158869,19.957973,-1.1630671,-1.5122092,0.20216553,11.175171,-10.001355,1.5910496,0.3858566,-0.24015166,0.39345273,0.79914784,-9.060924,4.358003,-0.6447722,0.4093798,-2.1674268,0.70519626,0
0.8400000000000005,20.99999987570306,1.7250826750750314,-2.903149959317975,0.4688707370158869,18.215372,-1.2344956,-0.73861694,-0.06569074,11.084481,-9.956923,1.5847181,0.38803083,-0.22887005,0.39202696,0.8021009,-9.076445,4.528378,-0.62109435,0.61459816,-2.2820728,0.6935997,0
0.8500000000000005,20.99999987570306,1.7250826750750314,-2.903149959317975,0.4688707370158869,18.215372,-1.2344956,-0.73861694,-0.06569074,10.993654,-9.910794,1.5786368,0.39061466,-0.21678674,0.39108118,0.8046612,-9.088152,4.697135,-0.59476763,0.78780425,-2.3788564,0.6825722,0
0.8600000000000005,20.99999987570306,1.7250826750750314,-2.903149959317975,0.4688707370158869,18.215372,-1.2344956,-0.73861694,-0.06569074,10.902731,-9.862986,1.5728314,0.39352298,-0.20401861,0.39052498,0.8068499,-9.0955925,4.8642454,-0.56591725,0.93399173,-2.460561,0.6720858,0
0.8700000000000006,20.99999987570306,1.7250826750750314,-2.903149959317975,0.4688707370158869,18.215372,-1.2344956,-0.73861694,-0.06569074,10.811756,-9.813515,1.5673265,0.3966842,-0.1906651,0.39028096,0.808684,-9.098387,5.0296597,-0.5346813,1.0573758,-2.5295355,0.66211396,0
0.8800000000000006,20.999999721907194,1.6354604531543442,-1.8355596917782668,0.2699369985500031,17.007843,-1.7089776,0.09387414,-0.07709927,10.720778,-9.762398,1.5621455,0.40003812,-0.17681104,0.39028317,0.81017715,-9.096213,5.1933103,-0.5012096,1.1615133,-2.5877628,0.6526315,0
0.8900000000000006,20.999999721907194,1.6354604531543442,-1.8355596917782668,0.2699369985500031,17.007843,-1.7089776,0.09387414,-0.07709927,10.629849,-9.709654,1.5573095,0.40338278,-0.16290012,0.3906149,0.8112745,-9.088829,5.3551335,-0.46568346,1.2353448,-2.4704409,0.63385254,0
0.9000000000000006,20.999999721907194,1.6354604531543442,-1.8355596917782668,0.2699369985500031,17.007843,-1.7089776,0.09387414,-0.07709927,10.539021,-9.655301,1.5528377,0.40656534,-0.14929298,0.39134634,0.8119512,-9.076189,5.515169,-0.42840904,1.2976741,-2.3714209,0.61599505,0
0.9100000000000006,20.999999721907194,1.6354604531543442,-1.8355596917782668,0.2699369985500031,17.007843,-1.7089776,0.09387414,-0.07709927,10.448344,-9.599356,1.5487462,0.4096051,-0.13594444,0.39240742,0.812256,-9.058317,5.67348,-0.38970363,1.3502928,-2.2878473,0.59901386,0
0.9200000000000006,20.999999338931893,0.9834013735895661,-0.16762738633621457,0.04262637523677143,15.984993,-2.1883404,1.8894023,-0.05476066,10.357871,-9.541837,1.5450476,0.41251826,-0.12281627,0.39373845,0.8122287,-9.035239,5.830112,-0.34984908,1.3947136,-2.2173104,0.58286595,0
0.9300000000000006,20.999999338931893,0.9834013735895661,-0.16762738633621457,0.04262637523677143,15.984993,-2.1883404,1.8894023,-0.05476066,10.267655,-9.482759,1.5417522,0.41504973,-0.110538,0.39535144,0.8119193,-9.007037,5.985122,-0.30911645,1.3304154,-1.897711,0.5563562,0
0.9400000000000006,20.999999338931893,0.9834013735895661,-0.16762738633621457,0.04262637523677143,15.984993,-2.1883404,1.8894023,-0.05476066,10.177747,-9.422139,1.538867,0.41701293,-0.09961125,0.39726356,0.8113939,-8.974125,6.138718,-0.26784864,1.2761741,-1.627946,0.53114736,0
0.9500000000000006,20.999999338931893,0.9834013735895661,-0.16762738633621457,0.04262637523677143,15.984993,-2.1883404,1.8894023,-0.05476066,10.088189,-9.35999,1.5363958,0.4185102,-0.089832716,0.39943284,0.8106992,-8.936965,6.291142,-0.22636083,1.2304156,-1.4002452,0.5071755,0
0.9600000000000006,20.999997459099387,-0.04207664995113658,1.544935098498018,-0.1358864227347543,15.078255,-3.05142,3.4024253,-0.049541105,9.999022,-9.296321,1.5343397,0.41962573,-0.081029594,0.40182182,0.8098692,-8.895954,6.4426084,-0.18490857,1.1918123,-1.2080497,0.48437998,0
0.9700000000000006,20.999997459099387,-0.04207664995113658,1.544935098498018,-0.1358864227347543,15.078255,-3.05142,3.4024253,-0.049541105,9.910282,-9.231141,1.532697,0.42014024,-0.073791616,0.4043527,0.8090342,-8.851497,6.5933332,-0.14370732,0.9992367,-0.7788038,0.45394334,0
0.9800000000000006,20.999997459099387,-0.04207664995113658,1.544935098498018,-0.1358864227347543,15.078255,-3.05142,3.4024253,-0.049541105,9.8220005,-9.164456,1.5314641,0.41989142,-0.06857974,0.40696663,0.808311,-8.804333,6.7436624,-0.102968924,0.8367291,-0.41648212,0.42500022,0
0.9900000000000007,20.999997459099387,-0.04207664995113658,1.544935098498018,-0.1358864227347543,15.078255,-3.05142,3.4024253,-0.049541105,9.734201,-9.096269,1.5306355,0.4190157,-0.06508446,0.40965542,0.807696,-8.755222,6.8939567,-0.06286765,0.69959295,-0.1106507,0.39747736,0
1.0000000000000007,19.84649428476685,-1.1853776052281757,2.5960903140370286,-0.24890302275213907,15.3377905,-3.9984965,3.6744328,-0.18143241,9.6469,-9.026577,1.530204,0.4176239,-0.06304361,0.4124085,0.80717754,-8.704809,7.0445266,-0.023537477,0.58386546,0.14749691,0.37130505,0
1.0100000000000007,19.84649428476685,-1.1853776052281757,2.5960903140370286,-0.24890302275213907,15.3377905,-3.9984965,3.6744328,-0.18143241,9.560094,-8.955418,1.5301241,0.41561538,-0.06277146,0.41501972,0.80689704,-8.656502,7.187348,0.007423593,0.30787095,0.52928054,0.34087127,0
1.0200000000000007,19.84649428476685,-1.1853776052281757,2.5960903140370286,-0.24890302275213907,15.3377905,-3.9984965,3.6744328,-0.18143241,9.47377,-8.882827,1.5303494,0.41291264,-0.06450482,0.41732183,0.80696064,-8.608316,7.3309693,0.037539057,0.074943766,0.8515451,0.31193087,0
1.0300000000000007,19.84649428476685,-1.1853776052281757,2.5960903140370286,-0.24890302275213907,15.3377905,-3.9984965,3.6744328,-0.18143241,9.387924,-8.808795,1.5308717,0.4096274,-0.067934364,0.41935354,0.8073002,-8.561025,7.4756403,0.06680423,-0.12163806,1.123568,0.28441054,0
1.0400000000000007,19.84649428476685,-1.1853776052281757,2.5960903140370286,-0.24890302275213907,14.88005,-4.869136,3.6925092,-0.21796022,9.302544,-8.73331,1.5316824,0.4058505,-0.072798446,0.4211445,0.8078514,-8.5152855,7.621558,0.09520975,-0.28754723,1.3531811,0.25824067,0
1.0500000000000007,19.84649428476685,-1.1853776052281757,2.5960903140370286,-0.24890302275213907,14.88005,-4.869136,3.6925092,-0.21796022,9.21761,-8.656359,1.5327729,0.4016563,-0.07887567,0.4227175,0.8085551,-8.471658,7.768873,0.12273799,-0.42757106,1.5469954,0.23335497,0
1.0600000000000007,19.84649428476685,-1.1853776052281757,2.5960903140370286,-0.24890302275213907,14.88005,-4.869136,3.6925092,-0.21796022,9.133101,-8.577928,1.534134,0.39710632,-0.08597856,0.42409062,0.809359,-8.430617,7.917692,0.14936166,-0.5457492,1.7105916,0.20969045,0
1.0700000000000007,19.84649428476685,-1.1853776052281757,2.5960903140370286,-0.24890302275213907,14.88005,-4.869136,3.6925092,-0.21796022,9.048987,-8.497999,1.535757,0.39225158,-0.09394831,0.4252782,0.8102169,-8.392574,8.068086,0.17504355,-0.6454906,1.8486804,0.18718712,0
1.0800000000000007,17.896282059442477,-2.1364499676897326,2.427251124836162,-0.33660042550249836,14.5121355,-4.8406043,3.2278664,-0.17201827,8.965237,-8.416559,1.5376316,0.38713473,-0.10265026,0.42629188,0.8110891,-8.35788,8.22009,0.19973698,-0.72967255,1.9652383,0.16578805,0
1.0900000000000007,17.896282059442477,-2.1364499676897326,2.427251124836162,-0.33660042550249836,14.5121355,-4.8406043,3.2278664,-0.17201827,8.881801,-8.333667,1.5396881,0.3817888,-0.11206655,0.42680508,0.81210625,-8.3299,8.3586035,0.21144424,-0.94903386,2.0372806,0.1411357,0
1.1000000000000008,17.896282059442477,-2.1364499676897326,2.427251124836162,-0.33660042550249836,14.5121355,-4.8406043,3.2278664,-0.17201827,8.798627,-8.249383,1.5418577,0.37623784,-0.122174405,0.42655793,0.81336814,-8.305578,8.498461,0.2223147,-1.1341844,2.0980966,0.11769305,0
1.1100000000000008,17.896282059442477,-2.1364499676897326,2.427251124836162,-0.33660042550249836,14.5121355,-4.8406043,3.2278664,-0.17201827,8.715677,-8.163693,1.5441322,0.3705031,-0.13286166,0.42564866,0.8148002,-8.285249,8.639525,0.23244338,-1.2904596,2.1494348,0.09540074,0
1.1200000000000008,15.982179534201666,-2.9855308119365653,1.1597144911517079,-0.4484061570437936,13.140428,-5.105764,2.4921453,-0.28042904,8.632909,-8.076589,1.5465045,0.36460286,-0.1440331,0.42415982,0.81633854,-8.269193,8.781658,0.24189244,-1.4223639,2.1927714,0.07420232,0
1.1300000000000008,15.982179534201666,-2.9855308119365653,1.1597144911517079,-0.4484061570437936,13.140428,-5.105764,2.4921453,-0.28042904,8.550272,-7.988134,1.5489109,0.35872963,-0.15532279,0.4216984,0.8181438,-8.258878,8.909386,0.23929606,-1.6660969,2.0316825,0.04855777,0
1.1400000000000008,15.982179534201666,-2.9855308119365653,1.1597144911517079,-0.4484061570437936,13.140428,-5.105764,2.4921453,-0.28042904,8.467717,-7.898399,1.5512894,0.3530354,-0.16643456,0.41796148,0.8203503,-8.252714,9.037609,0.23639269,-1.8718274,1.8957226,0.024171598,0
1.1500000000000008,15.982179534201666,-2.9855308119365653,1.1597144911517079,-0.4484061570437936,13.140428,-5.105764,2.4921453,-0.28042904,8.385202,-7.8073807,1.5536386,0.34748024,-0.1773877,0.41313347,0.8228685,-8.250796,9.166006,0.23343557,-2.04548,1.7809708,0.0009820634,0
1.1600000000000008,14.6400010925449,-3.5697248247287363,-0.7942555433509872,-0.5758488719474817,12.986919,-5.0408664,0.040238246,-0.37448624,8.302686,-7.715079,1.5559587,0.34203088,-0.18819831,0.40736866,0.82561964,-8.253197,9.294287,0.23062451,-2.192056,1.6841177,-0.021069542,0
1.1700000000000008,14.6400010925449,-3.5697248247287363,-0.7942555433509872,-0.5758488719474817,12.986919,-5.0408664,0.040238246,-0.37448624,8.220126,-7.62155,1.5582122,0.3369457,-0.19831975,0.4003353,0.8287758,-8.259384,9.411418,0.220124,-2.4068844,1.2976621,-0.048292734,0
1.1800000000000008,14.6400010925449,-3.5697248247287363,-0.7942555433509872,-0.5758488719474817,12.986919,-5.0408664,0.040238246,-0.37448624,8.1374855,-7.5268536,1.5603635,0.3324235,-0.20731713,0.3917823,0.83247924,-8.269439,9.527774,0.2102966,-2.5882223,0.9714781,-0.07418006,0
1.1900000000000008,14.6400010925449,-3.5697248247287363,-0.7942555433509872,-0.5758488719474817,12.986919,-5.0408664,0.040238246,-0.37448624,8.054726,-7.430999,1.5624216,0.32835805,-0.21535274,0.3819348,0.8366187,-8.283212,9.642948,0.2015104,-2.741289,0.69616413,-0.09879709,0
1.2000000000000008,13.854086442285004,-3.797730752559862,-2.907131964854456,-0.6096282156214974,12.338395,-4.889298,-2.9954498,-0.49470237,7.9718094,-7.3339996,1.5643983,0.32465976,-0.22256297,0.3709799,0.8410924,-8.3005705,9.756582,0.19406082,-2.8704908,0.46378598,-0.12220617,0
1.2100000000000009,13.854086442285004,-3.797730752559862,-2.907131964854456,-0.6096282156214974,12.338395,-4.889298,-2.9954498,-0.49470237,7.8887076,-7.2359037,1.5662836,0.3215468,-0.22838107,0.3587226,0.84603107,-8.320251,9.862333,0.18326353,-3.0151358,-0.061848506,-0.14612411,0
1.2200000000000009,13.854086442285004,-3.797730752559862,-2.907131964854456,-0.6096282156214974,12.338395,-4.889298,-2.9954498,-0.49470237,7.805394,-7.1367607,1.5680702,0.31917512,-0.23235755,0.34501612,0.8515291,-8.342878,9.965874,0.1743803,-3.1372302,-0.505511,-0.1688684,0
1.2300000000000009,13.854086442285004,-3.797730752559862,-2.907131964854456,-0.6096282156214974,12.338395,-4.889298,-2.9954498,-0.49470237,7.721841,-7.0365953,1.5697792,0.31739134,-0.2347552,0.33006677,0.8574436,-8.368124,10.066773,0.16778931,-3.240288,-0.8799856,-0.19049661,0
1.2400000000000009,13.854086442285004,-3.797730752559862,-2.907131964854456,-0.6096282156214974,12.72848,-5.0030017,-4.4198527,-0.29764313,7.6380234,-6.935436,1.571435,0.31606615,-0.23579511,0.31404614,0.8636427,-8.395705,10.164641,0.16377962,-3.3272755,-1.1960627,-0.21106353,0
1.2500000000000009,13.854086442285004,-3.797730752559862,-2.907131964854456,-0.6096282156214974,12.72848,-5.0030017,-4.4198527,-0.29764313,7.5539193,-6.833314,1.5730644,0.31509125,-0.2356637,0.2970984,0.87000775,-8.425375,10.259117,0.16256028,-3.400698,-1.4628495,-0.23062122,0
1.260000000000001,13.854086442285004,-3.797730752559862,-2.907131964854456,-0.6096282156214974,12.72848,-5.0030017,-4.4198527,-0.29764313,7.4695096,-6.7302656,1.5746964,0.3143766,-0.23451862,0.2793457,0.87643325,-8.456917,10.349861,0.16426943,-3.4626691,-1.6880333,-0.2492192,0
1.270000000000001,13.854086442285004,-3.797730752559862,-2.907131964854456,-0.6096282156214974,12.72848,-5.0030017,-4.4198527,-0.29764313,7.384775,-6.62633,1.5763602,0.31384733,-0.23249361,0.2608924,0.8828265,-8.490136,10.436563,0.16898237,-3.5149739,-1.8781021,-0.26690456,0
1.280000000000001,13.513956748298353,-3.665069096275925,-4.223663174661989,-0.45847035185728297,12.773213,-4.756392,-4.7441077,-0.32799903,7.299701,-6.5215487,1.5780864,0.31344166,-0.2297023,0.24182837,0.889107,-8.524858,10.518929,0.17671911,-3.5591197,-2.038532,-0.2837221,0
1.290000000000001,13.513956748298353,-3.665069096275925,-4.223663174661989,-0.45847035185728297,12.773213,-4.756392,-4.7441077,-0.32799903,7.2142777,-6.4159765,1.5798916,0.3132273,-0.22575024,0.22211733,0.8953159,-8.560016,10.594762,0.18479575,-3.5757186,-2.3792791,-0.29229707,0
1.300000000000001,13.513956748298353,-3.665069096275925,-4.223663174661989,-0.45847035185728297,12.773213,-4.756392,-4.7441077,-0.32799903,7.128497,-6.3096695,1.5817924,0.31323695,-0.22032392,0.20173484,0.9014678,-8.596156,10.665752,0.19584775,-3.5897214,-2.6668882,-0.30045122,0
1.310000000000001,13.513956748298353,-3.665069096275925,-4.223663174661989,-0.45847035185728297,12.773213,-4.756392,-4.7441077,-0.32799903,7.0423517,-6.2026787,1.5838187,0.31337863,-0.21362294,0.18077005,0.9074594,-8.632961,10.731566,0.20988046,-3.601534,-2.909646,-0.30820522,0
1.320000000000001,13.354372721309831,-3.284159268371179,-4.517407841288399,-0.20420162086050914,13.178812,-4.647693,-5.923775,-0.30743468,6.9558363,-6.0950575,1.586,0.31357688,-0.2058179,0.15930085,0.9131993,-8.670146,10.791893,0.22683515,-3.6114979,-3.114547,-0.3155788,0
1.330000000000001,13.354372721309831,-3.284159268371179,-4.517407841288399,-0.20420162086050914,13.178812,-4.647693,-5.923775,-0.30743468,6.8689504,-5.9868646,1.5883582,0.31379053,-0.19689491,0.13750514,0.91861933,-8.707001,10.845807,0.24520664,-3.560483,-3.3333457,-0.31011346,0
1.340000000000001,13.354372721309831,-3.284159268371179,-4.517407841288399,-0.20420162086050914,13.178812,-4.647693,-5.923775,-0.30743468,6.781697,-5.878162,1.5909133,0.31397763,-0.18685286,0.115532465,0.9236653,-8.743667,10.893786,0.26620403,-3.5174158,-3.5180202,-0.30491635,0
1.350000000000001,13.354372721309831,-3.284159268371179,-4.517407841288399,-0.20420162086050914,13.178812,-4.647693,-5.923775,-0.30743468,6.694079,-5.76901,1.5936908,0.31408212,-0.1758453,0.09340914,0.92828166,-8.779852,10.935624,0.28963855,-3.4810586,-3.6738925,-0.29997426,0
1.360000000000001,13.239726183808957,-2.6967132442549033,-3.94230358005766,0.15548204850265865,13.436157,-4.479393,-6.1457896,-0.046283875,6.6061025,-5.659471,1.5967138,0.31405932,-0.16400462,0.07116018,0.93241984,-8.815299,10.971134,0.3152835,-3.4503663,-3.8054547,-0.29527467,0
1.370000000000001,13.239726183808957,-2.6967132442549033,-3.94230358005766,0.15548204850265865,13.436157,-4.479393,-6.1457896,-0.046283875,6.517778,-5.5496106,1.5999978,0.3138573,-0.15158431,0.049108848,0.9360051,-8.849482,10.999925,0.3417953,-3.3327835,-3.8268669,-0.27315593,0
1.380000000000001,13.239726183808957,-2.6967132442549033,-3.94230358005766,0.15548204850265865,13.436157,-4.479393,-6.1457896,-0.046283875,6.4291167,-5.4394946,1.6035552,0.31343862,-0.13879885,0.027517326,0.93900764,-8.88251,11.022288,0.3699272,-3.2335393,-3.8449314,-0.25212252,0
1.390000000000001,13.239726183808957,-2.6967132442549033,-3.94230358005766,0.15548204850265865,13.436157,-4.479393,-6.1457896,-0.046283875,6.3401318,-5.3291864,1.6074008,0.3127912,-0.1257016,0.0063251345,0.94144684,-8.914219,11.038257,0.39936218,-3.1497736,-3.8601713,-0.23212126,0
1.400000000000001,13.200547794159283,-1.9753498519349808,-2.210929178168111,0.4538265635215082,14.202872,-4.4014535,-5.992836,0.20376657,6.2508373,-5.218751,1.6115459,0.31190643,-0.11233905,-0.014517996,0.94333714,-8.944459,11.047866,0.4297878,-3.0790732,-3.8730288,-0.21310146,0
1.410000000000001,13.200547794159283,-1.9753498519349808,-2.210929178168111,0.4538265635215082,14.202872,-4.4014535,-5.992836,0.20376657,6.1612487,-5.108251,1.6159971,0.31079346,-0.09931758,-0.034561396,0.94464296,-8.973038,11.051183,0.46050748,-2.9068348,-3.6139114,-0.18037511,0
1.420000000000001,13.200547794159283,-1.9753498519349808,-2.210929178168111,0.4538265635215082,14.202872,-4.4014535,-5.992836,0.20376657,6.0713816,-4.997748,1.6207572,0.3094814,-0.0871274,-0.053451754,0.94539636,-9.000079,11.048531,0.4915757,-2.7614756,-3.3951907,-0.14925465,0
1.430000000000001,13.200547794159283,-1.9753498519349808,-2.210929178168111,0.4538265635215082,14.202872,-4.4014535,-5.992836,0.20376657,5.981252,-4.8873,1.6258286,0.30798888,-0.07564749,-0.071359955,0.9456899,-9.025655,11.040245,0.522705,-2.6387997,-3.210569,-0.119661264,0
1.440000000000001,13.200547794159283,-1.9753498519349808,-2.210929178168111,0.4538265635215082,14.226009,-3.9684138,-5.069236,0.48697266,5.8908734,-4.776962,1.6312106,0.30632955,-0.064774275,-0.0884313,0.9455939,-9.049827,11.026621,0.5536523,-2.5352669,-3.0547304,-0.09152005,0
1.450000000000001,13.200547794159283,-1.9753498519349808,-2.210929178168111,0.4538265635215082,14.226009,-3.9684138,-5.069236,0.48697266,5.80026,-4.6667852,1.6369002,0.3045135,-0.054419454,-0.10478904,0.9451617,-9.072652,11.007915,0.5842087,-2.4478889,-2.923188,-0.064759724,0
1.460000000000001,13.200547794159283,-1.9753498519349808,-2.210929178168111,0.4538265635215082,14.226009,-3.9684138,-5.069236,0.48697266,5.709425,-4.55682,1.6428927,0.3025484,-0.04450791,-0.12053747,0.94443405,-9.094173,10.984353,0.6141916,-2.3741453,-2.812154,-0.03931254,0
1.470000000000001,13.200547794159283,-1.9753498519349808,-2.210929178168111,0.4538265635215082,14.226009,-3.9684138,-5.069236,0.48697266,5.618381,-4.447114,1.6491815,0.30044004,-0.034975894,-0.13576467,0.9434415,-9.11443,10.956136,0.6434381,-2.311908,-2.7184315,-0.01511405,0
1.480000000000001,13.107194152821444,-1.3347682862658747,-0.39639064616438024,0.6849801685343547,14.054709,-3.1859715,-2.9714189,0.9868273,5.5271406,-4.337713,1.6557584,0.29819304,-0.025769405,-0.15054491,0.9422073,-9.133452,10.923441,0.6718012,-2.2593815,-2.6393213,0.007897008,0
1.490000000000001,13.107194152821444,-1.3347682862658747,-0.39639064616438024,0.6849801685343547,14.054709,-3.1859715,-2.9714189,0.9868273,5.435717,-4.228659,1.6626095,0.2959052,-0.017454972,-0.16448382,0.940788,-9.151164,10.886722,0.6982656,-2.1151402,-2.289583,0.041121684,0
1.500000000000001,13.107194152821444,-1.3347682862658747,-0.39639064616438024,0.6849801685343547,14.054709,-3.1859715,-2.9714189,0.9868273,5.344121,-4.1199923,1.6697199,0.2936683,-0.010479981,-0.17727949,0.93926704,-9.167898,10.84612,0.7236567,-1.9934082,-1.9943786,0.072716005,0
1.5100000000000011,13.107194152821444,-1.3347682862658747,-0.39639064616438024,0.6849801685343547,14.054709,-3.1859715,-2.9714189,0.9868273,5.2523613,-4.0117493,1.6770788,0.29147416,-0.004641133,-0.18911341,0.937688,-9.183873,10.80202,0.7479445,-1.8906711,-1.7452054,0.10276,0
1.5200000000000011,13.11291452019485,-0.7126027126233911,1.5733383210823846,0.7713647149752698,13.869417,-2.4233038,-1.9262465,1.2084583,5.1604447,-3.903963,1.684675,0.28931275,0.00023382308,-0.20013794,0.9360792,-9.199275,10.754744,0.77111584,-1.8039637,-1.5348864,0.13132972,0
1.5300000000000011,13.11291452019485,-0.7126027126233911,1.5733383210823846,0.7713647149752698,13.869417,-2.4233038,-1.9262465,1.2084583,5.0683765,-3.7966645,1.6924976,0.2873248,0.0036228858,-0.21002162,0.9345178,-9.214301,10.704577,0.7932317,-1.6337858,-1.0501797,0.16273642,0
1.5400000000000011,13.11291452019485,-0.7126027126233911,1.5733383210823846,0.7713647149752698,13.869417,-2.4233038,-1.9262465,1.2084583,4.976159,-3.68988,1.7005361,0.2856307,0.00512077,-0.2185133,0.933082,-9.2292795,10.652006,0.8143218,-1.4901583,-0.64105755,0.19260196,0
1.5500000000000012,13.11291452019485,-0.7126027126233911,1.5733383210823846,0.7713647149752698,13.869417,-2.4233038,-1.9262465,1.2084583,4.88379,-3.583631,1.7087809,0.28418875,0.00501921,-0.22583683,0.93177813,-9.244555,10.597482,0.83449394,-1.3689364,-0.29573408,0.22100201,0
1.5600000000000012,13.11333791958722,-0.25108343685848167,2.768213057108511,0.8234873329893859,13.632127,-1.7673031,-2.3093958,1.1929797,4.7912655,-3.4779353,1.7172233,0.28295878,0.0035644989,-0.2321785,0.9305998,-9.260425,10.541385,0.8538493,-1.2666229,-0.004261069,0.24800847,0
1.5700000000000012,13.11333791958722,-0.25108343685848167,2.768213057108511,0.8234873329893859,13.632127,-1.7673031,-2.3093958,1.1929797,4.698578,-3.3728073,1.7258555,0.28200918,0.00057035364,-0.23738666,0.92958015,-9.277154,10.484049,0.8724903,-1.1083273,0.42810968,0.27624738,0
1.5800000000000012,13.11333791958722,-0.25108343685848167,2.768213057108511,0.8234873329893859,13.632127,-1.7673031,-2.3093958,1.1929797,4.605718,-3.2682571,1.734671,0.28139216,-0.004099958,-0.24134804,0.9287378,-9.295071,10.425891,0.8905465,-0.9747195,0.7930544,0.30310062,0
1.5900000000000012,13.11333791958722,-0.25108343685848167,2.768213057108511,0.8234873329893859,13.632127,-1.7673031,-2.3093958,1.1929797,4.5126715,-3.164291,1.7436647,0.28104895,-0.010187822,-0.24425548,0.92803454,-9.314488,10.367302,0.9081439,-0.8619477,1.1010871,0.32863617,0
1.6000000000000012,13.125534670084186,0.03203460435709535,3.072808371058261,0.7429953854521809,12.833829,-1.234743,-1.9219244,1.1566089,4.4194226,-3.0609114,1.7528327,0.28092676,-0.017474703,-0.24626932,0.9274305,-9.335672,10.308613,0.9253807,-0.7667606,1.3610826,0.35291865,0
1.6100000000000012,13.125534670084186,0.03203460435709535,3.072808371058261,0.7429953854521809,12.833829,-1.234743,-1.9219244,1.1566089,4.325951,-2.9581182,1.762172,0.28102016,-0.025854515,-0.24738403,0.9269096,-9.358869,10.250063,0.94243914,-0.6422702,1.6280457,0.37205982,0
1.6200000000000012,13.125534670084186,0.03203460435709535,3.072808371058261,0.7429953854521809,12.833829,-1.234743,-1.9219244,1.1566089,4.2322373,-2.8559084,1.7716808,0.28132293,-0.035232622,-0.2476006,0.92645085,-9.384264,10.192007,0.9592831,-0.5371892,1.8533747,0.39026174,0
1.6300000000000012,13.125534670084186,0.03203460435709535,3.072808371058261,0.7429953854521809,12.833829,-1.234743,-1.9219244,1.1566089,4.138258,-2.7542756,1.7813572,0.28178972,-0.04545352,-0.24705069,0.92601067,-9.412034,10.134719,0.9759631,-0.44849035,2.0435622,0.40757048,0
1.6400000000000012,13.125534670084186,0.03203460435709535,3.072808371058261,0.7429953854521809,12.981747,-0.48473415,-0.7389103,1.3759785,4.0439887,-2.6532106,1.7911997,0.28238094,-0.0563852,-0.24584456,0.92555034,-9.442324,10.078438,0.99250317,-0.3736189,2.2040882,0.42402986,0
1.6500000000000012,13.125534670084186,0.03203460435709535,3.072808371058261,0.7429953854521809,12.981747,-0.48473415,-0.7389103,1.3759785,3.9494028,-2.5527027,1.8012068,0.28306216,-0.067915455,-0.24407485,0.92503625,-9.475255,10.02337,1.0089039,-0.3104186,2.3395789,0.4396816,0
1.6600000000000013,13.125534670084186,0.03203460435709535,3.072808371058261,0.7429953854521809,12.981747,-0.48473415,-0.7389103,1.3759785,3.854474,-2.4527385,1.8113772,0.28380382,-0.07994875,-0.24181952,0.92443943,-9.510924,9.969696,1.0251456,-0.2570699,2.4539385,0.4545653,0
1.6700000000000013,13.125534670084186,0.03203460435709535,3.072808371058261,0.7429953854521809,12.981747,-0.48473415,-0.7389103,1.3759785,3.7591748,-2.3533034,1.8217092,0.28458053,-0.09240364,-0.23914424,0.92373526,-9.549408,9.917573,1.0411918,-0.21203619,2.5504625,0.46871862,0
1.6800000000000013,12.988588132383056,0.0888359091190065,1.6428444416631254,0.7288320409716347,12.281321,0.14390759,-0.88800275,1.2998874,3.663476,-2.2543812,1.8322003,0.28537062,-0.105210565,-0.23610443,0.9229031,-9.590765,9.86714,1.056991,-0.1740212,2.631932,0.48217747,0
1.6900000000000013,12.988588132383056,0.0888359091190065,1.6428444416631254,0.7288320409716347,12.281321,0.14390759,-0.88800275,1.2998874,3.5673518,-2.155952,1.8428421,0.28602678,-0.117775664,-0.2328907,0.92199814,-9.634552,9.819006,1.0712973,-0.13299997,2.477696,0.49428084,0
1.7000000000000013,12.988588132383056,0.0888359091190065,1.6428444416631254,0.7288320409716347,12.281321,0.14390759,-0.88800275,1.2998874,3.470776,-2.0579953,1.8536252,0.2864395,-0.12962757,-0.2296616,0.9210894,-9.68105,9.772628,1.0852528,-0.09838054,2.3475118,0.50579035,0
1.7100000000000013,12.988588132383056,0.0888359091190065,1.6428444416631254,0.7288320409716347,12.281321,0.14390759,-0.88800275,1.2998874,3.3737223,-1.9604938,1.8645458,0.28664207,-0.14087646,-0.22641686,0.92017746,-9.730079,9.727952,1.0988224,-0.06916404,2.2376282,0.5167351,0
1.7200000000000013,12.804735717036543,0.0006014589734054138,-0.30880609020714483,0.5997550071736008,12.410194,0.8271512,-2.127726,1.1881593,3.276166,-1.8634306,1.8756001,0.28666207,-0.15161519,-0.22315586,0.9192607,-9.78148,9.684935,1.1119746,-0.044507373,2.14488,0.52714276,0
1.7300000000000013,12.804735717036543,0.0006014589734054138,-0.30880609020714483,0.5997550071736008,12.410194,0.8271512,-2.127726,1.1881593,3.1780884,-1.7667867,1.8867759,0.28635955,-0.16121162,-0.22013766,0.9184495,-9.834332,9.644095,1.1231194,-0.037345476,1.7622313,0.53070587,0
1.7400000000000013,12.804735717036543,0.0006014589734054138,-0.30880609020714483,0.5997550071736008,12.410194,0.8271512,-2.127726,1.1881593,3.079473,-1.670544,1.898061,0.28563416,-0.16917208,-0.21757154,0.9178549,-9.889028,9.604604,1.1338522,-0.031319216,1.4392563,0.5340941,0
1.7500000000000013,12.804735717036543,0.0006014589734054138,-0.30880609020714483,0.5997550071736008,12.410194,0.8271512,-2.127726,1.1881593,2.9803028,-1.5746906,1.9094516,0.28455788,-0.17575452,-0.21538858,0.9174672,-9.945221,9.5662155,1.1442165,-0.026248815,1.1666489,0.5373161,0
1.7600000000000013,12.517098882184317,-0.12592451452153663,-2.6615548212292164,0.5042369556263626,12.519732,0.7760793,-2.9235399,1.2230495,2.8805645,-1.4792166,1.9209443,0.2831892,-0.18117593,-0.21352933,0.9172707,-10.002626,9.528721,1.1542593,-0.021982947,0.9365537,0.54037994,1
1.7700000000000014,12.517098882184317,-0.12592451452153663,-2.6615548212292164,0.5042369556263626,12.519732,0.7760793,-2.9235399,1.2230495,2.7802534,-1.3841097,1.932524,0.28133973,-0.18458804,-0.21194002,0.9175281,-10.05965,9.492741,1.161649,0.10267814,0.3346203,0.5738787,1
1.7800000000000014,12.517098882184317,-0.12592451452153663,-2.6615548212292164,0.5042369556263626,12.519732,0.7760793,-2.9235399,1.2230495,2.67937,-1.2893604,1.9441772,0.27885547,-0.18533055,-0.21057075,0.9184516,-10.117026,9.4571495,1.1689799,0.20788743,-0.17344458,0.6057337,1
1.7900000000000014,12.517098882184317,-0.12592451452153663,-2.6615548212292164,0.5042369556263626,12.519732,0.7760793,-2.9235399,1.2230495,2.5779135,-1.1949662,1.9559042,0.27582264,-0.18382218,-0.20937754,0.91994214,-10.174191,9.421664,1.1764601,0.29667708,-0.6022797,0.63602555,1
1.8000000000000014,12.389264032976397,-0.3925315863036104,-4.750697313240161,0.2748000010347515,12.471276,0.938803,-3.3001266,1.3192497,2.4758885,-1.1009276,1.9677076,0.27230984,-0.18041344,-0.20832111,0.9219013,-10.230669,9.38605,1.1842666,0.37160715,-0.96424127,0.664831,0
1.8100000000000014,12.389264032976397,-0.3925315863036104,-4.750697313240161,0.2748000010347515,12.471276,0.938803,-3.3001266,1.3192497,2.3733068,-1.0072447,1.9795858,0.26824418,-0.17482546,-0.20801727,0.9242355,-10.285451,9.35045,1.1914312,0.25267676,-1.5547918,0.6456921,0
1.8200000000000014,12.389264032976397,-0.3925315863036104,-4.750697313240161,0.2748000010347515,12.471276,0.938803,-3.3001266,1.3192497,2.270185,-0.91392136,1.9915382,0.2635842,-0.1668417,-0.20894909,0.92683804,-10.338638,9.314061,1.1991429,0.15224229,-2.0532355,0.62749237,0
1.8300000000000014,12.389264032976397,-0.3925315863036104,-4.750697313240161,0.2748000010347515,12.471276,0.938803,-3.3001266,1.3192497,2.166541,-0.8209676,2.0035708,0.25841966,-0.15681714,-0.21090423,0.92959577,-10.389757,9.276454,1.2074449,0.067429334,-2.473939,0.6101857,0
1.8400000000000014,12.389264032976397,-0.3925315863036104,-4.750697313240161,0.2748000010347515,12.806339,0.596073,-3.813226,0.9798036,2.0623982,-0.7283976,2.0156891,0.25282222,-0.14505154,-0.21370131,0.93240225,-10.43839,9.237281,1.2163446,-0.0041903537,-2.8290265,0.59372824,1
1.8500000000000014,12.389264032976397,-0.3925315863036104,-4.750697313240161,0.2748000010347515,12.806339,0.596073,-3.813226,0.9798036,1.9577754,-0.6362351,2.0279174,0.246906,-0.13206942,-0.21671084,0.935218,-10.485712,9.194917,1.2294431,0.08951619,-2.9824746,0.61267304,1
1.8600000000000014,12.389264032976397,-0.3925315863036104,-4.750697313240161,0.2748000010347515,12.806339,0.596073,-3.813226,0.9798036,1.8526951,-0.54450583,2.0402799,0.24075033,-0.11831024,-0.21942925,0.9380266,-10.5298,9.150655,1.2431293,0.16860153,-3.1119964,0.63068825,1
1.8700000000000014,12.389264032976397,-0.3925315863036104,-4.750697313240161,0.2748000010347515,12.806339,0.596073,-3.813226,0.9798036,1.7471911,-0.45322838,2.0527823,0.23436397,-0.10389407,-0.2218842,0.94077,-10.57042,9.10455,1.2573825,0.23534623,-3.221323,0.64781946,1
1.8800000000000014,12.051168282361083,-0.6190042155991503,-4.377670714638322,0.1319939256137619,12.2975445,0.51366013,-3.2803018,1.3482546,1.6412992,-0.36242095,2.0654297,0.227756,-0.08892326,-0.22409947,0.9433984,-10.607365,9.056666,1.2721589,0.2916752,-3.3136034,0.66411,0
1.8900000000000015,12.051168282361083,-0.6190042155991503,-4.377670714638322,0.1319939256137619,12.2975445,0.51366013,-3.2803018,1.3482546,1.535067,-0.2720864,2.078194,0.22094253,-0.073357776,-0.22661418,0.9457538,-10.638498,9.009975,1.2807002,0.14966792,-3.479608,0.6379989,0
1.9000000000000015,12.051168282361083,-0.6190042155991503,-4.377670714638322,0.1319939256137619,12.2975445,0.51366013,-3.2803018,1.3482546,1.4285423,-0.18222734,2.0910451,0.21395913,-0.057162922,-0.22985381,0.94769317,-10.665844,8.961557,1.2895092,0.029793678,-3.6197107,0.6131691,0
1.9100000000000015,12.051168282361083,-0.6190042155991503,-4.377670714638322,0.1319939256137619,12.2975445,0.51366013,-3.2803018,1.3482546,1.3217636,-0.09286158,2.1039846,0.2068386,-0.040428486,-0.23368347,0.9491978,-10.689259,8.911299,1.2984012,-0.0713962,-3.737954,0.58955765,0
1.9200000000000015,11.753307705037201,-0.9351133616847801,-4.316109518347068,-0.12026420615782422,11.509418,0.09093936,-4.071378,1.0397452,1.214771,-0.0040079355,2.1170125,0.19960727,-0.023232913,-0.23798853,0.95025253,-10.708619,8.859126,1.3071876,-0.15681319,-3.8377478,0.5671048,0
1.9300000000000015,11.753307705037201,-0.9351133616847801,-4.316109518347068,-0.12026420615782422,11.509418,0.09093936,-4.071378,1.0397452,1.1076075,0.08432087,2.130114,0.19231966,-0.00568583,-0.24278763,0.9508082,-10.723439,8.8063345,1.3130382,-0.27824706,-3.912387,0.53337544,0
1.9400000000000015,11.753307705037201,-0.9351133616847801,-4.316109518347068,-0.12026420615782422,11.509418,0.09093936,-4.071378,1.0397452,1.0003165,0.17211203,2.143272,0.18502639,0.012122212,-0.24808973,0.95082647,-10.734128,8.75159,1.3183848,-0.3807462,-3.975375,0.5013011,0
1.9500000000000015,11.753307705037201,-0.9351133616847801,-4.316109518347068,-0.12026420615782422,11.509418,0.09093936,-4.071378,1.0397452,0.8929394,0.2593459,2.1564796,0.17774059,0.030152222,-0.25379145,0.9503106,-10.740632,8.694871,1.3230124,-0.46726203,-4.028531,0.4708007,0
1.9600000000000015,11.040089282584566,-0.9607340016471736,-1.4711571146129552,-0.13851255583709787,10.648169,-0.2813804,-3.373846,0.5904539,0.78551835,0.3460027,2.169729,0.17047188,0.048368897,-0.25980464,0.9492642,-10.7429085,8.636181,1.3267092,-0.54028636,-4.0733914,0.44179696,0
1.9700000000000015,11.040089282584566,-0.9607340016471736,-1.4711571146129552,-0.13851255583709787,10.648169,-0.2813804,-3.373846,0.5904539,0.6780954,0.43208116,2.1829793,0.16353042,0.065659635,-0.26587665,0.9477645,-10.741097,8.579243,1.3231685,-0.60604006,-3.6675823,0.41332096,0
1.9800000000000015,11.040089282584566,-0.9607340016471736,-1.4711571146129552,-0.13851255583709787,10.648169,-0.2813804,-3.373846,0.5904539,0.5707089,0.51758176,2.1961884,0.15717867,0.08114575,-0.2718271,0.94595015,-10.735662,8.520629,1.3184601,-0.6615057,-3.3250542,0.38624236,0
1.9900000000000015,11.040089282584566,-0.9607340016471736,-1.4711571146129552,-0.13851255583709787,10.648169,-0.2813804,-3.373846,0.5904539,0.4633932,0.6024885,2.2093444,0.1513544,0.09511358,-0.27768078,0.9438963,-10.726988,8.460481,1.3125248,-0.7082941,-3.0359402,0.3604925,0
2.0000000000000013,,,,,11.117264,0.3256941,-0.17932719,0.42149094,0.35617912,0.68678653,2.2224345,0.14600062,0.107804954,-0.28345555,0.94165623,-10.715398,8.398912,1.3053232,-0.74776393,-2.7919104,0.33600616,0
2.010000000000001,,,,,11.117264,0.3256941,-0.17932719,0.42149094,0.2490935,0.7704657,2.2354412,0.14124334,0.118906215,-0.28899974,0.93935746,-10.701354,8.336724,1.2958422,-0.7476892,-2.363277,0.30283448,0
2.020000000000001,,,,,11.117264,0.3256941,-0.17932719,0.42149094,0.14215957,0.853517,2.2483468,0.13718516,0.12818348,-0.29420015,0.9371218,-10.6851225,8.273363,1.2851484,-0.74759364,-2.0014892,0.27129054,0
2.0300000000000007,,,,,11.117264,0.3256941,-0.17932719,0.42149094,0.035397254,0.9359293,2.2611403,0.13374431,0.1359315,-0.29911748,0.93496823,-10.667084,8.208946,1.2733217,-0.7474875,-1.696123,0.24129444,0
2.0400000000000005,,,,,11.117264,0.3256941,-0.17932719,0.42149094,-0.071177,1.0176926,2.2738097,0.13084829,0.14239804,-0.30380005,0.93290347,-10.647556,8.143564,1.2604395,-0.74737823,-1.4383794,0.21277027,0
2.0500000000000003,,,,,10.707044,0.72238046,2.830276,-0.25478527,-0.1775497,1.0987976,2.2863455,0.12843314,0.14779124,-0.30828664,0.9309263,-10.626812,8.077288,1.246574,-0.7472702,-1.2208313,0.18564579,1
2.06,,,,,10.707044,0.72238046,2.830276,-0.25478527,-0.28371203,1.1792419,2.2987301,0.12670189,0.1512885,-0.3119179,0.9293909,-10.605537,8.011496,1.2302217,-0.5181642,-0.5890281,0.16403373,1
2.07,,,,,10.707044,0.72238046,2.830276,-0.25478527,-0.38965887,1.2590255,2.3109481,0.12581305,0.15224832,-0.31417957,0.9285927,-10.583793,7.945146,1.2132946,-0.32476002,-0.055764347,0.14348216,1
2.0799999999999996,,,,,10.707044,0.72238046,2.830276,-0.25478527,-0.4953879,1.3381438,2.3229954,0.12565175,0.15107305,-0.31528956,0.9284302,-10.56205,7.878489,1.1961154,-0.16149633,0.39432952,0.12393907,1
2.0899999999999994,,,,,10.293636,0.8121876,5.0826297,-0.66777796,-0.6009012,1.416595,2.334871,0.12611736,0.14809914,-0.3154259,0.9287998,-10.540702,7.811731,1.1789583,-0.023677882,0.77422553,0.105354965,1
2.099999999999999,,,,,10.293636,0.8121876,5.0826297,-0.66777796,-0.7062086,1.4943916,2.3465602,0.12744835,0.14279115,-0.31457874,0.9297362,-10.520921,7.74763,1.1589327,0.10666363,1.446125,0.0674171,1
2.109999999999999,,,,,10.293636,0.8121876,5.0826297,-0.66777796,-0.811324,1.5715485,2.3580515,0.12983097,0.13473673,-0.31273684,0.9312289,-10.502405,7.683806,1.1394417,0.2167113,2.0132358,0.031340867,1
2.1199999999999988,,,,,10.293636,0.8121876,5.0826297,-0.66777796,-0.91626287,1.6480693,2.3693516,0.13311155,0.12436013,-0.310029,0.9331128,-10.485679,7.620456,1.1207299,0.30962092,2.4919012,-0.0029651,1
2.1299999999999986,,,,,9.381011,0.85908514,5.6270285,-0.48123646,-1.0210453,1.7239597,2.3804693,0.13715665,0.11201838,-0.3065597,0.93523407,-10.471188,7.5577683,1.102976,0.38805777,2.8959155,-0.03558766,1
2.1399999999999983,,,,,9.381011,0.85908514,5.6270285,-0.48123646,-1.1257012,1.7992549,2.3913789,0.1418931,0.09780459,-0.30236915,0.93748343,-10.460372,7.5014114,1.0790827,0.46157113,3.3218226,-0.057455774,1
2.149999999999998,,,,,9.381011,0.85908514,5.6270285,-0.48123646,-1.2302623,1.8739911,2.4020548,0.14724894,0.08180725,-0.2974885,0.93974876,-10.452301,7.4460125,1.0562508,0.5236264,3.6813087,-0.07825081,1
2.159999999999998,,,,,9.381011,0.85908514,5.6270285,-0.48123646,-1.3347577,1.948179,2.412508,0.15311776,0.06430023,-0.29198536,0.94189537,-10.447287,7.39176,1.034511,0.5760075,3.9847326,-0.09802543,1
2.1699999999999977,,,,,8.898477,1.234184,4.4183674,-0.120076776,-1.4392194,2.0218308,2.422749,0.15940742,0.04551791,-0.28591737,0.9438064,-10.445594,7.338845,1.0138465,0.6202213,4.240837,-0.1168297,1
2.1799999999999975,,,,,8.898477,1.234184,4.4183674,-0.120076776,-1.5436814,2.0949743,2.4327683,0.16585375,0.026130311,-0.27927467,0.94541913,-10.447329,7.2900987,0.990164,0.715971,4.268515,-0.11698903,1
2.1899999999999973,,,,,8.898477,1.234184,4.4183674,-0.120076776,-1.6481776,2.1676383,2.4425552,0.17224693,0.0066833217,-0.27206367,0.9467152,-10.452438,7.2429695,0.96736246,0.7967883,4.291878,-0.117140554,1
2.199999999999997,,,,,8.898477,1.234184,4.4183674,-0.120076776,-1.7527417,2.23984,2.452118,0.17858528,-0.012804397,-0.26435262,0.9476618,-10.46091,7.1976147,0.945343,0.86500186,4.311599,-0.117284626,1
2.209999999999997,,,,,9.112003,1.4333353,0.37215763,0.20326848,-1.8574072,2.3115976,2.461464,0.18486573,-0.032315694,-0.2562002,0.9482319,-10.472719,7.1541786,0.92399555,0.92257726,4.3282447,-0.11742163,1
2.2199999999999966,,,,,9.112003,1.4333353,0.37215763,0.20326848,-1.9622091,2.3829257,2.470609,0.19064319,-0.050295353,-0.24788834,0.948514,-10.488138,7.1117816,0.9050564,1.0021441,3.711299,-0.10168526,1
2.2299999999999964,,,,,9.112003,1.4333353,0.37215763,0.20326848,-2.0671802,2.4538403,2.4795668,0.19559097,-0.06551429,-0.23967335,0.94868886,-10.506444,7.0714364,0.8865754,1.0693221,3.1905677,-0.08672109,1
2.239999999999996,,,,,9.112003,1.4333353,0.37215763,0.20326848,-2.1723464,2.5243611,2.4883418,0.19985919,-0.07839953,-0.23155996,0.9488369,-10.527141,7.0330596,0.86848223,1.1260393,2.7510452,-0.07249122,1
2.249999999999996,,,,,9.252722,1.547903,-4.07669,0.38771138,-2.2777297,2.5945077,2.4969378,0.20356883,-0.08931316,-0.22354572,0.9490057,-10.549814,6.996569,0.8507361,1.1739233,2.380067,-0.058959614,1
