time-since-start [s],throttle_mpc,roll_mpc,pitch_mpc,yaw_mpc,throttle_nw,roll_nw,pitch_nw,yaw_nw,position_x [m],position_y [m],position_z [m],rotation_w [quaternion],rotation_x [quaternion],rotation_y [quaternion],rotation_z [quaternion],velocity_x [m/s],velocity_y [m/s],velocity_z [m/s],omega_x [rad/s],omega_y [rad/s],omega_z [rad/s],network_used
0.0,10.847972804304275,-0.15600557483625865,0.016210727812385563,0.14647535556006133,5.393143,-0.27245998,-2.002118,-0.5318495,13.396557,-12.33937,0.97381216,-0.35651958,0.13343911,-0.051845204,-0.923255,-0.07835528,0.07319449,0.34271842,-0.070974864,-2.3167253,-2.2127347,0
0.01,10.847972804304275,-0.15600557483625865,0.016210727812385563,0.14647535556006133,6.6903567,0.2639573,-1.2718444,0.19224688,13.3956585,-12.338534,0.977269,-0.35573488,0.133754,-0.05125164,-0.9235453,-0.101121396,0.09385833,0.34864995,-0.15600558,0.016210727,0.14647536,0
0.02,10.847972804304275,-0.15600557483625865,0.016210727812385563,0.14647535556006133,6.6903567,0.2639573,-1.2718444,0.19224688,13.394531,-12.337493,0.9807852,-0.35494983,0.13406873,-0.050658014,-0.9238344,-0.124013565,0.114408016,0.35457644,-0.15600558,0.016210727,0.14647536,0
0.03,10.847972804304275,-0.15600557483625865,0.016210727812385563,0.14647535556006133,6.6903567,0.2639573,-1.2718444,0.19224688,13.393175,-12.3362465,0.9843605,-0.35416433,0.1343833,-0.05006433,-0.9241225,-0.14703158,0.13484329,0.36049768,-0.15600558,0.016210727,0.14647536,0
0.04,10.847972804304275,-0.15600557483625865,0.016210727812385563,0.14647535556006133,7.6249804,0.15399238,-2.0925207,-0.13383728,13.391589,-12.334797,0.98799497,-0.35337844,0.13469772,-0.049470585,-0.92440945,-0.17017521,0.15516394,0.3664135,-0.15600558,0.016210727,0.14647536,0
0.05,10.847972804304275,-0.15600557483625865,0.016210727812385563,0.14647535556006133,7.6249804,0.15399238,-2.0925207,-0.13383728,13.389771,-12.333144,0.99168855,-0.35259214,0.13501197,-0.04887678,-0.92469543,-0.19344425,0.17536974,0.37232375,-0.15600558,0.016210727,0.14647536,0
0.060000000000000005,10.847972804304275,-0.15600557483625865,0.016210727812385563,0.14647535556006133,7.6249804,0.15399238,-2.0925207,-0.13383728,13.38772,-12.331289,0.99544126,-0.35180542,0.13532609,-0.048282918,-0.9249803,-0.21683848,0.19546045,0.37822816,-0.15600558,0.016210727,0.14647536,0
0.07,10.847972804304275,-0.15600557483625865,0.016210727812385563,0.14647535556006133,7.6249804,0.15399238,-2.0925207,-0.13383728,13.385434,-12.329235,0.9992531,-0.35101834,0.13564004,-0.04768901,-0.9252641,-0.24035767,0.21543586,0.38412663,-0.15600558,0.016210727,0.14647536,0
0.08,11.320144927654683,-0.09653979650829969,2.520858818713263,0.14356709984578725,8.271514,0.1661905,-1.4044244,-0.007594958,13.382913,-12.3269825,1.0031239,-0.3502308,0.13595384,-0.04709504,-0.9255468,-0.2640016,0.23529573,0.39001894,-0.15600558,0.016210727,0.14647536,0
0.09,11.320144927654683,-0.09653979650829969,2.520858818713263,0.14356709984578725,8.271514,0.1661905,-1.4044244,-0.007594958,13.380147,-12.324525,1.0070753,-0.34887928,0.14774379,-0.05115642,-0.9240335,-0.28954962,0.2565921,0.40012103,-0.096539795,2.5208588,0.1435671,0
0.09999999999999999,11.320144927654683,-0.09653979650829969,2.520858818713263,0.14356709984578725,8.271514,0.1661905,-1.4044244,-0.007594958,13.377114,-12.321845,1.0111233,-0.34747207,0.15951015,-0.055209633,-0.9223727,-0.31720582,0.27960515,0.40934983,-0.096539795,2.5208588,0.1435671,0
0.10999999999999999,11.320144927654683,-0.09653979650829969,2.520858818713263,0.14356709984578725,8.271514,0.1661905,-1.4044244,-0.007594958,13.373795,-12.318927,1.015259,-0.34600937,0.17125106,-0.059254035,-0.9205647,-0.3469552,0.30431712,0.41763696,-0.096539795,2.5208588,0.1435671,0
0.11999999999999998,11.320144927654683,-0.09653979650829969,2.520858818713263,0.14356709984578725,8.271514,0.1661905,-1.4044244,-0.007594958,13.370168,-12.315753,1.0194726,-0.34449148,0.18296462,-0.06328898,-0.91860974,-0.37878144,0.33070913,0.42491478,-0.096539795,2.5208588,0.1435671,0
0.12999999999999998,12.262533426490268,-0.007817391864489896,4.958243920719494,0.1617538550660521,9.008283,0.89175266,-0.36456302,0.04806122,13.366212,-12.312307,1.0237535,-0.34291857,0.194649,-0.06731382,-0.9165082,-0.41266686,0.35876113,0.43111625,-0.096539795,2.5208588,0.1435671,0
0.13999999999999999,12.262533426490268,-0.007817391864489896,4.958243920719494,0.1617538550660521,9.008283,0.89175266,-0.36456302,0.04806122,13.36189,-12.308558,1.0281326,-0.34039572,0.21726711,-0.075915195,-0.9116811,-0.45232138,0.39162293,0.44428936,-0.007817392,4.958244,0.16175385,0
0.15,12.262533426490268,-0.007817391864489896,4.958243920719494,0.1617538550660521,9.008283,0.89175266,-0.36456302,0.04806122,13.35715,-12.304463,1.0326301,-0.3376634,0.23975158,-0.08446988,-0.90629315,-0.4960905,0.42806154,0.45477375,-0.007817392,4.958244,0.16175385,0
0.16,13.265187712569722,0.051504028029677434,4.895850880585927,0.15892093313285907,9.189861,0.8330758,0.66821975,0.1279364,13.351953,-12.299986,1.037218,-0.33472338,0.26208854,-0.092972584,-0.9003476,-0.543873,0.46797994,0.4623025,-0.007817392,4.958244,0.16175385,0
0.17,13.265187712569722,0.051504028029677434,4.895850880585927,0.15892093313285907,9.189861,0.8330758,0.66821975,0.1279364,13.346238,-12.295074,1.0419073,-0.33169946,0.2838875,-0.10157773,-0.89390445,-0.59974533,0.5148179,0.47500733,0.051504027,4.8958507,0.15892093,0
0.18000000000000002,13.265187712569722,0.051504028029677434,4.895850880585927,0.15892093313285907,9.189861,0.8330758,0.66821975,0.1279364,13.339945,-12.289677,1.0467054,-0.32847655,0.30551615,-0.110121936,-0.8869251,-0.6596075,0.5651994,0.48401213,0.051504027,4.8958507,0.15892093,0
0.19000000000000003,13.265187712569722,0.051504028029677434,4.895850880585927,0.15892093313285907,9.189861,0.8330758,0.66821975,0.1279364,13.333033,-12.283757,1.051574,-0.32505655,0.32696152,-0.11860008,-0.87941366,-0.7233229,0.61899585,0.48906007,0.051504027,4.8958507,0.15892093,0
0.20000000000000004,13.591454170658718,0.05156492743704496,3.6743983216878764,0.16459841016924354,9.7146225,0.7941273,0.5256749,0.06176597,13.325465,-12.277285,1.0564722,-0.32144156,0.34821072,-0.12700707,-0.87137467,-0.79074556,0.67607063,0.48990384,0.051504027,4.8958507,0.15892093,0
0.21000000000000005,13.591454170658718,0.05156492743704496,3.6743983216878764,0.16459841016924354,9.7146225,0.7941273,0.5256749,0.06176597,13.317198,-12.270219,1.0613697,-0.31842664,0.3639724,-0.13340199,-0.8650621,-0.86313146,0.7374736,0.48907033,0.05156493,3.6743984,0.1645984,0
0.22000000000000006,13.591454170658718,0.05156492743704496,3.6743983216878764,0.16459841016924354,9.7146225,0.7941273,0.5256749,0.06176597,13.308193,-12.262527,1.0662413,-0.315304,0.37961096,-0.13975178,-0.85845697,-0.93814164,0.80120736,0.48468423,0.05156493,3.6743984,0.1645984,0
0.23000000000000007,13.591454170658718,0.05156492743704496,3.6743983216878764,0.16459841016924354,9.7146225,0.7941273,0.5256749,0.06176597,13.298426,-12.254187,1.0710506,-0.31207472,0.39512116,-0.14605428,-0.85156137,-1.0156801,0.86717975,0.47661898,0.05156493,3.6743984,0.1645984,0
0.24000000000000007,13.591454170658718,0.05156492743704496,3.6743983216878764,0.16459841016924354,9.481446,0.61469275,0.14731278,0.100851804,13.287871,-12.245176,1.0757605,-0.30873987,0.4104977,-0.15230739,-0.84437776,-1.0956476,0.93529534,0.46475288,0.05156493,3.6743984,0.1645984,0
0.25000000000000006,13.591454170658718,0.05156492743704496,3.6743983216878764,0.16459841016924354,9.481446,0.61469275,0.14731278,0.100851804,13.276505,-12.235474,1.0803323,-0.3053006,0.42573532,-0.15850899,-0.8369085,-1.1779413,1.0054561,0.44896945,0.05156493,3.6743984,0.1645984,0
0.26000000000000006,13.591454170658718,0.05156492743704496,3.6743983216878764,0.16459841016924354,9.481446,0.61469275,0.14731278,0.100851804,13.264306,-12.22506,1.0847261,-0.30175802,0.44082895,-0.16465697,-0.82915616,-1.2624559,1.0775608,0.4291575,0.05156493,3.6743984,0.1645984,0
0.2700000000000001,13.591454170658718,0.05156492743704496,3.6743983216878764,0.16459841016924354,9.481446,0.61469275,0.14731278,0.100851804,13.251249,-12.213917,1.0889012,-0.2981134,0.45577347,-0.17074925,-0.8211233,-1.3490824,1.1515062,0.40521124,0.05156493,3.6743984,0.1645984,0
0.2800000000000001,14.538696406422384,0.08387706183802944,2.7688033180454465,0.1675375029129326,9.371279,0.28171316,0.0782814,0.10058987,13.237317,-12.202024,1.0928156,-0.2943679,0.47056383,-0.17678377,-0.81281275,-1.4377087,1.227186,0.37703055,0.05156493,3.6743984,0.1645984,0
0.2900000000000001,14.538696406422384,0.08387706183802944,2.7688033180454465,0.1675375029129326,9.371279,0.28171316,0.0782814,0.10058987,13.222459,-12.189341,1.0964512,-0.29140872,0.48149922,-0.18157691,-0.80639267,-1.5343345,1.3097442,0.34952563,0.083877064,2.7688034,0.1675375,0
0.3000000000000001,14.538696406422384,0.08387706183802944,2.7688033180454465,0.1675375029129326,9.371279,0.28171316,0.0782814,0.10058987,13.206627,-12.175825,1.0997939,-0.28839344,0.4923419,-0.18633509,-0.7998173,-1.6323657,1.3935924,0.318474,0.083877064,2.7688034,0.1675375,0
0.3100000000000001,14.538696406422384,0.08387706183802944,2.7688033180454465,0.1675375029129326,9.371279,0.28171316,0.0782814,0.10058987,13.189807,-12.161465,1.1028084,-0.28532264,0.50308985,-0.19105738,-0.79308796,-1.7317314,1.4786607,0.28382418,0.083877064,2.7688034,0.1675375,0
0.3200000000000001,15.05051123413085,0.08503928577520681,1.2545725762329132,0.15327491135513285,9.251893,0.37727654,-0.5014732,0.104231745,13.1719885,-12.146248,1.1054579,-0.2821969,0.51374084,-0.19574289,-0.78620595,-1.8323598,1.5648791,0.24552734,0.083877064,2.7688034,0.1675375,0
0.3300000000000001,15.05051123413085,0.08503928577520681,1.2545725762329132,0.15327491135513285,9.251893,0.37727654,-0.5014732,0.104231745,13.153138,-12.130148,1.1077185,-0.2805793,0.51839226,-0.19823714,-0.78310066,-1.9375014,1.6550488,0.20630154,0.08503929,1.2545726,0.15327491,0
0.34000000000000014,15.05051123413085,0.08503928577520681,1.2545725762329132,0.15327491135513285,9.251893,0.37727654,-0.5014732,0.104231745,13.133235,-12.113144,1.1095779,-0.27895042,0.52302283,-0.20072342,-0.7799639,-2.0431385,1.74576,0.16533133,0.08503929,1.2545726,0.15327491,0
0.35000000000000014,15.05051123413085,0.08503928577520681,1.2545725762329132,0.15327491135513285,9.251893,0.37727654,-0.5014732,0.104231745,13.112273,-12.09523,1.1110189,-0.27731037,0.5276324,-0.20320167,-0.77679586,-2.1492562,1.8369962,0.122607574,0.08503929,1.2545726,0.15327491,0
0.36000000000000015,16.062208598802737,0.11928263138516876,0.5240848664064207,0.14185352484458352,8.78531,0.15231875,-1.1279985,0.14321032,13.090247,-12.076401,1.1120238,-0.2756592,0.5322209,-0.20567177,-0.7735967,-2.2558393,1.9287409,0.07812139,0.08503929,1.2545726,0.15327491,0
0.37000000000000016,16.062208598802737,0.11928263138516876,0.5240848664064207,0.14185352484458352,8.78531,0.15231875,-1.1279985,0.14321032,13.067119,-12.056622,1.1125939,-0.27488792,0.5339357,-0.20723218,-0.77227193,-2.3699327,2.0271032,0.0357615,0.11928263,0.52408487,0.14185353,0
0.38000000000000017,16.062208598802737,0.11928263138516876,0.5240848664064207,0.14185352484458352,8.78531,0.15231875,-1.1279985,0.14321032,13.042848,-12.035857,1.1127363,-0.27411452,0.53564644,-0.20879099,-0.7709412,-2.484137,2.1257832,-0.007393364,0.11928263,0.52408487,0.14185353,0
0.3900000000000002,16.062208598802737,0.11928263138516876,0.5240848664064207,0.14185352484458352,8.78531,0.15231875,-1.1279985,0.14321032,13.017436,-12.014104,1.1124433,-0.273339,0.537353,-0.21034819,-0.7696045,-2.5984502,2.2247775,-0.05134502,0.11928263,0.52408487,0.14185353,0
0.4000000000000002,16.086863228047417,0.11721208650832349,0.0878217016624828,0.12423141606657616,9.230604,0.054957956,-0.88877463,0.07278243,12.99088,-11.991359,1.1117069,-0.27256137,0.5390554,-0.21190378,-0.76826185,-2.7128696,2.3240821,-0.09609525,0.11928263,0.52408487,0.14185353,0
0.4100000000000002,16.086863228047417,0.11721208650832349,0.0878217016624828,0.12423141606657616,9.230604,0.054957956,-0.88877463,0.07278243,12.963179,-11.96762,1.1105198,-0.27230692,0.5391012,-0.21280845,-0.7680699,-2.8274984,2.4237955,-0.1413166,0.11721209,0.0878217,0.12423141,0
0.4200000000000002,16.086863228047417,0.11721208650832349,0.0878217016624828,0.12423141606657616,9.230604,0.054957956,-0.88877463,0.07278243,12.93433,-11.942883,1.1088799,-0.2720522,0.5391464,-0.21371292,-0.7678773,-2.9420433,2.523679,-0.18667755,0.11721209,0.0878217,0.12423141,0
0.4300000000000002,16.086863228047417,0.11721208650832349,0.0878217016624828,0.12423141606657616,9.230604,0.054957956,-0.88877463,0.07278243,12.904337,-11.917146,1.1067858,-0.2717972,0.5391911,-0.21461721,-0.7676839,-3.0565042,2.6237328,-0.23217843,0.11721209,0.0878217,0.12423141,0
0.4400000000000002,16.086863228047417,0.11721208650832349,0.0878217016624828,0.12423141606657616,10.217838,0.012477487,-0.7754593,0.0053777248,12.873199,-11.890408,1.1042358,-0.27154198,0.53923535,-0.21552129,-0.76748985,-3.1708813,2.7239559,-0.2778196,0.11721209,0.0878217,0.12423141,0
0.45000000000000023,16.086863228047417,0.11721208650832349,0.0878217016624828,0.12423141606657616,10.217838,0.012477487,-0.7754593,0.0053777248,12.840919,-11.862666,1.1012288,-0.27128652,0.5392791,-0.21642517,-0.76729506,-3.2851744,2.8243484,-0.32360134,0.11721209,0.0878217,0.12423141,0
0.46000000000000024,16.086863228047417,0.11721208650832349,0.0878217016624828,0.12423141606657616,10.217838,0.012477487,-0.7754593,0.0053777248,12.807496,-11.833919,1.0977633,-0.2710308,0.5393224,-0.21732886,-0.76709956,-3.3993828,2.92491,-0.36952397,0.11721209,0.0878217,0.12423141,0
0.47000000000000025,16.086863228047417,0.11721208650832349,0.0878217016624828,0.12423141606657616,10.217838,0.012477487,-0.7754593,0.0053777248,12.772932,-11.804167,1.0938379,-0.27077487,0.5393652,-0.21823233,-0.76690334,-3.5135071,3.0256402,-0.41558787,0.11721209,0.0878217,0.12423141,0
0.48000000000000026,16.99798025420456,0.16812681422439663,0.19407942360899055,0.11014700311857532,11.420592,0.49113363,-1.3468413,0.026846245,12.7372265,-11.773405,1.0894511,-0.27051863,0.53940743,-0.21913561,-0.76670647,-3.6275473,3.126539,-0.46179336,0.11721209,0.0878217,0.12423141,0
0.49000000000000027,16.99798025420456,0.16812681422439663,0.19407942360899055,0.11014700311857532,11.420592,0.49113363,-1.3468413,0.026846245,12.700348,-11.741606,1.084616,-0.2703369,0.53980285,-0.2203395,-0.766147,-3.7479544,3.2333667,-0.50527513,0.16812682,0.19407943,0.11014701,0
0.5000000000000002,16.99798025420456,0.16812681422439663,0.19407942360899055,0.11014700311857532,11.420592,0.49113363,-1.3468413,0.026846245,12.662268,-11.708737,1.0793444,-0.27015468,0.5401972,-0.22154297,-0.76558614,-3.8682644,3.340469,-0.5490821,0.16812682,0.19407943,0.11014701,0
0.5100000000000002,16.99798025420456,0.16812681422439663,0.19407942360899055,0.11014700311857532,11.420592,0.49113363,-1.3468413,0.026846245,12.622984,-11.674796,1.0736332,-0.26997188,0.54059047,-0.22274598,-0.7650237,-3.9884772,3.4478445,-0.5932148,0.16812682,0.19407943,0.11014701,0
0.5200000000000002,16.54356253061217,0.1764803853548552,-0.5269128079170238,0.09007900660662951,12.355434,0.7671731,-1.667719,-0.07361794,12.582499,-11.639779,1.0674789,-0.2697886,0.5409827,-0.22394857,-0.7644598,-4.108592,3.5554929,-0.6376741,0.16812682,0.19407943,0.11014701,0
0.5300000000000002,16.54356253061217,0.1764803853548552,-0.5269128079170238,0.09007900660662951,12.355434,0.7671731,-1.667719,-0.07361794,12.540829,-11.6037,1.0608726,-0.27051058,0.5386276,-0.22415513,-0.76580596,-4.225276,3.6604555,-0.683462,0.17648038,-0.5269128,0.09007901,0
0.5400000000000003,16.54356253061217,0.1764803853548552,-0.5269128079170238,0.09007900660662951,12.355434,0.7671731,-1.667719,-0.07361794,12.497994,-11.566569,1.0538124,-0.27123043,0.53626823,-0.2243599,-0.767146,-4.341531,3.7654874,-0.72844,0.17648038,-0.5269128,0.09007901,0
0.5500000000000003,16.54356253061217,0.1764803853548552,-0.5269128079170238,0.09007900660662951,12.355434,0.7671731,-1.667719,-0.07361794,12.4539995,-11.52839,1.0463065,-0.27194813,0.5339047,-0.22456291,-0.76848,-4.4573517,3.8705866,-0.77260995,0.17648038,-0.5269128,0.09007901,0
0.5600000000000003,17.414834866603773,0.219671800416057,-0.5569310884413166,0.07872382789405302,13.209763,0.8474205,-1.7241403,-0.018565781,12.408849,-11.489158,1.038363,-0.27266368,0.5315368,-0.22476414,-0.7698079,-4.572736,3.9757502,-0.81597394,0.17648038,-0.5269128,0.09007901,0
0.5700000000000003,17.414834866603773,0.219671800416057,-0.5569310884413166,0.07872382789405302,13.209763,0.8474205,-1.7241403,-0.018565781,12.362515,-11.448847,1.0300044,-0.27356914,0.5290028,-0.22505859,-0.7711449,-4.693708,4.086535,-0.855592,0.2196718,-0.5569311,0.078723826,0
0.5800000000000003,17.414834866603773,0.219671800416057,-0.5569310884413166,0.07872382789405302,13.209763,0.8474205,-1.7241403,-0.018565781,12.314975,-11.407427,1.0212541,-0.2744721,0.526464,-0.22535099,-0.772475,-4.8141465,4.197428,-0.89432114,0.2196718,-0.5569311,0.078723826,0
0.5900000000000003,17.414834866603773,0.219671800416057,-0.5569310884413166,0.07872382789405302,13.209763,0.8474205,-1.7241403,-0.018565781,12.266233,-11.364898,1.012121,-0.27537253,0.5239204,-0.22564133,-0.773798,-4.9340463,4.308427,-0.9321637,0.2196718,-0.5569311,0.078723826,0
0.6000000000000003,16.418642267351515,0.19528426593822562,-1.4767110838349244,0.057872876834560244,14.048832,1.0669787,-1.6251804,-0.0011432841,12.216296,-11.321259,1.0026138,-0.27627048,0.5213721,-0.22592962,-0.77511394,-5.0534024,4.419527,-0.96912223,0.2196718,-0.5569311,0.078723826,0
0.6100000000000003,16.418642267351515,0.19528426593822562,-1.4767110838349244,0.057872876834560244,14.048832,1.0669787,-1.6251804,-0.0011432841,12.165202,-11.276539,0.9927253,-0.27821574,0.5152994,-0.2247912,-0.7788013,-5.165251,4.5242424,-1.0082191,0.19528426,-1.476711,0.057872877,0
0.6200000000000003,16.418642267351515,0.19528426593822562,-1.4767110838349244,0.057872876834560244,14.048832,1.0669787,-1.6251804,-0.0011432841,12.112994,-11.230774,0.9824571,-0.28014556,0.50919807,-0.2236403,-0.78244543,-5.276127,4.6287107,-1.0450853,0.19528426,-1.476711,0.057872877,0
0.6300000000000003,16.418642267351515,0.19528426593822562,-1.4767110838349244,0.057872876834560244,14.048832,1.0669787,-1.6251804,-0.0011432841,12.059684,-11.183966,0.9718313,-0.2820598,0.5030685,-0.22247697,-0.7860461,-5.386006,4.732909,-1.0797347,0.19528426,-1.476711,0.057872877,0
0.6400000000000003,16.418642267351515,0.19528426593822562,-1.4767110838349244,0.057872876834560244,14.837062,1.3190894,-1.7507151,0.049342185,12.005279,-11.136118,0.96087,-0.28395838,0.496911,-0.22130129,-0.78960305,-5.4948626,4.836816,-1.1121818,0.19528426,-1.476711,0.057872877,0
0.6500000000000004,16.418642267351515,0.19528426593822562,-1.4767110838349244,0.057872876834560244,14.837062,1.3190894,-1.7507151,0.049342185,11.94979,-11.087233,0.9495952,-0.28584117,0.49072587,-0.2201133,-0.79311615,-5.6026716,4.9404087,-1.1424412,0.19528426,-1.476711,0.057872877,0
0.6600000000000004,16.418642267351515,0.19528426593822562,-1.4767110838349244,0.057872876834560244,14.837062,1.3190894,-1.7507151,0.049342185,11.8932295,-11.037312,0.93802863,-0.2877081,0.4845135,-0.2189131,-0.7965852,-5.7094088,5.043666,-1.1705282,0.19528426,-1.476711,0.057872877,0
0.6700000000000004,16.418642267351515,0.19528426593822562,-1.4767110838349244,0.057872876834560244,14.837062,1.3190894,-1.7507151,0.049342185,11.835607,-10.986361,0.92619205,-0.28955904,0.4782742,-0.2177007,-0.80000997,-5.8150496,5.1465654,-1.1964588,0.19528426,-1.476711,0.057872877,0
0.6800000000000004,17.35502139145216,0.2279662299510186,-0.8394776206231583,0.046677981310974545,15.599846,1.4661632,-1.430409,0.0376285,11.776933,-10.934382,0.91410685,-0.2913939,0.47200832,-0.21647623,-0.8033903,-5.919569,5.249086,-1.2202493,0.19528426,-1.476711,0.057872877,0
0.6900000000000004,17.35502139145216,0.2279662299510186,-0.8394776206231583,0.046677981310974545,15.599846,1.4661632,-1.430409,0.0376285,11.717189,-10.881351,0.901815,-0.29265028,0.46824905,-0.21627697,-0.80518514,-6.0289865,5.3571563,-1.2379242,0.22796623,-0.8394776,0.04667798,0
0.7000000000000004,17.35502139145216,0.2279662299510186,-0.8394776206231583,0.046677981310974545,15.599846,1.4661632,-1.430409,0.0376285,11.656355,-10.82724,0.88935274,-0.2939011,0.4644809,-0.21607362,-0.8069647,-6.1375694,5.465127,-1.2543448,0.22796623,-0.8394776,0.04667798,0
0.7100000000000004,17.35502139145216,0.2279662299510186,-0.8394776206231583,0.046677981310974545,15.599846,1.4661632,-1.430409,0.0376285,11.5944395,-10.772049,0.8767325,-0.29514632,0.46070394,-0.21586616,-0.808729,-6.24531,5.5729904,-1.2695172,0.22796623,-0.8394776,0.04667798,0
0.7200000000000004,16.304105728182346,0.2000716210141336,-1.6569042774260756,0.024482638721514155,16.026814,1.4255986,-1.4098068,0.010996476,11.531451,-10.71578,0.86396676,-0.29638597,0.45691824,-0.2156546,-0.8104779,-6.352199,5.680739,-1.283448,0.22796623,-0.8394776,0.04667798,0
0.7300000000000004,16.304105728182346,0.2000716210141336,-1.6569042774260756,0.024482638721514155,16.026814,1.4255986,-1.4098068,0.010996476,11.467431,-10.658468,0.8510433,-0.2985201,0.4498651,-0.21405838,-0.81405556,-6.451614,5.781691,-1.3008819,0.20007162,-1.6569042,0.02448264,0
0.7400000000000004,16.304105728182346,0.2000716210141336,-1.6569042774260756,0.024482638721514155,16.026814,1.4255986,-1.4098068,0.010996476,11.402423,-10.600149,0.837957,-0.3006334,0.4427806,-0.21244727,-0.81757647,-6.549685,5.882093,-1.316015,0.20007162,-1.6569042,0.02448264,0
0.7500000000000004,16.304105728182346,0.2000716210141336,-1.6569042774260756,0.024482638721514155,16.026814,1.4255986,-1.4098068,0.010996476,11.336442,-10.540829,0.8247308,-0.30272576,0.43566528,-0.21082138,-0.82104045,-6.646384,5.981916,-1.3288709,0.20007162,-1.6569042,0.02448264,0
0.7600000000000005,16.999813520282526,0.20783655735910983,-1.290251082922728,0.01477204587496845,16.521757,1.3470201,-1.7517191,-0.06310345,11.269501,-10.480513,0.81138736,-0.30479708,0.4285196,-0.20918077,-0.8244472,-6.741683,6.081133,-1.3394734,0.20007162,-1.6569042,0.02448264,0
0.7700000000000005,16.999813520282526,0.20783655735910983,-1.290251082922728,0.01477204587496845,16.521757,1.3470201,-1.7517191,-0.06310345,11.201592,-10.419187,0.79796755,-0.30652446,0.42285958,-0.2080984,-0.8269991,-6.8396635,6.184004,-1.3442122,0.20783655,-1.2902511,0.014772045,0
0.7800000000000005,16.999813520282526,0.20783655735910983,-1.290251082922728,0.01477204587496845,16.521757,1.3470201,-1.7517191,-0.06310345,11.13271,-10.356833,0.7845093,-0.30823874,0.4171815,-0.20700713,-0.82951576,-6.936408,6.286407,-1.3471652,0.20783655,-1.2902511,0.014772045,0
0.7900000000000005,16.999813520282526,0.20783655735910983,-1.290251082922728,0.01477204587496845,16.521757,1.3470201,-1.7517191,-0.06310345,11.062867,-10.293459,0.77103037,-0.3099399,0.4114856,-0.20590703,-0.83199704,-7.0319,6.388326,-1.3483487,0.20783655,-1.2902511,0.014772045,0
0.8000000000000005,15.924916449447164,0.1588884739810743,-2.5080339729281262,-0.0015773047320596673,16.47637,1.1556318,-1.8851117,-0.18972842,10.992076,-10.229069,0.7575484,-0.31162778,0.40577215,-0.20479813,-0.8344428,-7.1261225,6.489743,-1.3477793,0.20783655,-1.2902511,0.014772045,1
0.8100000000000005,15.924916449447164,0.1588884739810743,-2.5080339729281262,-0.0015773047320596673,16.47637,1.1556318,-1.8851117,-0.18972842,10.920366,-10.163681,0.74406606,-0.31667504,0.3962759,-0.20628484,-0.83673704,-7.2156186,6.587823,-1.3483245,1.1556318,-1.8851117,-0.18972842,1
0.8200000000000005,15.924916449447164,0.1588884739810743,-2.5080339729281262,-0.0015773047320596673,16.47637,1.1556318,-1.8851117,-0.18972842,10.847775,-10.097311,0.7305898,-0.32168332,0.38673088,-0.20774613,-0.8389283,-7.302292,6.6861315,-1.3465782,1.1556318,-1.8851117,-0.18972842,1
0.8300000000000005,15.924916449447164,0.1588884739810743,-2.5080339729281262,-0.0015773047320596673,16.47637,1.1556318,-1.8851117,-0.18972842,10.774331,-10.029957,0.7171423,-0.32665193,0.3771382,-0.20918186,-0.84101623,-7.3861017,6.784615,-1.3425857,1.1556318,-1.8851117,-0.18972842,1
0.8400000000000005,15.924916449447164,0.1588884739810743,-2.5080339729281262,-0.0015773047320596673,16.303808,0.9105784,-2.0912192,-0.30308002,10.700063,-9.961617,0.70374566,-0.33158034,0.3674991,-0.21059184,-0.8430006,-7.467011,6.8832197,-1.3363932,1.1556318,-1.8851117,-0.18972842,1
0.8500000000000005,15.924916449447164,0.1588884739810743,-2.5080339729281262,-0.0015773047320596673,16.303808,0.9105784,-2.0912192,-0.30308002,10.625004,-9.892297,0.6904165,-0.3367109,0.35747,-0.21039206,-0.845326,-7.544207,6.9807034,-1.3290513,0.9105784,-2.0912192,-0.30308002,1
0.8600000000000005,15.924916449447164,0.1588884739810743,-2.5080339729281262,-0.0015773047320596673,16.303808,0.9105784,-2.0912192,-0.30308002,10.549188,-9.822004,0.67717284,-0.34179693,0.34739357,-0.21016443,-0.8475396,-7.6185746,7.0777826,-1.3193302,0.9105784,-2.0912192,-0.30308002,1
0.8700000000000006,15.924916449447164,0.1588884739810743,-2.5080339729281262,-0.0015773047320596673,16.303808,0.9105784,-2.0912192,-0.30308002,10.472642,-9.750743,0.664038,-0.3468377,0.33727115,-0.20990898,-0.849641,-7.6900797,7.174399,-1.3072816,0.9105784,-2.0912192,-0.30308002,1
0.8800000000000006,16.5200594256097,-0.3909258654092492,-1.7277833177040849,0.011012738362387853,15.929215,0.2558235,-2.1380327,-0.38445696,10.395396,-9.678517,0.6510351,-0.35183257,0.3271041,-0.20962575,-0.8516299,-7.75869,7.270492,-1.292958,0.9105784,-2.0912192,-0.30308002,1
0.8900000000000006,16.5200594256097,-0.3909258654092492,-1.7277833177040849,0.011012738362387853,15.929215,0.2558235,-2.1380327,-0.38445696,10.317486,-9.605346,0.6381736,-0.35610783,0.31793356,-0.2063127,-0.8541313,-7.8231397,7.3635373,-1.2789778,0.2558235,-2.1380327,-0.38445696,1
0.9000000000000006,16.5200594256097,-0.3909258654092492,-1.7277833177040849,0.011012738362387853,15.929215,0.2558235,-2.1380327,-0.38445696,10.23894,-9.53125,0.6254634,-0.3603405,0.30872503,-0.20297495,-0.8565305,-7.885437,7.4552336,-1.2626927,0.2558235,-2.1380327,-0.38445696,1
0.9100000000000006,16.5200594256097,-0.3909258654092492,-1.7277833177040849,0.011012738362387853,15.929215,0.2558235,-2.1380327,-0.38445696,10.159784,-9.456244,0.6129275,-0.3645301,0.29947954,-0.19961292,-0.85882723,-7.9455624,7.5455284,-1.244153,0.2558235,-2.1380327,-0.38445696,1
0.9200000000000006,15.725673510088477,-0.7995725228470473,-2.565985261060675,0.05513351595537087,15.021895,-0.32655272,-2.4464622,-0.48747003,10.080038,-9.380344,0.60058796,-0.36867607,0.29019827,-0.196227,-0.8610212,-8.003496,7.6343713,-1.2234101,0.2558235,-2.1380327,-0.38445696,1
0.9300000000000006,15.725673510088477,-0.7995725228470473,-2.565985261060675,0.05513351595537087,15.021895,-0.32655272,-2.4464622,-0.48747003,9.999738,-9.303589,0.5884327,-0.3726719,0.28072348,-0.18958874,-0.86392456,-8.056194,7.716431,-1.2072575,-0.32655272,-2.4464622,-0.48747003,1
0.9400000000000006,15.725673510088477,-0.7995725228470473,-2.565985261060675,0.05513351595537087,15.021895,-0.32655272,-2.4464622,-0.48747003,9.91892,-9.226024,0.57645094,-0.37660876,0.2712043,-0.18292047,-0.8666913,-8.107188,7.7962046,-1.1887364,-0.32655272,-2.4464622,-0.48747003,1
0.9500000000000006,15.725673510088477,-0.7995725228470473,-2.565985261060675,0.05513351595537087,15.021895,-0.32655272,-2.4464622,-0.48747003,9.8376,-9.147673,0.56466585,-0.380486,0.2616422,-0.17622325,-0.8693208,-8.156462,7.873632,-1.1679171,-0.32655272,-2.4464622,-0.48747003,1
0.9600000000000006,16.37311040940975,-0.8599929008064298,-1.2891890865224833,0.16276902480435435,14.617369,-0.3542447,-2.438987,-0.5467218,9.755796,-9.068559,0.55310017,-0.38430303,0.2520387,-0.16949815,-0.87181276,-8.2039995,7.948656,-1.1448716,-0.32655272,-2.4464622,-0.48747003,0
0.9700000000000006,16.37311040940975,-0.8599929008064298,-1.2891890865224833,0.16276902480435435,14.617369,-0.3542447,-2.438987,-0.5467218,9.673504,-8.988675,0.54182994,-0.3835907,0.24792598,-0.16347222,-0.8744525,-8.254563,8.027956,-1.1089486,-0.8599929,-1.2891891,0.16276902,0
0.9800000000000006,16.37311040940975,-0.8599929008064298,-1.2891890865224833,0.16276902480435435,14.617369,-0.3542447,-2.438987,-0.5467218,9.590708,-8.908009,0.5309257,-0.38285506,0.24379823,-0.15743639,-0.87703913,-8.304957,8.105096,-1.0717069,-0.8599929,-1.2891891,0.16276902,0
0.9900000000000007,16.37311040940975,-0.8599929008064298,-1.2891890865224833,0.16276902480435435,14.617369,-0.3542447,-2.438987,-0.5467218,9.507408,-8.826582,0.52040035,-0.38209617,0.23965566,-0.15139097,-0.8795726,-8.355166,8.180056,-1.0331782,-0.8599929,-1.2891891,0.16276902,0
1.0000000000000007,15.736100348389082,-0.5261660468334277,-2.252194958233935,0.1748283029413744,14.66272,-0.11978555,-2.359943,-0.40981838,9.423606,-8.744415,0.51026654,-0.3813141,0.23549855,-0.14533637,-0.8820526,-8.405172,8.25282,-0.9933944,-0.8599929,-1.2891891,0.16276902,0
1.0100000000000007,15.736100348389082,-0.5261660468334277,-2.252194958233935,0.1748283029413744,14.66272,-0.11978555,-2.359943,-0.40981838,9.339316,-8.661547,0.5005105,-0.3815345,0.22642629,-0.1389181,-0.88536084,-8.452537,8.320414,-0.95752,-0.526166,-2.252195,0.1748283,0
1.0200000000000007,15.736100348389082,-0.5261660468334277,-2.252194958233935,0.1748283029413744,14.66272,-0.11978555,-2.359943,-0.40981838,9.254561,-8.578015,0.49112257,-0.38170356,0.21732354,-0.13248114,-0.88855004,-8.498367,8.385285,-0.91977954,-0.526166,-2.252195,0.1748283,0
1.0300000000000007,15.736100348389082,-0.5261660468334277,-2.252194958233935,0.1748283029413744,14.66272,-0.11978555,-2.359943,-0.40981838,9.169354,-8.493851,0.48212108,-0.38182127,0.20819159,-0.12602638,-0.8916197,-8.542634,8.447403,-0.88024527,-0.526166,-2.252195,0.1748283,0
1.0400000000000007,15.736100348389082,-0.5261660468334277,-2.252194958233935,0.1748283029413744,14.777955,0.30709812,-2.1552455,-0.32341304,9.0837145,-8.409079,0.4735236,-0.38188764,0.19903162,-0.119554654,-0.8945694,-8.58531,8.506738,-0.83899057,-0.526166,-2.252195,0.1748283,1
1.0500000000000007,15.736100348389082,-0.5261660468334277,-2.252194958233935,0.1748283029413744,14.777955,0.30709812,-2.1552455,-0.32341304,8.997668,-8.323742,0.46530393,-0.38490498,0.18898664,-0.11648393,-0.8958589,-8.623563,8.560165,-0.80472654,0.30709812,-2.1552455,-0.32341304,1
1.0600000000000007,15.736100348389082,-0.5261660468334277,-2.252194958233935,0.1748283029413744,14.777955,0.30709812,-2.1552455,-0.32341304,8.911251,-8.237881,0.45743367,-0.3878757,0.17891878,-0.11339909,-0.8970399,-8.659471,8.611848,-0.76911944,0.30709812,-2.1552455,-0.32341304,1
1.0700000000000007,15.736100348389082,-0.5261660468334277,-2.252194958233935,0.1748283029413744,14.777955,0.30709812,-2.1552455,-0.32341304,8.824486,-8.151511,0.4499259,-0.3907995,0.16882925,-0.11030052,-0.8981123,-8.693022,8.661753,-0.7322314,0.30709812,-2.1552455,-0.32341304,1
1.0800000000000007,16.007509380529026,-0.3564944532941628,-1.079535344247781,0.19706359369784737,14.978713,0.5018795,-1.7212955,-0.30788183,8.737397,-8.0646515,0.4427932,-0.39367595,0.15871926,-0.10718859,-0.899076,-8.724208,8.709848,-0.69412506,0.30709812,-2.1552455,-0.32341304,0
1.0900000000000007,16.007509380529026,-0.3564944532941628,-1.079535344247781,0.19706359369784737,14.978713,0.5018795,-1.7212955,-0.30788183,8.649995,-7.9773006,0.4361038,-0.3930792,0.1544598,-0.1036157,-0.9004967,-8.756127,8.760126,-0.64364135,-0.35649446,-1.0795354,0.1970636,0
1.1000000000000008,16.007509380529026,-0.3564944532941628,-1.079535344247781,0.19706359369784737,14.978713,0.5018795,-1.7212955,-0.30788183,8.562277,-7.8894544,0.42992258,-0.39246932,0.15019523,-0.10003937,-0.9018874,-8.787358,8.808854,-0.59249663,-0.35649446,-1.0795354,0.1970636,0
1.1100000000000008,16.007509380529026,-0.3564944532941628,-1.079535344247781,0.19706359369784737,14.978713,0.5018795,-1.7212955,-0.30788183,8.474249,-7.801129,0.42425603,-0.39184642,0.14592564,-0.0964597,-0.90324813,-8.817894,8.856027,-0.54071,-0.35649446,-1.0795354,0.1970636,0
1.1200000000000008,15.64003231457246,-0.3796966938350326,-1.4559482607247525,0.22179919607799836,15.231077,0.4693843,-1.2917224,-0.17891756,8.385921,-7.7123394,0.41911048,-0.39121047,0.14165121,-0.09287682,-0.90457875,-8.847727,8.901642,-0.48830056,-0.35649446,-1.0795354,0.1970636,1
1.1300000000000008,15.64003231457246,-0.3796966938350326,-1.4559482607247525,0.22179919607799836,15.231077,0.4693843,-1.2917224,-0.17891756,8.297305,-7.6231112,0.41445547,-0.39294258,0.13497049,-0.09234417,-0.90490395,-8.875011,8.943792,-0.4426053,0.4693843,-1.2917224,-0.17891756,1
1.1400000000000008,15.64003231457246,-0.3796966938350326,-1.4559482607247525,0.22179919607799836,15.231077,0.4693843,-1.2917224,-0.17891756,8.2084255,-7.533466,0.41026038,-0.39465582,0.12828328,-0.09180709,-0.9051857,-8.900483,8.985077,-0.396327,0.4693843,-1.2917224,-0.17891756,1
1.1500000000000008,15.64003231457246,-0.3796966938350326,-1.4559482607247525,0.22179919607799836,15.231077,0.4693843,-1.2917224,-0.17891756,8.119301,-7.4434123,0.40653086,-0.39635015,0.121589914,-0.0912656,-0.905424,-8.924136,9.025482,-0.3494923,0.4693843,-1.2917224,-0.17891756,1
1.1600000000000008,15.67991393970788,-0.4700356364690346,-0.9144154428623105,0.25059595425879466,15.5467,0.7764948,-0.95076776,-0.23794001,8.02995,-7.3529587,0.40327236,-0.3980254,0.11489071,-0.09071973,-0.9056188,-8.945971,9.065,-0.30212802,0.4693843,-1.2917224,-0.17891756,0
1.1700000000000008,15.67991393970788,-0.4700356364690346,-0.9144154428623105,0.25059595425879466,15.5467,0.7764948,-0.95076776,-0.23794001,7.940385,-7.26211,0.4005115,-0.39702988,0.11157031,-0.08691426,-0.9068433,-8.967127,9.104543,-0.24998012,-0.47003564,-0.9144154,0.25059596,0
1.1800000000000008,15.67991393970788,-0.4700356364690346,-0.9144154428623105,0.25059595425879466,15.5467,0.7764948,-0.95076776,-0.23794001,7.8506093,-7.170873,0.3982743,-0.39602324,0.108246796,-0.08310636,-0.9080425,-8.987883,9.14259,-0.19739032,-0.47003564,-0.9144154,0.25059596,0
1.1900000000000008,15.67991393970788,-0.4700356364690346,-0.9144154428623105,0.25059595425879466,15.5467,0.7764948,-0.95076776,-0.23794001,7.760628,-7.079263,0.39656514,-0.39500552,0.104920246,-0.079296134,-0.9092162,-9.008232,9.179135,-0.14437425,-0.47003564,-0.9144154,0.25059596,0
1.2000000000000008,15.22869601022317,-0.36241243420115066,-1.4060301730166127,0.23522333739250023,15.173211,0.47714365,-1.068512,-0.09612082,7.6704454,-6.9872956,0.39538822,-0.39397672,0.10159077,-0.07548369,-0.9103645,-9.02817,9.214177,-0.09094767,-0.47003564,-0.9144154,0.25059596,1
1.2100000000000009,15.22869601022317,-0.36241243420115066,-1.4060301730166127,0.23522333739250023,15.173211,0.47714365,-1.068512,-0.09612082,7.58007,-6.8949895,0.39472297,-0.3950531,0.09582173,-0.075500585,-0.9105222,-9.046606,9.246934,-0.042045727,0.47714365,-1.068512,-0.09612082,1
1.2200000000000009,15.22869601022317,-0.36241243420115066,-1.4060301730166127,0.23522333739250023,15.173211,0.47714365,-1.068512,-0.09612082,7.4895186,-6.802359,0.39454848,-0.39611584,0.09004939,-0.07551489,-0.91064847,-9.063425,9.2790365,0.007193587,0.47714365,-1.068512,-0.09612082,1
1.2300000000000009,15.22869601022317,-0.36241243420115066,-1.4060301730166127,0.23522333739250023,15.173211,0.47714365,-1.068512,-0.09612082,7.398807,-6.709411,0.394868,-0.39716497,0.08427396,-0.07552659,-0.9107433,-9.078627,9.310482,0.056750365,0.47714365,-1.068512,-0.09612082,1
1.2400000000000009,15.22869601022317,-0.36241243420115066,-1.4060301730166127,0.23522333739250023,15.262941,0.8603188,-0.89496887,-0.24863242,7.3079515,-6.616152,0.39568454,-0.3982004,0.07849561,-0.07553568,-0.91080683,-9.092207,9.341263,0.106604636,0.47714365,-1.068512,-0.09612082,0
1.2500000000000009,15.22869601022317,-0.36241243420115066,-1.4060301730166127,0.23522333739250023,15.262941,0.8603188,-0.89496887,-0.24863242,7.216967,-6.5225887,0.39700398,-0.39750722,0.07272314,-0.07117616,-0.9119392,-9.104435,9.371025,0.15735236,-0.36241242,-1.4060302,0.23522334,0
1.260000000000001,15.22869601022317,-0.36241243420115066,-1.4060301730166127,0.23522333739250023,15.262941,0.8603188,-0.89496887,-0.24863242,7.125866,-6.4287376,0.39883316,-0.3967925,0.066946745,-0.066812776,-0.9130223,-9.115627,9.398886,0.20854893,-0.36241242,-1.4060302,0.23522334,0
1.270000000000001,15.22869601022317,-0.36241243420115066,-1.4060301730166127,0.23522333739250023,15.262941,0.8603188,-0.89496887,-0.24863242,7.034658,-6.3346176,0.4011764,-0.39605632,0.061166734,-0.062445775,-0.914056,-9.125778,9.424842,0.26016277,-0.36241242,-1.4060302,0.23522334,0
1.280000000000001,15.2492192626777,-0.5692129613635252,-0.689654375408083,0.2685167844623029,14.906359,0.49497885,-0.6539433,-0.07346602,6.9433537,-6.2402472,0.4040377,-0.39529875,0.055383414,-0.058075402,-0.9150402,-9.134879,9.448889,0.31216213,-0.36241242,-1.4060302,0.23522334,0
1.290000000000001,15.2492192626777,-0.5692129613635252,-0.689654375408083,0.2685167844623029,14.906359,0.49497885,-0.6539433,-0.07346602,6.851962,-6.145646,0.4074217,-0.39410856,0.053274587,-0.054181777,-0.9159172,-9.143302,9.471269,0.36466733,-0.569213,-0.68965435,0.26851678,0
1.300000000000001,15.2492192626777,-0.5692129613635252,-0.689654375408083,0.2685167844623029,14.906359,0.49497885,-0.6539433,-0.07346602,6.760487,-6.050827,0.41133174,-0.3929098,0.051164594,-0.05028697,-0.9167742,-9.151637,9.492302,0.41737127,-0.569213,-0.68965435,0.26851678,0
1.310000000000001,15.2492192626777,-0.5692129613635252,-0.689654375408083,0.2685167844623029,14.906359,0.49497885,-0.6539433,-0.07346602,6.6689296,-5.955805,0.4157698,-0.39170244,0.04905349,-0.04639107,-0.9176112,-9.159881,9.511988,0.47026205,-0.569213,-0.68965435,0.26851678,0
1.320000000000001,14.889839073119843,-0.37782184464782165,-0.7765096747424168,0.24522252606513814,14.850544,0.44689226,-0.94671416,-0.21582077,6.5772896,-5.860592,0.4207376,-0.39048657,0.046941318,-0.04249416,-0.91842836,-9.168031,9.530325,0.52332777,-0.569213,-0.68965435,0.26851678,1
1.330000000000001,14.889839073119843,-0.37782184464782165,-0.7765096747424168,0.24522252606513814,14.850544,0.44689226,-0.94671416,-0.21582077,6.4855714,-5.7652035,0.42621708,-0.39177808,0.041766558,-0.042646695,-0.91812116,-9.1753645,9.547156,0.5725933,0.44689226,-0.94671416,-0.21582077,1
1.340000000000001,14.889839073119843,-0.37782184464782165,-0.7765096747424168,0.24522252606513814,14.850544,0.44689226,-0.94671416,-0.21582077,6.393787,-5.6696506,0.43218988,-0.39305845,0.036590606,-0.04279801,-0.91778773,-9.181249,9.56344,0.6219854,0.44689226,-0.94671416,-0.21582077,1
1.350000000000001,14.889839073119843,-0.37782184464782165,-0.7765096747424168,0.24522252606513814,14.850544,0.44689226,-0.94671416,-0.21582077,6.301951,-5.5739374,0.43865716,-0.39432755,0.031413604,-0.0429481,-0.9174281,-9.185683,9.57917,0.67148817,0.44689226,-0.94671416,-0.21582077,1
1.360000000000001,14.83185806298165,-0.3963552934170677,-0.16090157657388468,0.27990804494699334,15.184488,0.6509104,-0.39988926,-0.3055268,6.2100782,-5.4780693,0.44561997,-0.3955854,0.026235703,-0.043096967,-0.9170422,-9.18867,9.594342,0.7210858,0.44689226,-0.94671416,-0.21582077,0
1.370000000000001,14.83185806298165,-0.3963552934170677,-0.16090157657388468,0.27990804494699334,15.184488,0.6509104,-0.39988926,-0.3055268,6.118181,-5.3820524,0.4530782,-0.39428335,0.026221495,-0.040997922,-0.91769934,-9.190848,9.608929,0.77056915,-0.3963553,-0.16090158,0.27990803,0
1.380000000000001,14.83185806298165,-0.3963552934170677,-0.16090157657388468,0.27990804494699334,15.184488,0.6509104,-0.39988926,-0.3055268,6.026261,-5.2858925,0.46103156,-0.39297873,0.026207116,-0.03889861,-0.9183505,-9.19329,9.62294,0.82010406,-0.3963553,-0.16090158,0.27990803,0
1.390000000000001,14.83185806298165,-0.3963552934170677,-0.16090157657388468,0.27990804494699334,15.184488,0.6509104,-0.39988926,-0.3055268,5.9343147,-5.189595,0.4694805,-0.39167154,0.026192566,-0.036799043,-0.9189957,-9.195992,9.636375,0.8696881,-0.3963553,-0.16090158,0.27990803,0
1.400000000000001,14.487029070758197,-0.29137086312206567,-0.7210335831715251,0.25539418590175933,14.852863,0.26087415,-0.56917906,-0.2840835,5.8423405,-5.093167,0.4784255,-0.3903618,0.026177846,-0.03469923,-0.9196348,-9.198955,9.649235,0.9193185,-0.3963553,-0.16090158,0.27990803,1
1.410000000000001,14.487029070758197,-0.29137086312206567,-0.7210335831715251,0.25539418590175933,14.852863,0.26087415,-0.56917906,-0.2840835,5.750336,-4.996612,0.48786807,-0.39179865,0.023100624,-0.034750454,-0.91910416,-9.201757,9.661623,0.9692028,0.26087415,-0.56917906,-0.2840835,1
1.420000000000001,14.487029070758197,-0.29137086312206567,-0.7210335831715251,0.25539418590175933,14.852863,0.26087415,-0.56917906,-0.2840835,5.658308,-4.8999352,0.4978097,-0.39323086,0.02002313,-0.034801275,-0.91856265,-9.203695,9.673672,1.019129,0.26087415,-0.56917906,-0.2840835,1
1.430000000000001,14.487029070758197,-0.29137086312206567,-0.7210335831715251,0.25539418590175933,14.852863,0.26087415,-0.56917906,-0.2840835,5.566265,-4.8031397,0.5082508,-0.39465842,0.016945397,-0.034851678,-0.91801023,-9.20477,9.685377,1.0690914,0.26087415,-0.56917906,-0.2840835,1
1.440000000000001,14.487029070758197,-0.29137086312206567,-0.7210335831715251,0.25539418590175933,14.999732,0.47750294,-0.66268194,-0.4499412,5.4742155,-4.7062287,0.5191916,-0.39608133,0.013867466,-0.03490167,-0.91744703,-9.204982,9.696738,1.1190846,0.26087415,-0.56917906,-0.2840835,1
1.450000000000001,14.487029070758197,-0.29137086312206567,-0.7210335831715251,0.25539418590175933,14.999732,0.47750294,-0.66268194,-0.4499412,5.382169,-4.6092052,0.5306398,-0.39828977,0.00996032,-0.035748124,-0.9165086,-9.204201,9.707905,1.1705632,0.47750294,-0.66268194,-0.4499412,1
1.460000000000001,14.487029070758197,-0.29137086312206567,-0.7210335831715251,0.25539418590175933,14.999732,0.47750294,-0.66268194,-0.4499412,5.2901354,-4.512071,0.5426029,-0.40048954,0.0060529574,-0.036593802,-0.9155503,-9.202217,9.718834,1.2220483,0.47750294,-0.66268194,-0.4499412,1
1.470000000000001,14.487029070758197,-0.29137086312206567,-0.7210335831715251,0.25539418590175933,14.999732,0.47750294,-0.66268194,-0.4499412,5.198128,-4.414829,0.5550808,-0.40268058,0.0021454627,-0.03743869,-0.91457206,-9.199033,9.729519,1.2735302,0.47750294,-0.66268194,-0.4499412,1
1.480000000000001,14.312833553888508,-0.4441925008883263,-0.49773673262812584,0.3385691722159476,14.476246,0.539163,-0.1646693,-0.39778253,5.1061587,-4.317481,0.56807345,-0.40486288,-0.0017620784,-0.038282763,-0.9135739,-9.19465,9.739956,1.3249995,0.47750294,-0.66268194,-0.4499412,1
1.490000000000001,14.312833553888508,-0.4441925008883263,-0.49773673262812584,0.3385691722159476,14.476246,0.539163,-0.1646693,-0.39778253,5.0142374,-4.2200317,0.5815546,-0.40670428,-0.0035295468,-0.04041552,-0.91265863,-9.189419,9.750005,1.3712178,0.539163,-0.1646693,-0.39778253,1
1.500000000000001,14.312833553888508,-0.4441925008883263,-0.49773673262812584,0.3385691722159476,14.476246,0.539163,-0.1646693,-0.39778253,4.9223723,-4.12248,0.5954976,-0.40854082,-0.0052969735,-0.0425478,-0.91173244,-9.183451,9.760397,1.4173833,0.539163,-0.1646693,-0.39778253,1
1.5100000000000011,14.312833553888508,-0.4441925008883263,-0.49773673262812584,0.3385691722159476,14.476246,0.539163,-0.1646693,-0.39778253,4.8305707,-4.024822,0.609902,-0.4103725,-0.0070643364,-0.044679567,-0.9107954,-9.176743,9.771128,1.4634912,0.539163,-0.1646693,-0.39778253,1
1.5200000000000011,13.843794664981841,-0.7315108486178612,-0.9594679403865523,0.40595794888590697,14.134941,0.55098367,-0.49117038,-0.43149635,4.7388396,-3.9270558,0.62476724,-0.4121993,-0.008831616,-0.046810806,-0.9098475,-9.169292,9.782196,1.5095373,0.539163,-0.1646693,-0.39778253,0
1.5300000000000011,13.843794664981841,-0.7315108486178612,-0.9594679403865523,0.40595794888590697,14.134941,0.55098367,-0.49117038,-0.43149635,4.647184,-3.8291817,0.64006126,-0.410601,-0.01178364,-0.041486688,-0.91079456,-9.161681,9.7923565,1.549291,-0.7315109,-0.95946795,0.40595794,0
1.5400000000000011,13.843794664981841,-0.7315108486178612,-0.9594679403865523,0.40595794888590697,14.134941,0.55098367,-0.49117038,-0.43149635,4.555606,-3.7312143,0.6557534,-0.4089861,-0.014735187,-0.036160894,-0.9117048,-9.153946,9.800854,1.5891503,-0.7315109,-0.95946795,0.40595794,0
1.5500000000000012,13.843794664981841,-0.7315108486178612,-0.9594679403865523,0.40595794888590697,14.134941,0.55098367,-0.49117038,-0.43149635,4.4641056,-3.6331704,0.6718446,-0.40735462,-0.017686136,-0.030833635,-0.91257805,-9.146083,9.807688,1.6290947,-0.7315109,-0.95946795,0.40595794,0
1.5600000000000012,13.643893958350562,-0.7306800242728407,-0.7172046696813915,0.4606392609304683,13.347083,0.3337791,-1.1753188,-0.018479973,4.3726845,-3.5350664,0.68833554,-0.40570667,-0.020636369,-0.025505126,-0.9134143,-9.138085,9.812859,1.6691039,-0.7315109,-0.95946795,0.40595794,0
1.5700000000000012,13.643893958350562,-0.7306800242728407,-0.7172046696813915,0.4606392609304683,13.347083,0.3337791,-1.1753188,-0.018479973,4.2813435,-3.4369187,0.7052169,-0.40376338,-0.022488093,-0.020665279,-0.9143535,-9.130148,9.816409,1.707165,-0.73068005,-0.7172047,0.46063927,0
1.5800000000000012,13.643893958350562,-0.7306800242728407,-0.7172046696813915,0.4606392609304683,13.347083,0.3337791,-1.1753188,-0.018479973,4.1900816,-3.3387427,0.722479,-0.40180737,-0.02433911,-0.01582478,-0.9152639,-9.122288,9.818564,1.7452598,-0.73068005,-0.7172047,0.46063927,0
1.5900000000000012,13.643893958350562,-0.7306800242728407,-0.7172046696813915,0.4606392609304683,13.347083,0.3337791,-1.1753188,-0.018479973,4.0988975,-3.240552,0.74012214,-0.3998387,-0.026189359,-0.010983782,-0.91614544,-9.1145,9.819325,1.7833735,-0.73068005,-0.7172047,0.46063927,0
1.6000000000000012,13.292619943024595,-0.4112956057411684,-0.6345993532547408,0.4210819532308166,13.312501,0.670191,-1.9410487,-0.028541334,4.007791,-3.1423607,0.75814646,-0.3978574,-0.028038781,-0.0061424375,-0.91699815,-9.106779,9.81869,1.8214916,-0.73068005,-0.7172047,0.46063927,0
1.6100000000000012,13.292619943024595,-0.4112956057411684,-0.6345993532547408,0.4210819532308166,13.312501,0.670191,-1.9410487,-0.028541334,3.916761,-3.044182,0.7765344,-0.39600018,-0.03014289,-0.0029351704,-0.91775084,-9.099228,9.816851,1.85609,-0.4112956,-0.6345993,0.42108196,0
1.6200000000000012,13.292619943024595,-0.4112956057411684,-0.6345993532547408,0.4210819532308166,13.312501,0.670191,-1.9410487,-0.028541334,3.8258073,-2.9460268,0.7952681,-0.39413553,-0.032246437,0.0002721519,-0.91848636,-9.0914955,9.814023,1.8906606,-0.4112956,-0.6345993,0.42108196,0
1.6300000000000012,13.292619943024595,-0.4112956057411684,-0.6345993532547408,0.4210819532308166,13.312501,0.670191,-1.9410487,-0.028541334,3.7349317,-2.8479047,0.81434745,-0.3922635,-0.03434938,0.003479469,-0.9192047,-9.08358,9.810207,1.9251958,-0.4112956,-0.6345993,0.42108196,0
1.6400000000000012,13.292619943024595,-0.4112956057411684,-0.6345993532547408,0.4210819532308166,13.759556,0.9895765,-2.2476645,0.036123753,3.6441362,-2.7498257,0.8337719,-0.39038414,-0.03645167,0.0066867215,-0.9199059,-9.075479,9.805405,1.9596877,-0.4112956,-0.6345993,0.42108196,0
1.6500000000000012,13.292619943024595,-0.4112956057411684,-0.6345993532547408,0.4210819532308166,13.759556,0.9895765,-2.2476645,0.036123753,3.5534227,-2.6518002,0.85354096,-0.38849744,-0.038553286,0.009893848,-0.92058975,-9.067185,9.799617,1.9941282,-0.4112956,-0.6345993,0.42108196,0
1.6600000000000013,13.292619943024595,-0.4112956057411684,-0.6345993532547408,0.4210819532308166,13.759556,0.9895765,-2.2476645,0.036123753,3.462793,-2.553837,0.8736542,-0.38660347,-0.04065418,0.01310079,-0.92125636,-9.058699,9.792844,2.0285099,-0.4112956,-0.6345993,0.42108196,0
1.6700000000000013,13.292619943024595,-0.4112956057411684,-0.6345993532547408,0.4210819532308166,13.759556,0.9895765,-2.2476645,0.036123753,3.3722494,-2.4559464,0.8941109,-0.38470227,-0.04275431,0.016307486,-0.9219058,-9.0500145,9.785089,2.0628247,-0.4112956,-0.6345993,0.42108196,0
1.6800000000000013,12.985270164541506,-0.22194300653555038,-0.06909756114090851,0.4392221623601179,13.863393,0.87017095,-2.3829274,0.18670675,3.2817934,-2.3581386,0.91491044,-0.3827939,-0.044853643,0.019513875,-0.92253786,-9.041127,9.776351,2.0970652,-0.4112956,-0.6345993,0.42108196,0
1.6900000000000013,12.985270164541506,-0.22194300653555038,-0.06909756114090851,0.4392221623601179,13.863393,0.87017095,-2.3829274,0.18670675,3.1914256,-2.2604213,0.93603677,-0.38080972,-0.044704583,0.020768322,-0.9233385,-9.032373,9.767117,2.1281931,-0.221943,-0.06909756,0.43922216,0
1.7000000000000013,12.985270164541506,-0.22194300653555038,-0.06909756114090851,0.4392221623601179,13.863393,0.87017095,-2.3829274,0.18670675,3.101145,-2.1627972,0.9574743,-0.37882325,-0.044555247,0.02202264,-0.92413336,-9.02376,9.757614,2.1593108,-0.221943,-0.06909756,0.43922216,0
1.7100000000000013,12.985270164541506,-0.22194300653555038,-0.06909756114090851,0.4392221623601179,13.863393,0.87017095,-2.3829274,0.18670675,3.01095,-2.06527,0.97922295,-0.37683442,-0.044405635,0.023276823,-0.9249225,-9.0152855,9.747845,2.190418,-0.221943,-0.06909756,0.43922216,0
1.7200000000000013,12.484929119005887,-0.03422264306058993,0.4197367774208587,0.39227231421760644,14.103546,0.87457746,-2.5736756,0.2346242,2.920839,-1.9678415,1.0012827,-0.37484327,-0.044255752,0.024530863,-0.92570597,-9.006948,9.737806,2.2215135,-0.221943,-0.06909756,0.43922216,0
1.7300000000000013,12.484929119005887,-0.03422264306058993,0.4197367774208587,0.39227231421760644,14.103546,0.87457746,-2.5736756,0.2346242,2.8308089,-1.8705121,1.0236285,-0.3730851,-0.042200554,0.023989286,-0.92652607,-8.9991665,9.728118,2.2476428,-0.034222644,0.41973677,0.39227232,0
1.7400000000000013,12.484929119005887,-0.03422264306058993,0.4197367774208587,0.39227231421760644,14.103546,0.87457746,-2.5736756,0.2346242,2.7408545,-1.773278,1.0462358,-0.37132388,-0.040145006,0.02344751,-0.92733836,-8.99179,9.7187605,2.2738223,-0.034222644,0.41973677,0.39227232,0
1.7500000000000013,12.484929119005887,-0.03422264306058993,0.4197367774208587,0.39227231421760644,14.103546,0.87457746,-2.5736756,0.2346242,2.6509717,-1.6761359,1.0691051,-0.3695596,-0.038089123,0.02290554,-0.928143,-8.984821,9.709733,2.3000493,-0.034222644,0.41973677,0.39227232,0
1.7600000000000013,11.937146597731996,0.006451895158936986,0.774087298487152,0.4199836941937667,14.205324,0.94515824,-2.3888433,0.33374605,2.5611567,-1.5790823,1.092237,-0.36779222,-0.036032926,0.022363381,-0.92894006,-8.978262,9.701032,2.3263218,-0.034222644,0.41973677,0.39227232,0
1.7700000000000014,11.937146597731996,0.006451895158936986,0.774087298487152,0.4199836941937667,14.205324,0.94515824,-2.3888433,0.33374605,2.4714036,-1.4821118,1.1156044,-0.36592332,-0.032402087,0.020985352,-0.92984354,-8.972485,9.693146,2.347192,0.006451895,0.7740873,0.41998369,0
1.7800000000000014,11.937146597731996,0.006451895158936986,0.774087298487152,0.4199836941937667,14.205324,0.94515824,-2.3888433,0.33374605,2.381705,-1.3852172,1.139181,-0.36404738,-0.028770624,0.019606916,-0.93072903,-8.967377,9.685894,2.3681333,0.006451895,0.7740873,0.41998369,0
1.7900000000000014,11.937146597731996,0.006451895158936986,0.774087298487152,0.4199836941937667,14.205324,0.94515824,-2.3888433,0.33374605,2.2920537,-1.2883918,1.1629673,-0.36216435,-0.0251386,0.018228099,-0.9315965,-8.96294,9.679273,2.3891382,0.006451895,0.7740873,0.41998369,0
1.8000000000000014,11.456835752378495,-0.04097621579034949,1.105399991976073,0.37030049518208713,14.152737,0.8481448,-2.639536,0.45138976,2.2024436,-1.1916296,1.1869639,-0.3602743,-0.02150609,0.01684893,-0.9324459,-8.959178,9.673281,2.4101996,0.006451895,0.7740873,0.41998369,0
1.8100000000000014,11.456835752378495,-0.04097621579034949,1.105399991976073,0.37030049518208713,14.152737,0.8481448,-2.639536,0.45138976,2.1128666,-1.0949228,1.2111474,-0.3586393,-0.016247118,0.015088276,-0.93321246,-8.956338,9.668211,2.4265199,-0.040976215,1.1054,0.3703005,0
1.8200000000000014,11.456835752378495,-0.04097621579034949,1.105399991976073,0.37030049518208713,14.152737,0.8481448,-2.639536,0.45138976,2.0233133,-0.99826264,1.2354944,-0.35699207,-0.010987593,0.01332711,-0.9339473,-8.954469,9.663954,2.442893,-0.040976215,1.1054,0.3703005,0
1.8300000000000014,11.456835752378495,-0.04097621579034949,1.105399991976073,0.37030049518208713,14.152737,0.8481448,-2.639536,0.45138976,1.9337738,-0.9016409,1.2600052,-0.3553327,-0.005727692,0.01156549,-0.9346504,-8.953572,9.660507,2.4593055,-0.040976215,1.1054,0.3703005,0
1.8400000000000014,11.456835752378495,-0.04097621579034949,1.105399991976073,0.37030049518208713,13.87707,0.6450768,-2.766638,0.6010517,1.8442384,-0.80504966,1.2846805,-0.35366127,-0.00046759704,0.009803476,-0.93532175,-8.953654,9.657866,2.4757428,-0.040976215,1.1054,0.3703005,0
1.8500000000000014,11.456835752378495,-0.04097621579034949,1.105399991976073,0.37030049518208713,13.87707,0.6450768,-2.766638,0.6010517,1.7546973,-0.70848083,1.3095201,-0.3519778,0.004792514,0.008041129,-0.9359612,-8.954717,9.656027,2.4921908,-0.040976215,1.1054,0.3703005,0
1.8600000000000014,11.456835752378495,-0.04097621579034949,1.105399991976073,0.37030049518208713,13.87707,0.6450768,-2.766638,0.6010517,1.6651406,-0.61192644,1.3345243,-0.35028234,0.010052461,0.006278509,-0.9365688,-8.956761,9.654988,2.5086355,-0.040976215,1.1054,0.3703005,0
1.8700000000000014,11.456835752378495,-0.04097621579034949,1.105399991976073,0.37030049518208713,13.87707,0.6450768,-2.766638,0.6010517,1.5755587,-0.51537836,1.3596927,-0.34857497,0.015312067,0.004515675,-0.9371446,-8.959793,9.654744,2.525063,-0.040976215,1.1054,0.3703005,0
1.8800000000000014,10.849586623031248,-0.19090336449845458,0.8701289171980662,0.4266584067386218,13.382553,0.54258454,-2.9275596,0.7560003,1.4859414,-0.4188288,1.3850251,-0.34685573,0.020571152,0.0027526873,-0.93768847,-8.963812,9.655293,2.541459,-0.040976215,1.1054,0.3703005,0
1.8900000000000015,10.849586623031248,-0.19090336449845458,0.8701289171980662,0.4266584067386218,13.382553,0.54258454,-2.9275596,0.7560003,1.3962804,-0.32227042,1.4104911,-0.3448435,0.024987383,0.0020947654,-0.9383248,-8.968524,9.656453,2.551746,-0.19090337,0.8701289,0.4266584,0
1.9000000000000015,10.849586623031248,-0.19090336449845458,0.8701289171980662,0.4266584067386218,13.382553,0.54258454,-2.9275596,0.7560003,1.306568,-0.22569817,1.4360598,-0.34282285,0.029403005,0.0014367924,-0.93893826,-8.974089,9.658066,2.5619867,-0.19090337,0.8701289,0.4266584,0
1.9100000000000015,10.849586623031248,-0.19090336449845458,0.8701289171980662,0.4266584067386218,13.382553,0.54258454,-2.9275596,0.7560003,1.2167958,-0.12910755,1.4617307,-0.34079385,0.033817913,0.00077878416,-0.9395288,-8.980505,9.660129,2.5721726,-0.19090337,0.8701289,0.4266584,0
1.9200000000000015,10.40380508136472,-0.3758149226938902,1.2730047440879133,0.3530813526629119,12.65569,0.13159245,-3.138121,0.96128976,1.1269552,-0.03249406,1.487503,-0.33875653,0.038232,0.00012075693,-0.9400965,-8.987778,9.662637,2.582295,-0.19090337,0.8701289,0.4266584,0
1.9300000000000015,10.40380508136472,-0.3758149226938902,1.2730047440879133,0.3530813526629119,12.65569,0.13159245,-3.138121,0.96128976,1.0370386,0.06414626,1.513354,-0.33701783,0.04485154,-0.00033641924,-0.94042885,-8.995741,9.665511,2.5878873,-0.3758149,1.2730048,0.35308135,0
1.9400000000000015,10.40380508136472,-0.3758149226938902,1.2730047440879133,0.3530813526629119,12.65569,0.13159245,-3.138121,0.96128976,0.947036,0.16081801,1.5392601,-0.33526325,0.051468972,-0.00079357944,-0.9407168,-9.00497,9.668923,2.5933585,-0.3758149,1.2730048,0.35308135,0
1.9500000000000015,10.40380508136472,-0.3758149226938902,1.2730047440879133,0.3530813526629119,12.65569,0.13159245,-3.138121,0.96128976,0.8569349,0.25752658,1.5652206,-0.33349282,0.058083978,-0.0012507024,-0.94096035,-9.015462,9.672869,2.59869,-0.3758149,1.2730048,0.35308135,0
1.9600000000000015,9.724518807075908,-0.6361393293405946,0.5571443871163566,0.42919006383576996,12.247877,-0.11070196,-3.3592336,1.0771372,0.7667225,0.35427722,1.5912336,-0.33170667,0.06469624,-0.0017077661,-0.94115955,-9.027221,9.677341,2.6038637,-0.3758149,1.2730048,0.35308135,0
1.9700000000000015,9.724518807075908,-0.6361393293405946,0.5571443871163566,0.42919006383576996,12.247877,-0.11070196,-3.3592336,1.0771372,0.6763907,0.4510729,1.6172639,-0.32947275,0.068368696,0.0002229113,-0.941686,-9.039255,9.681773,2.6021593,-0.63613933,0.5571444,0.42919007,0
1.9800000000000015,9.724518807075908,-0.6361393293405946,0.5571443871163566,0.42919006383576996,12.247877,-0.11070196,-3.3592336,1.0771372,0.5859346,0.5479121,1.6432766,-0.32723138,0.07203962,0.0021535838,-0.94219124,-9.052092,9.686057,2.600358,-0.63613933,0.5571444,0.42919007,0
1.9900000000000015,9.724518807075908,-0.6361393293405946,0.5571443871163566,0.42919006383576996,12.247877,-0.11070196,-3.3592336,1.0771372,0.49534613,0.6447935,1.6692709,-0.32498267,0.07570892,0.004084208,-0.94267535,-9.06573,9.690188,2.598453,-0.63613933,0.5571444,0.42919007,0
2.0000000000000013,,,,,11.695891,-0.36550438,-3.350334,1.1924939,0.40461728,0.7417154,1.6952454,-0.32272667,0.07937652,0.0060147406,-0.94313824,-9.080169,9.694166,2.5964377,-0.63613933,0.5571444,0.42919007,0
2.010000000000001,,,,,11.695891,-0.36550438,-3.350334,1.1924939,0.3137399,0.8386766,1.721194,-0.32115078,0.08806718,0.0071376613,-0.94289684,-9.095564,9.698121,2.5932322,-0.798075,1.5687788,0.2743077,0
2.020000000000001,,,,,11.695891,-0.36550438,-3.350334,1.1924939,0.22270037,0.9356788,1.747109,-0.3195494,0.096750855,0.008260015,-0.94258064,-9.112598,9.702382,2.5897326,-0.798075,1.5687788,0.2743077,0
2.0300000000000007,,,,,11.695891,-0.36550438,-3.350334,1.1924939,0.13148232,1.0327252,1.7729875,-0.31792274,0.105426855,0.009381713,-0.9421897,-9.131269,9.706946,2.5859103,-0.798075,1.5687788,0.2743077,0
2.0400000000000005,,,,,11.695891,-0.36550438,-3.350334,1.1924939,0.040069394,1.1298187,1.798826,-0.3162708,0.114094496,0.010502667,-0.94172394,-9.151568,9.711804,2.5817354,-0.798075,1.5687788,0.2743077,0
2.0500000000000003,,,,,11.212763,-0.6366653,-3.4408815,1.1421536,-0.051554643,1.2269622,1.8246208,-0.31459376,0.122753076,0.011622787,-0.9411835,-9.173492,9.716952,2.5771792,-0.798075,1.5687788,0.2743077,1
2.06,,,,,11.212763,-0.6366653,-3.4408815,1.1421536,-0.1434204,1.3241596,1.8504466,-0.3085752,0.10760846,0.019327862,-0.9448953,-9.199255,9.722086,2.588081,-0.6366653,-3.4408815,1.1421536,1
2.07,,,,,11.212763,-0.6366653,-3.4408815,1.1421536,-0.23553076,1.4213941,1.8763849,-0.30245215,0.0924274,0.02702639,-0.94828707,-9.222405,9.724373,2.5996633,-0.6366653,-3.4408815,1.1421536,1
2.0799999999999996,,,,,11.212763,-0.6366653,-3.4408815,1.1421536,-0.3278593,1.5186373,1.9024417,-0.29622662,0.07721504,0.034715768,-0.95135766,-9.242883,9.723844,2.6117985,-0.6366653,-3.4408815,1.1421536,1
2.0899999999999994,,,,,11.249722,-0.2996445,-4.578576,1.5039347,-0.42037904,1.6158614,1.9286222,-0.28990075,0.06197651,0.042393383,-0.95410603,-9.260631,9.720528,2.6243575,-0.6366653,-3.4408815,1.1421536,1
2.099999999999999,,,,,11.249722,-0.2996445,-4.578576,1.5039347,-0.5130612,1.713038,1.9549319,-0.28157914,0.04087138,0.049980372,-0.9573629,-9.275169,9.714294,2.6376276,-0.2996445,-4.578576,1.5039347,1
2.109999999999999,,,,,11.249722,-0.2996445,-4.578576,1.5039347,-0.6058683,1.8101366,1.9813756,-0.2730934,0.019742433,0.057538234,-0.9600618,-9.285581,9.704972,2.651144,-0.2996445,-4.578576,1.5039347,1
2.1199999999999988,,,,,11.249722,-0.2996445,-4.578576,1.5039347,-0.6987585,1.907127,2.0079548,-0.2644485,-0.0013980241,0.06506256,-0.9622011,-9.291799,9.692642,2.6646812,-0.2996445,-4.578576,1.5039347,1
2.1299999999999986,,,,,10.710404,-0.94656855,-4.8661413,1.6458285,-0.79168963,2.0039794,2.0346687,-0.25564948,-0.022537665,0.07254896,-0.9637796,-9.293765,9.677394,2.6780136,-0.2996445,-4.578576,1.5039347,1
2.1399999999999983,,,,,10.710404,-0.94656855,-4.8661413,1.6458285,-0.8846195,2.1006687,2.0614867,-0.24597378,-0.044169992,0.08348999,-0.9646629,-9.291572,9.65991,2.6855478,-0.94656855,-4.8661413,1.6458285,1
2.149999999999998,,,,,10.710404,-0.94656855,-4.8661413,1.6458285,-0.97750705,2.1971662,2.0883768,-0.23613033,-0.0657722,0.094374076,-0.9648882,-9.285312,9.639101,2.6923141,-0.94656855,-4.8661413,1.6458285,1
