time-since-start [s],throttle_mpc,roll_mpc,pitch_mpc,yaw_mpc,throttle_nw,roll_nw,pitch_nw,yaw_nw,position_x [m],position_y [m],position_z [m],rotation_w [quaternion],rotation_x [quaternion],rotation_y [quaternion],rotation_z [quaternion],velocity_x [m/s],velocity_y [m/s],velocity_z [m/s],omega_x [rad/s],omega_y [rad/s],omega_z [rad/s],network_used
0.0,10.735398671764974,5.999999621838848,-5.999999858210802,-0.8620393085434747,13.404972,2.408662,-2.2948008,-1.0673939,19.423616,-9.862,1.6932483,-0.009531219,0.4309369,-0.19432898,-0.88115764,-10.75669,-4.6289062,0.48684448,1.8234191,-0.21483065,-0.2419816,0
0.01,10.735398671764974,5.999999621838848,-5.999999858210802,-0.8620393085434747,14.878608,2.5302835,-1.2937841,-0.73365974,19.315577,-9.908069,1.697971,-0.01564769,0.4284814,-0.20284423,-0.88034827,-10.850194,-4.5845137,0.4572357,2.300599,-0.9430901,-0.25681075,0
0.02,10.735398671764974,5.999999621838848,-5.999999858210802,-0.8620393085434747,14.878608,2.5302835,-1.2937841,-0.73365974,19.206627,-9.953688,1.7023839,-0.0235325,0.42288014,-0.21327856,-0.88041514,-10.939067,-4.5391574,0.42494917,2.7511065,-1.6055381,-0.27518308,0
0.03,10.735398671764974,5.999999621838848,-5.999999858210802,-0.8620393085434747,14.878608,2.5302835,-1.2937841,-0.73365974,19.096811,-9.998847,1.7064626,-0.033098456,0.41435486,-0.22546788,-0.88112354,-11.02294,-4.4923677,0.3905178,3.1760924,-2.2094343,-0.29665574,0
0.04,10.735398671764974,5.999999621838848,-5.999999858210802,-0.8620393085434747,13.405054,3.4781725,-3.1329315,-0.61396414,18.986187,-10.043529,1.7101883,-0.04425784,0.40308723,-0.23924735,-0.8822259,-11.101486,-4.443795,0.35434628,3.5767841,-2.7611594,-0.3208306,0
0.05,10.735398671764974,5.999999621838848,-5.999999858210802,-0.8620393085434747,13.405054,3.4781725,-3.1329315,-0.61396414,18.874802,-10.087715,1.7135451,-0.0569183,0.38923198,-0.2544485,-0.8834674,-11.174694,-4.3929915,0.31696978,3.94971,-3.261586,-0.34694102,0
0.060000000000000005,10.735398671764974,5.999999621838848,-5.999999858210802,-0.8620393085434747,13.405054,3.4781725,-3.1329315,-0.61396414,18.762705,-10.131376,1.7165297,-0.070921406,0.37300354,-0.2708336,-0.88458323,-11.243966,-4.338446,0.2800955,4.2692947,-3.6887825,-0.37221703,0
0.07,10.735398671764974,5.999999621838848,-5.999999858210802,-0.8620393085434747,13.405054,3.4781725,-3.1329315,-0.61396414,18.649935,-10.17447,1.7191497,-0.0860567,0.35466933,-0.28811765,-0.8853202,-11.308999,-4.2797556,0.24402839,4.5390463,-4.0493517,-0.39625272,0
0.08,14.836562794718331,5.99999970635881,-5.999999889968191,-0.8535331304296742,15.830063,2.953976,-5.547681,-1.04828,18.536541,-10.216955,1.7214128,-0.1021332,0.33446583,-0.3060487,-0.88545763,-11.369182,-4.216857,0.20872352,4.766738,-4.353684,-0.419109,0
0.09,14.836562794718331,5.99999970635881,-5.999999889968191,-0.8535331304296742,15.830063,2.953976,-5.547681,-1.04828,18.422464,-10.258665,1.7234472,-0.118978865,0.31260106,-0.3244075,-0.8848073,-11.444849,-4.1241693,0.19830647,4.9589305,-4.610547,-0.44042632,0
0.09999999999999999,14.836562794718331,5.99999970635881,-5.999999889968191,-0.8535331304296742,15.830063,2.953976,-5.547681,-1.04828,18.307673,-10.29942,1.7253811,-0.13643885,0.2892609,-0.3430025,-0.88321084,-11.512261,-4.025912,0.18855399,5.1211586,-4.8273454,-0.46069762,0
0.10999999999999999,14.836562794718331,5.99999970635881,-5.999999889968191,-0.8535331304296742,15.830063,2.953976,-5.547681,-1.04828,18.192251,-10.339166,1.7272196,-0.1543741,0.2646135,-0.36166593,-0.88053715,-11.5707245,-3.9223938,0.17916496,5.2580957,-5.0103273,-0.47997418,0
0.11999999999999998,14.836562794718331,5.99999970635881,-5.999999889968191,-0.8535331304296742,15.830063,2.953976,-5.547681,-1.04828,18.076292,-10.377851,1.7289644,-0.17265855,0.23881227,-0.3802507,-0.87667936,-11.619615,-3.8140337,0.16978303,5.3736854,-5.1647663,-0.4983048,0
0.12999999999999998,20.999991044627407,5.9999983390583616,-5.999999787059987,-1.5490459457809533,17.03282,2.1646073,-4.0056643,-1.1450782,17.959894,-10.415431,1.730614,-0.19117749,0.21199815,-0.39862764,-0.8715524,-11.658382,-3.7013464,0.16000777,5.4712563,-5.2951145,-0.515736,0
0.13999999999999999,20.999991044627407,5.9999983390583616,-5.999999787059987,-1.5490459457809533,17.03282,2.1646073,-4.0056643,-1.1450782,17.843098,-10.451623,1.732344,-0.20990105,0.18433617,-0.41666543,-0.865073,-11.69826,-3.5365686,0.18575329,5.553498,-5.405252,-0.5664408,0
0.15,20.999991044627407,5.9999983390583616,-5.999999787059987,-1.5490459457809533,17.03282,2.1646073,-4.0056643,-1.1450782,17.725983,-10.486146,1.7343229,-0.22880243,0.15598185,-0.43425003,-0.8571731,-11.722603,-3.3674657,0.20968066,5.6229224,-5.498205,-0.6146575,0
0.16,20.999999179957243,3.207991274924285,-5.999999426172219,-0.4766893897658538,18.08524,1.377918,-1.9923813,-1.2595867,17.608704,-10.518961,1.7365291,-0.24778487,0.12704788,-0.45129874,-0.84781516,-11.730992,-3.1950793,0.23112556,5.681529,-5.5766525,-0.66050816,0
0.17,20.999999179957243,3.207991274924285,-5.999999426172219,-0.4766893897658538,18.08524,1.377918,-1.9923813,-1.2595867,17.491419,-10.550041,1.7389346,-0.2665205,0.097865924,-0.4668212,-0.8375361,-11.723199,-3.0205705,0.24949282,5.2957873,-5.642476,-0.65148807,0
0.18000000000000002,20.999999179957243,3.207991274924285,-5.999999426172219,-0.4766893897658538,18.08524,1.377918,-1.9923813,-1.2595867,17.374292,-10.5793705,1.7415078,-0.2847834,0.06873352,-0.48007673,-0.82686156,-11.699442,-2.8453786,0.26463205,4.9702044,-5.6980658,-0.64291066,0
0.19000000000000003,20.999999179957243,3.207991274924285,-5.999999426172219,-0.4766893897658538,18.08524,1.377918,-1.9923813,-1.2595867,17.25748,-10.606952,1.7442161,-0.30262008,0.039695837,-0.49133232,-0.8157435,-11.660119,-2.6709213,0.2765268,4.6953993,-5.7450123,-0.6347541,0
0.20000000000000004,20.999999010280195,0.5836756226204382,-4.547848439134336,-0.18870877628297988,17.76183,-0.182666,0.17217326,-1.0842098,17.141138,-10.632796,1.7470269,-0.32005945,0.010788899,-0.50081146,-0.80413496,-11.605672,-2.4984934,0.28512883,4.4634514,-5.784659,-0.6269978,0
0.21000000000000005,20.999999010280195,0.5836756226204382,-4.547848439134336,-0.18870877628297988,17.76183,-0.182666,0.17217326,-1.0842098,17.025415,-10.656932,1.7499073,-0.3368026,-0.017168308,-0.50806355,-0.792553,-11.536675,-2.329284,0.29042247,3.85856,-5.5914774,-0.60549086,0
0.22000000000000006,20.999999010280195,0.5836756226204382,-4.547848439134336,-0.18870877628297988,17.76183,-0.182666,0.17217326,-1.0842098,16.910448,-10.679396,1.7528251,-0.35266438,-0.043519486,-0.512814,-0.7815083,-11.454253,-2.1643343,0.29273638,3.3479807,-5.4284782,-0.5850392,0
0.23000000000000007,20.999999010280195,0.5836756226204382,-4.547848439134336,-0.18870877628297988,17.76183,-0.182666,0.17217326,-1.0842098,16.796371,-10.700235,1.7557532,-0.36780193,-0.06846445,-0.5154608,-0.77093065,-11.359598,-2.0044878,0.2924928,2.9170084,-5.290943,-0.56559116,0
0.24000000000000007,20.999999010280195,0.5836756226204382,-4.547848439134336,-0.18870877628297988,16.303602,-1.8533795,2.8517952,-0.9690365,16.683294,-10.719504,1.7586676,-0.38233554,-0.09217951,-0.51632905,-0.7607407,-11.253766,-1.8504276,0.29006457,2.5532312,-5.1748934,-0.54709744,0
0.25000000000000006,20.999999010280195,0.5836756226204382,-4.547848439134336,-0.18870877628297988,16.303602,-1.8533795,2.8517952,-0.9690365,16.57133,-10.737266,1.7615482,-0.39635646,-0.114818685,-0.51568496,-0.7508574,-11.137702,-1.7027178,0.28577176,2.2461731,-5.0769706,-0.5295113,0
0.26000000000000006,20.999999010280195,0.5836756226204382,-4.547848439134336,-0.18870877628297988,16.303602,-1.8533795,2.8517952,-0.9690365,16.460573,-10.753584,1.7643775,-0.40993342,-0.13651541,-0.513747,-0.74120295,-11.012252,-1.5618311,0.2798825,1.9869905,-4.9943433,-0.512788,0
0.2700000000000001,20.999999010280195,0.5836756226204382,-4.547848439134336,-0.18870877628297988,16.303602,-1.8533795,2.8517952,-0.9690365,16.351114,-10.768529,1.7671409,-0.42311764,-0.15738457,-0.5106946,-0.73170495,-10.878182,-1.4281709,0.27261546,1.7682186,-4.924621,-0.49688533,0
0.2800000000000001,20.999997388711876,-1.9363149390268908,-0.41898021420892745,-0.1644260291815862,17.761463,-2.6660695,3.656552,-0.45416778,16.243036,-10.782175,1.7698256,-0.43594664,-0.17752458,-0.506676,-0.72229815,-10.736196,-1.3020861,0.26414397,1.5835567,-4.8657875,-0.481763,0
0.2900000000000001,20.999997388711876,-1.9363149390268908,-0.41898021420892745,-0.1644260291815862,17.761463,-2.6660695,3.656552,-0.45416778,16.136414,-10.794599,1.7724202,-0.44780916,-0.19539429,-0.50183046,-0.7137604,-10.587067,-1.1837639,0.25465724,1.0348951,-4.1721272,-0.4661912,0
0.3000000000000001,20.999997388711876,-1.9363149390268908,-0.41898021420892745,-0.1644260291815862,17.761463,-2.6660695,3.656552,-0.45416778,16.031313,-10.805875,1.7749169,-0.45829603,-0.20980278,-0.4963579,-0.70680696,-10.432181,-1.0726569,0.24464874,0.57174903,-3.58668,-0.45138353,0
0.3100000000000001,20.999997388711876,-1.9363149390268908,-0.41898021420892745,-0.1644260291815862,17.761463,-2.6660695,3.656552,-0.45416778,15.927785,-10.816073,1.7773134,-0.46768567,-0.22129668,-0.49042878,-0.7012682,-10.272894,-0.9679922,0.23468728,0.18079163,-3.0925624,-0.43730244,0
0.3200000000000001,20.54929845986342,-4.35919323606967,5.323243095784668,0.2591516926258344,18.798239,-4.209772,5.3452716,-0.89450824,15.825867,-10.825254,1.7796125,-0.4761938,-0.23033483,-0.4841638,-0.69697225,-10.110285,-0.86905706,0.22528447,-0.14922747,-2.675526,-0.42391232,0
0.3300000000000001,20.54929845986342,-4.35919323606967,5.323243095784668,0.2591516926258344,18.798239,-4.209772,5.3452716,-0.89450824,15.725569,-10.833483,1.781813,-0.4830763,-0.23526779,-0.47806937,-0.69479173,-9.948902,-0.77704334,0.21501695,-0.8053923,-1.427958,-0.39039418,0
0.34000000000000014,20.54929845986342,-4.35919323606967,5.323243095784668,0.2591516926258344,18.798239,-4.209772,5.3452716,-0.89450824,15.62689,-10.840808,1.783919,-0.4877712,-0.23481481,-0.47257096,-0.6954261,-9.786786,-0.68806326,0.20651357,-1.359329,-0.37499893,-0.35852078,0
0.35000000000000014,20.54929845986342,-4.35919323606967,5.323243095784668,0.2591516926258344,18.798239,-4.209772,5.3452716,-0.89450824,15.529831,-10.847249,1.7859519,-0.4906377,-0.22981061,-0.46759757,-0.6984366,-9.625439,-0.60023314,0.20049699,-1.8269577,0.5137121,-0.32821143,0
0.36000000000000015,19.63023527389506,-5.7827126411400815,5.999999382292288,-0.026194000028168227,17.064404,-5.6819158,5.5201077,-1.8598797,15.434375,-10.852811,1.7879395,-0.49193606,-0.22094342,-0.46304804,-0.70339817,-9.466134,-0.5119604,0.19755791,-2.221721,1.2637988,-0.29938933,0
0.37000000000000016,19.63023527389506,-5.7827126411400815,5.999999382292288,-0.026194000028168227,17.064404,-5.6819158,5.5201077,-1.8598797,15.340462,-10.857502,1.7898934,-0.49187705,-0.20829567,-0.45854604,-0.71021473,-9.317017,-0.4259351,0.19377626,-2.7769284,2.002491,-0.28598356,0
0.38000000000000017,19.63023527389506,-5.7827126411400815,5.999999382292288,-0.026194000028168227,17.064404,-5.6819158,5.5201077,-1.8598797,15.24802,-10.86132,1.7918289,-0.49059987,-0.19194776,-0.45375222,-0.7187325,-9.172192,-0.3370824,0.19396779,-3.245584,2.6259606,-0.27323562,0
0.3900000000000002,19.63023527389506,-5.7827126411400815,5.999999382292288,-0.026194000028168227,17.064404,-5.6819158,5.5201077,-1.8598797,15.157,-10.864231,1.7937881,-0.48817614,-0.17242634,-0.44860575,-0.7284955,-9.032888,-0.24449341,0.19858368,-3.6411788,3.152182,-0.2611132,0
0.4000000000000002,19.581128354587293,-5.999883488524658,5.9999995934383925,-0.3914565911296673,16.470297,-6.944646,5.9873676,-1.9935626,15.067339,-10.866195,1.7958168,-0.4846542,-0.1501808,-0.443045,-0.73909855,-8.900285,-0.14749618,0.2078847,-3.9751012,3.5963247,-0.24958564,0
0.4100000000000002,19.581128354587293,-5.999883488524658,5.9999995934383925,-0.3914565911296673,16.470297,-6.944646,5.9873676,-1.9935626,14.978965,-10.867166,1.7979609,-0.48011363,-0.12553684,-0.43695417,-0.7502013,-8.775833,-0.04589077,0.22168075,-4.2907863,3.9712467,-0.2565473,0
0.4200000000000002,19.581128354587293,-5.999883488524658,5.9999995934383925,-0.3914565911296673,16.470297,-6.944646,5.9873676,-1.9935626,14.891792,-10.867095,1.8002666,-0.47461754,-0.09878091,-0.4302333,-0.7614981,-8.660315,0.06081648,0.24020153,-4.557247,4.287693,-0.26316732,0
0.4300000000000002,19.581128354587293,-5.999883488524658,5.9999995934383925,-0.3914565911296673,16.470297,-6.944646,5.9873676,-1.9935626,14.805724,-10.865932,1.8027805,-0.46817678,-0.070225246,-0.4228525,-0.7727058,-8.554803,0.17269611,0.26326242,-4.782161,4.5547843,-0.26946253,0
0.4400000000000002,19.581128354587293,-5.999883488524658,5.9999995934383925,-0.3914565911296673,17.715828,-6.615821,5.675851,-1.4617804,14.720656,-10.863626,1.8055464,-0.4608028,-0.040147256,-0.41478893,-0.7835806,-8.460303,0.289658,0.29053494,-4.972007,4.780217,-0.27544883,0
0.45000000000000023,19.581128354587293,-5.999883488524658,5.9999995934383925,-0.3914565911296673,17.715828,-6.615821,5.675851,-1.4617804,14.6364765,-10.860123,1.8086042,-0.45250896,-0.00879529,-0.4060271,-0.7939142,-8.377748,0.41146824,0.32156333,-5.132251,4.970489,-0.28114137,0
0.46000000000000024,19.581128354587293,-5.999883488524658,5.9999995934383925,-0.3914565911296673,17.715828,-6.615821,5.675851,-1.4617804,14.553059,-10.85538,1.8119887,-0.44331098,0.023606844,-0.39655843,-0.803529,-8.307978,0.5377649,0.35578045,-5.26751,5.1310835,-0.28655455,0
0.47000000000000025,19.581128354587293,-5.999883488524658,5.9999995934383925,-0.3914565911296673,17.715828,-6.615821,5.675851,-1.4617804,14.47027,-10.849354,1.8157284,-0.43322736,0.056856282,-0.3863807,-0.81227505,-8.251742,0.6680737,0.39252368,-5.38168,5.2666297,-0.29170212,0
0.48000000000000026,19.965581405395547,-4.387583197270673,5.999999372933506,-0.028707144459558923,20.881304,-5.0471325,5.2738147,-0.44137973,14.387975,-10.842006,1.8198452,-0.42227927,0.0907682,-0.37549734,-0.820026,-8.20968,0.80182266,0.43104997,-5.4780498,5.381034,-0.29659712,1
0.49000000000000027,19.965581405395547,-4.387583197270673,5.999999372933506,-0.028707144459558923,20.881304,-5.0471325,5.2738147,-0.44137973,14.306036,-10.8332615,1.8243985,-0.4106474,0.124778554,-0.36411265,-0.8265715,-8.180453,0.9474191,0.47968248,-5.4108267,5.364325,-0.30370164,1
0.5000000000000002,19.965581405395547,-4.387583197270673,5.999999372933506,-0.028707144459558923,20.881304,-5.0471325,5.2738147,-0.44137973,14.224311,-10.8230505,1.8294393,-0.39851335,0.1584297,-0.35241812,-0.83179814,-8.166993,1.0952084,0.528417,-5.354088,5.350222,-0.31045753,1
0.5100000000000002,19.965581405395547,-4.387583197270673,5.999999372933506,-0.028707144459558923,20.881304,-5.0471325,5.2738147,-0.44137973,14.142641,-10.811354,1.8349639,-0.3858989,0.19170722,-0.34040385,-0.8357363,-8.16926,1.2444031,0.57632786,-5.306198,5.338319,-0.31688192,1
0.5200000000000002,20.035467648905595,-2.115139243977193,5.999997375284651,0.29961981522310627,21.464409,-3.347987,5.037187,-0.041491166,14.060872,-10.798161,1.8409599,-0.37282366,0.22459269,-0.32806346,-0.8384119,-8.187141,1.3942192,0.62251586,-5.265778,5.3282723,-0.32299104,0
0.5300000000000002,20.035467648905595,-2.115139243977193,5.999997375284651,0.29961981522310627,21.464409,-3.347987,5.037187,-0.041491166,13.978853,-10.783501,1.8473765,-0.35941654,0.25684926,-0.3165112,-0.8394453,-8.219037,1.5378819,0.66031504,-4.7745237,5.432828,-0.29243934,0
0.5400000000000003,20.035467648905595,-2.115139243977193,5.999997375284651,0.29961981522310627,21.464409,-3.347987,5.037187,-0.041491166,13.896444,-10.767406,1.8541535,-0.34583843,0.28831288,-0.30665112,-0.8385918,-8.265,1.6811804,0.69442254,-4.359882,5.521116,-0.26338682,0
0.5500000000000003,20.035467648905595,-2.115139243977193,5.999997375284651,0.29961981522310627,21.464409,-3.347987,5.037187,-0.041491166,13.813507,-10.74988,1.8612484,-0.33213577,0.319056,-0.29819098,-0.8360448,-8.32425,1.8239553,0.72372544,-4.009904,5.5956645,-0.23575991,0
0.5600000000000003,18.47065660029402,0.6150159287272777,3.5571363864984735,0.23326958874117426,20.390406,-1.1183964,4.3344507,0.84036446,13.729914,-10.73093,1.8686081,-0.31833583,0.34913185,-0.2908795,-0.8319603,-8.396039,1.9660137,0.7472519,-3.7145038,5.658611,-0.20948869,0
0.5700000000000003,18.47065660029402,0.6150159287272777,3.5571363864984735,0.23326958874117426,20.390406,-1.1183964,4.3344507,0.84036446,13.6455765,-10.710619,1.8761253,-0.30514333,0.3774369,-0.28510773,-0.82652414,-8.473009,2.0961404,0.75520754,-3.039438,5.3307514,-0.18776242,0
0.5800000000000003,18.47065660029402,0.6150159287272777,3.5571363864984735,0.23326958874117426,20.390406,-1.1183964,4.3344507,0.84036446,13.56042,-10.689011,1.88369,-0.29317325,0.40315983,-0.2812116,-0.82001907,-8.55943,2.2254477,0.7566981,-2.46963,5.0540533,-0.16710226,0
0.5900000000000003,18.47065660029402,0.6150159287272777,3.5571363864984735,0.23326958874117426,20.390406,-1.1183964,4.3344507,0.84036446,13.474359,-10.666113,1.8912364,-0.28229973,0.42672125,-0.27890828,-0.81266576,-8.653945,2.3540547,0.7515265,-1.9886687,4.820532,-0.14745589,0
0.6000000000000003,17.025138453886992,2.793102577698777,-0.3252126738736028,0.48736972273479073,18.377243,0.699564,3.034483,-0.06812544,13.387317,-10.641932,1.8986973,-0.27239743,0.44846657,-0.27794993,-0.8046247,-8.755406,2.4820943,0.7395723,-1.5827008,4.6234474,-0.12877358,0
0.6100000000000003,17.025138453886992,2.793102577698777,-0.3252126738736028,0.48736972273479073,18.377243,0.699564,3.034483,-0.06812544,13.299271,-10.616523,1.9059731,-0.26415673,0.4672019,-0.27842328,-0.79650724,-8.854335,2.599734,0.7146497,-0.9004381,3.8516312,-0.09853925,0
0.6200000000000003,17.025138453886992,2.793102577698777,-0.3252126738736028,0.48736972273479073,18.377243,0.699564,3.034483,-0.06812544,13.210216,-10.589936,1.9129709,-0.25814578,0.48205206,-0.28041616,-0.7888935,-8.957292,2.7173,0.6840831,-0.32453492,3.200211,-0.06978855,0
0.6300000000000003,17.025138453886992,2.793102577698777,-0.3252126738736028,0.48736972273479073,18.377243,0.699564,3.034483,-0.06812544,13.120116,-10.562174,1.919638,-0.25407183,0.4936872,-0.28371894,-0.7818079,-9.062976,2.8351715,0.64859813,0.16158602,2.6504037,-0.042448625,0
0.6400000000000003,17.025138453886992,2.793102577698777,-0.3252126738736028,0.48736972273479073,16.308414,1.7282602,-0.4693355,-0.012861118,13.028951,-10.53323,1.9259284,-0.25166833,0.5026498,-0.28814226,-0.77522886,-9.170337,2.9537191,0.6088438,0.57191926,2.186356,-0.016450295,0
0.6500000000000004,17.025138453886992,2.793102577698777,-0.3252126738736028,0.48736972273479073,16.308414,1.7282602,-0.4693355,-0.012861118,12.936706,-10.503096,1.9318023,-0.25069678,0.5093802,-0.2935181,-0.76910955,-9.278514,3.0732856,0.56538785,0.918278,1.7946889,0.008272303,0
0.6600000000000004,17.025138453886992,2.793102577698777,-0.3252126738736028,0.48736972273479073,16.308414,1.7282602,-0.4693355,-0.012861118,12.843378,-10.471759,1.9372252,-0.25094637,0.5142374,-0.29969895,-0.76339096,-9.386795,3.1941755,0.51871943,1.210635,1.4641113,0.031781767,0
0.6700000000000004,17.025138453886992,2.793102577698777,-0.3252126738736028,0.48736972273479073,16.308414,1.7282602,-0.4693355,-0.012861118,12.748971,-10.439206,1.942167,-0.2522323,0.5175148,-0.30655664,-0.7580104,-9.494587,3.3166502,0.469255,1.457408,1.1850935,0.054137595,0
0.6800000000000004,15.868090973682527,3.8175786484046537,-4.220781173445134,0.8120659154579163,15.5429535,2.3248446,-4.0028806,0.03497198,12.653489,-10.40542,1.9466019,-0.25439373,0.5194535,-0.31398046,-0.7529062,-9.601388,3.440927,0.41734567,1.6657038,0.94959235,0.07539641,0
0.6900000000000004,15.868090973682527,3.8175786484046537,-4.220781173445134,0.8120659154579163,15.5429535,2.3248446,-4.0028806,0.03497198,12.556983,-10.370424,1.9504918,-0.25796756,0.5189639,-0.32180625,-0.74871194,-9.699548,3.5586162,0.36038983,2.0013225,0.14333867,0.11154498,0
0.7000000000000004,15.868090973682527,3.8175786484046537,-4.220781173445134,0.8120659154579163,15.5429535,2.3248446,-4.0028806,0.03497198,12.459505,-10.334241,1.9538062,-0.26337627,0.5151882,-0.32988963,-0.74591315,-9.795602,3.6783807,0.3023996,2.2846274,-0.5371721,0.14591974,0
0.7100000000000004,15.868090973682527,3.8175786484046537,-4.220781173445134,0.8120659154579163,15.5429535,2.3248446,-4.0028806,0.03497198,12.36108,-10.296849,1.9565393,-0.27032635,0.5086069,-0.33816126,-0.74423724,-9.888811,3.8004084,0.24429554,2.523768,-1.1115528,0.17860772,0
0.7200000000000004,15.308535004827466,3.9795172664846308,-5.999997548039202,0.9928067496880001,15.734426,2.8758056,-5.544708,0.20768556,12.261741,-10.2582245,1.9586942,-0.27855828,0.4996107,-0.346554,-0.74343413,-9.97852,3.9248207,0.18683814,2.7256253,-1.5963567,0.20969169,0
0.7300000000000004,15.308535004827466,3.9795172664846308,-5.999997548039202,0.9928067496880001,15.734426,2.8758056,-5.544708,0.20768556,12.161539,-10.218367,1.9602731,-0.28810665,0.48796237,-0.35486215,-0.7436126,-10.0611,4.0471945,0.12921429,2.921319,-2.2830026,0.24811938,0
0.7400000000000004,15.308535004827466,3.9795172664846308,-5.999997548039202,0.9928067496880001,15.734426,2.8758056,-5.544708,0.20768556,12.060534,-10.177274,1.9612855,-0.29897532,0.4734712,-0.362899,-0.74481046,-10.139053,4.171887,0.0736274,3.0865054,-2.862566,0.28466144,0
0.7500000000000004,15.308535004827466,3.9795172664846308,-5.999997548039202,0.9928067496880001,15.734426,2.8758056,-5.544708,0.20768556,11.9587755,-10.134922,1.9617552,-0.31090474,0.45649248,-0.3706282,-0.7467175,-10.211727,4.298784,0.020776583,3.225936,-3.351748,0.31941035,0
0.7600000000000005,15.269850809664696,3.436940028772218,-5.999998796032691,0.8271115702064925,14.772552,2.7936656,-5.473206,0.39425796,11.856319,-10.091291,1.9617124,-0.32366496,0.43732414,-0.37801328,-0.7490621,-10.278513,4.4276853,-0.028794728,3.3436232,-3.7646446,0.3524541,1
0.7700000000000005,15.269850809664696,3.436940028772218,-5.999998796032691,0.8271115702064925,14.772552,2.7936656,-5.473206,0.39425796,11.753238,-10.046386,1.9611828,-0.33682644,0.4165647,-0.38470396,-0.7516809,-10.336763,4.553729,-0.07651285,3.257924,-4.0311093,0.35450542,1
0.7800000000000005,15.269850809664696,3.436940028772218,-5.999998796032691,0.8271115702064925,14.772552,2.7936656,-5.473206,0.39425796,11.649606,-10.000213,1.9601951,-0.35005993,0.39473203,-0.39043066,-0.7544588,-10.388526,4.6810174,-0.12042292,3.1855807,-4.2560167,0.35645607,1
0.7900000000000005,15.269850809664696,3.436940028772218,-5.999998796032691,0.8271115702064925,14.772552,2.7936656,-5.473206,0.39425796,11.54549,-9.952762,1.958788,-0.36330995,0.37195173,-0.39527133,-0.7572436,-10.433591,4.8090973,-0.16036253,3.1245112,-4.445847,0.358311,1
0.8000000000000005,15.425896802571149,2.532880730206369,-5.999998496719211,0.731281535496513,14.583975,1.1523011,-6.161739,0.5722552,11.440958,-9.904029,1.9570018,-0.37652412,0.3483332,-0.3992929,-0.7599067,-10.471766,4.937507,-0.19624346,3.0729587,-4.6060715,0.36007494,0
0.8100000000000005,15.425896802571149,2.532880730206369,-5.999998496719211,0.731281535496513,14.583975,1.1523011,-6.161739,0.5722552,11.336072,-9.853984,1.9548918,-0.38966972,0.3238345,-0.40240657,-0.76246774,-10.504256,5.071445,-0.22509702,2.988842,-4.8234377,0.37829015,0
0.8200000000000005,15.425896802571149,2.532880730206369,-5.999998496719211,0.731281535496513,14.583975,1.1523011,-6.161739,0.5722552,11.2309,-9.802603,1.9525149,-0.40270925,0.29842693,-0.40453964,-0.76492727,-10.529205,5.204688,-0.24962033,2.917837,-5.006906,0.39561152,0
0.8300000000000005,15.425896802571149,2.532880730206369,-5.999998496719211,0.731281535496513,14.583975,1.1523011,-6.161739,0.5722552,11.125516,-9.749895,1.9499143,-0.41558817,0.27221972,-0.40576753,-0.76716036,-10.546469,5.336676,-0.26980627,2.8578985,-5.161763,0.4120829,0
0.8400000000000005,15.425896802571149,2.532880730206369,-5.999998496719211,0.731281535496513,14.34727,0.7233261,-6.3734984,0.71395165,11.019998,-9.695875,1.9471334,-0.42825586,0.24531019,-0.40615538,-0.7690624,-10.555931,5.4668503,-0.2857206,2.807301,-5.29247,0.42774606,0
0.8500000000000005,15.425896802571149,2.532880730206369,-5.999998496719211,0.731281535496513,14.34727,0.7233261,-6.3734984,0.71395165,10.914424,-9.640566,1.9442141,-0.44066557,0.21778594,-0.40575963,-0.7705463,-10.557503,5.594656,-0.297494,2.7645886,-5.4027934,0.44264063,0
0.8600000000000005,15.425896802571149,2.532880730206369,-5.999998496719211,0.731281535496513,14.34727,0.7233261,-6.3734984,0.71395165,10.808874,-9.583992,1.9411972,-0.45277444,0.18972634,-0.40462947,-0.7715398,-10.551125,5.7195473,-0.3053148,2.7285316,-5.495912,0.45680434,0
0.8700000000000006,15.425896802571149,2.532880730206369,-5.999998496719211,0.731281535496513,14.34727,0.7233261,-6.3734984,0.71395165,10.703429,-9.526187,1.9381207,-0.4645433,0.16120398,-0.40280786,-0.7719832,-10.536772,5.8409896,-0.30942255,2.6980925,-5.574509,0.47027302,0
0.8800000000000006,15.488706558762813,1.4054747529739189,-5.999961571759164,0.604438522914377,12.985058,0.3932504,-5.6097918,0.41350108,10.598167,-9.467187,1.9350206,-0.4759365,0.1322858,-0.40033266,-0.7718278,-10.514452,5.9584613,-0.3101017,2.6723952,-5.640849,0.48308077,0
0.8900000000000006,15.488706558762813,1.4054747529739189,-5.999961571759164,0.604438522914377,12.985058,0.3932504,-5.6097918,0.41350108,10.493169,-9.40703,1.9319314,-0.4868803,0.10325681,-0.39688864,-0.7712097,-10.48411,6.0719123,-0.30725127,2.4748592,-5.6969047,0.48903582,0
0.9000000000000006,15.488706558762813,1.4054747529739189,-5.999961571759164,0.604438522914377,12.985058,0.3932504,-5.6097918,0.41350108,10.388513,-9.345765,1.9288853,-0.49733692,0.07435925,-0.3922363,-0.7702447,-10.446085,6.180336,-0.30151984,2.3081257,-5.7442107,0.49469864,0
0.9100000000000006,15.488706558762813,1.4054747529739189,-5.999961571759164,0.604438522914377,12.985058,0.3932504,-5.6097918,0.41350108,10.284273,-9.2834425,1.9259101,-0.50732034,0.045592707,-0.3865089,-0.7688678,-10.400677,6.283232,-0.29316232,2.1673908,-5.7841325,0.5000836,0
0.9200000000000006,14.885195528371055,0.19484189654900097,-3.4475516782763194,0.4794847255051671,12.58612,-0.49960276,-4.971466,0.26126677,10.180524,-9.22012,1.9230303,-0.5168375,0.016959243,-0.37982085,-0.7670248,-10.348185,6.3801394,-0.28246745,2.0486012,-5.817823,0.5052043,0
0.9300000000000006,14.885195528371055,0.19484189654900097,-3.4475516782763194,0.4794847255051671,12.58612,-0.49960276,-4.971466,0.26126677,10.077322,-9.15588,1.920246,-0.52552426,-0.010496122,-0.3724382,-0.76485515,-10.291272,6.4671564,-0.27407974,1.7593824,-5.4482775,0.50394225,0
0.9400000000000006,14.885195528371055,0.19484189654900097,-3.4475516782763194,0.4794847255051671,12.58612,-0.49960276,-4.971466,0.26126677,9.974718,-9.090797,1.9175539,-0.5331599,-0.03594222,-0.3646222,-0.76256067,-10.228547,6.548027,-0.2641197,1.5152867,-5.1363473,0.5027421,0
0.9500000000000006,14.885195528371055,0.19484189654900097,-3.4475516782763194,0.4794847255051671,12.58612,-0.49960276,-4.971466,0.26126677,9.872768,-9.024937,1.9149679,-0.53992957,-0.059668053,-0.3564503,-0.76017004,-10.160683,6.622842,-0.25290695,1.3092744,-4.873049,0.5016009,0
0.9600000000000006,14.265072343413333,-1.1880113294808492,1.0758673657894784,0.4354175600309182,13.297481,-1.4475461,-0.60485196,0.52781826,9.771521,-8.958359,1.9124991,-0.5459795,-0.08192166,-0.34798223,-0.7576959,-10.088257,6.6916986,-0.24070859,1.1354033,-4.6508,0.5005157,0
0.9700000000000006,14.265072343413333,-1.1880113294808492,1.0758673657894784,0.4354175600309182,13.297481,-1.4475461,-0.60485196,0.52781826,9.671001,-8.891136,1.9101331,-0.55086946,-0.10124231,-0.3398468,-0.75551075,-10.015019,6.7521667,-0.23238459,0.77276903,-3.7578492,0.4973213,0
0.9800000000000006,14.265072343413333,-1.1880113294808492,1.0758673657894784,0.4354175600309182,13.297481,-1.4475461,-0.60485196,0.52781826,9.57123,-8.823333,1.907853,-0.5543325,-0.11649772,-0.33258498,-0.7540096,-9.938814,6.80786,-0.22353527,0.4667363,-3.0041342,0.49428368,0
0.9900000000000007,14.265072343413333,-1.1880113294808492,1.0758673657894784,0.4354175600309182,13.297481,-1.4475461,-0.60485196,0.52781826,9.472231,-8.7549925,1.9056637,-0.55668217,-0.12832595,-0.32610428,-0.75318855,-9.860464,6.859638,-0.21426599,0.20847017,-2.367944,0.49139512,0
1.0000000000000007,13.674189419072178,-1.8764385864828306,4.2032381655465265,0.5158957029738901,14.165946,-1.6424937,1.9346703,0.8641679,9.374024,-8.686151,1.903569,-0.5581557,-0.13726506,-0.3203103,-0.7530082,-9.780632,6.908255,-0.20460829,-0.009485595,-1.830953,0.4886483,0
1.0100000000000007,13.674189419072178,-1.8764385864828306,4.2032381655465265,0.5158957029738901,14.165946,-1.6424937,1.9346703,0.8641679,9.276605,-8.616845,1.9015504,-0.55856913,-0.14267522,-0.3156038,-0.753683,-9.70324,6.9525204,-0.19903015,-0.3009342,-0.89001715,0.48998535,0
1.0200000000000007,13.674189419072178,-1.8764385864828306,4.2032381655465265,0.5158957029738901,14.165946,-1.6424937,1.9346703,0.8641679,9.179961,-8.547105,1.8995898,-0.5577834,-0.144072,-0.312293,-0.75537634,-9.625653,6.9954333,-0.19302864,-0.54688644,-0.095805615,0.4912568,0
1.0300000000000007,13.674189419072178,-1.8764385864828306,4.2032381655465265,0.5158957029738901,14.165946,-1.6424937,1.9346703,0.8641679,9.084091,-8.476937,1.8976915,-0.5560052,-0.14207785,-0.3101593,-0.7579398,-9.548507,7.037965,-0.18654509,-0.7544441,0.574561,0.4924658,0
1.0400000000000007,13.674189419072178,-1.8764385864828306,4.2032381655465265,0.5158957029738901,13.872488,-1.4504895,3.5965598,0.76306057,8.988987,-8.4063425,1.8958608,-0.55338454,-0.13721341,-0.30900642,-0.7612178,-9.472338,7.080929,-0.17952296,-0.929601,1.1403944,0.49361548,1
1.0500000000000007,13.674189419072178,-1.8764385864828306,4.2032381655465265,0.5158957029738901,13.872488,-1.4504895,3.5965598,0.76306057,8.894645,-8.33531,1.8941107,-0.5500616,-0.13020438,-0.30865344,-0.7649912,-9.3965225,7.1256304,-0.1703944,-1.0109693,1.5233972,0.5068372,1
1.0600000000000007,13.674189419072178,-1.8764385864828306,4.2032381655465265,0.5158957029738901,13.872488,-1.4504895,3.5965598,0.76306057,8.801051,-8.263824,1.8924547,-0.54614466,-0.12165014,-0.30894718,-0.7690763,-9.322499,7.171935,-0.1606965,-1.0796337,1.8466742,0.51941013,1
1.0700000000000007,13.674189419072178,-1.8764385864828306,4.2032381655465265,0.5158957029738901,13.872488,-1.4504895,3.5965598,0.76306057,8.708187,-8.191866,1.8908985,-0.5416935,-0.11178419,-0.3097654,-0.7733804,-9.250544,7.2202187,-0.15046829,-1.1375769,2.1195395,0.5313661,1
1.0800000000000007,13.58829125635945,-2.337364011759297,5.999981718529796,0.4762160962842201,13.463264,-1.6554824,5.878194,0.63529116,8.616031,-8.119412,1.889447,-0.5367562,-0.10080449,-0.3110041,-0.77782196,-9.18091,7.270782,-0.1397645,-1.1864724,2.3498542,0.5427354,1
1.0900000000000007,13.58829125635945,-2.337364011759297,5.999981718529796,0.4762160962842201,13.463264,-1.6554824,5.878194,0.63529116,8.524549,-8.046449,1.8880883,-0.5311038,-0.088117994,-0.31299827,-0.7824292,-9.115839,7.3223443,-0.1318838,-1.259817,2.900067,0.5472771,1
1.1000000000000008,13.58829125635945,-2.337364011759297,5.999981718529796,0.4762160962842201,13.463264,-1.6554824,5.878194,0.63529116,8.433702,-7.9729543,1.88681,-0.52453494,-0.07325687,-0.31599042,-0.7871759,-9.053668,7.376884,-0.12375458,-1.3216958,3.3644786,0.5515959,1
1.1100000000000008,13.58829125635945,-2.337364011759297,5.999981718529796,0.4762160962842201,13.463264,-1.6554824,5.878194,0.63529116,8.343463,-7.8988986,1.8856133,-0.51712054,-0.056547605,-0.31977227,-0.79191774,-8.994821,7.4348693,-0.11555989,-1.3739004,3.7564685,0.55570287,1
1.1200000000000008,13.054228270502854,-2.2794325044708175,5.411054794716541,0.33269467152034377,13.787413,-1.6725472,6.1567445,0.6748473,8.253794,-7.824244,1.8844981,-0.508917,-0.038270157,-0.32416534,-0.79652685,-8.939691,7.496652,-0.107513286,-1.4179431,4.087331,0.5596083,1
1.1300000000000008,13.054228270502854,-2.2794325044708175,5.411054794716541,0.33269467152034377,13.787413,-1.6725472,6.1567445,0.6748473,8.164662,-7.748944,1.8834745,-0.49995127,-0.018625032,-0.32903585,-0.80089736,-8.8874235,7.5640693,-0.097310886,-1.4577731,4.38559,0.56526303,1
1.1400000000000008,13.054228270502854,-2.2794325044708175,5.411054794716541,0.33269467152034377,13.787413,-1.6725472,6.1567445,0.6748473,8.07603,-7.672948,1.8825496,-0.49024522,0.0022110306,-0.33426717,-0.8049345,-8.839715,7.635809,-0.087785885,-1.4913759,4.637339,0.5706403,1
1.1500000000000008,13.054228270502854,-2.2794325044708175,5.411054794716541,0.33269467152034377,13.787413,-1.6725472,6.1567445,0.6748473,7.987851,-7.5962124,1.8817154,-0.4798365,0.024044495,-0.33974126,-0.80855054,-8.796908,7.711965,-0.07923943,-1.5197247,4.84983,0.57575387,1
1.1600000000000008,12.928842584116055,-2.4164578515189197,4.186931325312161,0.09179909725936998,13.429396,-1.8781865,3.049311,0.8076297,7.9000745,-7.518693,1.8809606,-0.46875918,0.0467063,-0.34535772,-0.8116716,-8.75932,7.792551,-0.071990356,-1.5436405,5.029185,0.5806164,0
1.1700000000000008,12.928842584116055,-2.4164578515189197,4.186931325312161,0.09179909725936998,13.429396,-1.8781865,3.049311,0.8076297,7.812636,-7.440372,1.8802379,-0.45734426,0.06962244,-0.3504522,-0.8143535,-8.729229,7.8721848,-0.072802976,-1.6796294,4.8978105,0.55663,0
1.1800000000000008,12.928842584116055,-2.4164578515189197,4.186931325312161,0.09179909725936998,13.429396,-1.8781865,3.049311,0.8076297,7.7254715,-7.361236,1.879499,-0.4458828,0.092326686,-0.354515,-0.81669027,-8.704464,7.9555497,-0.07525269,-1.7944258,4.7869344,0.5338207,0
1.1900000000000008,12.928842584116055,-2.4164578515189197,4.186931325312161,0.09179909725936998,13.429396,-1.8781865,3.049311,0.8076297,7.6385283,-7.2812495,1.878727,-0.4343498,0.11482858,-0.3576745,-0.8186716,-8.685147,8.042253,-0.07942893,-1.8913324,4.693357,0.5121305,0
1.2000000000000008,11.92897456579222,-2.1514162185410344,-0.4710248280478813,-0.10969341841528374,13.017152,-2.065435,-0.0039714277,0.34226203,7.5517497,-7.200381,1.877904,-0.42272535,0.1371355,-0.36003858,-0.8202859,-8.671376,8.131921,-0.08543104,-1.973137,4.6143794,0.4915047,0
1.2100000000000009,11.92897456579222,-2.1514162185410344,-0.4710248280478813,-0.10969341841528374,13.017152,-2.065435,-0.0039714277,0.34226203,7.465078,-7.1186376,1.8769766,-0.41171366,0.15769134,-0.36101082,-0.821764,-8.663793,8.217011,-0.10028817,-2.0006113,3.8213427,0.46200374,0
1.2200000000000009,11.92897456579222,-2.1514162185410344,-0.4710248280478813,-0.10969341841528374,13.017152,-2.065435,-0.0039714277,0.34226203,7.378458,-7.0360346,1.875893,-0.4019209,0.17527941,-0.3601818,-0.82341075,-8.66095,8.303813,-0.11662255,-2.0238698,3.1519804,0.4339504,0
1.2300000000000009,11.92897456579222,-2.1514162185410344,-0.4710248280478813,-0.10969341841528374,13.017152,-2.065435,-0.0039714277,0.34226203,7.2918444,-6.952558,1.8746402,-0.39318657,0.19036219,-0.35787302,-0.8252836,-8.662383,8.3917,-0.13408382,-2.0435553,2.587005,0.40727365,0
1.2400000000000009,11.92897456579222,-2.1514162185410344,-0.4710248280478813,-0.10969341841528374,13.309186,-2.0705347,-2.0492055,0.4743281,7.2051973,-6.8681993,1.8732086,-0.38536295,0.20332982,-0.3543426,-0.82740146,-8.667689,8.480172,-0.15234935,-2.0602145,2.1101363,0.3819059,0
1.2500000000000009,11.92897456579222,-2.1514162185410344,-0.4710248280478813,-0.10969341841528374,13.309186,-2.0705347,-2.0492055,0.4743281,7.118479,-6.782954,1.8715916,-0.3783176,0.21451093,-0.3497988,-0.8297597,-8.676521,8.568827,-0.17113015,-2.07431,1.7076347,0.357783,0
1.260000000000001,11.92897456579222,-2.1514162185410344,-0.4710248280478813,-0.10969341841528374,13.309186,-2.0705347,-2.0492055,0.4743281,7.0316553,-6.696823,1.8697852,-0.3719338,0.22418207,-0.34441045,-0.8323392,-8.688583,8.657335,-0.19017267,-2.0862348,1.3679023,0.33484378,0
1.270000000000001,11.92897456579222,-2.1514162185410344,-0.4710248280478813,-0.10969341841528374,13.309186,-2.0705347,-2.0492055,0.4743281,6.944697,-6.609809,1.867788,-0.36611,0.23257592,-0.33831495,-0.8351134,-8.703619,8.745427,-0.20925823,-2.0963218,1.0811503,0.31303024,0
1.280000000000001,12.234921713272223,-1.978005370621294,-2.6329499956954683,-0.2712093118567575,12.355044,-2.2118154,-5.0862365,0.45793676,6.857574,-6.5219164,1.8656006,-0.3607586,0.23988836,-0.33162475,-0.8380521,-8.721409,8.832874,-0.22820073,-2.1048527,0.8391161,0.29228708,0
1.290000000000001,12.234921713272223,-1.978005370621294,-2.6329499956954683,-0.2712093118567575,12.355044,-2.2118154,-5.0862365,0.45793676,6.770258,-6.433143,1.8632354,-0.356124,0.24554045,-0.3241757,-0.8413056,-8.742255,8.921689,-0.24477722,-2.0849621,0.2976908,0.26463613,0
1.300000000000001,12.234921713272223,-1.978005370621294,-2.6329499956954683,-0.2712093118567575,12.355044,-2.2118154,-5.0862365,0.45793676,6.6827216,-6.3434873,1.8607074,-0.3523925,0.24908067,-0.31584617,-0.84499645,-8.765323,9.009338,-0.26069283,-2.0682058,-0.15930276,0.23834206,0
1.310000000000001,12.234921713272223,-1.978005370621294,-2.6329499956954683,-0.2712093118567575,12.355044,-2.2118154,-5.0862365,0.45793676,6.5949454,-6.2529616,1.8580251,-0.3494141,0.25083086,-0.30677408,-0.84904814,-8.79022,9.095541,-0.27561843,-2.0540879,-0.545031,0.21333821,0
1.320000000000001,11.823784259706795,-1.632806518724681,-5.999986775308106,-0.2455693988248907,12.231201,-2.4207246,-5.7240605,0.28666317,6.506912,-6.161582,1.8551996,-0.3470602,0.25106078,-0.2970712,-0.8533849,-8.816618,9.180054,-0.28928286,-2.0421908,-0.87060744,0.18956132,1
1.330000000000001,11.823784259706795,-1.632806518724681,-5.999986775308106,-0.2455693988248907,12.231201,-2.4207246,-5.7240605,0.28666317,6.418609,-6.069367,1.8522446,-0.34547895,0.24897899,-0.28626466,-0.85831565,-8.844187,9.262606,-0.3014481,-2.1011248,-1.6275145,0.19432613,1
1.340000000000001,11.823784259706795,-1.632806518724681,-5.999986775308106,-0.2455693988248907,12.231201,-2.4207246,-5.7240605,0.28666317,6.3300266,-5.976338,1.8491775,-0.34474596,0.2439518,-0.27397707,-0.864045,-8.872449,9.34279,-0.31162158,-2.1508787,-2.2663813,0.19885716,1
1.350000000000001,11.823784259706795,-1.632806518724681,-5.999986775308106,-0.2455693988248907,12.231201,-2.4207246,-5.7240605,0.28666317,6.24116,-5.8825207,1.8460205,-0.34465933,0.23639897,-0.2604168,-0.8703494,-8.900908,9.420141,-0.31935683,-2.1928835,-2.8056164,0.2031658,1
1.360000000000001,12.343353810110344,-1.2765938045991436,-5.999901281106701,-0.23062852266477624,12.306872,-2.2744362,-5.8473587,0.49291754,6.1520095,-5.7879467,1.8427999,-0.3450458,0.22667384,-0.24575575,-0.87702113,-8.929131,9.494228,-0.32432717,-2.2283466,-3.2607567,0.20726304,1
1.370000000000001,12.343353810110344,-1.2765938045991436,-5.999901281106701,-0.23062852266477624,12.306872,-2.2744362,-5.8473587,0.49291754,6.0625787,-5.692647,1.8395473,-0.34576064,0.2150062,-0.2301781,-0.8838776,-8.956893,9.565085,-0.32571977,-2.2354465,-3.6641572,0.22128017,1
1.380000000000001,12.343353810110344,-1.2765938045991436,-5.999901281106701,-0.23062852266477624,12.306872,-2.2744362,-5.8473587,0.49291754,5.972875,-5.596659,1.8362964,-0.34667635,0.20159541,-0.21383874,-0.8907566,-8.983644,9.631879,-0.3239868,-2.2414434,-4.0046463,0.23460948,1
1.390000000000001,12.343353810110344,-1.2765938045991436,-5.999901281106701,-0.23062852266477624,12.306872,-2.2744362,-5.8473587,0.49291754,5.8829107,-5.500025,1.8330785,-0.3476813,0.18667941,-0.19683242,-0.89751047,-9.009036,9.694256,-0.3190929,-2.2465096,-4.292036,0.24728473,1
1.400000000000001,12.297164458500925,-0.7426790060041375,-5.999991443247274,-0.14420719158617815,13.861335,-2.17916,-5.730994,0.65833277,5.7927003,-5.4027905,1.8299252,-0.34868285,0.17046368,-0.17924166,-0.9040101,-9.03276,9.7518835,-0.31108305,-2.25079,-4.534606,0.259338,0
1.410000000000001,12.297164458500925,-0.7426790060041375,-5.999991443247274,-0.14420719158617815,13.861335,-2.17916,-5.730994,0.65833277,5.7022624,-5.305005,1.8268667,-0.3497889,0.15287186,-0.16166078,-0.91002375,-9.054492,9.804435,-0.30016443,-2.015624,-4.763066,0.23953591,0
1.420000000000001,12.297164458500925,-0.7426790060041375,-5.999991443247274,-0.14420719158617815,13.861335,-2.17916,-5.730994,0.65833277,5.611619,-5.2067194,1.8239316,-0.35108465,0.13385892,-0.14457342,-0.91537935,-9.073834,9.851814,-0.28646207,-1.8171394,-4.9559107,0.22070551,0
1.430000000000001,12.297164458500925,-0.7426790060041375,-5.999991443247274,-0.14420719158617815,13.861335,-2.17916,-5.730994,0.65833277,5.5207953,-5.1079865,1.8211464,-0.3524708,0.11363371,-0.12789708,-0.9200508,-9.090379,9.893933,-0.27023408,-1.6496141,-5.118691,0.20279913,0
1.440000000000001,12.297164458500925,-0.7426790060041375,-5.999991443247274,-0.14420719158617815,13.400773,-1.1639113,-5.61813,0.29356647,5.429822,-5.008859,1.8185347,-0.35386622,0.092377216,-0.11156322,-0.924012,-9.103774,9.930706,-0.25177136,-1.5082182,-5.256094,0.18577144,0
1.450000000000001,12.297164458500925,-0.7426790060041375,-5.999991443247274,-0.14420719158617815,13.400773,-1.1639113,-5.61813,0.29356647,5.3387313,-4.9093914,1.8161175,-0.35520485,0.07024699,-0.095515475,-0.92723846,-9.113724,9.962052,-0.23139393,-1.3888754,-5.372075,0.16957928,0
1.460000000000001,12.297164458500925,-0.7426790060041375,-5.999991443247274,-0.14420719158617815,13.400773,-1.1639113,-5.61813,0.29356647,5.2475595,-4.809637,1.8139123,-0.3564332,0.04738076,-0.07970811,-0.92970777,-9.119979,9.987899,-0.20944731,-1.2881455,-5.4699745,0.15418167,0
1.470000000000001,12.297164458500925,-0.7426790060041375,-5.999991443247274,-0.14420719158617815,13.400773,-1.1639113,-5.61813,0.29356647,5.156345,-4.7096524,1.8119327,-0.35750818,0.023899477,-0.06410446,-0.9314005,-9.1223345,10.008184,-0.18629876,-1.203125,-5.55261,0.13953964,0
1.480000000000001,12.485725888418825,-0.10532075922633266,-2.380719884041805,-0.11914332630752107,13.457792,-0.68730205,-5.461105,0.22995833,5.0651274,-4.609493,1.810189,-0.3583952,-9.02093e-05,-0.048675705,-0.93229985,-9.120627,10.022861,-0.1623337,-1.1313632,-5.622361,0.1256161,0
1.490000000000001,12.485725888418825,-0.10532075922633266,-2.380719884041805,-0.11914332630752107,13.457792,-0.68730205,-5.461105,0.22995833,4.973948,-4.509214,1.8086967,-0.35900834,-0.023235274,-0.034157913,-0.93241936,-9.114688,10.032097,-0.13607527,-0.97143406,-5.116808,0.11360568,0
1.500000000000001,12.485725888418825,-0.10532075922633266,-2.380719884041805,-0.11914332630752107,13.457792,-0.68730205,-5.461105,0.22995833,4.8828473,-4.408869,1.8074675,-0.35933435,-0.04445899,-0.021138508,-0.93190926,-9.104777,10.0360775,-0.10978797,-0.8364307,-4.6901007,0.10218462,0
1.5100000000000011,12.485725888418825,-0.10532075922633266,-2.380719884041805,-0.11914332630752107,13.457792,-0.68730205,-5.461105,0.22995833,4.7918644,-4.3085084,1.8064998,-0.35943797,-0.064050645,-0.009393213,-0.93092054,-9.091206,10.03529,-0.08378351,-0.7224694,-4.3299417,0.091324,0
1.5200000000000011,12.379350139337348,0.27964340472494603,0.1423853064026854,-0.15219825699583617,12.89044,-0.06924257,-0.7583292,0.39964384,4.7010345,-4.2081785,1.8057898,-0.35936758,-0.082257316,0.0012699787,-0.92956257,-9.074238,10.030154,-0.058300197,-0.6262707,-4.025952,0.08099631,1
1.5300000000000011,12.379350139337348,0.27964340472494603,0.1423853064026854,-0.15219825699583617,12.89044,-0.06924257,-0.7583292,0.39964384,4.6103935,-4.1079206,1.8053513,-0.35910454,-0.09869172,0.010773703,-0.92800176,-9.053476,10.020765,-0.029533189,-0.53939307,-3.5163686,0.09663243,1
1.5400000000000011,12.379350139337348,0.27964340472494603,0.1423853064026854,-0.15219825699583617,12.89044,-0.06924257,-0.7583292,0.39964384,4.519975,-4.0077753,1.8051963,-0.3586415,-0.11306229,0.019069081,-0.9264065,-9.02985,10.00778,-0.0015855804,-0.46607035,-3.0862536,0.111501284,1
1.5500000000000012,12.379350139337348,0.27964340472494603,0.1423853064026854,-0.15219825699583617,12.89044,-0.06924257,-0.7583292,0.39964384,4.4298058,-3.9077756,1.8053167,-0.35802242,-0.12569194,0.026346046,-0.92483884,-9.003725,9.991664,0.025506008,-0.40418625,-2.7232144,0.12564054,1
1.5600000000000012,12.489099269970218,0.655931778396387,5.68825624677279,-0.2530697936517206,13.096979,0.7193873,1.5430039,0.5737736,4.3399086,-3.8079512,1.8057036,-0.3572791,-0.13685331,0.03276555,-0.9233357,-8.97541,9.97281,0.051737078,-0.35195586,-2.4167905,0.13908596,0
1.5700000000000012,12.489099269970218,0.655931778396387,5.68825624677279,-0.2530697936517206,13.096979,0.7193873,1.5430039,0.5737736,4.2503,-3.7083244,1.8063306,-0.3565621,-0.14451207,0.037260868,-0.9222748,-8.946162,9.952295,0.07344952,-0.19357696,-1.1541252,0.11996713,0
1.5800000000000012,12.489099269970218,0.655931778396387,5.68825624677279,-0.2530697936517206,13.096979,0.7193873,1.5430039,0.5737736,4.160989,-3.6089096,1.8071709,-0.35602772,-0.14706318,0.03900157,-0.9220061,-8.915965,9.930537,0.094565146,-0.061181657,-0.0870485,0.1016621,0
1.5900000000000012,12.489099269970218,0.655931778396387,5.68825624677279,-0.2530697936517206,13.096979,0.7193873,1.5430039,0.5737736,4.071981,-3.5097146,1.8082216,-0.35567504,-0.14530812,0.038419753,-0.9224448,-8.885634,9.9085245,0.115600616,0.05060097,0.81361395,0.08425529,0
1.6000000000000012,12.496406018619586,0.7235158773107747,5.999991594379168,-0.2947552082194652,12.31707,0.98383784,5.5172954,0.42438555,3.9832742,-3.4107373,1.8094838,-0.35547787,-0.1399148,0.035876926,-0.9234565,-8.855887,9.887106,0.13689083,0.14497696,1.5738155,0.06770265,1
1.6100000000000012,12.496406018619586,0.7235158773107747,5.999991594379168,-0.2947552082194652,12.31707,0.98383784,5.5172954,0.42438555,3.8948574,-3.3119667,1.810953,-0.35529944,-0.13154769,0.03159128,-0.92491037,-8.827721,9.867283,0.157046,0.2757451,2.1888075,0.08520518,1
1.6200000000000012,12.496406018619586,0.7235158773107747,5.999991594379168,-0.2947552082194652,12.31707,0.98383784,5.5172954,0.42438555,3.8067143,-3.213385,1.8126271,-0.3550089,-0.12075924,0.025751665,-0.92667276,-8.801193,9.849382,0.17788368,0.38611388,2.7078936,0.10184886,1
1.6300000000000012,12.496406018619586,0.7235158773107747,5.999991594379168,-0.2947552082194652,12.31707,0.98383784,5.5172954,0.42438555,3.7188268,-3.1149707,1.8145133,-0.35457695,-0.10791396,0.018599043,-0.9285922,-8.776697,9.833942,0.19949827,0.4792674,3.1460295,0.11767584,1
1.6400000000000012,12.496406018619586,0.7235158773107747,5.999991594379168,-0.2947552082194652,12.467481,1.1073793,5.2365885,0.64863855,3.6311727,-3.0166962,1.8166198,-0.35397494,-0.09332073,0.010337687,-0.93052983,-8.754578,9.821422,0.22191237,0.55789226,3.5158384,0.13272619,1
1.6500000000000012,12.496406018619586,0.7235158773107747,5.999991594379168,-0.2947552082194652,12.467481,1.1073793,5.2365885,0.64863855,3.5437276,-2.9185314,1.8189615,-0.35314593,-0.077364564,0.0011375742,-0.9323631,-8.734891,9.812097,0.24656276,0.6434991,3.7842062,0.15804218,1
1.6600000000000013,12.496406018619586,0.7235158773107747,5.999991594379168,-0.2947552082194652,12.467481,1.1073793,5.2365885,0.64863855,3.4564645,-2.8204415,1.8215532,-0.35204273,-0.060368113,-0.008856354,-0.93399286,-8.718134,9.80644,0.27186915,0.71575505,4.010723,0.18211588,1
1.6700000000000013,12.496406018619586,0.7235158773107747,5.999991594379168,-0.2947552082194652,12.467481,1.1073793,5.2365885,0.64863855,3.3693538,-2.7223887,1.8244008,-0.3506545,-0.042491708,-0.01951663,-0.93533653,-8.7044935,9.804715,0.29767495,0.7767435,4.2019153,0.20500831,1
1.6800000000000013,13.051335155474725,0.7135545746933953,5.999996669382725,-0.2938334784959122,14.144925,1.0924516,2.1446538,0.09788624,3.2823634,-2.6243327,1.827508,-0.34897268,-0.02387406,-0.030733919,-0.9363242,-8.69413,9.807136,0.32378542,0.8282225,4.3632903,0.22677737,0
1.6900000000000013,13.051335155474725,0.7135545746933953,5.999996669382725,-0.2938334784959122,14.144925,1.0924516,2.1446538,0.09788624,3.1954613,-2.5262296,1.8309059,-0.34709063,-0.00429074,-0.042375114,-0.93686366,-8.686878,9.814197,0.35579506,0.81037915,4.6185174,0.20123085,0
1.7000000000000013,13.051335155474725,0.7135545746933953,5.999996669382725,-0.2938334784959122,14.144925,1.0924516,2.1446538,0.09788624,3.1086125,-2.4280326,1.8346232,-0.3450854,0.016428277,-0.054324094,-0.9368535,-8.683476,9.825956,0.38762128,0.79532737,4.8339434,0.17693791,0
1.7100000000000013,13.051335155474725,0.7135545746933953,5.999996669382725,-0.2938334784959122,14.144925,1.0924516,2.1446538,0.09788624,3.0217774,-2.329694,1.8386567,-0.34292945,0.03809584,-0.06651557,-0.93622816,-8.684173,9.842551,0.41896072,0.7826294,5.0157757,0.15383701,0
1.7200000000000013,12.873056216602171,0.37817643598824163,4.209687678243621,-0.2886426435933731,13.525548,0.5360336,1.441752,-0.14967115,2.9349139,-2.2311647,1.8429996,-0.34060046,0.060549207,-0.078892015,-0.9349335,-8.689169,9.864077,0.4494761,0.77191573,5.169252,0.13186969,0
1.7300000000000013,12.873056216602171,0.37817643598824163,4.209687678243621,-0.2886426435933731,13.525548,0.5360336,1.441752,-0.14967115,2.847979,-2.1323972,1.8476334,-0.33813468,0.083023354,-0.09103479,-0.9329974,-8.69847,9.890195,0.4770719,0.71059287,5.0195932,0.11123502,0
1.7400000000000013,12.873056216602171,0.37817643598824163,4.209687678243621,-0.2886426435933731,13.525548,0.5360336,1.441752,-0.14967115,2.7609296,-2.0333447,1.852536,-0.33558437,0.10490651,-0.10261475,-0.9305092,-8.71209,9.921015,0.5032011,0.65882456,4.893276,0.091612905,0
1.7500000000000013,12.873056216602171,0.37817643598824163,4.209687678243621,-0.2886426435933731,13.525548,0.5360336,1.441752,-0.14967115,2.673723,-1.9339617,1.8576914,-0.3329529,0.12627484,-0.113705546,-0.9275061,-8.729917,9.956302,0.5275977,0.61512244,4.78666,0.07295366,0
1.7600000000000013,13.150944876149753,0.08831862398423361,1.6318067082903573,-0.2779033048317661,12.637738,-0.5777209,-2.894949,0.33103317,2.5863173,-1.8342043,1.8630811,-0.33024204,0.14719209,-0.124368876,-0.9240165,-8.751845,9.995841,0.5500148,0.57822967,4.696673,0.05521002,0
1.7700000000000014,13.150944876149753,0.08831862398423361,1.6318067082903573,-0.2779033048317661,12.637738,-0.5777209,-2.894949,0.33103317,2.4986699,-1.7340264,1.868697,-0.32757053,0.16679986,-0.13421181,-0.9202511,-8.778291,10.040335,0.5727987,0.50189066,4.2187004,0.03886405,0
1.7800000000000014,13.150944876149753,0.08831862398423361,1.6318067082903573,-0.2779033048317661,12.637738,-0.5777209,-2.894949,0.33103317,2.410739,-1.6333851,1.8745292,-0.32505977,0.18443462,-0.1429372,-0.91645426,-8.808414,10.088489,0.59330034,0.43744346,3.8152695,0.023320187,0
1.7900000000000014,13.150944876149753,0.08831862398423361,1.6318067082903573,-0.2779033048317661,12.637738,-0.5777209,-2.894949,0.33103317,2.3224902,-1.5322456,1.8805553,-0.3227082,0.20040768,-0.15072072,-0.91267675,-8.841831,10.1398535,0.6115531,0.38303643,3.4747553,0.008539073,0
1.8000000000000014,12.527668230865642,-0.30554776751820445,-3.5092171555832663,-0.283125038203225,12.391685,0.11227095,-5.356269,0.123460844,2.233892,-1.4305782,1.8867527,-0.32050902,0.21498139,-0.15770963,-0.9089467,-8.878213,10.1940565,0.6276094,0.3371063,3.1873448,-0.0055167237,0
1.8100000000000014,12.527668230865642,-0.30554776751820445,-3.5092171555832663,-0.283125038203225,12.391685,0.11227095,-5.356269,0.123460844,2.1449258,-1.3283694,1.8930736,-0.31875327,0.22656369,-0.16322917,-0.9057709,-8.915358,10.248034,0.6362804,0.23690054,2.1430178,-0.01913904,0
1.8200000000000014,12.527668230865642,-0.30554776751820445,-3.5092171555832663,-0.283125038203225,12.391685,0.11227095,-5.356269,0.123460844,2.0555785,-1.2256119,1.8994731,-0.31769744,0.23392463,-0.16676468,-0.9036241,-8.954284,10.303686,0.64344823,0.15230617,1.2615545,-0.032092907,0
1.8300000000000014,12.527668230865642,-0.30554776751820445,-3.5092171555832663,-0.283125038203225,12.391685,0.11227095,-5.356269,0.123460844,1.9658364,-1.1222923,1.9059392,-0.31726915,0.23774523,-0.16863802,-0.902429,-8.994266,10.36035,0.6496788,0.08089304,0.5175559,-0.044411127,0
1.8400000000000014,12.527668230865642,-0.30554776751820445,-3.5092171555832663,-0.283125038203225,12.52858,-0.16904306,-5.617341,-0.0432927,1.8756918,-1.0184033,1.9124651,-0.31739077,0.23858939,-0.16911313,-0.90207446,-9.034701,10.417476,0.65548134,0.020609092,-0.11041558,-0.056124892,0
1.8500000000000014,12.527668230865642,-0.30554776751820445,-3.5092171555832663,-0.283125038203225,12.52858,-0.16904306,-5.617341,-0.0432927,1.7851425,-0.91394275,1.9190489,-0.3179855,0.23692495,-0.16840728,-0.9024357,-9.075089,10.47461,0.6612979,-0.030278627,-0.640455,-0.067263864,0
1.8600000000000014,12.527668230865642,-0.30554776751820445,-3.5092171555832663,-0.283125038203225,12.52858,-0.16904306,-5.617341,-0.0432927,1.6941915,-0.80891246,1.9256924,-0.31898075,0.23314115,-0.16670012,-0.9033865,-9.1150055,10.531369,0.66750175,-0.07323355,-1.0878347,-0.07785623,0
1.8700000000000014,12.527668230865642,-0.30554776751820445,-3.5092171555832663,-0.283125038203225,12.52858,-0.16904306,-5.617341,-0.0432927,1.6028452,-0.7033179,1.9324013,-0.32030994,0.22756292,-0.16414101,-0.904806,-9.15409,10.587421,0.67439955,-0.109491475,-1.4654456,-0.08792882,0
1.8800000000000014,12.997223395962646,-0.492160696049705,-5.201256835521644,-0.25007968304864686,12.002655,-0.1275608,-5.883567,-0.18609424,1.5111135,-0.5971675,1.9391836,-0.32191336,0.22046228,-0.16085461,-0.9065834,-9.192035,10.642482,0.68223596,-0.1400957,-1.784168,-0.09750714,1
1.8900000000000015,12.997223395962646,-0.492160696049705,-5.201256835521644,-0.25007968304864686,12.002655,-0.1275608,-5.883567,-0.18609424,1.4190171,-0.49048394,1.9460275,-0.32389227,0.21117939,-0.15670517,-0.90881246,-9.227004,10.694019,0.6867371,-0.1381881,-2.4234667,-0.10185413,1
1.9000000000000015,12.997223395962646,-0.492160696049705,-5.201256835521644,-0.25007968304864686,12.002655,-0.1275608,-5.883567,-0.18609424,1.3265799,-0.3832926,1.9529233,-0.32630533,0.19919348,-0.15158376,-0.91152,-9.260113,10.743967,0.69263005,-0.13657443,-2.9630673,-0.10598781,1
1.9100000000000015,12.997223395962646,-0.492160696049705,-5.201256835521644,-0.25007968304864686,12.002655,-0.1275608,-5.883567,-0.18609424,1.233823,-0.27561137,1.959886,-0.3290428,0.18490224,-0.14562203,-0.91451395,-9.2908745,10.791941,0.70015883,-0.13520876,-3.4185176,-0.109918654,1
1.9200000000000015,12.956299621635425,-0.6751615825084567,-5.999994581256279,-0.17887345656747833,12.025972,-0.49554217,-6.108802,-0.10222478,1.140772,-0.16746175,1.9669325,-0.332008,0.16864213,-0.13893077,-0.91762096,-9.318863,10.83759,0.7094725,-0.13405254,-3.8029404,-0.11365661,1
1.9300000000000015,12.956299621635425,-0.6751615825084567,-5.999994581256279,-0.17887345656747833,12.025972,-0.49554217,-6.108802,-0.10222478,1.0474563,-0.05886823,1.9740828,-0.33508912,0.15070426,-0.13145505,-0.9207185,-9.343758,10.88067,0.72084874,-0.1904503,-4.1455665,-0.11309565,1
1.9400000000000015,12.956299621635425,-0.6751615825084567,-5.999994581256279,-0.17887345656747833,12.025972,-0.49554217,-6.108802,-0.10222478,0.95390856,0.050141327,1.981356,-0.33819172,0.13133743,-0.12315649,-0.92369294,-9.365199,10.920748,0.7340788,-0.23804899,-4.434761,-0.11256221,1
1.9500000000000015,12.956299621635425,-0.6751615825084567,-5.999994581256279,-0.17887345656747833,12.025972,-0.49554217,-6.108802,-0.10222478,0.860165,0.15953526,1.9887706,-0.34126046,0.110751234,-0.11414573,-0.9264154,-9.382933,10.957495,0.74909484,-0.27822116,-4.6788564,-0.11205496,1
1.9600000000000015,13.437022114634448,-0.8001858720096426,-4.916144870722028,-0.04308358729477322,13.901793,-0.5212301,-5.9827065,-0.720295,0.76626354,0.26927876,1.9963437,-0.3442474,0.089127176,-0.104518466,-0.9287762,-9.396736,10.990615,0.7657654,-0.31212565,-4.8848853,-0.11157259,0
1.9700000000000015,13.437022114634448,-0.8001858720096426,-4.916144870722028,-0.04308358729477322,13.901793,-0.5212301,-5.9827065,-0.720295,0.67223835,0.37935174,2.004159,-0.34705305,0.0670683,-0.09439573,-0.93066895,-9.407582,11.023285,0.79753846,-0.3882281,-4.8897557,-0.10821182,0
1.9800000000000015,13.437022114634448,-0.8001858720096426,-4.916144870722028,-0.04308358729477322,13.901793,-0.5212301,-5.9827065,-0.720295,0.5781277,0.4897289,2.0122993,-0.349613,0.045068134,-0.08388378,-0.93204206,-9.413837,11.051429,0.8306664,-0.45246273,-4.893867,-0.10501597,0
1.9900000000000015,13.437022114634448,-0.8001858720096426,-4.916144870722028,-0.04308358729477322,13.901793,-0.5212301,-5.9827065,-0.720295,0.48397717,0.6003642,2.0207763,-0.35193533,0.02312508,-0.073039904,-0.93288326,-9.415547,11.0749035,0.8648462,-0.50668055,-4.8973384,-0.10197692,0
2.0000000000000013,,,,,14.309327,-0.95901185,-5.4069786,0.3541686,0.38983214,0.7112104,2.029599,-0.35402572,0.0012397789,-0.061913855,-0.93318284,-9.412757,11.093591,0.89976865,-0.55244344,-4.9002695,-0.09908701,0
2.010000000000001,,,,,14.309327,-0.95901185,-5.4069786,0.3541686,0.2957363,0.82221717,2.038754,-0.35583273,-0.019948427,-0.050774284,-0.9329557,-9.405754,11.107019,0.93129796,-0.59753513,-4.6387014,-0.08787651,0
2.020000000000001,,,,,14.309327,-0.95901185,-5.4069786,0.3541686,0.20173097,0.93333495,2.0482254,-0.35733628,-0.03993246,-0.03984022,-0.9322704,-9.394711,11.115819,0.962944,-0.6356025,-4.4179254,-0.07721613,0
2.0300000000000007,,,,,14.309327,-0.95901185,-5.4069786,0.3541686,0.10785505,1.0445181,2.0580125,-0.35857913,-0.058889527,-0.029083693,-0.9311854,-9.379906,11.120126,0.9944431,-0.66773933,-4.2315803,-0.06707884,0
2.0400000000000005,,,,,14.309327,-0.95901185,-5.4069786,0.3541686,0.014144933,1.1557224,2.0681129,-0.35959458,-0.07696994,-0.018480478,-0.92974454,-9.361585,11.120063,1.0255647,-0.69486916,-4.0742955,-0.057439,0
2.0500000000000003,,,,,13.289884,-1.0222071,-3.4728262,0.35778892,-0.0793653,1.2669046,2.0785217,-0.36040854,-0.09430087,-0.0080097895,-0.92798054,-9.339961,11.115744,1.0561028,-0.7177721,-3.9415393,-0.048272178,1
2.06,,,,,13.289884,-1.0222071,-3.4728262,0.35778892,-0.17264137,1.3780222,2.089244,-0.36102197,-0.11105643,0.002451809,-0.92591727,-9.31477,11.107108,1.088198,-0.7651959,-3.8684523,-0.028346643,1
2.07,,,,,13.289884,-1.0222071,-3.4728262,0.35778892,-0.26565036,1.4890324,2.1002824,-0.3614298,-0.12737857,0.013003883,-0.9235655,-9.286567,11.094282,1.1193265,-0.8052285,-3.8067641,-0.009398859,1
2.0799999999999996,,,,,13.289884,-1.0222071,-3.4728262,0.35778892,-0.35836285,1.5998936,2.1116266,-0.36164248,-0.14332266,0.023630336,-0.9209311,-9.255489,11.077301,1.149312,-0.8390217,-3.7546964,0.00861916,1
2.0899999999999994,,,,,13.299584,-1.009727,-2.6439297,0.5417633,-0.45075074,1.7105644,2.1232643,-0.36166814,-0.15893488,0.034317188,-0.91801816,-9.221668,11.056203,1.1779835,-0.8675481,-3.7107487,0.02575303,1
2.099999999999999,,,,,13.299584,-1.009727,-2.6439297,0.5417633,-0.542787,1.8210037,2.135182,-0.36150575,-0.17395096,0.044931535,-0.91489613,-9.185204,11.031025,1.2052722,-0.8896648,-3.5443938,0.051073793,1
2.109999999999999,,,,,13.299584,-1.009727,-2.6439297,0.5417633,-0.63444644,1.9311714,2.1473644,-0.3611613,-0.1881665,0.055368844,-0.911641,-9.146316,11.001913,1.2309713,-0.90833956,-3.403982,0.07515207,1
2.1199999999999988,,,,,13.299584,-1.009727,-2.6439297,0.5417633,-0.7257056,2.041029,2.1597955,-0.36064926,-0.20169726,0.065656126,-0.9082614,-9.105198,10.969011,1.25499,-0.92410743,-3.2854667,0.09804881,1
2.1299999999999986,,,,,14.217706,-0.66612965,-0.64375645,0.28600156,-0.8165433,2.1505392,2.1724582,-0.3599808,-0.21464057,0.07581607,-0.904762,-9.062019,10.932447,1.2772436,-0.9374208,-3.1854334,0.11982202,1
2.1399999999999983,,,,,14.217706,-0.66612965,-0.64375645,0.28600156,-0.90692407,2.2596524,2.1853752,-0.35922962,-0.22640868,0.08544932,-0.9013272,-9.013842,10.889605,1.3058565,-0.89512914,-2.7890615,0.1279765,1
2.149999999999998,,,,,14.217706,-0.66612965,-0.64375645,0.28600156,-0.9968142,2.3683197,2.1985688,-0.35847613,-0.2365509,0.09424283,-0.89814025,-8.963954,10.843366,1.3326014,-0.8594323,-2.454504,0.13573085,1
2.159999999999998,,,,,14.217706,-0.66612965,-0.64375645,0.28600156,-1.0861982,2.4765093,2.2120214,-0.3577333,-0.24532588,0.10233009,-0.8951925,-8.912665,10.794103,1.3576112,-0.8293012,-2.17212,0.14310467,1
2.1699999999999977,,,,,16.18903,-0.38169977,-1.3107882,-0.24884535,-1.1750635,2.5841928,2.2257156,-0.3570082,-0.25295046,0.10982346,-0.892468,-8.860233,10.7421255,1.3810132,-0.80386806,-1.9337738,0.15011667,1
