time-since-start [s],throttle_mpc,roll_mpc,pitch_mpc,yaw_mpc,throttle_nw,roll_nw,pitch_nw,yaw_nw,position_x [m],position_y [m],position_z [m],rotation_w [quaternion],rotation_x [quaternion],rotation_y [quaternion],rotation_z [quaternion],velocity_x [m/s],velocity_y [m/s],velocity_z [m/s],omega_x [rad/s],omega_y [rad/s],omega_z [rad/s],network_used
0.0,9.568595312364504,5.999999663760378,-5.999999942334133,-5.851388346477265,7.643724,-0.830233,-2.2662668,-0.25908485,20.173117,-9.184057,2.2235897,-0.13200416,-0.46399406,0.32225332,0.81451654,-10.73557,-5.8553195,-0.17754099,1.3070804,0.09802565,0.11394855,0
0.01,9.568595312364504,5.999999663760378,-5.999999942334133,-5.851388346477265,18.731766,0.33917063,-5.5727487,0.35041434,20.064903,-9.242197,2.2216907,-0.12923737,-0.4649542,0.32735252,0.8123765,-10.906276,-5.7728906,-0.20284702,1.1973699,-0.011541678,-0.0787757,0
0.02,9.568595312364504,5.999999663760378,-5.999999942334133,-5.851388346477265,18.731766,0.33917063,-5.5727487,0.35041434,19.955006,-9.299515,2.2195213,-0.12576126,-0.46573308,0.33165398,0.81072956,-11.072535,-5.690698,-0.23152283,1.1053475,-0.104597166,-0.26672682,0
0.03,9.568595312364504,5.999999663760378,-5.999999942334133,-5.851388346477265,18.731766,0.33917063,-5.5727487,0.35041434,19.843468,-9.356012,2.2170498,-0.1215828,-0.46640328,0.33522415,0.80951244,-11.234356,-5.6088333,-0.26321065,1.0281523,-0.1836137,-0.45002303,0
0.04,9.568595312364504,5.999999663760378,-5.999999942334133,-5.851388346477265,11.133336,-1.9631226,-3.708647,-0.4649113,19.730333,-9.411693,2.214248,-0.116710655,-0.46702346,0.338119,0.80866754,-11.391771,-5.5273714,-0.2976063,0.96338797,-0.2506968,-0.6287796,0
0.05,9.568595312364504,5.999999663760378,-5.999999942334133,-5.851388346477265,11.133336,-1.9631226,-3.708647,-0.4649113,19.615648,-9.466561,2.2110894,-0.11115477,-0.46764082,0.34038574,0.80814236,-11.5448265,-5.446374,-0.3344501,0.9090462,-0.3076384,-0.80310893,0
0.060000000000000005,9.568595312364504,5.999999663760378,-5.999999942334133,-5.851388346477265,11.133336,-1.9631226,-3.708647,-0.4649113,19.49945,-9.520622,2.2075512,-0.10492605,-0.4682928,0.34206432,0.80788875,-11.693575,-5.3658934,-0.37351936,0.8634448,-0.35596296,-0.9731208,0
0.07,9.568595312364504,5.999999663760378,-5.999999942334133,-5.851388346477265,11.133336,-1.9631226,-3.708647,-0.4649113,19.381786,-9.57388,2.2036126,-0.09802692,-0.4689994,0.34320027,0.80786365,-11.83872,-5.285622,-0.4143713,0.83366954,-0.40547544,-1.1381974,0
0.08,11.934931102512463,5.9999998834323565,-5.999999986487084,-5.840590193709678,15.596154,0.16093731,-5.0581317,-0.90698594,19.262684,-9.626334,2.1992595,-0.09040518,-0.46971852,0.34390345,0.8080356,-11.981359,-5.2049856,-0.45643327,0.832152,-0.47091725,-1.2973102,0
0.09,11.934931102512463,5.9999998834323565,-5.999999986487084,-5.840590193709678,15.596154,0.16093731,-5.0581317,-0.90698594,19.142097,-9.6779375,2.1945083,-0.08184948,-0.47027147,0.34443665,0.8083988,-12.135622,-5.1157527,-0.49402857,0.9208069,-0.6162623,-1.4561269,0
0.09999999999999999,11.934931102512463,5.9999998834323565,-5.999999986487084,-5.840590193709678,15.596154,0.16093731,-5.0581317,-0.90698594,19.019983,-9.728647,2.1893747,-0.07216847,-0.470489,0.34502834,0.8089419,-12.286523,-5.026161,-0.53287095,1.0266101,-0.7699846,-1.609922,0
0.10999999999999999,11.934931102512463,5.9999998834323565,-5.999999986487084,-5.840590193709678,15.596154,0.16093731,-5.0581317,-0.90698594,18.89638,-9.778458,2.183847,-0.061329175,-0.4703215,0.3457424,0.80962855,-12.43385,-4.9360275,-0.57285917,1.1471493,-0.93104094,-1.7589656,0
0.11999999999999998,11.934931102512463,5.9999998834323565,-5.999999986487084,-5.840590193709678,15.596154,0.16093731,-5.0581317,-0.90698594,18.771322,-9.827364,2.177914,-0.04930498,-0.46971917,0.34662998,0.81041986,-12.577387,-4.845163,-0.6138918,1.2802984,-1.0984596,-1.9035062,0
0.12999999999999998,15.897225839394316,5.999999978323232,-6.0,-5.34721941398318,18.354439,-0.50473416,-6.4475303,-0.80285543,18.644846,-9.875357,2.1715658,-0.03607528,-0.46863177,0.3477307,0.8112743,-12.716906,-4.7533784,-0.65586555,1.4241815,-1.2713392,-2.0437727,0
0.13999999999999999,15.897225839394316,5.999999978323232,-6.0,-5.34721941398318,18.354439,-0.50473416,-6.4475303,-0.80285543,18.516909,-9.922366,2.1648302,-0.021278836,-0.4666506,0.34945768,0.8121967,-12.869924,-4.648245,-0.69140047,1.7527888,-1.6249695,-2.171478,0
0.15,15.897225839394316,5.999999978323232,-6.0,-5.34721941398318,18.354439,-0.50473416,-6.4475303,-0.80285543,18.38747,-9.968317,2.1577342,-0.0045976876,-0.46339038,0.35215396,0.8131639,-13.017013,-4.5417852,-0.72795576,2.0737746,-1.9671547,-2.2968206,0
0.16,20.042291926529618,6.0,-6.0,-4.521569439318402,17.670074,0.285795,-7.971613,0.4452842,18.256592,-10.013195,2.1502683,0.013917523,-0.45883068,0.3557413,0.8140814,-13.157701,-4.433515,-0.76532364,2.38728,-2.298627,-2.4198225,0
0.17,20.042291926529618,6.0,-6.0,-4.521569439318402,17.670074,0.285795,-7.971613,0.4452842,18.124268,-10.05692,2.142458,0.034640953,-0.4524394,0.36061457,0.81489587,-13.30579,-4.311178,-0.7968486,2.9203281,-2.8475816,-2.52029,0
0.18000000000000002,20.042291926529618,6.0,-6.0,-4.521569439318402,17.670074,0.285795,-7.971613,0.4452842,17.990501,-10.099404,2.1343317,0.057850458,-0.4437417,0.36704284,0.8154911,-13.446331,-4.1848273,-0.8282619,3.3995814,-3.3402028,-2.6184933,0
0.19000000000000003,20.042291926529618,6.0,-6.0,-4.521569439318402,17.670074,0.285795,-7.971613,0.4452842,17.855364,-10.140595,2.1258976,0.08321687,-0.4329184,0.3746552,0.8156529,-13.580159,-4.052082,-0.8583142,3.80418,-3.755917,-2.7118778,0
0.20000000000000004,20.999999932181087,6.0,-6.0,-3.8554228884981256,19.038391,1.231963,-8.27869,-0.9351813,17.718925,-10.180424,2.117171,0.11040134,-0.4201644,0.383094,0.815176,-13.706033,-3.9125857,-0.8867271,4.145761,-4.106723,-2.80068,0
0.21000000000000005,20.999999932181087,6.0,-6.0,-3.8554228884981256,19.038391,1.231963,-8.27869,-0.9351813,17.581247,-10.218788,2.1081867,0.13903387,-0.40561825,0.39208838,0.8138855,-13.828341,-3.7592728,-0.9098356,4.4342413,-4.4026537,-2.8524365,0
0.22000000000000006,20.999999932181087,6.0,-6.0,-3.8554228884981256,19.038391,1.231963,-8.27869,-0.9351813,17.442396,-10.255585,2.098982,0.16877927,-0.38940233,0.40141,0.81163347,-13.939883,-3.599001,-0.9307524,4.6778083,-4.6523614,-2.9016533,0
0.23000000000000007,20.999999932181087,6.0,-6.0,-3.8554228884981256,19.038391,1.231963,-8.27869,-0.9351813,17.30249,-10.290746,2.08958,0.19939724,-0.3716576,0.41083363,0.8082862,-14.039553,-3.4322011,-0.94930184,4.8834577,-4.863062,-2.948455,0
0.24000000000000007,20.999999932181087,6.0,-6.0,-3.8554228884981256,20.31635,1.5365949,-8.581657,-0.801428,17.161652,-10.324208,2.080005,0.230669,-0.35251427,0.42016795,0.80373126,-14.126334,-3.2595174,-0.9653506,5.057095,-5.0408463,-2.9929602,0
0.25000000000000006,20.999999932181087,6.0,-6.0,-3.8554228884981256,20.31635,1.5365949,-8.581657,-0.801428,17.020012,-10.355918,2.0702822,0.26239452,-0.33209386,0.4292506,0.79787606,-14.199319,-3.0817802,-0.9788067,5.2037053,-5.1908545,-3.0352817,0
0.26000000000000006,20.999999932181087,6.0,-6.0,-3.8554228884981256,20.31635,1.5365949,-8.581657,-0.801428,16.877716,-10.38583,2.0604382,0.29438993,-0.3105108,0.43794414,0.7906465,-14.257718,-2.8999803,-0.9896181,5.327498,-5.317425,-3.0755265,0
0.2700000000000001,20.999999932181087,6.0,-6.0,-3.8554228884981256,20.31635,1.5365949,-8.581657,-0.801428,16.734913,-10.413908,2.0504992,0.3264857,-0.2878737,0.44613275,0.7819852,-14.300873,-2.7152443,-0.9977718,5.4320254,-5.4242163,-3.1137962,0
0.2800000000000001,21.0,5.99999990956889,-5.9999999754303985,-3.1378188814934647,20.603367,2.1572576,-9.103305,-0.8483971,16.591755,-10.440129,2.0404918,0.35852486,-0.26428577,0.45371875,0.77184963,-14.328264,-2.5288095,-1.0032911,5.5202875,-5.5143194,-3.1501884,0
0.2900000000000001,21.0,5.99999990956889,-5.9999999754303985,-3.1378188814934647,20.603367,2.1572576,-9.103305,-0.8483971,16.448404,-10.464483,2.0304422,0.390294,-0.23980579,0.46064383,0.7602438,-14.339523,-2.3420017,-1.0062345,5.594945,-5.5902123,-3.1495817,0
0.3000000000000001,21.0,5.99999990956889,-5.9999999754303985,-3.1378188814934647,20.603367,2.1572576,-9.103305,-0.8483971,16.305023,-10.486973,2.0203755,0.42159703,-0.21449122,0.46686062,0.74718815,-14.334432,-2.1562095,-1.0066949,5.657984,-5.6542454,-3.1490045,0
0.3100000000000001,21.0,5.99999990956889,-5.9999999754303985,-3.1378188814934647,20.603367,2.1572576,-9.103305,-0.8483971,16.161774,-10.507615,2.0103161,0.45231906,-0.1884373,0.4723087,0.73268193,-14.312923,-1.9728622,-1.0048,5.711213,-5.7082725,-3.1484556,0
0.3200000000000001,21.0,3.82174104075379,-5.999999423700644,0.1708506039803675,19.789064,0.8979589,-8.424117,-0.032871198,16.01882,-10.526443,2.0002868,0.48235345,-0.16173588,0.47693798,0.7167331,-14.27509,-1.7934098,-1.0007098,5.756158,-5.753857,-3.1479335,0
0.3300000000000001,21.0,3.82174104075379,-5.999999423700644,0.1708506039803675,19.789064,0.8979589,-8.424117,-0.032871198,15.876325,-10.543501,1.9903088,0.5111864,-0.1347134,0.4801625,0.6999887,-14.221245,-1.6193053,-0.9945704,5.4550242,-5.791044,-2.9850798,0
0.34000000000000014,21.0,3.82174104075379,-5.999999423700644,0.1708506039803675,19.789064,0.8979589,-8.424117,-0.032871198,15.734446,-10.558851,1.9804027,0.5384352,-0.107652664,0.48156923,0.68307316,-14.152229,-1.4519632,-0.98631227,5.200841,-5.8226104,-2.8302174,0
0.35000000000000014,21.0,3.82174104075379,-5.999999423700644,0.1708506039803675,19.789064,0.8979589,-8.424117,-0.032871198,15.593328,-10.572568,1.9705902,0.564183,-0.08057136,0.48134938,0.665964,-14.069065,-1.2926636,-0.975846,4.9862823,-5.8493986,-2.6829543,0
0.36000000000000015,21.0,1.9189476258063713,-4.279196277534426,3.0114000879782066,20.034075,-1.2833172,-7.293146,1.9155197,15.45311,-10.584736,1.9608935,0.58849674,-0.05348432,0.47966236,0.6486406,-13.972787,-1.1425457,-0.96315384,4.8051686,-5.8721285,-2.5429173,0
0.37000000000000016,21.0,1.9189476258063713,-4.279196277534426,3.0114000879782066,20.034075,-1.2833172,-7.293146,1.9155197,15.314015,-10.595318,1.9514418,0.6108835,-0.027183393,0.4766848,0.6315485,-13.844445,-0.9765639,-0.92733836,4.386357,-5.5923705,-2.306632,0
0.38000000000000017,21.0,1.9189476258063713,-4.279196277534426,3.0114000879782066,20.034075,-1.2833172,-7.293146,1.9155197,15.176251,-10.604322,1.9423435,0.63101214,-0.002275988,0.47263882,0.61516714,-13.707118,-0.82691246,-0.89249885,4.0326567,-5.3565106,-2.0761988,0
0.3900000000000002,21.0,1.9189476258063713,-4.279196277534426,3.0114000879782066,20.034075,-1.2833172,-7.293146,1.9155197,15.039897,-10.611911,1.9335877,0.64914477,0.021479307,0.46769395,0.5995094,-13.562966,-0.69308406,-0.85885286,3.734033,-5.1575675,-1.8514727,0
0.4000000000000002,21.0,1.0777901032811301,-1.626519661052697,3.2610205483983874,18.544071,-2.2636037,-5.102278,1.8367958,14.90501,-10.618237,1.9251617,0.6654979,0.04429064,0.46197975,0.58457255,-13.413808,-0.57448417,-0.8265985,3.4820774,-4.9895935,-1.6323124,0
0.4100000000000002,21.0,1.0777901032811301,-1.626519661052697,3.2610205483983874,18.544071,-2.2636037,-5.102278,1.8367958,14.771655,-10.623435,1.9170691,0.6799676,0.06547013,0.4556691,0.5707213,-13.256814,-0.4673804,-0.79219216,2.998536,-4.5738707,-1.4123976,0
0.4200000000000002,21.0,1.0777901032811301,-1.626519661052697,3.2610205483983874,18.544071,-2.2636037,-5.102278,1.8367958,14.63988,-10.627631,1.9093118,0.69254154,0.08449001,0.4489594,0.55828536,-13.097966,-0.37396923,-0.7595455,2.592967,-4.2204423,-1.1979293,0
0.4300000000000002,21.0,1.0777901032811301,-1.626519661052697,3.2610205483983874,18.544071,-2.2636037,-5.102278,1.8367958,14.509698,-10.630956,1.901872,0.70349467,0.10173245,0.44196057,0.5471892,-12.938488,-0.2928451,-0.72860825,2.255652,-3.9171457,-0.98900425,0
0.4400000000000002,21.0,1.0777901032811301,-1.626519661052697,3.2610205483983874,16.982197,-2.537242,-2.9907048,1.5422199,14.381114,-10.633522,1.8947377,0.71301544,0.11752948,0.43482536,0.53732866,-12.77804,-0.22221257,-0.69833076,1.9969349,-3.6351852,-0.7872457,0
0.45000000000000023,21.0,1.0777901032811301,-1.626519661052697,3.2610205483983874,16.982197,-2.537242,-2.9907048,1.5422199,14.254138,-10.635431,1.8879032,0.7212161,0.13217404,0.4277629,0.5285789,-12.617208,-0.161084,-0.66867423,1.8096089,-3.366161,-0.5926048,0
0.46000000000000024,21.0,1.0777901032811301,-1.626519661052697,3.2610205483983874,16.982197,-2.537242,-2.9907048,1.5422199,14.128769,-10.636773,1.8813612,0.7281787,0.1459188,0.4209519,0.5208285,-12.456663,-0.10868068,-0.63988984,1.6834,-3.1071742,-0.40465638,0
0.47000000000000025,21.0,1.0777901032811301,-1.626519661052697,3.2610205483983874,16.982197,-2.537242,-2.9907048,1.5422199,14.005007,-10.6376295,1.8751056,0.7339874,0.15897118,0.4144949,0.5139883,-12.295444,-0.06387988,-0.61111677,1.5893555,-2.8760552,-0.2247806,0
0.48000000000000026,20.999999964042704,0.3204423920567511,0.6427845981135897,3.672486840619302,16.86417,-2.1055303,-0.7936187,1.4183586,13.882864,-10.638073,1.8691405,0.7387732,0.17147982,0.4083432,0.50799984,-12.132883,-0.025896939,-0.5818284,1.5099058,-2.6810102,-0.05373133,0
0.49000000000000027,20.999999964042704,0.3204423920567511,0.6427845981135897,3.672486840619302,16.86417,-2.1055303,-0.7936187,1.4183586,13.762367,-10.638165,1.8634818,0.74238455,0.18287317,0.40281588,0.5031512,-11.966646,0.0062605785,-0.5502174,1.2907797,-2.196413,0.12605453,0
0.5000000000000002,20.999999964042704,0.3204423920567511,0.6427845981135897,3.672486840619302,16.86417,-2.1055303,-0.7936187,1.4183586,13.643524,-10.637967,1.85813,0.7446633,0.1927435,0.39831534,0.49967045,-11.801821,0.032539506,-0.52029324,1.1361033,-1.7570436,0.2997517,0
0.5100000000000002,20.999999964042704,0.3204423920567511,0.6427845981135897,3.672486840619302,16.86417,-2.1055303,-0.7936187,1.4183586,13.526332,-10.637529,1.8530751,0.74575615,0.20139386,0.39477453,0.49743396,-11.636527,0.054317813,-0.49071172,1.0089799,-1.382707,0.4652528,0
0.5200000000000002,20.999999730739283,-0.5262624612658786,2.85323070409481,3.584242238151964,17.485556,-2.1375394,1.6712513,1.8380175,13.410796,-10.636893,1.8483146,0.7458256,0.20905401,0.39203265,0.49633682,-11.470552,0.07247615,-0.46144682,0.9016186,-1.0667721,0.6226327,0
0.5300000000000002,20.999999730739283,-0.5262624612658786,2.85323070409481,3.584242238151964,17.485556,-2.1375394,1.6712513,1.8380175,13.296923,-10.63609,1.8438445,0.74473655,0.21521753,0.39044043,0.49659282,-11.303931,0.08781215,-0.43265396,0.67874,-0.45547467,0.7679597,0
0.5400000000000003,20.999999730739283,-0.5262624612658786,2.85323070409481,3.584242238151964,17.485556,-2.1375394,1.6712513,1.8380175,13.184719,-10.635142,1.8396593,0.7423928,0.21949054,0.3902675,0.49836475,-11.136685,0.10151316,-0.40449578,0.49055997,0.06046717,0.9061555,0
0.5500000000000003,20.999999730739283,-0.5262624612658786,2.85323070409481,3.584242238151964,17.485556,-2.1375394,1.6712513,1.8380175,13.074192,-10.634062,1.835752,0.7389559,0.22219503,0.3912662,0.50148135,-10.968828,0.1147611,-0.37710345,0.33168977,0.4959326,1.03757,0
0.5600000000000003,20.99999968862954,-1.9947584947909998,5.069104886896834,3.2752802561691383,18.886053,-1.7253872,3.5873814,1.6390791,12.965345,-10.632847,1.8321142,0.7345491,0.22359765,0.39322203,0.50578386,-10.800376,0.12855776,-0.35057157,0.19757572,0.8634783,1.162536,0
0.5700000000000003,20.99999968862954,-1.9947584947909998,5.069104886896834,3.2752802561691383,18.886053,-1.7253872,3.5873814,1.6390791,12.858186,-10.631487,1.8287374,0.7290671,0.22302295,0.39630884,0.51152754,-10.631376,0.14384952,-0.32495877,-0.14491382,1.5190759,1.2662089,0
0.5800000000000003,20.99999968862954,-1.9947584947909998,5.069104886896834,3.2752802561691383,18.886053,-1.7253872,3.5873814,1.6390791,12.752719,-10.62996,1.825612,0.7224099,0.21993539,0.40063652,0.5188852,-10.462007,0.1619979,-0.30024537,-0.43398315,2.0724359,1.3647946,0
0.5900000000000003,20.99999968862954,-1.9947584947909998,5.069104886896834,3.2752802561691383,18.886053,-1.7253872,3.5873814,1.6390791,12.648946,-10.628233,1.8227295,0.7146611,0.21472436,0.40594405,0.52759975,-10.292517,0.18433909,-0.27639443,-0.67795384,2.5395076,1.4585427,0
0.6000000000000003,20.99999983914652,-3.3284362645657724,5.999997668534763,2.2700584711515233,18.342747,-2.2014422,5.077181,1.5072277,12.546866,-10.626255,1.8200812,0.7058788,0.20771523,0.41200554,0.5374385,-10.123207,0.21198982,-0.25338554,-0.883852,2.9337509,1.5476906,0
0.6100000000000003,20.99999983914652,-3.3284362645657724,5.999997668534763,2.2700584711515233,18.342747,-2.2014422,5.077181,1.5072277,12.446479,-10.623971,1.8176589,0.69612396,0.1985523,0.41862312,0.54839975,-9.954462,0.24592446,-0.2311947,-1.2656434,3.4115171,1.5831375,0
0.6200000000000003,20.99999983914652,-3.3284362645657724,5.999997668534763,2.2700584711515233,18.342747,-2.2014422,5.077181,1.5072277,12.347774,-10.621312,1.815455,0.6854297,0.18695633,0.42560932,0.5604367,-9.78688,0.28721818,-0.20968887,-1.5878339,3.814823,1.6168448,0
0.6300000000000003,20.99999983914652,-3.3284362645657724,5.999997668534763,2.2700584711515233,18.342747,-2.2014422,5.077181,1.5072277,12.250735,-10.618198,1.8134631,0.67379457,0.17328338,0.4327974,0.57328814,-9.621162,0.33682653,-0.1887487,-1.8597248,4.1552753,1.6488981,0
0.6400000000000003,20.99999983914652,-3.3284362645657724,5.999997668534763,2.2700584711515233,18.948154,-2.8069546,6.0365224,0.8421281,12.155342,-10.614545,1.8116782,0.6612151,0.15783669,0.44004405,0.5867218,-9.458061,0.39549384,-0.16832134,-2.0891662,4.4426713,1.6793785,0
0.6500000000000004,20.99999983914652,-3.3284362645657724,5.999997668534763,2.2700584711515233,18.948154,-2.8069546,6.0365224,0.8421281,12.061563,-10.610256,1.810095,0.64768964,0.1408763,0.44722703,0.60053235,-9.298364,0.46377307,-0.1484136,-2.2827828,4.6852813,1.7083634,0
0.6600000000000004,20.99999983914652,-3.3284362645657724,5.999997668534763,2.2700584711515233,18.948154,-2.8069546,6.0365224,0.8421281,11.969359,-10.605235,1.808708,0.6332198,0.12262673,0.4542428,0.6145388,-9.142881,0.5420429,-0.1290843,-2.4461675,4.890085,1.735926,0
0.6700000000000004,20.99999983914652,-3.3284362645657724,5.999997668534763,2.2700584711515233,18.948154,-2.8069546,6.0365224,0.8421281,11.878687,-10.59938,1.807511,0.6178118,0.103282996,0.46100396,0.6285822,-8.992447,0.6305226,-0.110436425,-2.5840383,5.062976,1.7621361,0
0.6800000000000004,20.99999986943161,-3.3900621072358375,5.941122710700296,2.0631133377209547,19.91364,-3.0983057,6.3591146,0.8997429,11.78949,-10.592588,1.8064965,0.6014765,0.08301546,0.46743733,0.642523,-8.847894,0.7292849,-0.092609644,-2.7003787,5.2089267,1.7870599,0
0.6900000000000004,20.99999986943161,-3.3900621072358375,5.941122710700296,2.0631133377209547,19.91364,-3.0983057,6.3591146,0.8997429,11.701706,-10.584759,1.8056555,0.58425874,0.061962392,0.473454,0.6562337,-8.710053,0.8382664,-0.07577055,-2.8081143,5.3229623,1.8006059,0
0.7000000000000004,20.99999986943161,-3.3900621072358375,5.941122710700296,2.0631133377209547,19.91364,-3.0983057,6.3591146,0.8997429,11.615263,-10.5757885,1.804977,0.5662044,0.040245946,0.4789815,0.6696032,-8.579746,0.957272,-0.060094252,-2.8990273,5.4192333,1.8134872,0
0.7100000000000004,20.99999986943161,-3.3900621072358375,5.941122710700296,2.0631133377209547,19.91364,-3.0983057,6.3591146,0.8997429,11.530083,-10.565579,1.804449,0.54733235,0.017985167,0.48398614,0.6825395,-8.4577675,1.0859923,-0.045770984,-2.9757438,5.500508,1.8257364,0
0.7200000000000004,20.99999979355886,-3.0083462687291473,4.952281161636423,1.4613076456677183,19.235939,-3.4688458,6.199316,1.0345259,11.446077,-10.554037,1.8040563,0.52766484,-0.0047139567,0.48844048,0.69496214,-8.344875,1.2240173,-0.03300652,-3.0404804,5.5691214,1.8373846,0
0.7300000000000004,20.99999979355886,-3.0083462687291473,4.952281161636423,1.4613076456677183,19.235939,-3.4688458,6.199316,1.0345259,11.363152,-10.541069,1.8037826,0.50747967,-0.027436873,0.49222732,0.70669854,-8.241759,1.3708189,-0.022006923,-3.0352883,5.472968,1.8189304,0
0.7400000000000004,20.99999979355886,-3.0083462687291473,4.952281161636423,1.4613076456677183,19.235939,-3.4688458,6.199316,1.0345259,11.281206,-10.526592,1.8036094,0.48703718,-0.049850557,0.495281,0.7176387,-8.148892,1.5256531,-0.012921856,-3.0309289,5.391807,1.8013816,0
0.7500000000000004,20.99999979355886,-3.0083462687291473,4.952281161636423,1.4613076456677183,19.235939,-3.4688458,6.199316,1.0345259,11.200136,-10.51053,1.803517,0.46633637,-0.071977444,0.49764878,0.72780097,-8.066638,1.6877207,-0.005878118,-3.0272686,5.3233004,1.7846941,0
0.7600000000000005,20.99999942663347,-2.272000485175872,3.4319485467479014,0.9108006449701084,18.821804,-3.1448417,4.913771,0.6167851,11.119836,-10.492815,1.8034843,0.4453782,-0.0938346,0.49936953,0.7371989,-7.995315,1.8562309,-0.0010003695,-3.0241964,5.2654753,1.7688253,0
0.7700000000000005,20.99999942663347,-2.272000485175872,3.4319485467479014,0.9108006449701084,18.821804,-3.1448417,4.913771,0.6167851,11.040193,-10.473386,1.8034891,0.42455578,-0.11489029,0.5004276,0.74573696,-7.9351435,2.030373,0.001605183,-2.9064257,4.979753,1.7267218,0
0.7800000000000005,20.99999942663347,-2.272000485175872,3.4319485467479014,0.9108006449701084,18.821804,-3.1448417,4.913771,0.6167851,10.961096,-10.452191,1.8035085,0.4042204,-0.13473485,0.50085294,0.75339067,-7.8859844,2.209215,0.0019317543,-2.8070922,4.738559,1.6866843,0
0.7900000000000005,20.99999942663347,-2.272000485175872,3.4319485467479014,0.9108006449701084,18.821804,-3.1448417,4.913771,0.6167851,10.882436,-10.429188,1.80352,0.38431293,-0.15354504,0.50073093,0.76025975,-7.8475814,2.3918746,1.1321332e-05,-2.7233088,4.5349526,1.6486115,0
0.8000000000000005,20.918253768133937,-1.386685727770236,1.7480583189307022,0.3813482564239659,17.229214,-3.9763265,3.589597,0.24937634,10.804107,-10.404342,1.8035012,0.36477897,-0.1714703,0.500128,0.7664235,-7.8196917,2.5775707,-0.0041228905,-2.6526396,4.363078,1.612407,0
0.8100000000000005,20.918253768133937,-1.386685727770236,1.7480583189307022,0.3813482564239659,17.229214,-3.9763265,3.589597,0.24937634,10.726006,-10.377632,1.8034283,0.34602365,-0.18802683,0.4991223,0.7718738,-7.8020883,2.7648587,-0.010777578,-2.4546301,3.9555721,1.5519986,0
0.8200000000000005,20.918253768133937,-1.386685727770236,1.7480583189307022,0.3813482564239659,17.229214,-3.9763265,3.589597,0.24937634,10.648032,-10.34904,1.8032787,0.32839257,-0.20285495,0.4978126,0.7766527,-7.794003,2.9537604,-0.019429212,-2.287601,3.611566,1.4945544,0
0.8300000000000005,20.918253768133937,-1.386685727770236,1.7480583189307022,0.3813482564239659,17.229214,-3.9763265,3.589597,0.24937634,10.570095,-10.318553,1.8030334,0.311753,-0.216237,0.49626592,0.78087795,-7.7947187,3.143683,-0.029892316,-2.1467023,3.3211663,1.4399291,0
0.8400000000000005,20.918253768133937,-1.386685727770236,1.7480583189307022,0.3813482564239659,16.228386,-4.0250077,2.8357625,-0.1804728,10.492109,-10.286164,1.8026752,0.2959856,-0.2284101,0.49452996,0.7846401,-7.8036113,3.3341513,-0.041997787,-2.0278435,3.0760214,1.3879843,0
0.8500000000000005,20.918253768133937,-1.386685727770236,1.7480583189307022,0.3813482564239659,16.228386,-4.0250077,2.8357625,-0.1804728,10.413996,-10.251868,1.8021884,0.28098413,-0.2395731,0.4926386,0.7880092,-7.8201375,3.5247786,-0.05559415,-1.9275756,2.869079,1.3385885,0
0.8600000000000005,20.918253768133937,-1.386685727770236,1.7480583189307022,0.3813482564239659,16.228386,-4.0250077,2.8357625,-0.1804728,10.335681,-10.215669,1.8015586,0.26665494,-0.24989259,0.4906153,0.7910399,-7.8438253,3.7152486,-0.070547335,-1.842989,2.6943867,1.2916164,0
0.8700000000000006,20.918253768133937,-1.386685727770236,1.7480583189307022,0.3813482564239659,16.228386,-4.0250077,2.8357625,-0.1804728,10.257096,-10.177566,1.8007731,0.2529159,-0.25950795,0.48847637,0.79377496,-7.874267,3.9052966,-0.08673979,-1.7716305,2.5469189,1.2469493,0
0.8800000000000006,18.71289603858016,-0.46541506068057054,0.0060806996395601325,-0.052601443363682804,13.734975,-2.6300821,1.4353313,-0.38029394,10.178175,-10.137565,1.79982,0.23969528,-0.26853552,0.48623276,0.7962482,-7.9111094,4.0946975,-0.10406913,-1.7114303,2.4224336,1.204474,0
0.8900000000000006,18.71289603858016,-0.46541506068057054,0.0060806996395601325,-0.052601443363682804,13.734975,-2.6300821,1.4353313,-0.38029394,10.098876,-10.095774,1.7986461,0.22741377,-0.27645835,0.48401102,0.79848963,-7.9494567,4.263385,-0.1308329,-1.5167365,2.0458186,1.142789,0
0.9000000000000006,18.71289603858016,-0.46541506068057054,0.0060806996395601325,-0.052601443363682804,13.734975,-2.6300821,1.4353313,-0.38029394,10.01917,-10.052301,1.7972007,0.21641359,-0.2828854,0.48193136,0.8005509,-7.9925427,4.4312344,-0.15832257,-1.35248,1.7278967,1.0841308,0
0.9100000000000006,18.71289603858016,-0.46541506068057054,0.0060806996395601325,-0.052601443363682804,13.734975,-2.6300821,1.4353313,-0.38029394,9.939012,-10.0071535,1.7954777,0.20652807,-0.28807327,0.47998574,0.80247873,-8.039694,4.5982084,-0.18633407,-1.2138995,1.4595226,1.028351,0
0.9200000000000006,17.1295625721561,0.368505520757249,-1.6121061606199314,-0.4149560991514631,13.099428,-2.6626315,0.7004948,-0.6981187,9.858364,-9.960341,1.7934728,0.19761264,-0.29223552,0.47816154,0.8043057,-8.090343,4.764302,-0.21469235,-1.096979,1.2329757,0.97530836,0
0.9300000000000006,17.1295625721561,0.368505520757249,-1.6121061606199314,-0.4149560991514631,13.099428,-2.6626315,0.7004948,-0.6981187,9.777217,-9.9119425,1.7911537,0.1899863,-0.29498616,0.47657505,0.8060788,-8.139419,4.9155583,-0.24911667,-0.8681197,0.7894712,0.9070877,0
0.9400000000000006,17.1295625721561,0.368505520757249,-1.6121061606199314,-0.4149560991514631,13.099428,-2.6626315,0.7004948,-0.6981187,9.695568,-9.862034,1.7884905,0.18390004,-0.29603407,0.47532374,0.807843,-8.190493,5.066129,-0.2834858,-0.6750291,0.41508958,0.84221464,0
0.9500000000000006,17.1295625721561,0.368505520757249,-1.6121061606199314,-0.4149560991514631,13.099428,-2.6626315,0.7004948,-0.6981187,9.613402,-9.810622,1.7854849,0.17914449,-0.2956675,0.4743627,0.80960876,-8.242863,5.21614,-0.31758454,-0.5121124,0.09905998,0.7805249,0
0.9600000000000006,15.817809234826445,0.8481144016977321,-2.9718579283518216,-0.6353336098238954,12.293895,-2.509296,-0.15891397,-1.1332486,9.530708,-9.757712,1.7821404,0.17553957,-0.29412568,0.47364786,0.8113766,-8.295938,5.3657103,-0.351235,-0.37465075,-0.16771095,0.72186226,0
0.9700000000000006,15.817809234826445,0.8481144016977321,-2.9718579283518216,-0.6353336098238954,12.293895,-2.509296,-0.15891397,-1.1332486,9.447503,-9.703366,1.7784375,0.17326687,-0.29114494,0.47319072,0.81320477,-8.3451,5.5035286,-0.3892573,-0.1837809,-0.604918,0.65526426,0
0.9800000000000006,15.817809234826445,0.8481144016977321,-2.9718579283518216,-0.6353336098238954,12.293895,-2.509296,-0.15891397,-1.1332486,9.363809,-9.647642,1.7743579,0.17246181,-0.286524,0.4729939,0.8151294,-8.393778,5.641179,-0.42650652,-0.02273938,-0.973971,0.5919342,0
0.9900000000000007,15.817809234826445,0.8481144016977321,-2.9718579283518216,-0.6353336098238954,12.293895,-2.509296,-0.15891397,-1.1332486,9.279632,-9.590543,1.7699107,0.17291805,-0.28052828,0.47300383,0.81711006,-8.441358,5.778781,-0.46278563,0.11314021,-1.2854922,0.53171176,0
1.0000000000000007,15.820749820810168,0.8648844988861142,-3.611260319353384,-0.8349934135004156,12.960528,-2.512261,-1.2173607,-0.61830795,9.194987,-9.532067,1.765106,0.17445898,-0.27337885,0.47317106,0.8191066,-8.487315,5.9164248,-0.49794054,0.22779281,-1.5484486,0.47444448,0
1.0100000000000007,15.820749820810168,0.8648844988861142,-3.611260319353384,-0.8349934135004156,12.960528,-2.512261,-1.2173607,-0.61830795,9.109892,-9.472214,1.759956,0.17707643,-0.2650609,0.47340444,0.8211414,-8.531193,6.0541964,-0.5318314,0.3271688,-1.8701258,0.41019,0
1.0200000000000007,15.820749820810168,0.8648844988861142,-3.611260319353384,-0.8349934135004156,12.960528,-2.512261,-1.2173607,-0.61830795,9.024372,-9.410982,1.7544742,0.18075614,-0.2555705,0.47362337,0.8232195,-8.572497,6.192099,-0.564315,0.4110132,-2.1416485,0.34908843,0
1.0300000000000007,15.820749820810168,0.8648844988861142,-3.611260319353384,-0.8349934135004156,12.960528,-2.512261,-1.2173607,-0.61830795,8.938453,-9.3483715,1.748675,0.18534923,-0.24509235,0.47380018,0.82528013,-8.610784,6.3301296,-0.595257,0.48175693,-2.370836,0.2909852,0
1.0400000000000007,15.820749820810168,0.8648844988861142,-3.611260319353384,-0.8349934135004156,12.942008,-2.6349971,-1.5827816,-0.6966134,8.852167,-9.28438,1.7425746,0.19072793,-0.23378189,0.47391045,0.8272703,-8.645666,6.4682555,-0.62456185,0.54145,-2.564288,0.23573314,0
1.0500000000000007,15.820749820810168,0.8648844988861142,-3.611260319353384,-0.8349934135004156,12.942008,-2.6349971,-1.5827816,-0.6966134,8.765552,-9.219007,1.7361896,0.19678247,-0.22177033,0.47393325,0.82914424,-8.676812,6.606417,-0.6521674,0.5918212,-2.7275753,0.18319228,0
1.0600000000000007,15.820749820810168,0.8648844988861142,-3.611260319353384,-0.8349934135004156,12.942008,-2.6349971,-1.5827816,-0.6966134,8.678645,-9.152251,1.7295374,0.20341837,-0.20916864,0.473851,0.8308628,-8.703935,6.744531,-0.6780396,0.6343286,-2.8654013,0.13322961,0
1.0700000000000007,15.820749820810168,0.8648844988861142,-3.611260319353384,-0.8349934135004156,12.942008,-2.6349971,-1.5827816,-0.6966134,8.591487,-9.084116,1.722635,0.21055418,-0.19607092,0.47364917,0.83239293,-8.726789,6.882494,-0.7021685,0.6702017,-2.9817352,0.08571865,0
1.0800000000000007,15.539997643207116,0.353825944622983,-3.6628134520845514,-0.8847936387629372,12.533324,-2.5654612,-0.89226526,-1.1180454,8.504125,-9.014603,1.7155,0.21811952,-0.18255706,0.47331607,0.8337068,-8.745166,7.020185,-0.7245641,0.7004774,-3.0799282,0.040539056,0
1.0900000000000007,15.539997643207116,0.353825944622983,-3.6628134520845514,-0.8847936387629372,12.533324,-2.5654612,-0.89226526,-1.1180454,8.416602,-8.943727,1.7081426,0.2260319,-0.16872601,0.47266632,0.8348808,-8.75865,7.155026,-0.74661624,0.6463258,-3.1708493,-0.004867291,0
1.1000000000000008,15.539997643207116,0.353825944622983,-3.6628134520845514,-0.8847936387629372,12.533324,-2.5654612,-0.89226526,-1.1180454,8.328968,-8.871504,1.7005733,0.23422551,-0.15466261,0.47155312,0.8359748,-8.767461,7.289272,-0.7669507,0.600619,-3.2475877,-0.048045523,0
1.1100000000000008,15.539997643207116,0.353825944622983,-3.6628134520845514,-0.8847936387629372,12.533324,-2.5654612,-0.89226526,-1.1180454,8.24127,-8.797943,1.6928095,0.2426651,-0.14041047,0.47002044,0.8369455,-8.771527,7.4227185,-0.7855375,0.5620412,-3.3123558,-0.089104995,0
1.1200000000000008,15.215627767745328,-0.5690427415374226,-3.170271492042158,-0.7678823480616516,13.654081,-3.269095,-1.1828201,-0.5502398,8.153555,-8.723052,1.6848686,0.25131878,-0.12600651,0.46810624,0.8377566,-8.770794,7.5551643,-0.802369,0.5294814,-3.367021,-0.12814966,0
1.1300000000000008,15.215627767745328,-0.5690427415374226,-3.170271492042158,-0.7678823480616516,13.654081,-3.269095,-1.1828201,-0.5502398,8.06587,-8.646857,1.6767595,0.26000935,-0.11173468,0.46558705,0.838533,-8.765358,7.6836615,-0.81917715,0.35810143,-3.3363316,-0.15954153,0
1.1400000000000008,15.215627767745328,-0.5690427415374226,-3.170271492042158,-0.7678823480616516,13.654081,-3.269095,-1.1828201,-0.5502398,7.9782634,-8.569384,1.668491,0.2686007,-0.09782568,0.462295,0.839384,-8.755341,7.81074,-0.8342095,0.21345206,-3.3104239,-0.189393,0
1.1500000000000008,15.215627767745328,-0.5690427415374226,-3.170271492042158,-0.7678823480616516,13.654081,-3.269095,-1.1828201,-0.5502398,7.890779,-8.490648,1.6600814,0.2771196,-0.08423552,0.45833457,0.8402601,-8.7409115,7.9361706,-0.8474065,0.091364145,-3.288554,-0.21777964,0
1.1600000000000008,15.059679790113941,-1.7429858418080664,-2.4021910169898355,-0.463114339960411,14.353072,-3.8727217,-0.6854016,-0.17647506,7.80346,-8.410667,1.6515492,0.28558585,-0.0709259,0.45379382,0.8411183,-8.722224,8.059743,-0.8587297,-0.011680877,-3.270093,-0.24477333,0
1.1700000000000008,15.059679790113941,-1.7429858418080664,-2.4021910169898355,-0.463114339960411,14.353072,-3.8727217,-0.6854016,-0.17647506,7.716347,-8.329467,1.6429088,0.29381254,-0.058240857,0.44844466,0.84212714,-8.699683,8.180012,-0.869053,-0.28167737,-3.1346993,-0.2554874,0
1.1800000000000008,15.059679790113941,-1.7429858418080664,-2.4021910169898355,-0.463114339960411,14.353072,-3.8727217,-0.6854016,-0.17647506,7.629479,-8.247076,1.6341751,0.30165768,-0.04645366,0.4421174,0.8434308,-8.673446,8.2980385,-0.87738127,-0.50956863,-3.020424,-0.2656757,0
1.1900000000000008,15.059679790113941,-1.7429858418080664,-2.4021910169898355,-0.463114339960411,14.353072,-3.8727217,-0.6854016,-0.17647506,7.5428896,-8.163516,1.6253685,0.30919176,-0.035436686,0.43495747,0.8449588,-8.643882,8.413633,-0.8836033,-0.70192116,-2.9239733,-0.27536407,0
1.2000000000000008,15.005442972447208,-2.887841414472212,-1.3363513150916109,0.012293412552778092,13.900228,-3.8751998,0.3916393,-0.010898488,7.4566116,-8.078813,1.6165106,0.31647053,-0.025080362,0.4270861,0.8466484,-8.611313,8.526629,-0.8876343,-0.8642771,-2.8425674,-0.284577,0
1.2100000000000009,15.005442972447208,-2.887841414472212,-1.3363513150916109,0.012293412552778092,13.900228,-3.8751998,0.3916393,-0.010898488,7.370672,-7.992995,1.6076219,0.32329774,-0.015773311,0.41835484,0.8486505,-8.576184,8.63648,-0.8897475,-1.1797824,-2.6076264,-0.27000952,0
1.2200000000000009,15.005442972447208,-2.887841414472212,-1.3363513150916109,0.012293412552778092,13.900228,-3.8751998,0.3916393,-0.010898488,7.285095,-7.9060926,1.5987239,0.32952198,-0.007819156,0.40865546,0.85108966,-8.538881,8.74347,-0.88947845,-1.4460965,-2.409338,-0.25615686,0
1.2300000000000009,15.005442972447208,-2.887841414472212,-1.3363513150916109,0.012293412552778092,13.900228,-3.8751998,0.3916393,-0.010898488,7.1999,-7.8181353,1.589841,0.33524016,-0.001015427,0.39813295,0.8538746,-8.499915,8.847494,-0.8867049,-1.6708884,-2.2419832,-0.24298392,0
1.2400000000000009,15.005442972447208,-2.887841414472212,-1.3363513150916109,0.012293412552778092,14.765984,-4.4113393,0.91338474,0.71015334,7.115101,-7.729153,1.5809988,0.34052935,0.004810401,0.38690707,0.85692376,-8.4597225,8.948459,-0.8813363,-1.860632,-2.1007357,-0.2304574,0
1.2500000000000009,15.005442972447208,-2.887841414472212,-1.3363513150916109,0.012293412552778092,14.765984,-4.4113393,0.91338474,0.71015334,7.0307083,-7.639177,1.5722234,0.34545112,0.00980517,0.37507743,0.8601645,-8.41868,9.046274,-0.87331045,-2.0207913,-1.9815222,-0.21854554,0
1.260000000000001,15.005442972447208,-2.887841414472212,-1.3363513150916109,0.012293412552778092,14.765984,-4.4113393,0.91338474,0.71015334,6.9467287,-7.548239,1.5635418,0.35005453,0.014093759,0.3627273,0.86353385,-8.377114,9.140855,-0.86259186,-2.155979,-1.8809048,-0.2072182,0
1.270000000000001,15.005442972447208,-2.887841414472212,-1.3363513150916109,0.012293412552778092,14.765984,-4.4113393,0.91338474,0.71015334,6.863167,-7.456372,1.554981,0.35437888,0.017782295,0.34992683,0.8669771,-8.335305,9.23212,-0.8491684,-2.2700884,-1.7959826,-0.1964467,0
1.280000000000001,15.065203780730124,-3.66535262660366,-0.4433818977161229,0.5330705824591462,15.126626,-4.939912,1.0103734,2.2160406,6.7800226,-7.3636084,1.5465678,0.35845557,0.020960925,0.33673516,0.8704472,-8.293499,9.31999,-0.833049,-2.3664062,-1.7243067,-0.18620375,0
1.290000000000001,15.065203780730124,-3.66535262660366,-0.4433818977161229,0.5330705824591462,15.126626,-4.939912,1.0103734,2.2160406,6.6972966,-7.2699823,1.5383315,0.3621415,0.02330426,0.32305834,0.87403804,-8.251777,9.404725,-0.81378806,-2.568917,-1.5245817,-0.15090875,0
1.300000000000001,15.065203780730124,-3.66535262660366,-0.4433818977161229,0.5330705824591462,15.126626,-4.939912,1.0103734,2.2160406,6.614985,-7.175526,1.5303013,0.36532038,0.024557913,0.30882373,0.87781805,-8.210696,9.4859295,-0.79183555,-2.7398589,-1.3560121,-0.11734569,0
1.310000000000001,15.065203780730124,-3.66535262660366,-0.4433818977161229,0.5330705824591462,15.126626,-4.939912,1.0103734,2.2160406,6.533079,-7.080276,1.5225041,0.36804962,0.02488867,0.2941059,0.8817145,-8.170655,9.5635605,-0.76719767,-2.8841527,-1.2137367,-0.08542958,0
1.320000000000001,15.320436621824015,-4.151174063801412,0.2811128376543969,1.0543493806296387,16.330564,-5.0703273,0.90779227,2.971844,6.451567,-6.9842677,1.5149665,0.37037525,0.024437962,0.2789678,0.885664,-8.131996,9.637567,-0.7399072,-3.005952,-1.093653,-0.055079605,0
1.330000000000001,15.320436621824015,-4.151174063801412,0.2811128376543969,1.0543493806296387,16.330564,-5.0703273,0.90779227,2.971844,6.3704367,-6.8875318,1.5077256,0.37220213,0.023014177,0.2633964,0.88969487,-8.094412,9.709092,-0.7078492,-3.1845093,-0.8793652,-0.0006396035,0
1.340000000000001,15.320436621824015,-4.151174063801412,0.2811128376543969,1.0543493806296387,16.330564,-5.0703273,0.90779227,2.971844,6.2896714,-6.790099,1.5008185,0.3734501,0.020471616,0.24738322,0.8938211,-8.058968,9.77686,-0.67320603,-3.335236,-0.6985016,0.05112901,0
1.350000000000001,15.320436621824015,-4.151174063801412,0.2811128376543969,1.0543493806296387,16.330564,-5.0703273,0.90779227,2.971844,6.209248,-6.6920075,1.4942702,0.37417212,0.016983239,0.2309841,0.897971,-8.026062,9.840847,-0.6360569,-3.4624684,-0.54584646,0.10035731,0
1.360000000000001,15.231952197472152,-4.206632513456986,0.5441192626171246,1.4258992041830902,16.250685,-5.968755,2.716538,3.3393567,6.12914,-6.593295,1.4881055,0.37441105,0.012695739,0.21424723,0.902082,-7.9960356,9.901016,-0.59650767,-3.5698671,-0.4169984,0.14716998,0
1.370000000000001,15.231952197472152,-4.206632513456986,0.5441192626171246,1.4258992041830902,16.250685,-5.968755,2.716538,3.3393567,6.0493155,-6.4940023,1.4823439,0.3741388,0.0076398607,0.19723326,0.9061233,-7.9693384,9.957001,-0.555497,-3.6691732,-0.2672719,0.20991759,0
1.380000000000001,15.231952197472152,-4.206632513456986,0.5441192626171246,1.4258992041830902,16.250685,-5.968755,2.716538,3.3393567,5.969741,-6.3941693,1.477003,0.37332973,0.0018469376,0.17999387,0.9100672,-7.946082,10.009121,-0.5123831,-3.7530012,-0.14089334,0.26958615,0
1.390000000000001,15.231952197472152,-4.206632513456986,0.5441192626171246,1.4258992041830902,16.250685,-5.968755,2.716538,3.3393567,5.8903804,-6.2938337,1.472103,0.37201947,-0.004567125,0.16255635,0.913868,-7.9265203,10.057346,-0.46733895,-3.823762,-0.03421986,0.32632676,0
1.400000000000001,15.378683143817787,-3.917080858128695,0.574876551061121,1.6195380147886185,16.300749,-5.3584948,1.5082414,3.140682,5.8111963,-6.1930356,1.4676622,0.37023798,-0.011503918,0.14494543,0.9174862,-7.910863,10.101637,-0.42055377,-3.8834913,0.055822678,0.3802831,0
1.410000000000001,15.378683143817787,-3.917080858128695,0.574876551061121,1.6195380147886185,16.300749,-5.3584948,1.5082414,3.140682,5.7321496,-6.091813,1.4637042,0.3679893,-0.018844977,0.12729521,0.92088175,-7.899167,10.142341,-0.37082273,-3.8887548,0.13661332,0.44109368,0
1.420000000000001,15.378683143817787,-3.917080858128695,0.574876551061121,1.6195380147886185,16.300749,-5.3584948,1.5082414,3.140682,5.653199,-5.9902034,1.4602504,0.36527857,-0.026492108,0.10971626,0.9240296,-7.8916936,10.179019,-0.31977016,-3.8931994,0.20481223,0.4989203,0
1.430000000000001,15.378683143817787,-3.917080858128695,0.574876551061121,1.6195380147886185,16.300749,-5.3584948,1.5082414,3.140682,5.5743017,-5.8882465,1.4573127,0.36213112,-0.034395337,0.0921981,0.92691755,-7.888518,10.211662,-0.26763085,-3.8969517,0.26238263,0.5539093,0
1.440000000000001,15.378683143817787,-3.917080858128695,0.574876551061121,1.6195380147886185,16.69904,-5.3436193,0.5600043,3.265191,5.4954143,-5.7859836,1.4549007,0.35856915,-0.042512115,0.07473323,0.9295346,-7.889693,10.240257,-0.2146398,-3.9001188,0.3109818,0.60620004,0
1.450000000000001,15.378683143817787,-3.917080858128695,0.574876551061121,1.6195380147886185,16.69904,-5.3436193,0.5600043,3.265191,5.4164934,-5.683455,1.453022,0.35461223,-0.050806142,0.057316538,0.9318704,-7.895253,10.264782,-0.16103227,-3.9027915,0.35200846,0.6559248,0
1.460000000000001,15.378683143817787,-3.917080858128695,0.574876551061121,1.6195380147886185,16.69904,-5.3436193,0.5600043,3.265191,5.337495,-5.580702,1.4516814,0.3502779,-0.059246387,0.039945025,0.9339156,-7.9052153,10.285211,-0.107043706,-3.9050467,0.38664335,0.7032095,0
1.470000000000001,15.378683143817787,-3.917080858128695,0.574876551061121,1.6195380147886185,16.69904,-5.3436193,0.5600043,3.265191,5.258374,-5.4777646,1.4508816,0.345582,-0.067806266,0.022617433,0.93566155,-7.919579,10.301517,-0.05290936,-3.9069488,0.41588292,0.748174,0
1.480000000000001,15.075993226741346,-3.2660290751592833,0.3064142366597649,1.5942989935819458,18.042938,-5.4864717,-0.4737522,3.3308864,5.179088,-5.3746853,1.4506228,0.34053907,-0.076462895,0.0053339703,0.93710023,-7.9383297,10.313671,0.0011359248,-3.9085531,0.44056818,0.79093206,0
1.490000000000001,15.075993226741346,-3.2660290751592833,0.3064142366597649,1.5942989935819458,18.042938,-5.4864717,-0.4737522,3.3308864,5.0995946,-5.271507,1.4508882,0.33518723,-0.08500793,-0.011696244,0.93823504,-7.960966,10.321497,0.051872026,-3.808352,0.41960052,0.8303535,0
1.500000000000001,15.075993226741346,-3.2660290751592833,0.3064142366597649,1.5942989935819458,18.042938,-5.4864717,-0.4737522,3.3308864,5.019854,-5.1682696,1.4516584,0.32956415,-0.093277484,-0.02830562,0.93908685,-7.9877076,10.325266,0.10208476,-3.723777,0.40190378,0.8678405,0
1.5100000000000011,15.075993226741346,-3.2660290751592833,0.3064142366597649,1.5942989935819458,18.042938,-5.4864717,-0.4737522,3.3308864,4.9398265,-5.065015,1.4529274,0.32368147,-0.10131301,-0.044549063,0.9396701,-8.01838,10.325022,0.15158296,-3.652392,0.38696754,0.903488,0
1.5200000000000011,14.481778571579092,-2.2941067069673875,-0.05910925406535341,1.3912939598851035,18.143713,-5.505247,-1.7020867,3.2140303,4.859473,-4.961783,1.4546869,0.3175498,-0.10914913,-0.06047272,0.9399947,-8.052822,10.320802,0.2001872,-3.5921397,0.37436128,0.9373863,0
1.5300000000000011,14.481778571579092,-2.2941067069673875,-0.05910925406535341,1.3912939598851035,18.143713,-5.505247,-1.7020867,3.2140303,4.7787647,-4.858611,1.4568986,0.31123784,-0.11655359,-0.07579871,0.940106,-8.08936,10.312975,0.24199386,-3.3896756,0.306836,0.95965964,0
1.5400000000000011,14.481778571579092,-2.2941067069673875,-0.05910925406535341,1.3912939598851035,18.143713,-5.505247,-1.7020867,3.2140303,4.6976748,-4.755536,1.459523,0.30481115,-0.12334777,-0.090309665,0.9400629,-8.129072,10.301495,0.28267983,-3.2187903,0.24982934,0.98084,0
1.5500000000000012,14.481778571579092,-2.2941067069673875,-0.05910925406535341,1.3912939598851035,18.143713,-5.505247,-1.7020867,3.2140303,4.616173,-4.652593,1.4625483,0.29827365,-0.12962988,-0.10412328,0.9398861,-8.171671,10.286493,0.3221692,-3.0745583,0.20170209,1.0009811,0
1.5600000000000012,13.755877919497072,-1.2720561289905932,-0.6731159919149133,1.0687940822835098,18.487873,-5.3329606,-2.44571,2.6360006,4.5342317,-4.5498176,1.465962,0.29162836,-0.13548207,-0.1173394,0.93958914,-8.216908,10.268086,0.36039776,-2.9528227,0.16107099,1.0201339,0
1.5700000000000012,13.755877919497072,-1.2720561289905932,-0.6731159919149133,1.0687940822835098,18.487873,-5.3329606,-2.44571,2.6360006,4.4518385,-4.4472365,1.4697177,0.2849428,-0.14061977,-0.12973522,0.9392557,-8.262152,10.247471,0.39055234,-2.6906219,0.031149976,1.0225216,0
1.5800000000000012,13.755877919497072,-1.2720561289905932,-0.6731159919149133,1.0687940822835098,18.487873,-5.3329606,-2.44571,2.6360006,4.368983,-4.344877,1.4737691,0.27827904,-0.14482452,-0.1411401,0.93897015,-8.309327,10.223882,0.41949365,-2.4693244,-0.07853634,1.0247921,0
1.5900000000000012,13.755877919497072,-1.2720561289905932,-0.6731159919149133,1.0687940822835098,18.487873,-5.3329606,-2.44571,2.6360006,4.285647,-4.242768,1.4781038,0.2716311,-0.14824761,-0.15170285,0.9387354,-8.358093,10.197476,0.44727483,-2.2825487,-0.1711394,1.0269512,0
1.6000000000000012,13.327871429723034,-0.3256142629490574,-1.1484789150418924,0.6658033080261397,17.752329,-3.6071467,-2.4444184,1.0092258,4.2018166,-4.140937,1.4827107,0.26499316,-0.15101552,-0.16154945,0.9385486,-8.408167,10.168391,0.47394824,-2.12491,-0.2493198,1.0290046,0
1.6100000000000012,13.327871429723034,-0.3256142629490574,-1.1484789150418924,0.6658033080261397,17.752329,-3.6071467,-2.4444184,1.0092258,4.117488,-4.039404,1.4875598,0.25843352,-0.15294822,-0.17048892,0.9384836,-8.457692,10.137741,0.4957247,-1.8442216,-0.3893336,1.0111823,0
1.6200000000000012,13.327871429723034,-0.3256142629490574,-1.1484789150418924,0.6658033080261397,17.752329,-3.6071467,-2.4444184,1.0092258,4.0326605,-3.9381893,1.4926221,0.2520134,-0.15391012,-0.17837703,0.9386062,-8.507903,10.104799,0.51660526,-1.6073232,-0.507548,0.9942344,0
1.6300000000000012,13.327871429723034,-0.3256142629490574,-1.1484789150418924,0.6658033080261397,17.752329,-3.6071467,-2.4444184,1.0092258,3.9473288,-3.8373148,1.4978893,0.2457173,-0.15405722,-0.18537511,0.93889534,-8.558492,10.069742,0.5367203,-1.4073832,-0.6073565,0.9781182,0
1.6400000000000012,13.327871429723034,-0.3256142629490574,-1.1484789150418924,0.6658033080261397,17.124565,-3.145998,-2.982316,0.8538866,3.86149,-3.7368011,1.5033542,0.23953122,-0.15351973,-0.19161937,0.93932825,-8.609197,10.032725,0.5561861,-1.2386353,-0.6916243,0.96279275,0
1.6500000000000012,13.327871429723034,-0.3256142629490574,-1.1484789150418924,0.6658033080261397,17.124565,-3.145998,-2.982316,0.8538866,3.775145,-3.6366668,1.509011,0.23344262,-0.15240641,-0.19722481,0.93988204,-8.659802,9.993883,0.5751044,-1.0962129,-0.76277083,0.94821936,0
1.6600000000000013,13.327871429723034,-0.3256142629490574,-1.1484789150418924,0.6658033080261397,17.124565,-3.145998,-2.982316,0.8538866,3.688295,-3.5369294,1.5148548,0.22744046,-0.15080819,-0.2022886,0.940535,-8.710126,9.95333,0.5935636,-0.97600865,-0.8228387,0.93436116,0
1.6700000000000013,13.327871429723034,-0.3256142629490574,-1.1484789150418924,0.6658033080261397,17.124565,-3.145998,-2.982316,0.8538866,3.6009438,-3.4376056,1.5208812,0.22151513,-0.14880109,-0.20689279,0.9412671,-8.760013,9.911169,0.6116392,-0.8745568,-0.8735527,0.9211829,0
1.6800000000000013,13.176959714401423,0.356293391555107,-1.4544096797358683,0.22566961314533737,17.022202,-2.6076074,-2.771255,0.3820586,3.5130968,-3.338711,1.5270865,0.21565834,-0.14644879,-0.21110672,0.9420601,-8.809331,9.867488,0.6293953,-0.7889313,-0.91636944,0.9086513,0
1.6900000000000013,13.176959714401423,0.356293391555107,-1.4544096797358683,0.22566961314533737,17.022202,-2.6076074,-2.771255,0.3820586,3.4247627,-3.2402582,1.5334616,0.20992805,-0.14361961,-0.21476597,0.94296247,-8.857409,9.822886,0.64558554,-0.61030626,-1.0001574,0.8751372,0
1.7000000000000013,13.176959714401423,0.356293391555107,-1.4544096797358683,0.22566961314533737,17.022202,-2.6076074,-2.771255,0.3820586,3.335952,-3.142258,1.5399976,0.20437591,-0.14021154,-0.21774343,0.9440116,-8.9046335,9.777002,0.6616241,-0.45954743,-1.0709022,0.8432677,0
1.7100000000000013,13.176959714401423,0.356293391555107,-1.4544096797358683,0.22566961314533737,17.022202,-2.6076074,-2.771255,0.3820586,3.2466738,-3.0447223,1.5466938,0.19898632,-0.13631329,-0.22014336,0.94517666,-8.950837,9.729973,0.6776138,-0.33230698,-1.1306335,0.81296194,0
1.7200000000000013,13.033834644632815,0.9086577972507073,-1.4690823812872804,-0.2090695048944179,16.873732,-2.194921,-2.7682433,0.11809955,3.1569393,-2.947662,1.55355,0.19374557,-0.13199925,-0.22205369,0.9464301,-8.995881,9.681918,0.6936401,-0.22491553,-1.1810651,0.7841434,0
1.7300000000000013,13.033834644632815,0.9086577972507073,-1.4690823812872804,-0.2090695048944179,16.873732,-2.194921,-2.7682433,0.11809955,3.0667632,-2.8510845,1.560561,0.18872008,-0.12727202,-0.22334753,0.94778764,-9.039166,9.633485,0.7085382,-0.04815139,-1.2258892,0.73540616,0
1.7400000000000013,13.033834644632815,0.9086577972507073,-1.4690823812872804,-0.2090695048944179,16.873732,-2.194921,-2.7682433,0.11809955,2.9761608,-2.7549949,1.5677216,0.18396771,-0.122136176,-0.22392854,0.9492595,-9.081056,9.584314,0.72364336,0.10104254,-1.2637465,0.68906045,0
1.7500000000000013,13.033834644632815,0.9086577972507073,-1.4690823812872804,-0.2090695048944179,16.873732,-2.194921,-2.7682433,0.11809955,2.8851473,-2.6594,1.5750347,0.17946517,-0.11665169,-0.22390614,0.95081526,-9.121435,9.534569,0.7390453,0.2269668,-1.2957184,0.644989,0
1.7600000000000013,12.729976557520228,1.1849573556311983,-1.5295162932044752,-0.6025560709104465,16.678148,-2.1161966,-2.9538603,0.21450195,2.7937376,-2.5643048,1.5825038,0.17519207,-0.110868946,-0.22337253,0.9524282,-9.160206,9.484387,0.75481546,0.33325148,-1.3227186,0.60308015,0
1.7700000000000014,12.729976557520228,1.1849573556311983,-1.5295162932044752,-0.6025560709104465,16.678148,-2.1161966,-2.9538603,0.21450195,2.7019532,-2.4697075,1.5901194,0.17118336,-0.104777254,-0.22230944,0.95409405,-9.196421,9.435075,0.7683479,0.4660349,-1.3549341,0.5439192,0
1.7800000000000014,12.729976557520228,1.1849573556311983,-1.5295162932044752,-0.6025560709104465,16.678148,-2.1161966,-2.9538603,0.21450195,2.6098151,-2.375604,1.5978725,0.16747099,-0.09836923,-0.22070621,0.95580584,-9.230895,9.3856,0.78235817,0.5781094,-1.3821416,0.48766133,0
1.7900000000000014,12.729976557520228,1.1849573556311983,-1.5295162932044752,-0.6025560709104465,16.678148,-2.1161966,-2.9538603,0.21450195,2.5173416,-2.2819955,1.6057683,0.16403359,-0.091688536,-0.21864454,0.9575384,-9.26355,9.336092,0.7968974,0.6727053,-1.405118,0.43416408,0
1.8000000000000014,12.033729051865775,1.1563482889805317,-1.5673642456215535,-0.8874507243662653,15.917973,-2.2880495,-2.7380917,-0.2853687,2.4245505,-2.1888819,1.6138124,0.16085212,-0.084772184,-0.21619326,0.9592704,-9.294315,9.286665,0.8120021,0.7525492,-1.4245199,0.3832919,0
1.8100000000000014,12.033729051865775,1.1563482889805317,-1.5673642456215535,-0.8874507243662653,15.917973,-2.2880495,-2.7380917,-0.2853687,2.3314695,-2.0962484,1.6219794,0.15793909,-0.07763135,-0.21342662,0.9609769,-9.321558,9.240109,0.82147205,0.81546825,-1.4468136,0.32093617,0
1.8200000000000014,12.033729051865775,1.1563482889805317,-1.5673642456215535,-0.8874507243662653,15.917973,-2.2880495,-2.7380917,-0.2853687,2.2381258,-2.0040789,1.6302438,0.15530758,-0.070275776,-0.21040644,0.9626364,-9.346909,9.193803,0.83150953,0.8685756,-1.4656357,0.2616403,0
1.8300000000000014,12.033729051865775,1.1563482889805317,-1.5673642456215535,-0.8874507243662653,15.917973,-2.2880495,-2.7380917,-0.2853687,2.1445382,-1.912371,1.6386114,0.15294185,-0.06273284,-0.20716928,0.96423703,-9.370322,9.14781,0.8421164,0.9134018,-1.481526,0.20525408,0
1.8400000000000014,12.033729051865775,1.1563482889805317,-1.5673642456215535,-0.8874507243662653,15.004927,-2.2322745,-2.3352733,-0.48555467,2.050726,-1.8211213,1.647088,0.15082735,-0.055026095,-0.20374584,0.96576893,-9.391759,9.102191,0.85328686,0.9512389,-1.4949405,0.15163475,0
1.8500000000000014,12.033729051865775,1.1563482889805317,-1.5673642456215535,-0.8874507243662653,15.004927,-2.2322745,-2.3352733,-0.48555467,1.9567097,-1.7303258,1.6556791,0.14895046,-0.047175873,-0.20016195,0.9672239,-9.411187,9.056998,0.8650089,0.9831767,-1.5062643,0.100646526,0
1.8600000000000014,12.033729051865775,1.1563482889805317,-1.5673642456215535,-0.8874507243662653,15.004927,-2.2322745,-2.3352733,-0.48555467,1.8625093,-1.6399798,1.6643901,0.1472985,-0.039199784,-0.19643922,0.9685952,-9.4285755,9.0122795,0.8772651,1.0101355,-1.5158228,0.052160308,0
1.8700000000000014,12.033729051865775,1.1563482889805317,-1.5673642456215535,-0.8874507243662653,15.004927,-2.2322745,-2.3352733,-0.48555467,1.7681452,-1.5500784,1.6732262,0.14585957,-0.031113133,-0.19259585,0.96987754,-9.443899,8.968075,0.8900336,1.0328919,-1.523891,0.006053322,0
1.8800000000000014,11.329524031075888,0.9123989112618388,-1.5521034137385488,-1.0408525162233515,13.939053,-2.562258,-2.537426,-0.12442281,1.6736383,-1.4606162,1.6821926,0.14462247,-0.022929275,-0.18864709,0.9710662,-9.457137,8.924422,0.90328854,1.052101,-1.5307006,-0.037791185,0
1.8900000000000015,11.329524031075888,0.9123989112618388,-1.5521034137385488,-1.0408525162233515,13.939053,-2.562258,-2.537426,-0.12442281,1.579013,-1.3715751,1.6912609,0.1435943,-0.014676367,-0.18470012,0.97213674,-9.46762,8.883872,0.91045594,1.0302653,-1.534071,-0.0870117,0
1.9000000000000015,11.329524031075888,0.9123989112618388,-1.5521034137385488,-1.0408525162233515,13.939053,-2.562258,-2.537426,-0.12442281,1.4842927,-1.2829368,1.700403,0.14278278,-0.0063772257,-0.18084073,0.9730713,-9.476118,8.843867,0.9180106,1.011837,-1.536913,-0.13381694,0
1.9100000000000015,11.329524031075888,0.9123989112618388,-1.5521034137385488,-1.0408525162233515,13.939053,-2.562258,-2.537426,-0.12442281,1.3894975,-1.1946958,1.7096223,0.14217827,0.0019643507,-0.17705177,0.97387516,-9.48263,8.804402,0.925908,0.9962848,-1.5393095,-0.17832546,0
1.9200000000000015,10.572363803338227,0.5062216058701208,-1.4528421355810281,-1.0678346785055604,13.220139,-2.6975598,-2.1155295,-0.2897841,1.2946471,-1.1068469,1.7189223,0.14177124,0.010344754,-0.1733186,0.97455287,-9.487155,8.765467,0.934105,0.98316014,-1.5413303,-0.22064991,0
1.9300000000000015,10.572363803338227,0.5062216058701208,-1.4528421355810281,-1.0678346785055604,13.220139,-2.6975598,-2.1155295,-0.2897841,1.1997623,-1.0193719,1.7282699,0.14156462,0.018699367,-0.16978164,0.9750809,-9.489527,8.729618,0.9354358,0.9087424,-1.5275446,-0.26222152,0
1.9400000000000015,10.572363803338227,0.5062216058701208,-1.4528421355810281,-1.0678346785055604,13.220139,-2.6975598,-2.1155295,-0.2897841,1.1048629,-0.93225306,1.7376317,0.14156134,0.026976602,-0.16655198,0.97544444,-9.490075,8.69421,0.9369506,0.8459324,-1.515906,-0.3017532,0
1.9500000000000015,10.572363803338227,0.5062216058701208,-1.4528421355810281,-1.0678346785055604,13.220139,-2.6975598,-2.1155295,-0.2897841,1.009967,-0.84548634,1.7470093,0.14175175,0.03519073,-0.16357842,0.97565824,-9.488827,8.659189,0.938596,0.7929197,-1.5060803,-0.33934504,0
1.9600000000000015,10.047484024981866,0.08285575801215135,-1.246549439814035,-0.9983106718480113,12.945417,-2.60958,-1.9073392,-0.36331084,0.9150924,-0.75906813,1.7564037,0.14212625,0.04335354,-0.16081758,0.9757342,-9.48581,8.624511,0.9403234,0.748176,-1.4977852,-0.37509224,0
1.9700000000000015,10.047484024981866,0.08285575801215135,-1.246549439814035,-0.9983106718480113,12.945417,-2.60958,-1.9073392,-0.36331084,0.82025564,-0.67298657,1.7657909,0.1426881,0.051368684,-0.15838678,0.97566074,-9.48129,8.591838,0.9371289,0.6444001,-1.4585929,-0.40567374,0
1.9800000000000015,10.047484024981866,0.08285575801215135,-1.246549439814035,-0.9983106718480113,12.945417,-2.60958,-1.9073392,-0.36331084,0.7254721,-0.5872307,1.7751462,0.14343874,0.059159983,-0.15637761,0.97543347,-9.47517,8.559381,0.9339187,0.55680937,-1.4255124,-0.4347546,0
1.9900000000000015,10.047484024981866,0.08285575801215135,-1.246549439814035,-0.9983106718480113,12.945417,-2.60958,-1.9073392,-0.36331084,0.6307575,-0.5017985,1.7844691,0.14436616,0.06676351,-0.15472133,0.97506994,-9.467514,8.527067,0.93064606,0.48287916,-1.3975912,-0.46240845,0
2.0000000000000013,,,,,11.548271,-2.534857,-1.8222809,-0.44971803,0.536127,-0.41668904,1.7937587,0.1454589,0.07420958,-0.1533598,0.9745843,-9.458371,8.494837,0.92727,0.42047915,-1.3740249,-0.48870537,0
2.010000000000001,,,,,11.548271,-2.534857,-1.8222809,-0.44971803,0.44159278,-0.33189458,1.802993,0.14672542,0.08133871,-0.1523433,0.9739847,-9.44826,8.464053,0.9195878,0.31880692,-1.2884948,-0.50709736,0
2.020000000000001,,,,,11.548271,-2.534857,-1.8222809,-0.44971803,0.34716612,-0.2474081,1.8121499,0.14816973,0.08802561,-0.15170959,0.97328335,-9.4368725,8.433234,0.9117416,0.23298855,-1.2163059,-0.52458686,0
2.0300000000000007,,,,,11.548271,-2.534857,-1.8222809,-0.44971803,0.25285935,-0.16323023,1.8212273,0.14977537,0.094339795,-0.15139651,0.9724944,-9.424304,8.402322,0.90370625,0.16055167,-1.1553774,-0.5412181,0
2.0400000000000005,,,,,11.548271,-2.534857,-1.8222809,-0.44971803,0.15868382,-0.07936217,1.8302234,0.15152748,0.10033992,-0.15135159,0.971629,-9.410635,8.371263,0.89546055,0.09941001,-1.1039532,-0.55703324,0
2.0500000000000003,,,,,10.946316,-2.3759136,-1.4328295,-0.4296832,0.06465019,0.0041943826,1.8391359,0.15341267,0.10607541,-0.15153052,0.9706956,-9.395936,8.340015,0.8869869,0.047801882,-1.0605507,-0.5720723,1
2.06,,,,,10.946316,-2.3759136,-1.4328295,-0.4296832,-0.029220728,0.08741533,1.8480248,0.15542245,0.111682974,-0.1527718,0.9695517,-9.378081,8.304109,0.8907394,-0.33019173,-1.1184679,-0.5650853,1
2.07,,,,,10.946316,-2.3759136,-1.4328295,-0.4296832,-0.122907914,0.17027447,1.8569493,0.15754576,0.11726879,-0.15573756,0.96807647,-9.359202,8.267597,0.8940917,-0.6492339,-1.1673777,-0.5584411,1
2.0799999999999996,,,,,10.946316,-2.3759136,-1.4328295,-0.4296832,-0.21640152,0.25276405,1.8659048,0.15976626,0.1228301,-0.16015506,0.96630055,-9.339377,8.230145,0.89691895,-0.9185187,-1.2086805,-0.5521229,1
2.0899999999999994,,,,,10.70763,-3.2361598,-1.6315876,0.3376864,-0.30969244,0.33487314,1.8748856,0.16206804,0.12836424,-0.16579317,0.9642448,-9.318679,8.19147,0.8991069,-1.1458062,-1.2435591,-0.5461147,1
2.099999999999999,,,,,10.70763,-3.2361598,-1.6315876,0.3376864,-0.40277463,0.41659272,1.8838736,0.164376,0.13387315,-0.17281273,0.96186954,-9.297642,8.152197,0.89837295,-1.4717803,-1.3039972,-0.5027462,1
2.109999999999999,,,,,10.70763,-3.2361598,-1.6315876,0.3376864,-0.49564284,0.4979111,1.89285,0.16661607,0.13935283,-0.18133074,0.95913386,-9.275896,8.111192,0.8967646,-1.7469146,-1.3550411,-0.46150595,1
2.1199999999999988,,,,,10.70763,-3.2361598,-1.6315876,0.3376864,-0.58829033,0.5788096,1.9018054,0.16877562,0.14479274,-0.1911066,0.95604753,-9.253519,8.068188,0.8941353,-1.9791389,-1.3981489,-0.42228934,1
2.1299999999999986,,,,,10.098047,-2.9660048,-1.4977237,0.57965326,-0.68071127,0.65926725,1.9107288,0.17084348,0.15018362,-0.201936,0.9526164,-9.230583,8.022966,0.8903421,-2.1751459,-1.4345522,-0.38499713,1
2.1399999999999983,,,,,10.098047,-2.9660048,-1.4977237,0.57965326,-0.772907,0.73927426,1.9195813,0.17277628,0.155479,-0.21353789,0.9488809,-9.208494,7.9780717,0.87995243,-2.2984378,-1.4444436,-0.33766145,1
2.149999999999998,,,,,10.098047,-2.9660048,-1.4977237,0.57965326,-0.86487985,0.8188207,1.9283233,0.17453612,0.16064125,-0.22568174,0.9448799,-9.186012,7.9308357,0.86822236,-2.4025037,-1.4527999,-0.29264855,1
2.159999999999998,,,,,10.098047,-2.9660048,-1.4977237,0.57965326,-0.9566262,0.89788276,1.9369409,0.17612198,0.16567484,-0.23827493,0.9406151,-9.163196,7.8811994,0.855046,-2.490342,-1.4598583,-0.24984445,1
2.1699999999999977,,,,,10.602108,-1.9317571,-0.84048074,0.8878333,-1.0481429,0.9764363,1.945419,0.1775337,0.17058337,-0.2512385,0.9360882,-9.140102,7.8291225,0.840319,-2.5644836,-1.4658192,-0.20914072,1
2.1799999999999975,,,,,10.602108,-1.9317571,-0.84048074,0.8878333,-1.1394217,1.0544434,1.953762,0.17873314,0.17518885,-0.26407918,0.93146354,-9.115623,7.7718797,0.82803154,-2.465749,-1.3683983,-0.15531188,1
2.1899999999999973,,,,,10.602108,-1.9317571,-0.84048074,0.8878333,-1.2304548,1.1318655,1.9619735,0.17969105,0.17935374,-0.27640995,0.9268979,-9.090979,7.712186,0.81400913,-2.382422,-1.2861581,-0.10412444,1
2.199999999999997,,,,,10.602108,-1.9317571,-0.84048074,0.8878333,-1.3212409,1.2086792,1.9700363,0.18042031,0.18313487,-0.28831142,0.9223803,-9.066229,7.650179,0.7982647,-2.3120975,-1.2167332,-0.055448793,1
2.209999999999997,,,,,9.006929,-0.08489331,0.29361016,0.90604085,-1.4117794,1.2848617,1.9779329,0.18093255,0.18658003,-0.2998511,0.9178995,-9.041429,7.585979,0.7808072,-2.2527466,-1.1581271,-0.009161676,1
2.2199999999999966,,,,,9.006929,-0.08489331,0.29361016,0.90604085,-1.5020852,1.3604336,1.9855964,0.18123417,0.18949905,-0.31040075,0.9137257,-9.019857,7.5283628,0.7513735,-1.9364727,-0.9536157,0.033774428,1
2.2299999999999964,,,,,9.006929,-0.08489331,0.29361016,0.90604085,-1.5921783,1.4354285,1.9929504,0.18134195,0.19168878,-0.31938848,0.91014314,-8.998787,7.4704695,0.7191694,-1.6490926,-0.76054156,0.07644674,1
2.239999999999996,,,,,9.006929,-0.08489331,0.29361016,0.90604085,-1.6820613,1.5098387,1.9999759,0.18127559,0.19322239,-0.3270181,0.90711766,-8.977826,7.411407,0.6857579,-1.4051487,-0.5961728,0.117155164,1
