t,px,py,pz,qx,qy,qz,qw,vx,vy,vz,wx,wy,wz,throttle_mpc,roll_mpc,pitch_mpc,yaw_mpc,throttle_nw,roll_nw,pitch_nw,yaw_nw,network_used
-2.0,16.658035,-10.491577000000001,1.3071088,0.39882177,-0.23792987,-0.87696874,-0.123516634,-8.7808275,-3.4840910000000003,-0.582589,1.3861026,-0.16205937,-0.108736776,12.67817691287527,5.99999960972938,-5.999999884295128,-3.8941502545952633,7.707948700000001,-1.2856094999999998,-1.8776546000000003,-0.23415068,0
-1.99,16.569641,-10.525943,1.3013128,0.39668754,-0.24374254,-0.8757588,-0.12757328,-8.897382,-3.3890178,-0.5769678,1.5232841000000001,-0.49033590000000005,-0.24240860000000003,12.67817691287527,5.99999960972938,-5.999999884295128,-3.8941502545952633,12.242865,-1.5527401,-3.2009945,-0.07327464,0
-1.98,16.4801,-10.559356,1.2955616,0.39319074,-0.24970719,-0.87486607,-0.13287774,-9.010057000000002,-3.2934964,-0.5736018,1.6754732,-0.803895,-0.37278,12.67817691287527,5.99999960972938,-5.999999884295128,-3.8941502545952633,12.242865,-1.5527401,-3.2009945,-0.07327464,0
-1.97,16.389454,-10.591809,1.2898341,0.38837096,-0.25588536,-0.87421405,-0.13942811,-9.118438000000001,-3.1974142000000003,-0.5721425,1.8398331,-1.1045322,-0.49996802,12.67817691287527,5.99999960972938,-5.999999884295128,-3.8941502545952633,12.242865,-1.5527401,-3.2009945,-0.07327464,0
-1.96,16.297749,-10.623301,1.2841132,0.38225767,-0.2623233,-0.8737234,-0.14721665,-9.222127,-3.1006665,-0.5722917,2.0139593999999996,-1.3937528000000001,-0.62408316,12.67817691287527,5.99999960972938,-5.999999884295128,-3.8941502545952633,10.280346,-1.4628112,-3.67615,0.13027868,0
-1.95,16.205029999999997,-10.653821,1.2783836000000002,0.37487182,-0.26905385,-0.8733116,-0.1562301,-9.320742,-3.003167,-0.57379776,2.1958130000000002,-1.6728183999999997,-0.74522984,12.67817691287527,5.99999960972938,-5.999999884295128,-3.8941502545952633,10.280346,-1.4628112,-3.67615,0.13027868,0
-1.94,16.111355,-10.683361999999999,1.2726332,0.3662273,-0.2760982,-0.8728927,-0.1664499,-9.413911,-2.9048526000000003,-0.5764523,2.3836656,-1.9427861000000002,-0.86350673,12.67817691287527,5.99999960972938,-5.999999884295128,-3.8941502545952633,10.280346,-1.4628112,-3.67615,0.13027868,0
-1.93,16.016773,-10.711917,1.2668511,0.35633215,-0.28346688,-0.87237734,-0.17785229,-9.501275999999999,-2.8056927000000003,-0.5800871,2.576053,-2.2045424,-0.97900707,12.67817691287527,5.99999960972938,-5.999999884295128,-3.8941502545952633,10.280346,-1.4628112,-3.67615,0.13027868,0
-1.92,15.92135,-10.739474000000001,1.2610284,0.34518987,-0.29116103,-0.87167287,-0.19040832,-9.582488,-2.7056916,-0.58457196,2.771734,-2.4588308,-1.0918192,14.201350749127554,5.999999592362998,-5.999999900053601,-4.081209248953774,13.522812,-0.92070544,-4.462347,0.20184979,0
-1.91,15.825113,-10.765983,1.2551981,0.332768,-0.29918920000000004,-0.8706789,-0.20413049,-9.663813000000001,-2.595987,-0.5816066,2.9846535,-2.7213333,-1.2125466999999999,14.201350749127554,5.999999592362998,-5.999999900053601,-4.081209248953774,13.522812,-0.92070544,-4.462347,0.20184979,0
-1.9,15.7281,-10.79139,1.2493937,0.31902888,-0.30755147,-0.8692873999999999,-0.21902469,-9.737706,-2.4854856,-0.5793776999999999,3.1991954,-2.9777856,-1.3304663,14.201350749127554,5.999999592362998,-5.999999900053601,-4.081209248953774,13.522812,-0.92070544,-4.462347,0.20184979,0
-1.89,15.630386999999999,-10.81569,1.243608,0.30396494,-0.3162238,-0.8673879999999999,-0.23504360000000002,-9.803799,-2.374325,-0.57785016,3.4145462999999996,-3.2285673999999998,-1.4456656,14.201350749127554,5.999999592362998,-5.999999900053601,-4.081209248953774,13.522812,-0.92070544,-4.462347,0.20184979,0
-1.8800000000000001,15.532054,-10.838875999999999,1.2378341,0.28756836,-0.32517448,-0.8648665999999999,-0.25213352,-9.86174,-2.262701,-0.5770253000000001,3.6300172999999996,-3.4739961999999998,-1.5582274999999999,14.201350749127554,5.999999592362998,-5.999999900053601,-4.081209248953774,13.522812,-0.92070544,-4.462347,0.20184979,0
-1.87,15.433183999999999,-10.860944,1.2320648,0.26983228,-0.33436465,-0.86160547,-0.27023405,-9.911205,-2.1508667,-0.5769394,3.8450252999999996,-3.714339,-1.6682310000000002,16.05392367203397,5.2551123349773805,-5.999999850124262,-3.6231426515265457,12.388655,-1.3560557,-4.6515555,0.2788957,0
-1.8599999999999999,15.333851999999998,-10.88187,1.2263125,0.25045389999999995,-0.34368783,-0.8575643000000001,-0.28936931,-9.953673,-2.0341754,-0.5733224,4.0642867,-4.0712779999999995,-1.7641591,16.05392367203397,5.2551123349773805,-5.999999850124262,-3.6231426515265457,12.388655,-1.3560557,-4.6515555,0.2788957,0
-1.85,15.234139,-10.901621,1.2206025,0.22931089999999998,-0.35297367,-0.85267806,-0.30946052,-9.987259,-1.9156625,-0.5685021,4.2493906,-4.372526000000001,-1.8553799,16.05392367203397,5.2551123349773805,-5.999999850124262,-3.6231426515265457,12.388655,-1.3560557,-4.6515555,0.2788957,0
-1.84,15.134139999999999,-10.920179,1.2149464,0.20664810000000003,-0.3620973,-0.8468075,-0.33030105,-10.011289999999999,-1.795839,-0.5625349000000001,4.4056644,-4.6267676,-1.9421244999999998,16.98682628070736,3.1075957012813853,-5.563864003363798,-1.3002651620217922,14.456470499999998,-0.89714086,-3.971932,0.20625517,0
-1.83,15.033945000000001,-10.9375,1.2093856,0.18301818,-0.37035128,-0.84022623,-0.35123172,-10.026067999999999,-1.6683308999999997,-0.5494171999999999,4.2031446,-4.772565,-1.9106281999999999,16.98682628070736,3.1075957012813853,-5.563864003363798,-1.3002651620217922,14.456470499999998,-0.89714086,-3.971932,0.20625517,0
-1.82,14.933657,-10.953547,1.2039615,0.1588925,-0.3772072,-0.8332403,-0.37172323,-10.030096,-1.5409709999999999,-0.5352259,4.032236,-4.895675700000001,-1.8806776,16.98682628070736,3.1075957012813853,-5.563864003363798,-1.3002651620217922,14.456470499999998,-0.89714086,-3.971932,0.20625517,0
-1.81,14.833382,-10.968324,1.1986846000000002,0.13435759,-0.38280833,-0.8257834000000001,-0.39177442,-10.023454,-1.4146469,-0.51999336,3.8880043,-4.9996305,-1.8521965,16.98682628070736,3.1075957012813853,-5.563864003363798,-1.3002651620217922,14.456470499999998,-0.89714086,-3.971932,0.20625517,0
-1.8,14.733224,-10.981846,1.1935648,0.109487735,-0.38727644,-0.8178002,-0.4113778,-10.006264999999999,-1.2901976000000002,-0.5037996,3.7662837999999996,-5.087409,-1.8251130000000002,16.867323280581846,1.971289763029282,-4.350152874581033,-1.0878104701293287,15.1761265,-1.5256163,-2.803434,0.81422526,0
-1.79,14.633289999999999,-10.99414,1.1886072,0.08492473,-0.39055622,-0.8093948000000001,-0.43027106,-9.97894,-1.169263,-0.48757464,3.4866099999999998,-4.9720187000000005,-1.7889334,16.867323280581846,1.971289763029282,-4.350152874581033,-1.0878104701293287,15.1761265,-1.5256163,-2.803434,0.81422526,0
-1.7799999999999998,14.533679999999999,-11.005239999999999,1.1838156000000002,0.061189637000000005,-0.39264563,-0.8007098000000001,-0.44827273,-9.941888,-1.0516237,-0.47064948,3.2505193,-4.874691,-1.7545291,16.867323280581846,1.971289763029282,-4.350152874581033,-1.0878104701293287,15.1761265,-1.5256163,-2.803434,0.81422526,0
-1.77,14.434485,-11.015184,1.1791961000000002,0.0381758,-0.39370838,-0.7917488,-0.4654777,-9.895703999999999,-0.9378337,-0.45315474,3.0512202,-4.792597,-1.721813,16.867323280581846,1.971289763029282,-4.350152874581033,-1.0878104701293287,15.1761265,-1.5256163,-2.803434,0.81422526,0
-1.7599999999999998,14.335795000000001,-11.024013,1.1747538999999998,0.015790496,-0.39387953,-0.7825099,-0.48196176,-9.840945,-0.82837766,-0.43521824,2.882979,-4.7233505,-1.6907023,16.867323280581846,1.971289763029282,-4.350152874581033,-1.0878104701293287,15.736521,-2.03267,-0.8396167999999999,0.6691564999999999,0
-1.75,14.237694,-11.03177,1.1704926000000002,-0.00604611,-0.39327070000000003,-0.77298814,-0.49778540000000004,-9.778131,-0.7236835,-0.41696775,2.7409556,-4.6649413,-1.6611181000000002,16.867323280581846,1.971289763029282,-4.350152874581033,-1.0878104701293287,15.736521,-2.03267,-0.8396167999999999,0.6691564999999999,0
-1.7399999999999998,14.140258,-11.038505,1.1664151000000003,-0.027402166000000002,-0.3919743,-0.763177,-0.5129965999999999,-9.707751,-0.6241321999999999,-0.39853272,2.6210644,-4.615672,-1.6329858,16.867323280581846,1.971289763029282,-4.350152874581033,-1.0878104701293287,15.736521,-2.03267,-0.8396167999999999,0.6691564999999999,0
-1.73,14.043563,-11.044271,1.1625223,-0.048335344,-0.39006692,-0.75306964,-0.5276334,-9.63027,-0.5300657,-0.3800453,2.5198565,-4.574113400000001,-1.6062338,16.867323280581846,1.971289763029282,-4.350152874581033,-1.0878104701293287,15.736521,-2.03267,-0.8396167999999999,0.6691564999999999,0
-1.72,13.947676999999999,-11.049126,1.158814,-0.06889401,-0.38761204,-0.7426595,-0.54172575,-9.546130999999999,-0.44179237,-0.36164075,2.4344194,-4.5390573,-1.5807947,16.433129240181344,0.09852357417202796,-2.3504326067164345,0.05815214480253705,16.354260999999997,-2.240038,0.57712877,0.81228817,0
-1.71,13.852651000000002,-11.053139,1.1552738,-0.08817365,-0.38454336,-0.7323814999999999,-0.55494916,-9.458155999999999,-0.36166129999999996,-0.34643272,2.0707104,-4.197258000000001,-1.5003711000000002,16.433129240181344,0.09852357417202796,-2.3504326067164345,0.05815214480253705,16.354260999999997,-2.240038,0.57712877,0.81228817,0
-1.7,13.758531,-11.056379,1.1518846,-0.10547145,-0.38085273,-0.72265786,-0.5670909000000001,-9.364980000000001,-0.28732646,-0.33142582,1.7636262999999999,-3.9088578000000003,-1.4238939,16.433129240181344,0.09852357417202796,-2.3504326067164345,0.05815214480253705,16.354260999999997,-2.240038,0.57712877,0.81228817,0
-1.69,13.665366,-11.058905000000001,1.1486447,-0.12109803400000001,-0.37665802,-0.7134524999999999,-0.57831573,-9.267411,-0.21860293,-0.31657179999999996,1.5043544,-3.6655097000000003,-1.3511695,16.433129240181344,0.09852357417202796,-2.3504326067164345,0.05815214480253705,16.354260999999997,-2.240038,0.57712877,0.81228817,0
-1.68,13.573196,-11.06077,1.1455528999999998,-0.13531700000000002,-0.37205037,-0.7047228,-0.58875555,-9.166125,-0.15530616,-0.30181646,1.2854527,-3.460173,-1.2820136999999998,16.144620264075293,-2.063706076932699,0.06092948498446385,1.8956241589032417,17.103523000000003,-3.2445426,2.2878418,1.0953287,0
-1.67,13.482053,-11.06203,1.1426068999999999,-0.14725289,-0.36695793,-0.6970344,-0.59816474,-9.062267,-0.09747635,-0.2876223,0.74287426,-2.9315462,-1.1280217,16.144620264075293,-2.063706076932699,0.06092948498446385,1.8956241589032417,17.103523000000003,-3.2445426,2.2878418,1.0953287,0
-1.66,13.391952999999999,-11.062737,1.1397964,-0.15623482,-0.36144093,-0.6908751999999999,-0.60633504,-8.957460000000001,-0.044852585,-0.274486,0.30382955,-2.4664593,-0.9798315999999999,16.144620264075293,-2.063706076932699,0.06092948498446385,1.8956241589032417,17.103523000000003,-3.2445426,2.2878418,1.0953287,0
-1.65,13.302907999999999,-11.06294,1.1371185,-0.1627469,-0.35565728,-0.68609136,-0.61343265,-8.851462,0.0038359957000000003,-0.26097178,-0.06494219,-2.072083,-0.8387321,16.144620264075293,-2.063706076932699,0.06092948498446385,1.8956241589032417,17.103523000000003,-3.2445426,2.2878418,1.0953287,0
-1.64,13.214926,-11.062672000000001,1.1345794,-0.16719808,-0.3496645,-0.6825408000000001,-0.6196106,-8.744808,0.049246877,-0.24670345,-0.3763127,-1.7393023999999997,-0.70455647,17.724151642637253,-4.003910841930015,3.0491636469389745,2.2201581100137746,17.388937,-4.828696,2.774089,1.5255253,1
-1.63,13.128053,-11.061948,1.1322315,-0.16848706,-0.34342965,-0.6806293000000001,-0.62482923,-8.629881,0.09526593,-0.2226937,-1.0702597,-1.0351968,-0.59512573,17.724151642637253,-4.003910841930015,3.0491636469389745,2.2201581100137746,17.388937,-4.828696,2.774089,1.5255253,1
-1.6199999999999999,13.042325,-11.060774,1.130131,-0.16574915,-0.33693117,-0.6806466,-0.62906647,-8.5158825,0.13942179999999998,-0.19713482,-1.6561233,-0.4410239,-0.4910648,17.724151642637253,-4.003910841930015,3.0491636469389745,2.2201581100137746,17.388937,-4.828696,2.774089,1.5255253,1
-1.6099999999999999,12.957728,-11.059161999999999,1.1282959,-0.15961343,-0.33020517,-0.6822885000000001,-0.632432,-8.403787,0.18275627,-0.16956215,-2.1507258,0.06039238,-0.39211008,17.724151642637253,-4.003910841930015,3.0491636469389745,2.2201581100137746,17.388937,-4.828696,2.774089,1.5255253,1
-1.5999999999999999,12.874239,-11.057117,1.1267481000000001,-0.15060565,-0.32326818,-0.68527305,-0.6349931,-8.294436,0.22614823,-0.13961647,-2.5682737999999996,0.48354226,-0.29801118,18.697551316128,-4.764288113583343,4.544677711818606,2.3147138870628456,17.880194,-5.256732,4.4101906,0.39874646,0
-1.5899999999999999,12.791866,-11.05462,1.1255616000000002,-0.13872834,-0.31657866,-0.6895014,-0.6364903000000001,-8.180609,0.27371168,-0.09722222400000001,-2.9107084,1.1166987,-0.16980404,18.697551316128,-4.764288113583343,4.544677711818606,2.3147138870628456,17.880194,-5.256732,4.4101906,0.39874646,0
-1.5799999999999998,12.71061,-11.051638,1.1248136,-0.12400493,-0.3104923,-0.69486254,-0.63669693,-8.071297999999999,0.32320258,-0.051939607,-3.1998427000000005,1.6510688999999998,-0.047888032999999997,18.697551316128,-4.764288113583343,4.544677711818606,2.3147138870628456,17.880194,-5.256732,4.4101906,0.39874646,0
-1.5699999999999998,12.630422,-11.048146000000001,1.1245326,-0.10687175,-0.30487220000000004,-0.7010954,-0.6356856,-7.967219,0.37556422,-0.0038143954999999997,-3.4439597,2.102074,0.06804551,18.697551316128,-4.764288113583343,4.544677711818606,2.3147138870628456,17.880194,-5.256732,4.4101906,0.39874646,0
-1.5599999999999998,12.551245,-11.044115,1.1247466,-0.08769983,-0.29959914,-0.7079673000000001,-0.6335069999999999,-7.8690405,0.43155116,0.047020032999999996,-3.650058,2.4827258999999997,0.17829019,18.697551316128,-4.764288113583343,4.544677711818606,2.3147138870628456,17.920935,-4.7355433,4.585833,-0.009391222,0
-1.5499999999999998,12.473019,-11.039502,1.1254816,-0.0668067,-0.294571,-0.7152729,-0.63019776,-7.777391000000001,0.49174958,0.10034860000000001,-3.8240491999999997,2.8040051,0.28312509999999996,18.697551316128,-4.764288113583343,4.544677711818606,2.3147138870628456,17.920935,-4.7355433,4.585833,-0.009391222,0
-1.5399999999999998,12.395674,-11.034265,1.1267612,-0.044465683,-0.28970173,-0.7228328,-0.6257862,-7.6928625,0.55659515,0.15588245,-3.9709275,3.0751777000000002,0.38281578,18.697551316128,-4.764288113583343,4.544677711818606,2.3147138870628456,17.920935,-4.7355433,4.585833,-0.009391222,0
-1.5299999999999998,12.319136,-11.028354,1.1286056999999998,-0.020913466999999998,-0.28491968,-0.7304906999999999,-0.62029564,-7.616012599999999,0.62638843,0.21326777,-4.0949125,3.3040616999999997,0.47761458,18.697551316128,-4.764288113583343,4.544677711818606,2.3147138870628456,17.920935,-4.7355433,4.585833,-0.009391222,0
-1.5199999999999998,12.243326,-11.02172,1.1310316,0.0036439653000000004,-0.28016594,-0.73811114,-0.6137471999999999,-7.547363000000001,0.70130897,0.27209494,-4.199566,3.4972557999999996,0.5677616,19.26547452831888,-4.591801479113308,4.876035669734177,2.251343405769355,19.320116,-3.5486642999999995,4.0141554,0.68273836,0
-1.5099999999999998,12.168168,-11.014298,1.134075,0.029084658,-0.27552474,-0.74555093,-0.6061303000000001,-7.485571,0.78387135,0.33669752,-4.261013,3.712024,0.6503753999999999,19.26547452831888,-4.591801479113308,4.876035669734177,2.251343405769355,19.320116,-3.5486642999999995,4.0141554,0.68273836,0
-1.4999999999999998,12.093581,-11.006024,1.1377671,0.055298217000000004,-0.27106076,-0.752682,-0.59744287,-7.433160000000001,0.87184244,0.4017555,-4.312875,3.8933084000000004,0.7289354,19.26547452831888,-4.591801479113308,4.876035669734177,2.251343405769355,19.320116,-3.5486642999999995,4.0141554,0.68273836,0
-1.4899999999999998,12.01947,-10.996843,1.1421094999999999,0.08213032,-0.26670459999999996,-0.7594161,-0.5877163000000001,-7.390521499999999,0.9651821,0.46667543,-4.3566427,4.0463314,0.80364037,19.26547452831888,-4.591801479113308,4.876035669734177,2.251343405769355,19.320116,-3.5486642999999995,4.0141554,0.68273836,0
-1.4799999999999998,11.945735,-10.986702000000001,1.147098,0.109443896,-0.26239935,-0.76567763,-0.5769803000000001,-7.358003,1.0637542,0.53084546,-4.393576599999999,4.1755004,0.87467957,18.95332692139768,-3.714986138729421,4.19500238278582,2.0523269145265557,19.823420000000002,-2.7941092999999997,3.4435644,1.8167668999999997,1
-1.4699999999999998,11.872277,-10.975535,1.1527450000000001,0.13628075,-0.25832176,-0.771265,-0.5655507,-7.3351912,1.1703085,0.59831023,-4.144198,4.061372,0.92090803,18.95332692139768,-3.714986138729421,4.19500238278582,2.0523269145265557,19.823420000000002,-2.7941092999999997,3.4435644,1.8167668999999997,1
-1.4599999999999997,11.798995,-10.963280000000001,1.1590573999999998,0.16188808,-0.25463888,-0.77608806,-0.55374944,-7.322780000000001,1.2815236,0.66380703,-3.9337084000000004,3.9650383000000002,0.9648681,18.95332692139768,-3.714986138729421,4.19500238278582,2.0523269145265557,19.823420000000002,-2.7941092999999997,3.4435644,1.8167668999999997,1
-1.4499999999999997,11.725787,-10.94989,1.1660129,0.18643066,-0.25129157,-0.7802305,-0.5416053000000001,-7.3203897,1.3969042,0.7268562,-3.7560434000000003,3.8837237,1.0066711,18.95332692139768,-3.714986138729421,4.19500238278582,2.0523269145265557,19.823420000000002,-2.7941092999999997,3.4435644,1.8167668999999997,1
-1.4399999999999997,11.652554499999999,-10.9353285,1.1735848,0.21004665,-0.248227,-0.7837576,-0.5291384,-7.327679600000001,1.5159906,0.7870385999999999,-3.6060843,3.8150856,1.0464227,17.764163151168102,-2.4247447798592288,2.9401754104241657,1.7643022897616891,19.92765,-2.5070555,3.095591,1.6137544,0
-1.4299999999999997,11.57921,-10.919622,1.1816618,0.23261835,-0.24540849,-0.7867274000000001,-0.51645225,-7.342596,1.6256325,0.82788515,-3.4218469,3.6786904000000002,1.0816492,17.764163151168102,-2.4247447798592288,2.9401754104241657,1.7643022897616891,19.92765,-2.5070555,3.095591,1.6137544,0
-1.4199999999999997,11.505675,-10.902807000000001,1.1901318,0.25406283,-0.24280994,-0.7892033,-0.50363994,-7.365538000000001,1.7377888,0.86559796,-3.2663465,3.5635571,1.1151471000000002,17.764163151168102,-2.4247447798592288,2.9401754104241657,1.7643022897616891,19.92765,-2.5070555,3.095591,1.6137544,0
-1.4099999999999997,11.431873,-10.88486,1.1989622,0.2745329,-0.24040072,-0.79123574,-0.49069828,-7.396155,1.8520703,0.8999865,-3.1351006,3.466371,1.1470014,17.764163151168102,-2.4247447798592288,2.9401754104241657,1.7643022897616891,19.92765,-2.5070555,3.095591,1.6137544,0
-1.3999999999999997,11.357727,-10.86576,1.2081194,0.29415652,-0.23815285,-0.79286313,-0.47762209999999994,-7.4341345,1.9681218999999996,0.9308860000000001,-3.0243265999999998,3.3843337999999994,1.1772927,16.90486896880449,-1.0389694612346698,1.5109759094161141,1.4146394967381912,18.43111,-2.608216,1.7729775,1.3415318999999999,0
-1.3899999999999997,11.283177,-10.84552,1.217537,0.31233829999999996,-0.23620056,-0.79414314,-0.46474773,-7.4769664,2.079923,0.95211357,-2.7145112,3.0924015,1.1889395,16.90486896880449,-1.0389694612346698,1.5109759094161141,1.4146394967381912,18.43111,-2.608216,1.7729775,1.3415318999999999,0
-1.3799999999999997,11.208167,-10.824158,1.22715,0.32863393,-0.23466414,-0.7951657,-0.45237556,-7.525902,2.1927612,0.96997356,-2.4530412999999998,2.8459632000000004,1.2000146,16.90486896880449,-1.0389694612346698,1.5109759094161141,1.4146394967381912,18.43111,-2.608216,1.7729775,1.3415318999999999,0
-1.3699999999999997,11.132639999999999,-10.801662,1.2369252,0.34334296,-0.23349684,-0.79599196,-0.44044440000000007,-7.5803394,2.3063602000000003,0.98459566,-2.2323735,2.63793,1.2105464,16.90486896880449,-1.0389694612346698,1.5109759094161141,1.4146394967381912,18.43111,-2.608216,1.7729775,1.3415318999999999,0
-1.3599999999999997,11.056544,-10.7780285,1.2468312,0.35671556,-0.23265468,-0.79666424,-0.42889565,-7.6397705,2.4205005,0.996108,-2.0461404,2.4623156,1.2205613000000002,16.90486896880449,-1.0389694612346698,1.5109759094161141,1.4146394967381912,17.313248,-1.4979975,1.4428948,1.1247697,1
-1.3499999999999996,10.979823,-10.753238,1.2568501,0.36902505,-0.23192601,-0.7972482,-0.41764309999999993,-7.7053227,2.5377624,1.0072104,-1.9605243000000003,2.3034115,1.2158608,16.90486896880449,-1.0389694612346698,1.5109759094161141,1.4146394967381912,17.313248,-1.4979975,1.4428948,1.1247697,1
-1.3399999999999996,10.902424,-10.727273,1.2669654,0.38049433,-0.23113555,-0.79778844,-0.40661234,-7.775261,2.6551805,1.0153853000000002,-1.8882811000000002,2.1692772000000002,1.2113909999999999,16.90486896880449,-1.0389694612346698,1.5109759094161141,1.4146394967381912,17.313248,-1.4979975,1.4428948,1.1247697,1
-1.3299999999999996,10.824304,-10.700133000000001,1.2771482,0.39124846,-0.23029442,-0.79828304,-0.39576864,-7.849351400000001,2.7725601,1.0207528000000001,-1.8273215,2.0560513,1.2071404,16.90486896880449,-1.0389694612346698,1.5109759094161141,1.4146394967381912,17.313248,-1.4979975,1.4428948,1.1247697,1
-1.3199999999999996,10.745422999999999,-10.671822,1.2873712,0.40139222,-0.22941068,-0.79872817,-0.38508165,-7.9273915,2.889732,1.0234181,-1.7758834,1.9604747,1.2030985,15.974535195601973,0.3670430126056219,0.004825968552083569,1.0576966933229075,16.015518,-0.6995369,1.0124059,0.6012886,0
-1.3099999999999996,10.665775,-10.642385,1.2975695,0.4102741,-0.22886561,-0.7991834,-0.37496817,-8.002821,2.997529,1.0159131,-1.4414488,1.6557611,1.1959636,15.974535195601973,0.3670430126056219,0.004825968552083569,1.0576966933229075,16.015518,-0.6995369,1.0124059,0.6012886,0
-1.2999999999999996,10.585358,-10.611872,1.3076822,0.4174018,-0.22897342,-0.7997221,-0.36577472,-8.081157000000001,3.104998,1.0063091999999998,-1.1592089,1.3985236,1.189179,15.974535195601973,0.3670430126056219,0.004825968552083569,1.0576966933229075,16.015518,-0.6995369,1.0124059,0.6012886,0
-1.2899999999999996,10.504145,-10.580286,1.3176895,0.42306596,-0.22964518,-0.80034983,-0.35737666,-8.161857000000001,3.21218,0.99491316,-0.92101765,1.1813657,1.1827271000000001,15.974535195601973,0.3670430126056219,0.004825968552083569,1.0576966933229075,16.015518,-0.6995369,1.0124059,0.6012886,0
-1.2799999999999996,10.422113000000001,-10.547628,1.3275751,0.42750720000000003,-0.23080207,-0.8010636999999999,-0.34966362,-8.244471,3.3191273,0.98199165,-0.72,0.9980424999999999,1.1765919,15.338507062331464,1.7554721863771812,-1.4710583107552246,0.6980186333002507,14.989493,0.56200224,-0.025298852,0.27331358,0
-1.2699999999999996,10.339267,-10.513924000000001,1.337308,0.43027043,-0.2325971,-0.80196685,-0.34295017,-8.32523,3.4216585,0.96446496,-0.33364704,0.6132889,1.1531081,15.338507062331464,1.7554721863771812,-1.4710583107552246,0.6980186333002507,14.989493,0.56200224,-0.025298852,0.27331358,0
-1.2599999999999996,10.255607000000001,-10.479194999999999,1.3468613999999999,0.43101093,-0.23514960000000001,-0.803141,-0.33748838,-8.406832000000001,3.5241635000000002,0.9461195,-0.007601723,0.2884812,1.1307768,15.338507062331464,1.7554721863771812,-1.4710583107552246,0.6980186333002507,14.989493,0.56200224,-0.025298852,0.27331358,0
-1.2499999999999996,10.171128999999999,-10.443439999999999,1.3562290000000001,0.43005556,-0.23834677,-0.8045416,-0.33309978,-8.488693,3.6267915,0.92734843,0.26755100000000004,0.014281041999999999,1.1095409999999999,15.338507062331464,1.7554721863771812,-1.4710583107552246,0.6980186333002507,14.989493,0.56200224,-0.025298852,0.27331358,0
-1.2399999999999995,10.0858345,-10.406659,1.365408,0.42767408,-0.24208929,-0.8061218000000001,-0.32962823,-8.570322,3.7296817000000004,0.90847766,0.49975622,-0.21719544,1.0893476,15.493174419140265,2.7795110462757058,-2.685655520181353,0.3509336460214596,15.013123,1.3559324,-1.3167315,-0.01615629,0
-1.2299999999999995,9.9997225,-10.368841,1.3744031,0.42357305,-0.24644290000000002,-0.8079284999999999,-0.32726556,-8.652080999999999,3.8340075,0.8905987,0.85554177,-0.60191786,1.0531135,15.493174419140265,2.7795110462757058,-2.685655520181353,0.3509336460214596,15.013123,1.3559324,-1.3167315,-0.01615629,0
-1.2199999999999995,9.912799,-10.329977,1.383222,0.41752642,-0.25145054,-0.8099788,-0.32615653,-8.732549,3.9388924,0.8732921999999999,1.155786,-0.92669535,1.0186573,15.493174419140265,2.7795110462757058,-2.685655520181353,0.3509336460214596,15.013123,1.3559324,-1.3167315,-0.01615629,0
-1.2099999999999995,9.825078999999999,-10.290061,1.3918722,0.40982762,-0.25699866,-0.8121854000000001,-0.32610926,-8.81114,4.044484,0.85690635,1.4091616000000002,-1.200866,0.9858918999999999,15.493174419140265,2.7795110462757058,-2.685655520181353,0.3509336460214596,15.013123,1.3559324,-1.3167315,-0.01615629,0
-1.1999999999999995,9.736585,-10.249085000000001,1.4003642,0.40072048,-0.2629881,-0.81446815,-0.32695767,-8.88734,4.150898000000001,0.841709,1.6229863000000002,-1.4323136,0.95473427,16.084326946851302,3.2992344608903794,-3.3412188240533283,0.09340717771308812,15.132727,1.1705478,-2.2300223999999997,-0.13783649,0
-1.1899999999999995,9.647328,-10.207019,1.4087272,0.39013413,-0.26940313,-0.8167923,-0.32873547,-8.963473,4.2623153,0.83112705,1.8845341,-1.7298952,0.91246873,16.084326946851302,3.2992344608903794,-3.3412188240533283,0.09340717771308812,15.132727,1.1705478,-2.2300223999999997,-0.13783649,0
-1.1799999999999995,9.557328,-10.163835,1.4169924999999999,0.37801802,-0.27622047,-0.81910855,-0.33145916,-9.036083,4.374748,0.8222219999999999,2.1052537,-1.9811039000000001,0.87227714,16.084326946851302,3.2992344608903794,-3.3412188240533283,0.09340717771308812,15.132727,1.1705478,-2.2300223999999997,-0.13783649,0
-1.1699999999999995,9.466621,-10.119521,1.4251778999999998,0.36458713,-0.28334928,-0.8213302,-0.33497092,-9.104638000000001,4.4882364,0.81516767,2.2915203999999996,-2.193164,0.83405775,16.084326946851302,3.2992344608903794,-3.3412188240533283,0.09340717771308812,15.132727,1.1705478,-2.2300223999999997,-0.13783649,0
-1.1599999999999995,9.37525,-10.074067,1.4333026000000002,0.3500232,-0.29071084,-0.82338214,-0.3391345,-9.168666,4.602778400000001,0.810067,2.448714,-2.3721752,0.7977138,16.084326946851302,3.2992344608903794,-3.3412188240533283,0.09340717771308812,15.026682999999998,1.2292006000000002,-2.6150352999999997,-0.33028320000000005,0
-1.1499999999999995,9.283263999999999,-10.027462,1.4413861000000001,0.33448064,-0.29823738,-0.8252003000000001,-0.34383273,-9.227744,4.7183375,0.80696183,2.5813740000000003,-2.523286,0.76315325,16.084326946851302,3.2992344608903794,-3.3412188240533283,0.09340717771308812,15.026682999999998,1.2292006000000002,-2.6150352999999997,-0.33028320000000005,0
-1.1399999999999995,9.190714,-9.979697,1.4494486,0.31809142,-0.30587068,-0.8267309000000002,-0.34896454,-9.281494,4.834843,0.80584174,2.6933305,-2.6508439,0.7302886,16.084326946851302,3.2992344608903794,-3.3412188240533283,0.09340717771308812,15.026682999999998,1.2292006000000002,-2.6150352999999997,-0.33028320000000005,0
-1.1299999999999994,9.097653999999999,-9.930763,1.4575096,0.30096892,-0.31356072,-0.82792914,-0.35444307,-9.329581,4.9521976,0.8066517,2.7878163,-2.7585192000000003,0.6990367,16.084326946851302,3.2992344608903794,-3.3412188240533283,0.09340717771308812,15.026682999999998,1.2292006000000002,-2.6150352999999997,-0.33028320000000005,0
-1.1199999999999994,9.004144,-9.880651,1.465588,0.28321096,-0.32126486,-0.82875836,-0.36019337,-9.37171,5.0702763,0.809299,2.8675580000000003,-2.8494097999999997,0.6693183000000001,16.637900225836123,3.3306218543904227,-3.508738512792878,-0.15034033042354145,15.857536999999999,1.0379691999999998,-2.8505317999999997,0.3461356,0
-1.1099999999999994,8.910236,-9.829335,1.473719,0.26485172,-0.3289241,-0.8291915999999999,-0.36620086,-9.408853,5.193016,0.81718826,2.9397402,-2.9522772,0.62909746,16.637900225836123,3.3306218543904227,-3.508738512792878,-0.15034033042354145,15.857536999999999,1.0379691999999998,-2.8505317999999997,0.3461356,0
-1.0999999999999994,8.8159895,-9.77679,1.4819373,0.2459257,-0.3364875,-0.82920164,-0.37245214,-9.439300999999999,5.3161726,0.82671505,3.000658,-3.0391068,0.5908502,16.637900225836123,3.3306218543904227,-3.508738512792878,-0.15034033042354145,15.857536999999999,1.0379691999999998,-2.8505317999999997,0.3461356,0
-1.0899999999999994,8.721474,-9.723011999999999,1.4902585,0.22651279,-0.34393236,-0.82876134,-0.3788884,-9.462826,5.4395447,0.83771986,3.0520704,-3.1123981,0.5544796999999999,16.637900225836123,3.3306218543904227,-3.508738512792878,-0.15034033042354145,15.857536999999999,1.0379691999999998,-2.8505317999999997,0.3461356,0
-1.0799999999999994,8.626759,-9.667999,1.4986962,0.20668271,-0.35123932,-0.8278492000000001,-0.38545835,-9.479235000000001,5.562917,0.8500181999999998,3.0954613999999996,-3.174261,0.519894,16.855960127737845,2.8631499548247255,-3.211359942819509,-0.3259400220144994,15.262915,0.87925607,-3.1131837000000004,0.35041532,0
-1.0699999999999994,8.531915,-9.611746,1.50727,0.18667576,-0.35828018,-0.8264853999999999,-0.39205694,-9.488503999999999,5.6876755,0.864867,3.0591486,-3.180142,0.47838869999999994,16.855960127737845,2.8631499548247255,-3.211359942819509,-0.3259400220144994,15.262915,0.87925607,-3.1131837000000004,0.35041532,0
-1.0599999999999994,8.437014,-9.554247,1.5159968000000001,0.16669242,-0.36495808,-0.8247,-0.39860809999999997,-9.490401,5.8119555,0.8806036,3.0285022,-3.185098,0.43892008,16.855960127737845,2.8631499548247255,-3.211359942819509,-0.3259400220144994,15.262915,0.87925607,-3.1131837000000004,0.35041532,0
-1.0499999999999994,8.342131,-9.495510000000001,1.5248843,0.14673537,-0.37130055,-0.8224908999999999,-0.40510824,-9.484954,5.935512999999999,0.897011,3.0026387999999997,-3.1892742999999997,0.40138814,16.855960127737845,2.8631499548247255,-3.211359942819509,-0.3259400220144994,15.262915,0.87925607,-3.1131837000000004,0.35041532,0
-1.0399999999999994,8.247339,-9.435541,1.5339385,0.12680763,-0.3773309,-0.8198566999999999,-0.41155258,-9.472197999999999,6.0581083,0.9138708000000001,2.9808122999999997,-3.1927936000000003,0.36569795,16.613504243457097,2.0255669899100908,-2.5878152885979318,-0.427938405764305,16.285597,-0.14116499,-4.0264745,1.5853137,0
-1.0299999999999994,8.152711,-9.374361,1.5431542,0.107261084,-0.38289833,-0.8168938,-0.41781306,-9.452497,6.1777635,0.92931116,2.831741,-3.0985553,0.326754,16.613504243457097,2.0255669899100908,-2.5878152885979318,-0.427938405764305,16.285597,-0.14116499,-4.0264745,1.5853137,0
-1.0199999999999994,8.058313,-9.311991,1.5525248,0.08838002,-0.38789636,-0.81370467,-0.42380348,-9.425924,6.2960353,0.94480157,2.7059286,-3.0189981,0.28972104,16.613504243457097,2.0255669899100908,-2.5878152885979318,-0.427938405764305,16.285597,-0.14116499,-4.0264745,1.5853137,0
-1.0099999999999993,7.964215299999999,-9.2484455,1.5620497,0.07007530000000001,-0.3924021,-0.8102944000000001,-0.42957222,-9.392772,6.4127426,0.96018136,2.599746,-2.9518353999999998,0.25450528,16.613504243457097,2.0255669899100908,-2.5878152885979318,-0.427938405764305,16.285597,-0.14116499,-4.0264745,1.5853137,0
-0.9999999999999991,7.870480000000001,-9.183741,1.5717273,0.052270725,-0.39648014,-0.80666506,-0.43515745,-9.353296,6.527721,0.9753031999999999,2.5101302000000003,-2.8951366000000003,0.22101758,16.571343038437046,1.0827092694587914,-1.808630512910286,-0.4708709848338094,16.550192000000003,-1.1222281,-4.125712,2.2318307999999996,0
-0.9899999999999991,7.7771697,-9.117899000000001,1.5815529,0.03531963,-0.40001884,-0.8029550999999999,-0.4404542,-9.307879,6.64054,0.9897505999999999,2.2874396,-2.7257792999999997,0.18706642,16.571343038437046,1.0827092694587914,-1.808630512910286,-0.4708709848338094,16.550192000000003,-1.1222281,-4.125712,2.2318307999999996,0
-0.9799999999999991,7.684342,-9.050939,1.5915208,0.01949995,-0.40294477,-0.7992981,-0.44539547,-9.256855999999999,6.7514076,1.0037363000000001,2.0994906,-2.5828178,0.15478124,16.571343038437046,1.0827092694587914,-1.808630512910286,-0.4708709848338094,16.550192000000003,-1.1222281,-4.125712,2.2318307999999996,0
-0.9699999999999993,7.592050599999999,-8.98288,1.601626,0.0046487767,-0.40535720000000003,-0.7956837,-0.45005646,-9.200666,6.8602715,1.0172163,1.9408625,-2.462139,0.1240803,16.571343038437046,1.0827092694587914,-1.808630512910286,-0.4708709848338094,16.550192000000003,-1.1222281,-4.125712,2.2318307999999996,0
-0.9599999999999993,7.500344999999999,-8.913742,1.6118633999999998,-0.009372921,-0.40733802,-0.79209846,-0.45449686,-9.139686,6.967089,1.0301579,1.8069808,-2.36027,0.09488587,16.571343038437046,1.0827092694587914,-1.808630512910286,-0.4708709848338094,16.971510000000002,-1.9331313,-3.9841967000000005,2.8927944,0
-0.9499999999999993,7.4092727,-8.843547000000001,1.6222273999999999,-0.022683602,-0.40895498,-0.78852797,-0.45876402,-9.074236,7.071828999999999,1.0425351,1.6939845000000002,-2.2742798,0.06712402,16.571343038437046,1.0827092694587914,-1.808630512910286,-0.4708709848338094,16.971510000000002,-1.9331313,-3.9841967000000005,2.8927944,0
-0.9399999999999993,7.318875299999999,-8.772314,1.6327121,-0.035384085,-0.41026409999999996,-0.78495777,-0.46289536,-9.004595,7.174462299999999,1.0543253000000001,1.5986153,-2.201694,0.040724456,16.571343038437046,1.0827092694587914,-1.808630512910286,-0.4708709848338094,16.971510000000002,-1.9331313,-3.9841967000000005,2.8927944,0
-0.9299999999999993,7.229194000000001,-8.700064999999999,1.6433118999999998,-0.047560107000000004,-0.41131190000000006,-0.7813741,-0.46692032,-8.931000000000001,7.2749630000000005,1.0655081,1.5181233,-2.1404229999999997,0.015620323,16.571343038437046,1.0827092694587914,-1.808630512910286,-0.4708709848338094,16.971510000000002,-1.9331313,-3.9841967000000005,2.8927944,0
-0.9199999999999993,7.140268300000001,-8.6268215,1.6540203000000002,-0.05928453,-0.41213682,-0.7777641,-0.470862,-8.853657,7.3733070000000005,1.0760633,1.4501877,-2.0887034,-0.008251949,16.040121780171326,0.2007234685085509,-1.2389096227567364,-0.4123072600305893,17.1175,-2.1881053,-3.4624705000000002,2.8519452000000003,0
-0.9099999999999993,7.0521207,-8.552622,1.6648138,-0.07027873400000001,-0.41260526,-0.7742821,-0.47466248,-8.775367,7.4663960000000005,1.0825211000000001,1.2553097,-1.9561936999999998,-0.02807906,16.040121780171326,0.2007234685085509,-1.2389096227567364,-0.4123072600305893,17.1175,-2.1881053,-3.4624705000000002,2.8519452000000003,0
-0.8999999999999992,6.964771300000001,-8.477501,1.6756689999999999,-0.080326185,-0.41261962,-0.7710616,-0.47828472,-8.693972,7.557411,1.0884331,1.0908267,-1.8443441000000003,-0.046933237,16.040121780171326,0.2007234685085509,-1.2389096227567364,-0.4123072600305893,17.1175,-2.1881053,-3.4624705000000002,2.8519452000000003,0
-0.8899999999999992,6.878250599999999,-8.401480000000001,1.686581,-0.08956793,-0.41225636,-0.7680615,-0.48177096,-8.609795,7.6463966,1.0938874,0.951998,-1.7499338,-0.06486224,16.040121780171326,0.2007234685085509,-1.2389096227567364,-0.4123072600305893,17.1175,-2.1881053,-3.4624705000000002,2.8519452000000003,0
-0.8799999999999992,6.7925844,-8.324579,1.6975455000000002,-0.09812357,-0.41157849999999996,-0.7652448000000001,-0.48515433,-8.523107000000001,7.7333913,1.0989617,0.8348218000000001,-1.6702445,-0.08191146,15.415833546732554,-0.6262588307921056,-0.6074058740198207,-0.2789066091560011,17.451185,-2.612303,-3.4073860000000002,3.142259,0
-0.8699999999999992,6.7077789999999995,-8.246835,1.7085392,-0.10574735,-0.41050723,-0.7627497,-0.48837855,-8.437624000000001,7.815131,1.099733,0.60696644,-1.5044870000000001,-0.09157806,15.415833546732554,-0.6262588307921056,-0.6074058740198207,-0.2789066091560011,17.451185,-2.612303,-3.4073860000000002,3.142259,0
-0.8599999999999992,6.623838,-8.1682825,1.7195398000000002,-0.11225137,-0.40898636,-0.7606914,-0.49140379999999995,-8.350314,7.895100599999999,1.1003561000000002,0.41464579999999995,-1.3645787,-0.10077032400000001,15.415833546732554,-0.6262588307921056,-0.6074058740198207,-0.2789066091560011,17.451185,-2.612303,-3.4073860000000002,3.142259,0
-0.8499999999999992,6.5407777000000005,-8.08894,1.7305464,-0.11780707,-0.40709263,-0.7590059,-0.49427366,-8.261509,7.973407000000001,1.1009784,0.25231797,-1.2464888,-0.10951151,15.415833546732554,-0.6262588307921056,-0.6074058740198207,-0.2789066091560011,17.451185,-2.612303,-3.4073860000000002,3.142259,0
-0.8399999999999992,6.4586120000000005,-8.008821000000001,1.7415599,-0.12255929,-0.40488887,-0.7576361,-0.4970223,-8.171485,8.050145,1.1017286,0.11530532,-1.1468152,-0.11782377,14.792174271382864,-1.3375675219438383,-0.06226200210080095,-0.09948115672212893,18.859766,-2.8541856,-2.8444578999999997,3.3758314,0
-0.8299999999999992,6.377333,-7.927956599999999,1.7525619,-0.12633252,-0.40231737,-0.7566855,-0.49960706,-8.084175,8.122363,1.0987191,-0.11125573,-0.97766244,-0.1169237,14.792174271382864,-1.3375675219438383,-0.06226200210080095,-0.09948115672212893,18.859766,-2.8541856,-2.8444578999999997,3.3758314,0
-0.8199999999999992,6.296931,-7.846377400000001,1.7635357,-0.12899499,-0.3993353,-0.7562358,-0.5019945,-7.996248700000001,8.193292,1.0961118,-0.30248705,-0.83489186,-0.116067775,14.792174271382864,-1.3375675219438383,-0.06226200210080095,-0.09948115672212893,18.859766,-2.8541856,-2.8444578999999997,3.3758314,0
-0.8099999999999992,6.217409,-7.764094999999999,1.7744862000000001,-0.13071837,-0.39600894,-0.7562087,-0.50421953,-7.9080070000000005,8.263061,1.0940665,-0.46389782,-0.7143888,-0.11525387,14.792174271382864,-1.3375675219438383,-0.06226200210080095,-0.09948115672212893,18.859766,-2.8541856,-2.8444578999999997,3.3758314,0
-0.7999999999999992,6.1387706,-7.6811194,1.7854196,-0.13164741,-0.39239270000000004,-0.75653607,-0.5063095999999999,-7.819702599999999,8.331778,1.0927187,-0.6001383000000001,-0.61268,-0.114479885,13.361236902711676,-1.664060228341003,0.05066050707778752,0.08795196247095635,18.29143,-4.1631784,-3.0202127,4.2350080000000005,0
-0.7899999999999991,6.0609717000000005,-7.597494999999999,1.7962962,-0.13181287,-0.38845219999999997,-0.75722724,-0.5082682,-7.740083,8.3929825,1.0827487,-0.7660451,-0.50922513,-0.10454649,13.361236902711676,-1.664060228341003,0.05066050707778752,0.08795196247095635,18.29143,-4.1631784,-3.0202127,4.2350080000000005,0
-0.7799999999999991,5.983968,-7.513262299999999,1.8070773999999998,-0.13124615,-0.38416094,-0.75828594,-0.5100947,-7.660813,8.453398,1.0736343000000002,-0.90608144,-0.42190725,-0.09510054,13.361236902711676,-1.664060228341003,0.05066050707778752,0.08795196247095635,18.29143,-4.1631784,-3.0202127,4.2350080000000005,0
-0.7699999999999991,5.907754,-7.4284296,1.8177721999999998,-0.1300607,-0.37957034,-0.7596493000000001,-0.5118037,-7.582082300000001,8.513088,1.0654823999999998,-1.024281,-0.34820923,-0.08611811,13.361236902711676,-1.664060228341003,0.05066050707778752,0.08795196247095635,18.29143,-4.1631784,-3.0202127,4.2350080000000005,0
-0.7599999999999991,5.8323236,-7.3430029999999995,1.8283904999999998,-0.12835231,-0.37472332,-0.7612631999999999,-0.5134063,-7.504055,8.572107,1.0583798,-1.1240491000000001,-0.28600642,-0.07757645,13.361236902711676,-1.664060228341003,0.05066050707778752,0.08795196247095635,17.298304,-3.9459035000000005,-3.2069042000000003,4.0953846,0
-0.7499999999999991,5.7576694,-7.256989,1.8389435,-0.12620182,-0.36965585,-0.76308143,-0.5149114,-7.4268713,8.630497,1.0523956,-1.2082597,-0.23350547,-0.06945393,13.361236902711676,-1.664060228341003,0.05066050707778752,0.08795196247095635,17.298304,-3.9459035000000005,-3.2069042000000003,4.0953846,0
-0.7399999999999989,5.6837826,-7.1703944,1.8494426,-0.12367748,-0.36439815,-0.7650649,-0.5163265,-7.350653,8.688291,1.0475837,-1.2793386,-0.18919323,-0.06172999,13.361236902711676,-1.664060228341003,0.05066050707778752,0.08795196247095635,17.298304,-3.9459035000000005,-3.2069042000000003,4.0953846,0
-0.7299999999999989,5.6106524,-7.0832257,1.8598994,-0.12083696,-0.35897565,-0.76718014,-0.5176573,-7.2755075,8.745515,1.0439851999999998,-1.3393334,-0.15179224,-0.05438506,13.361236902711676,-1.664060228341003,0.05066050707778752,0.08795196247095635,17.298304,-3.9459035000000005,-3.2069042000000003,4.0953846,0
-0.7199999999999989,5.538268599999999,-6.9954867,1.8703266,-0.117728986,-0.35340986,-0.7693989,-0.5189085,-7.201528,8.802189,1.0416303,-1.3899727,-0.12022428,-0.047400527000000005,11.566201969734927,-1.5897970182743435,-0.3623966935738694,0.2729082502548936,14.980938,-3.3124849999999997,-1.5772686000000002,3.1781745,0
-0.7099999999999989,5.466569,-6.907221300000001,1.8806714,-0.11454555400000001,-0.34765336,-0.7716797,-0.5201216,-7.138563,8.850778,1.0275071,-1.421135,-0.15800452,-0.031682882,11.566201969734927,-1.5897970182743435,-0.3623966935738694,0.2729082502548936,14.980938,-3.3124849999999997,-1.5772686000000002,3.1781745,0
-0.6999999999999991,5.3954935,-6.818473299999999,1.8908803,-0.11144246,-0.34166932,-0.77399075,-0.5213257,-7.076706,8.898855000000001,1.0144933,-1.4474366,-0.18989304,-0.016736502,11.566201969734927,-1.5897970182743435,-0.3623966935738694,0.2729082502548936,14.980938,-3.3124849999999997,-1.5772686000000002,3.1781745,0
-0.6899999999999991,5.325031299999999,-6.7292466,1.9009648999999997,-0.10840879,-0.33548890000000003,-0.77632356,-0.52250934,-7.0159745,8.946371000000001,1.0025988000000001,-1.4696358,-0.2168083,-0.0025235456,11.566201969734927,-1.5897970182743435,-0.3623966935738694,0.2729082502548936,14.980938,-3.3124849999999997,-1.5772686000000002,3.1781745,0
-0.679999999999999,5.2551703000000005,-6.639548,1.9109361,-0.10543514,-0.3291385,-0.77867055,-0.523663,-6.956388499999999,8.993282,0.99182737,-1.4883728999999999,-0.2395257,0.010991957,9.946472806738988,-1.4478801219300121,-0.7310737913892879,0.4699596753556887,13.936754999999998,-2.9891915,-1.9429271000000001,3.010195,0
-0.669999999999999,5.1858587,-6.549416000000001,1.9207435000000002,-0.1026662,-0.32260507,-0.78100413,-0.5248025,-6.906142,9.033064999999999,0.9697914000000001,-1.482053,-0.31620413,0.03351364,9.946472806738988,-1.4478801219300121,-0.7310737913892879,0.4699596753556887,13.936754999999998,-2.9891915,-1.9429271000000001,3.010195,0
-0.659999999999999,5.117044,-6.458889,1.9303352999999999,-0.10021748400000001,-0.31587946,-0.7833048,-0.5259369,-6.8568754,9.072223,0.9487141,-1.476717,-0.38092336,0.054930165,9.946472806738988,-1.4478801219300121,-0.7310737913892879,0.4699596753556887,13.936754999999998,-2.9891915,-1.9429271000000001,3.010195,0
-0.649999999999999,5.0487175,-6.367973999999999,1.9397210999999999,-0.09804201,-0.30898765,-0.78557724,-0.52705055,-6.8085675000000005,9.11069,0.928586,-1.4722122,-0.43554857,0.07529579,9.946472806738988,-1.4478801219300121,-0.7310737913892879,0.4699596753556887,13.936754999999998,-2.9891915,-1.9429271000000001,3.010195,0
-0.639999999999999,4.9808693,-6.2766779999999995,1.9489104,-0.09609972,-0.30195170000000005,-0.7878245,-0.52813065,-6.761201,9.148408,0.90939593,-1.4684093,-0.48165399999999997,0.09466207,8.9681034036859,-1.4522312651038023,-0.9145621590508884,0.6771977145889575,13.88044,-2.7516901000000002,-3.2695572,3.0353234000000002,0
-0.629999999999999,4.913467400000001,-6.1850266,1.957873,-0.09442115599999999,-0.29474770000000006,-0.7900557,-0.529169,-6.71933,9.181693,0.88327855,-1.4658719,-0.549193,0.12324727,8.9681034036859,-1.4522312651038023,-0.9145621590508884,0.6771977145889575,13.88044,-2.7516901000000002,-3.2695572,3.0353234000000002,0
-0.619999999999999,4.846480000000001,-6.0930467,1.9665787000000001,-0.09302946,-0.28735720000000003,-0.7922791,-0.5301551999999999,-6.678279400000001,9.214198,0.8579859000000001,-1.4637295,-0.6061979000000001,0.15042977,8.9681034036859,-1.4522312651038023,-0.9145621590508884,0.6771977145889575,13.88044,-2.7516901000000002,-3.2695572,3.0353234000000002,0
-0.6099999999999992,4.7798986,-6.0007459999999995,1.9750355,-0.09188293,-0.279805,-0.79449546,-0.5310772,-6.638035,9.245865,0.83350736,-1.4619207,-0.6543116999999999,0.17627843,8.9681034036859,-1.4522312651038023,-0.9145621590508884,0.6771977145889575,13.88044,-2.7516901000000002,-3.2695572,3.0353234000000002,0
-0.5999999999999992,4.7137165,-5.908133,1.9832517,-0.09094595,-0.27211213,-0.7967044,-0.53192586,-6.598584700000001,9.276647,0.80982995,-1.4603939,-0.694921,0.20085868,8.121599900935278,-1.3669476995033958,-0.7961570117688179,0.8554399360880093,12.773672999999999,-2.1962582999999998,-2.9423907000000002,2.6514115,0
-0.5899999999999992,4.647907,-5.815231,1.9911994999999998,-0.09017446,-0.26434702,-0.7989124,-0.53266066,-6.5635699999999995,9.303684,0.7798391,-1.445804,-0.71073717,0.23297918,8.121599900935278,-1.3669476995033958,-0.7961570117688179,0.8554399360880093,12.773672999999999,-2.1962582999999998,-2.9423907000000002,2.6514115,0
-0.5799999999999992,4.582443700000001,-5.7220629999999995,1.9988508000000003,-0.08953226,-0.25656512,-0.8011265999999999,-0.53324825,-6.5292597,9.329862,0.75053924,-1.4334898999999999,-0.7240850999999999,0.26352352,8.121599900935278,-1.3669476995033958,-0.7961570117688179,0.8554399360880093,12.773672999999999,-2.1962582999999998,-2.9423907000000002,2.6514115,0
-0.5699999999999992,4.5173190000000005,-5.628637,2.0062127,-0.08900174,-0.24876557,-0.8033471,-0.5336919,-6.4956474,9.355162,0.7219085,-1.4230969,-0.7353498,0.29256904,8.121599900935278,-1.3669476995033958,-0.7961570117688179,0.8554399360880093,12.773672999999999,-2.1962582999999998,-2.9423907000000002,2.6514115,0
-0.5599999999999992,4.4525275,-5.534962999999999,2.0132916,-0.08856769,-0.24094765,-0.8055734,-0.53399503,-6.4627275,9.37957,0.6939254,-1.4143252,-0.7448564000000001,0.32018927,8.121599900935278,-1.3669476995033958,-0.7961570117688179,0.8554399360880093,11.749022,-1.5985916999999998,-1.9047276000000002,1.7831144,0
-0.5499999999999992,4.388062000000001,-5.441048599999999,2.0200934,-0.08821698,-0.23311093,-0.80780447,-0.5341610999999999,-6.430497,9.403075,0.66656876,-1.4069222,-0.7528793,0.3464542,8.121599900935278,-1.3669476995033958,-0.7961570117688179,0.8554399360880093,11.749022,-1.5985916999999998,-1.9047276000000002,1.7831144,0
-0.5399999999999991,4.3239155,-5.346904299999999,2.026625,-0.08793824,-0.22525518,-0.8100390000000001,-0.53419363,-6.398953400000001,9.425661999999999,0.63981795,-1.4006743000000001,-0.7596498,0.37143028,8.121599900935278,-1.3669476995033958,-0.7961570117688179,0.8554399360880093,11.749022,-1.5985916999999998,-1.9047276000000002,1.7831144,0
-0.5299999999999991,4.260081,-5.252538700000001,2.0328918000000002,-0.08772164,-0.21738029,-0.8122752,-0.53409636,-6.3680935,9.447319,0.6136522,-1.3954014,-0.7653634,0.39518076,8.121599900935278,-1.3669476995033958,-0.7961570117688179,0.8554399360880093,11.749022,-1.5985916999999998,-1.9047276000000002,1.7831144,0
-0.5199999999999991,4.1965513,-5.1579614000000005,2.0388997,-0.08755861,-0.20948626,-0.81451094,-0.53387266,-6.337917,9.468036,0.58805126,-1.3909513999999998,-0.77018505,0.41776583,7.569200817446713,-1.300450258121589,-0.6333374809150136,0.9877461533990508,9.835173,-2.1319953999999997,-1.7034903000000001,2.0450463,0
-0.5099999999999991,4.13331,-5.0631876,2.0446298,-0.08740624,-0.20162837,-0.81675345,-0.53349704,-6.310428,9.486457000000001,0.558026,-1.3768301,-0.74886495,0.44573495,7.569200817446713,-1.300450258121589,-0.6333374809150136,0.9877461533990508,9.835173,-2.1319953999999997,-1.7034903000000001,2.0450463,0
-0.4999999999999991,4.070340600000001,-4.968235,2.050062,-0.08723013,-0.19385053,-0.81900984,-0.53294915,-6.2835754999999995,9.504,0.52848524,-1.3649111,-0.73086876,0.47233158,7.569200817446713,-1.300450258121589,-0.6333374809150136,0.9877461533990508,9.835173,-2.1319953999999997,-1.7034903000000001,2.0450463,0
-0.4899999999999989,4.007636,-4.8731112,2.055201,-0.08703488,-0.18613770000000002,-0.82127833,-0.5322393,-6.257358999999999,9.520672,0.49940655,-1.3548512,-0.7156781,0.49762315,7.569200817446713,-1.300450258121589,-0.6333374809150136,0.9877461533990508,9.835173,-2.1319953999999997,-1.7034903000000001,2.0450463,0
-0.47999999999999887,3.9451910000000003,-4.7778254,2.0600517,-0.086824186,-0.17847723,-0.82355666,-0.53137654,-6.231779599999999,9.536478,0.47076896,-1.3463607,-0.7028554,0.5216736,7.226957611294773,-1.2950702761492752,-0.21307229612302572,1.0967194096929,9.097731,-1.9984965000000001,-1.13304,1.6463592,0
-0.46999999999999886,3.8829927000000004,-4.682389,2.0646021,-0.08646591,-0.17094852,-0.82586396,-0.5303283000000001,-6.207967,9.550752000000001,0.43939227,-1.3383763000000002,-0.6264959,0.5498913000000001,7.226957611294773,-1.2950702761492752,-0.21307229612302572,1.0967194096929,9.097731,-1.9984965000000001,-1.13304,1.6463592,0
-0.45999999999999885,3.8210294,-4.5868134000000005,2.068841,-0.085855216,-0.16361389999999998,-0.8282169,-0.52907014,-6.184778700000001,9.564242,0.40839744,-1.3316358,-0.5620436,0.5767243000000001,7.226957611294773,-1.2950702761492752,-0.21307229612302572,1.0967194096929,9.097731,-1.9984965000000001,-1.13304,1.6463592,0
-0.44999999999999885,3.7592947,-4.4911065,2.0727715,-0.08503162,-0.15644066,-0.83060926,-0.5276204000000001,-6.162232,9.576988,0.37776577,-1.3259455,-0.5076417000000001,0.6022406,7.226957611294773,-1.2950702761492752,-0.21307229612302572,1.0967194096929,9.097731,-1.9984965000000001,-1.13304,1.6463592,0
-0.43999999999999884,3.6977822999999996,-4.395276,2.0763974,-0.084028415,-0.1494013,-0.83303505,-0.5259944000000001,-6.140341,9.589022,0.34748003,-1.3211412,-0.4617227,0.6265048000000001,7.5244729024608015,-1.4566508495006254,0.3092332312864885,1.2426554313093543,9.054729,-1.8337444,-0.9799249,1.2548424999999999,0
-0.4299999999999988,3.6364899,-4.2993264,2.079736,-0.082668014,-0.14252706,-0.835525,-0.5241650999999999,-6.118248,9.60084,0.32032996,-1.342316,-0.34152767,0.6567395,7.5244729024608015,-1.4566508495006254,0.3092332312864885,1.2426554313093543,9.054729,-1.8337444,-0.9799249,1.2548424999999999,0
-0.4199999999999988,3.5754147000000005,-4.2032620000000005,2.0828052,-0.080810815,-0.1358407,-0.83810264,-0.5221109,-6.096896599999999,9.612003999999999,0.29351220000000006,-1.3601851,-0.24007505,0.68549055,7.5244729024608015,-1.4566508495006254,0.3092332312864885,1.2426554313093543,9.054729,-1.8337444,-0.9799249,1.2548424999999999,0
-0.4099999999999988,3.5145489999999997,-4.107088,2.0856075,-0.07853387,-0.12930973,-0.84075266,-0.51985127,-6.0763326,9.622572,0.26701626,-1.3752642,-0.15444192,0.7128308000000001,7.5244729024608015,-1.4566508495006254,0.3092332312864885,1.2426554313093543,9.054729,-1.8337444,-0.9799249,1.2548424999999999,0
-0.3999999999999988,3.4538849999999996,-4.0108120000000005,2.0881464,-0.07590222,-0.122906946,-0.8434609000000001,-0.5174025,-6.056596,9.632588,0.24083139999999997,-1.3879886000000001,-0.08216147,0.7388294,8.587420411673454,-1.8065760809559768,0.9297585444916754,1.4654250750415214,9.350255,-2.013171,-0.52608347,1.8508026999999998,0
-0.3899999999999988,3.3934276,-3.9144309999999995,2.090476,-0.072692044,-0.11661735,-0.8462641,-0.51473516,-6.035061,9.64344,0.22514947,-1.4533445,0.07558173,0.7744835999999999,8.587420411673454,-1.8065760809559768,0.9297585444916754,1.4654250750415214,9.350255,-2.013171,-0.52608347,1.8508026999999998,0
-0.3799999999999988,3.3331802,-3.8179445,2.0926506999999996,-0.06872846,-0.11042636,-0.8491871999999999,-0.51182276,-6.014608,9.653787,0.20980744,-1.5085024,0.20872907,0.80838835,8.587420411673454,-1.8065760809559768,0.9297585444916754,1.4654250750415214,9.350255,-2.013171,-0.52608347,1.8508026999999998,0
-0.3699999999999988,3.2731314,-3.7213568999999995,2.0946734,-0.064128146,-0.10431389999999999,-0.85220194,-0.5086818000000001,-5.9953327000000005,9.663697,0.19480067,-1.5550526000000002,0.32111603,0.84062934,8.587420411673454,-1.8065760809559768,0.9297585444916754,1.4654250750415214,9.350255,-2.013171,-0.52608347,1.8508026999999998,0
-0.35999999999999877,3.2132692000000005,-3.6246720000000003,2.0965477999999997,-0.05898962,-0.09826351,-0.8552834999999999,-0.50532544,-5.977318,9.673228,0.18012041,-1.5943377,0.41598019999999997,0.87128824,8.587420411673454,-1.8065760809559768,0.9297585444916754,1.4654250750415214,10.742823,-2.3763657000000005,-0.41107228,2.3555248,0
-0.34999999999999876,3.1535804,-3.5278932999999997,2.098277,-0.053396184000000006,-0.09226179,-0.8584099000000001,-0.5017651,-5.960633799999999,9.682423,0.16575399,-1.627491,0.49605384,0.9004426999999999,8.587420411673454,-1.8065760809559768,0.9297585444916754,1.4654250750415214,10.742823,-2.3763657000000005,-0.41107228,2.3555248,0
-0.33999999999999875,3.0940516,-3.4310245999999998,2.0998639999999997,-0.047418255,-0.0862979,-0.86156195,-0.4980104,-5.9453406,9.691314,0.15168546,-1.6554689999999999,0.56364363,0.92816657,8.587420411673454,-1.8065760809559768,0.9297585444916754,1.4654250750415214,10.742823,-2.3763657000000005,-0.41107228,2.3555248,0
-0.32999999999999874,3.0346683999999997,-3.334068,2.1013117,-0.041115433,-0.08036316,-0.86472285,-0.4940697,-5.9314914000000005,9.699925,0.13789573,-1.679079,0.62069595,0.9545299999999999,8.587420411673454,-1.8065760809559768,0.9297585444916754,1.4654250750415214,10.742823,-2.3763657000000005,-0.41107228,2.3555248,0
-0.31999999999999873,2.9754167000000002,-3.237027,2.1026227000000004,-0.03453815,-0.074450664,-0.8678779000000001,-0.48995033,-5.91913,9.708275,0.12436326,-1.6990029999999998,0.66885406,0.9795997999999999,9.810676050869713,-2.1552515257343527,1.304976507381204,1.669371032411194,11.80269,-2.664628,-0.87467813,2.4665496,0
-0.3099999999999987,2.9162889,-3.1398976000000003,2.1038601000000003,-0.027532322,-0.06850607,-0.87104046,-0.48563009999999995,-5.9067593,9.717528,0.123144716,-1.7702346999999998,0.7679727,1.013447,9.810676050869713,-2.1552515257343527,1.304976507381204,1.669371032411194,11.80269,-2.664628,-0.87467813,2.4665496,0
-0.2999999999999987,2.8572755,-3.0426772,2.1050866000000004,-0.01997831,-0.06248492,-0.8742148999999999,-0.48108622,-5.8962345,9.726519,0.12216866,-1.8303508999999998,0.8516402,1.0456336,9.810676050869713,-2.1552515257343527,1.304976507381204,1.669371032411194,11.80269,-2.664628,-0.87467813,2.4665496,0
-0.2899999999999987,2.7983577,-2.9453678,2.1063044,-0.011962073,-0.05639607,-0.8773771,-0.4763245,-5.8876514,9.735259,0.121405855,-1.8810854,0.92226577,1.0762406999999998,9.810676050869713,-2.1552515257343527,1.304976507381204,1.669371032411194,11.80269,-2.664628,-0.87467813,2.4665496,0
-0.2799999999999987,2.7395158,-2.8479723999999997,2.1075156,-0.0035564286999999997,-0.05024769,-0.88050586,-0.47135028,-5.881092,9.74376,0.12082144,-1.9239019,0.98188275,1.1053457,11.081532452858601,-2.3062471593021168,1.638535729255482,1.7500584058632915,12.616144,-2.9330225,-0.78619957,2.806934,0
-0.2699999999999989,2.680732,-2.7504877999999997,2.1087849999999997,0.005322446999999999,-0.044056599999999994,-0.8835898999999999,-0.4661531,-5.876052,9.753097,0.13302560000000002,-1.9836243000000002,1.0842036,1.1369821000000002,11.081532452858601,-2.3062471593021168,1.638535729255482,1.7500584058632915,12.616144,-2.9330225,-0.78619957,2.806934,0
-0.2599999999999989,2.6219864,-2.6529112,2.1101766,0.014737562,-0.03783607,-0.88661426,-0.4607228,-5.873488,9.762184,0.14533561,-2.0340241999999997,1.1705743999999998,1.167066,11.081532452858601,-2.3062471593021168,1.638535729255482,1.7500584058632915,12.616144,-2.9330225,-0.78619957,2.806934,0
-0.2499999999999989,2.5632534,-2.555245,2.1116917,0.024603617999999997,-0.03158881,-0.8895572,-0.45506492,-5.8735013,9.771036,0.15769427,-2.0765555,1.2434819,1.1956735,11.081532452858601,-2.3062471593021168,1.638535729255482,1.7500584058632915,12.616144,-2.9330225,-0.78619957,2.806934,0
-0.23999999999999888,2.504507,-2.4574912,2.1133306,0.03484811,-0.025317905,-0.89239955,-0.4491847,-5.876176,9.779658999999999,0.17003863,-2.1124468,1.3050251,1.2228773000000002,12.100536314143415,-2.3911950848208923,1.4789377301717188,1.7742463639175046,14.341358,-2.8521693,-1.1659941999999999,3.0563933999999997,0
-0.22999999999999865,2.4457183,-2.359649,2.115143,0.04536736,-0.018967893,-0.8951296999999999,-0.4430847,-5.882078,9.788813000000001,0.19244981,-2.1559625,1.332074,1.2499331,12.100536314143415,-2.3911950848208923,1.4789377301717188,1.7742463639175046,14.341358,-2.8521693,-1.1659941999999999,3.0563933999999997,0
-0.21999999999999864,2.3868551,-2.2617161,2.117179,0.05607513,-0.012496090500000001,-0.8977379000000001,-0.43676679999999996,-5.8910193,9.797666,0.21469606,-2.1926882,1.3549109,1.2756611999999998,12.100536314143415,-2.3911950848208923,1.4789377301717188,1.7742463639175046,14.341358,-2.8521693,-1.1659941999999999,3.0563933999999997,0
-0.20999999999999863,2.327887,-2.1636968,2.119436,0.06693783,-0.0059230076,-0.90021175,-0.4302353,-5.903043299999999,9.806169,0.23669875,-2.2236830000000003,1.3741916,1.3001268999999998,12.100536314143415,-2.3911950848208923,1.4789377301717188,1.7742463639175046,14.341358,-2.8521693,-1.1659941999999999,3.0563933999999997,0
-0.19999999999999862,2.2687833,-2.0655942,2.1219118,0.07792675,0.0007335027,-0.90254,-0.4234947,-5.918182,9.814269,0.25837645,-2.2498412,1.3904705,1.3233921999999998,12.686609442011747,-2.446596399834762,0.8432702947772618,1.7196009236726286,14.800010999999998,-2.4943798,-1.2060266000000002,2.8369102,0
-0.18999999999999884,2.2095084,-1.967411,2.1246312,0.088796794,0.007585423000000001,-0.904732,-0.41655385,-5.9373336,9.822275999999999,0.28542918,-2.2804682,1.3050796,1.3428341000000001,12.686609442011747,-2.446596399834762,0.8432702947772618,1.7196009236726286,14.800010999999998,-2.4943798,-1.2060266000000002,2.8369102,0
-0.17999999999999883,2.1500256,-1.8691508000000001,2.1276188,0.09935163,0.014718426000000001,-0.9068001,-0.40942115,-5.9597254,9.829664999999999,0.31198135,-2.3063278,1.2330103000000001,1.3613222,12.686609442011747,-2.446596399834762,0.8432702947772618,1.7196009236726286,14.800010999999998,-2.4943798,-1.2060266000000002,2.8369102,0
-0.16999999999999882,2.0903032,-1.7708203999999999,2.1308689999999997,0.10963435,0.022082936,-0.9087392,-0.40210113,-5.9852967,9.836295,0.33796309999999996,-2.3281622000000004,1.1721846000000002,1.378903,12.686609442011747,-2.446596399834762,0.8432702947772618,1.7196009236726286,14.800010999999998,-2.4943798,-1.2060266000000002,2.8369102,0
-0.1599999999999988,2.0303092,-1.6724281000000003,2.1343758,0.119681306,0.029637082999999998,-0.9105436,-0.39459866,-6.0139904,9.842037,0.3633047,-2.3465981,1.1208486999999998,1.3956212,12.686609442011747,-2.446596399834762,0.8432702947772618,1.7196009236726286,15.211106,-2.4987798,-1.6507101000000002,2.8457234000000002,0
-0.1499999999999988,1.9700129000000002,-1.5739832,2.1381326,0.12952311,0.037345465,-0.9122075999999999,-0.386919,-6.045748000000001,9.846782000000001,0.38793647,-2.3621645,1.0775218,1.411519,12.686609442011747,-2.446596399834762,0.8432702947772618,1.7196009236726286,15.211106,-2.4987798,-1.6507101000000002,2.8457234000000002,0
-0.1399999999999988,1.9093839,-1.4754962999999999,2.1421318,0.13918547,0.04517813,-0.91372544,-0.37906745,-6.0805115999999995,9.850425999999999,0.41178885,-2.3753085,1.0409551,1.4266367,12.686609442011747,-2.446596399834762,0.8432702947772618,1.7196009236726286,15.211106,-2.4987798,-1.6507101000000002,2.8457234000000002,0
-0.12999999999999878,1.8483924999999999,-1.3769788,2.1463653999999996,0.14868994,0.053109687,-0.91509163,-0.37104955,-6.1182218,9.852879,0.43479246,-2.3864067,1.0100937,1.4410126,12.686609442011747,-2.446596399834762,0.8432702947772618,1.7196009236726286,15.211106,-2.4987798,-1.6507101000000002,2.8457234000000002,0
-0.11999999999999877,1.7870095000000001,-1.2784431,2.1508244999999997,0.15805450000000001,0.06111857,-0.91630113,-0.36287090000000005,-6.1588197000000005,9.854054,0.45687816,-2.3957777,0.98404753,1.454683,12.524701418428931,-2.2463827184191376,-0.07460402279190588,1.5058171528887878,15.737020499999998,-3.1354349999999998,-2.0770294999999996,2.7824402000000004,0
-0.10999999999999877,1.7252091,-1.1799024,2.1554919999999997,0.16692720000000003,0.06924933,-0.91740555,-0.35455146,-6.2016735,9.85387,0.4764622,-2.3723247000000005,0.8189696999999999,1.4571922,12.524701418428931,-2.2463827184191376,-0.07460402279190588,1.5058171528887878,15.737020499999998,-3.1354349999999998,-2.0770294999999996,2.7824402000000004,0
