time-since-start [s],throttle_mpc,roll_mpc,pitch_mpc,yaw_mpc,throttle_nw,roll_nw,pitch_nw,yaw_nw,position_x [m],position_y [m],position_z [m],rotation_w [quaternion],rotation_x [quaternion],rotation_y [quaternion],rotation_z [quaternion],velocity_x [m/s],velocity_y [m/s],velocity_z [m/s],omega_x [rad/s],omega_y [rad/s],omega_z [rad/s],network_used
0.0,12.67817691311372,5.999999609728737,-5.999999884295085,-3.8941502537485606,14.302873,-0.1868563,-0.17719062,-0.02320121,16.658035,-10.491577,1.3071088,-0.123516634,0.39882177,-0.23792987,-0.87696874,-8.7808275,-3.484091,-0.582589,1.3861026,-0.16205937,-0.108736776,0
0.01,12.67817691311372,5.999999609728737,-5.999999884295085,-3.8941502537485606,14.694524,0.2124956,-0.5832812,-0.5655,16.569641,-10.525943,1.3013128,-0.12757328,0.39668754,-0.24374254,-0.8757588,-8.897382,-3.3890178,-0.5769678,1.5232841,-0.4903359,-0.2424086,0
0.02,12.67817691311372,5.999999609728737,-5.999999884295085,-3.8941502537485606,14.694524,0.2124956,-0.5832812,-0.5655,16.4801,-10.559356,1.2955616,-0.13287774,0.39319074,-0.24970719,-0.87486607,-9.010057,-3.2934964,-0.5736018,1.6754732,-0.803895,-0.37278,0
0.03,12.67817691311372,5.999999609728737,-5.999999884295085,-3.8941502537485606,14.694524,0.2124956,-0.5832812,-0.5655,16.389454,-10.591809,1.2898341,-0.13942811,0.38837096,-0.25588536,-0.87421405,-9.118438,-3.1974142,-0.5721425,1.8398331,-1.1045322,-0.49996802,0
0.04,12.67817691311372,5.999999609728737,-5.999999884295085,-3.8941502537485606,14.02632,0.18666273,-0.5526789,-0.5867433,16.297749,-10.623301,1.2841132,-0.14721665,0.38225767,-0.2623233,-0.8737234,-9.222127,-3.1006665,-0.5722917,2.0139594,-1.3937528,-0.62408316,0
0.05,12.67817691311372,5.999999609728737,-5.999999884295085,-3.8941502537485606,14.02632,0.18666273,-0.5526789,-0.5867433,16.20503,-10.653821,1.2783836,-0.1562301,0.37487182,-0.26905385,-0.8733116,-9.320742,-3.003167,-0.57379776,2.195813,-1.6728184,-0.74522984,0
0.060000000000000005,12.67817691311372,5.999999609728737,-5.999999884295085,-3.8941502537485606,14.02632,0.18666273,-0.5526789,-0.5867433,16.111355,-10.683362,1.2726332,-0.1664499,0.3662273,-0.2760982,-0.8728927,-9.413911,-2.9048526,-0.5764523,2.3836656,-1.9427861,-0.86350673,0
0.07,12.67817691311372,5.999999609728737,-5.999999884295085,-3.8941502537485606,14.02632,0.18666273,-0.5526789,-0.5867433,16.016773,-10.711917,1.2668511,-0.17785229,0.35633215,-0.28346688,-0.87237734,-9.501276,-2.8056927,-0.5800871,2.576053,-2.2045424,-0.97900707,0
0.08,14.201350749127569,5.999999592362997,-5.999999900053601,-4.081209248953763,16.38058,0.29675964,-0.2567794,-0.74034256,15.92135,-10.739474,1.2610284,-0.19040832,0.34518987,-0.29116103,-0.87167287,-9.582488,-2.7056916,-0.58457196,2.771734,-2.4588308,-1.0918192,0
0.09,14.201350749127569,5.999999592362997,-5.999999900053601,-4.081209248953763,16.38058,0.29675964,-0.2567794,-0.74034256,15.825113,-10.765983,1.2551981,-0.20413049,0.332768,-0.2991892,-0.8706789,-9.663813,-2.595987,-0.5816066,2.9846535,-2.7213333,-1.2125467,0
0.09999999999999999,14.201350749127569,5.999999592362997,-5.999999900053601,-4.081209248953763,16.38058,0.29675964,-0.2567794,-0.74034256,15.7281,-10.79139,1.2493937,-0.21902469,0.31902888,-0.30755147,-0.8692874,-9.737706,-2.4854856,-0.5793777,3.1991954,-2.9777856,-1.3304663,0
0.10999999999999999,14.201350749127569,5.999999592362997,-5.999999900053601,-4.081209248953763,16.38058,0.29675964,-0.2567794,-0.74034256,15.630387,-10.81569,1.243608,-0.2350436,0.30396494,-0.3162238,-0.867388,-9.803799,-2.374325,-0.57785016,3.4145463,-3.2285674,-1.4456656,0
0.11999999999999998,14.201350749127569,5.999999592362997,-5.999999900053601,-4.081209248953763,16.38058,0.29675964,-0.2567794,-0.74034256,15.532054,-10.838876,1.2378341,-0.25213352,0.28756836,-0.32517448,-0.8648666,-9.86174,-2.262701,-0.5770253,3.6300173,-3.4739962,-1.5582275,0
0.12999999999999998,16.053923672033978,5.255112334977385,-5.999999850124263,-3.6231426515265484,16.767885,0.37967032,-0.22069235,-0.50368834,15.433184,-10.860944,1.2320648,-0.27023405,0.26983228,-0.33436465,-0.86160547,-9.911205,-2.1508667,-0.5769394,3.8450253,-3.714339,-1.668231,0
0.13999999999999999,16.053923672033978,5.255112334977385,-5.999999850124263,-3.6231426515265484,16.767885,0.37967032,-0.22069235,-0.50368834,15.333852,-10.88187,1.2263125,-0.28936931,0.2504539,-0.34368783,-0.8575643,-9.953673,-2.0341754,-0.5733224,4.0642867,-4.071278,-1.7641591,0
0.15,16.053923672033978,5.255112334977385,-5.999999850124263,-3.6231426515265484,16.767885,0.37967032,-0.22069235,-0.50368834,15.234139,-10.901621,1.2206025,-0.30946052,0.2293109,-0.35297367,-0.85267806,-9.987259,-1.9156625,-0.5685021,4.2493906,-4.372526,-1.8553799,0
0.16,16.98682628070736,3.1075957012813844,-5.563864003363798,-1.3002651620217884,16.78233,0.28899282,-0.4898605,-0.5126453,15.13414,-10.920179,1.2149464,-0.33030105,0.2066481,-0.3620973,-0.8468075,-10.01129,-1.795839,-0.5625349,4.4056644,-4.6267676,-1.9421245,0
0.17,16.98682628070736,3.1075957012813844,-5.563864003363798,-1.3002651620217884,16.78233,0.28899282,-0.4898605,-0.5126453,15.033945,-10.9375,1.2093856,-0.35123172,0.18301818,-0.37035128,-0.84022623,-10.026068,-1.6683309,-0.5494172,4.2031446,-4.772565,-1.9106282,0
0.18000000000000002,16.98682628070736,3.1075957012813844,-5.563864003363798,-1.3002651620217884,16.78233,0.28899282,-0.4898605,-0.5126453,14.933657,-10.953547,1.2039615,-0.37172323,0.1588925,-0.3772072,-0.8332403,-10.030096,-1.540971,-0.5352259,4.032236,-4.8956757,-1.8806776,0
0.19000000000000003,16.98682628070736,3.1075957012813844,-5.563864003363798,-1.3002651620217884,16.78233,0.28899282,-0.4898605,-0.5126453,14.833382,-10.968324,1.1986846,-0.39177442,0.13435759,-0.38280833,-0.8257834,-10.023454,-1.4146469,-0.51999336,3.8880043,-4.9996305,-1.8521965,0
0.20000000000000004,16.86732328058185,1.9712897630292823,-4.350152874581034,-1.0878104701293283,17.369293,0.0836477,-0.7169172,-0.48811987,14.733224,-10.981846,1.1935648,-0.4113778,0.109487735,-0.38727644,-0.8178002,-10.006265,-1.2901976,-0.5037996,3.7662838,-5.087409,-1.825113,0
0.21000000000000005,16.86732328058185,1.9712897630292823,-4.350152874581034,-1.0878104701293283,17.369293,0.0836477,-0.7169172,-0.48811987,14.63329,-10.99414,1.1886072,-0.43027106,0.08492473,-0.39055622,-0.8093948,-9.97894,-1.169263,-0.48757464,3.48661,-4.9720187,-1.7889334,0
0.22000000000000006,16.86732328058185,1.9712897630292823,-4.350152874581034,-1.0878104701293283,17.369293,0.0836477,-0.7169172,-0.48811987,14.53368,-11.00524,1.1838156,-0.44827273,0.061189637,-0.39264563,-0.8007098,-9.941888,-1.0516237,-0.47064948,3.2505193,-4.874691,-1.7545291,0
0.23000000000000007,16.86732328058185,1.9712897630292823,-4.350152874581034,-1.0878104701293283,17.369293,0.0836477,-0.7169172,-0.48811987,14.434485,-11.015184,1.1791961,-0.4654777,0.0381758,-0.39370838,-0.7917488,-9.895704,-0.9378337,-0.45315474,3.0512202,-4.792597,-1.721813,0
0.24000000000000007,16.86732328058185,1.9712897630292823,-4.350152874581034,-1.0878104701293283,17.511812,0.015371295,-0.87821907,-0.26968065,14.335795,-11.024013,1.1747539,-0.48196176,0.015790496,-0.39387953,-0.7825099,-9.840945,-0.82837766,-0.43521824,2.882979,-4.7233505,-1.6907023,0
0.25000000000000006,16.86732328058185,1.9712897630292823,-4.350152874581034,-1.0878104701293283,17.511812,0.015371295,-0.87821907,-0.26968065,14.237694,-11.03177,1.1704926,-0.4977854,-0.00604611,-0.3932707,-0.77298814,-9.778131,-0.7236835,-0.41696775,2.7409556,-4.6649413,-1.6611181,0
0.26000000000000006,16.86732328058185,1.9712897630292823,-4.350152874581034,-1.0878104701293283,17.511812,0.015371295,-0.87821907,-0.26968065,14.140258,-11.038505,1.1664151,-0.5129966,-0.027402166,-0.3919743,-0.763177,-9.707751,-0.6241322,-0.39853272,2.6210644,-4.615672,-1.6329858,0
0.2700000000000001,16.86732328058185,1.9712897630292823,-4.350152874581034,-1.0878104701293283,17.511812,0.015371295,-0.87821907,-0.26968065,14.043563,-11.044271,1.1625223,-0.5276334,-0.048335344,-0.39006692,-0.75306964,-9.63027,-0.5300657,-0.3800453,2.5198565,-4.5741134,-1.6062338,0
0.2800000000000001,16.433129240181348,0.09852357417202931,-2.350432606716435,0.05815214480253066,17.701822,0.132323,-1.050635,0.0149618555,13.947677,-11.049126,1.158814,-0.54172575,-0.06889401,-0.38761204,-0.7426595,-9.546131,-0.44179237,-0.36164075,2.4344194,-4.5390573,-1.5807947,0
0.2900000000000001,16.433129240181348,0.09852357417202931,-2.350432606716435,0.05815214480253066,17.701822,0.132323,-1.050635,0.0149618555,13.852651,-11.053139,1.1552738,-0.55494916,-0.08817365,-0.38454336,-0.7323815,-9.458156,-0.3616613,-0.34643272,2.0707104,-4.197258,-1.5003711,0
0.3000000000000001,16.433129240181348,0.09852357417202931,-2.350432606716435,0.05815214480253066,17.701822,0.132323,-1.050635,0.0149618555,13.758531,-11.056379,1.1518846,-0.5670909,-0.10547145,-0.38085273,-0.72265786,-9.36498,-0.28732646,-0.33142582,1.7636263,-3.9088578,-1.4238939,0
0.3100000000000001,16.433129240181348,0.09852357417202931,-2.350432606716435,0.05815214480253066,17.701822,0.132323,-1.050635,0.0149618555,13.665366,-11.058905,1.1486447,-0.57831573,-0.121098034,-0.37665802,-0.7134525,-9.267411,-0.21860293,-0.3165718,1.5043544,-3.6655097,-1.3511695,0
0.3200000000000001,16.144620264075293,-2.0637060769327067,0.06092948498446657,1.895624158903237,17.467737,0.33772996,-1.2000513,0.23236193,13.573196,-11.06077,1.1455529,-0.58875555,-0.135317,-0.37205037,-0.7047228,-9.166125,-0.15530616,-0.30181646,1.2854527,-3.460173,-1.2820137,0
0.3300000000000001,16.144620264075293,-2.0637060769327067,0.06092948498446657,1.895624158903237,17.467737,0.33772996,-1.2000513,0.23236193,13.482053,-11.06203,1.1426069,-0.59816474,-0.14725289,-0.36695793,-0.6970344,-9.062267,-0.09747635,-0.2876223,0.74287426,-2.9315462,-1.1280217,0
0.34000000000000014,16.144620264075293,-2.0637060769327067,0.06092948498446657,1.895624158903237,17.467737,0.33772996,-1.2000513,0.23236193,13.391953,-11.062737,1.1397964,-0.60633504,-0.15623482,-0.36144093,-0.6908752,-8.95746,-0.044852585,-0.274486,0.30382955,-2.4664593,-0.9798316,0
0.35000000000000014,16.144620264075293,-2.0637060769327067,0.06092948498446657,1.895624158903237,17.467737,0.33772996,-1.2000513,0.23236193,13.302908,-11.06294,1.1371185,-0.61343265,-0.1627469,-0.35565728,-0.68609136,-8.851462,0.0038359957,-0.26097178,-0.06494219,-2.072083,-0.8387321,0
0.36000000000000015,17.724151642637256,-4.003910841930017,3.049163646938975,2.220158110013772,17.13964,0.47341642,-1.1858568,0.26429942,13.214926,-11.062672,1.1345794,-0.6196106,-0.16719808,-0.3496645,-0.6825408,-8.744808,0.049246877,-0.24670345,-0.3763127,-1.7393024,-0.70455647,0
0.37000000000000016,17.724151642637256,-4.003910841930017,3.049163646938975,2.220158110013772,17.13964,0.47341642,-1.1858568,0.26429942,13.128063,-11.061942,1.1322432,-0.62467796,-0.16864747,-0.34370908,-0.6805874,-8.627648,0.09616107,-0.22035925,-0.94159526,-0.9923696,-0.5610399,0
0.38000000000000017,17.724151642637256,-4.003910841930017,3.049163646938975,2.220158110013772,17.13964,0.47341642,-1.1858568,0.26429942,13.042369,-11.060754,1.1301773,-0.628489,-0.16636497,-0.33799073,-0.6805044,-8.511298,0.14123677,-0.1925828,-1.4188961,-0.3620442,-0.42456576,0
0.3900000000000002,17.724151642637256,-4.003910841930017,3.049163646938975,2.220158110013772,17.13964,0.47341642,-1.1858568,0.26429942,12.95783,-11.059119,1.1283976,-0.6311939,-0.16094463,-0.33246857,-0.682023,-8.396609,0.1855955,-0.16303934,-1.8218925,0.16989085,-0.29478842,0
0.4000000000000002,18.70015741102089,-4.859653500295464,4.559064761166817,2.2817549168878264,16.825151,0.64880556,-1.1546606,0.20074691,12.874429,-11.057041,1.1269233,-0.63289666,-0.15288207,-0.32709518,-0.68489206,-8.284309,0.2301834,-0.13146912,-2.1621385,0.6188045,-0.17137927,0
0.4100000000000002,18.70015741102089,-4.859653500295464,4.559064761166817,2.2817549168878264,16.825151,0.64880556,-1.1546606,0.20074691,12.792165,-11.0545,1.1258119,-0.6335166,-0.14196275,-0.32196772,-0.6890861,-8.169049,0.27834982,-0.090418786,-2.5828402,1.2331321,-0.051003255,0
0.4200000000000002,18.70015741102089,-4.859653500295464,4.559064761166817,2.2817549168878264,16.825151,0.64880556,-1.1546606,0.20074691,12.711034,-11.051467,1.1251234,-0.63296646,-0.12803058,-0.31714717,-0.69453496,-8.0578165,0.32864615,-0.046869762,-2.938019,1.7516034,0.063465856,0
0.4300000000000002,18.70015741102089,-4.859653500295464,4.559064761166817,2.2817549168878264,16.825151,0.64880556,-1.1546606,0.20074691,12.630992,-11.047916,1.1248833,-0.6312963,-0.111548066,-0.3125371,-0.700958,-7.951411,0.3819858,-0.00075221434,-3.2378683,2.1891844,0.17231794,0
0.4400000000000002,18.70015741102089,-4.859653500295464,4.559064761166817,2.2817549168878264,16.638199,0.87604934,-1.2057744,0.27573743,12.551988,-11.043814,1.1251171,-0.6285377,-0.09290784,-0.30805227,-0.7081044,-7.850577,0.43909556,0.04789926,-3.4909976,2.558503,0.2758286,0
0.45000000000000023,18.70015741102089,-4.859653500295464,4.559064761166817,2.2817549168878264,16.638199,0.87604934,-1.2057744,0.27573743,12.47396,-11.03912,1.1258495,-0.6247117,-0.07244533,-0.30361933,-0.7157526,-7.7560134,0.5005353,0.098953694,-3.7046778,2.870214,0.37425998,0
0.46000000000000024,18.70015741102089,-4.859653500295464,4.559064761166817,2.2817549168878264,16.638199,0.87604934,-1.2057744,0.27573743,12.396844,-11.033788,1.1271036,-0.6198336,-0.0504489,-0.29917648,-0.7237086,-7.668379,0.5667153,0.15219343,-3.8850498,3.133309,0.4678613,0
0.47000000000000025,18.70015741102089,-4.859653500295464,4.559064761166817,2.2817549168878264,16.638199,0.87604934,-1.2057744,0.27573743,12.320566,-11.027769,1.1288998,-0.6139164,-0.027167823,-0.2946728,-0.7318033,-7.588292,0.6379111,0.20732465,-4.0373,3.3553748,0.55686957,0
0.48000000000000026,19.384346839279836,-4.8005866440919185,4.897838217632012,2.165173573960529,16.668869,0.9780468,-1.234087,0.33385733,12.245049,-11.021011,1.1312553,-0.60697275,-0.0028187828,-0.29006708,-0.7398897,-7.516331,0.71427715,0.26398778,-4.165809,3.5428135,0.64151025,0
0.49000000000000027,19.384346839279836,-4.8005866440919185,4.897838217632012,2.165173573960529,16.668869,0.9780468,-1.234087,0.33385733,12.170222,-11.013451,1.1342118,-0.598987,0.022499513,-0.28542578,-0.74782354,-7.4507155,0.7988544,0.32746592,-4.265073,3.7538798,0.7162768,0
0.5000000000000002,19.384346839279836,-4.8005866440919185,4.897838217632012,2.165173573960529,16.668869,0.9780468,-1.234087,0.33385733,12.096003,-11.005016,1.1378068,-0.58995086,0.048694354,-0.28079918,-0.7554722,-7.394594,0.88886327,0.39158314,-4.3488507,3.932039,0.7873746,0
0.5100000000000002,19.384346839279836,-4.8005866440919185,4.897838217632012,2.165173573960529,16.668869,0.9780468,-1.234087,0.33385733,12.022296,-10.995655,1.1420437,-0.57988846,0.07559531,-0.27613658,-0.7627338,-7.348439,0.9842331,0.45577684,-4.4195557,4.082424,0.85498357,0
0.5200000000000002,19.12112886505451,-3.94745889733465,4.227852466715419,1.9422611132909398,17.106497,1.0891029,-1.3243787,0.38928118,11.948999,-10.985314,1.1469206,-0.5688243,0.103051335,-0.2713974,-0.7695208,-7.312668,1.0847945,0.5194554,-4.4792237,4.2093673,0.9192749,0
0.5300000000000002,19.12112886505451,-3.94745889733465,4.227852466715419,1.9422611132909398,17.106497,1.0891029,-1.3243787,0.38928118,11.876005,-10.973949,1.152418,-0.5569203,0.1305368,-0.26666138,-0.7756875,-7.2879477,1.1888453,0.57982755,-4.396435,4.2121553,0.9694732,0
0.5400000000000003,19.12112886505451,-3.94745889733465,4.227852466715419,1.9422611132909398,17.106497,1.0891029,-1.3243787,0.38928118,11.803205,-10.961521,1.1585114,-0.5443431,0.15763074,-0.26200622,-0.78115,-7.273861,1.2973514,0.63850504,-4.3265495,4.214513,1.0172082,0
0.5500000000000003,19.12112886505451,-3.94745889733465,4.227852466715419,1.9422611132909398,17.106497,1.0891029,-1.3243787,0.38928118,11.730491,-10.9479885,1.1651806,-0.531121,0.18434927,-0.25739884,-0.7859205,-7.2703795,1.4098665,0.6949353,-4.2675567,4.216506,1.0626009,0
0.5600000000000003,17.995868526432425,-2.560737665502434,2.9076687658860365,1.6474079350587676,17.267723,1.1712412,-1.3314046,0.4059361,11.65776,-10.933311,1.1724006,-0.5172795,0.21070276,-0.2528114,-0.7900076,-7.277456,1.5259297,0.7485942,-4.217758,4.218191,1.1057659,0
0.5700000000000003,17.995868526432425,-2.560737665502434,2.9076687658860365,1.6474079350587676,17.267723,1.1712412,-1.3314046,0.4059361,11.584909,-10.917493,1.1800975,-0.5031328,0.23600699,-0.2483852,-0.7933865,-7.293933,1.6380424,0.7902645,-3.9592693,4.013933,1.1323444,0
0.5800000000000003,17.995868526432425,-2.560737665502434,2.9076687658860365,1.6474079350587676,17.267723,1.1712412,-1.3314046,0.4059361,11.511848,-10.900542,1.1881943,-0.4889795,0.25973997,-0.24425374,-0.796099,-7.31977,1.7525078,0.82857376,-3.7411053,3.8415105,1.1576186,0
0.5900000000000003,17.995868526432425,-2.560737665502434,2.9076687658860365,1.6474079350587676,17.267723,1.1712412,-1.3314046,0.4059361,11.438483,-10.882437,1.1966565,-0.4748131,0.282125,-0.24038069,-0.7982321,-7.354444,1.8688306,0.86330754,-3.5569763,3.6959612,1.1816527,0
0.6000000000000003,17.036799772532557,-0.944088865629579,1.2993280015423112,1.2900946680355327,17.423203,1.2218866,-1.3828487,0.4225239,11.364731,-10.863161,1.2054474,-0.460623,0.30334955,-0.23673168,-0.79985183,-7.3974905,1.9865727,0.8942906,-3.4015722,3.573096,1.2045075,0
0.6100000000000003,17.036799772532557,-0.944088865629579,1.2993280015423112,1.2900946680355327,17.423203,1.2218866,-1.3828487,0.4225239,11.290521,-10.842734,1.2144954,-0.44679075,0.32277563,-0.23348938,-0.8010468,-7.4457164,2.099007,0.91473585,-3.0180602,3.2187953,1.2087073,0
0.6200000000000003,17.036799772532557,-0.944088865629579,1.2993280015423112,1.2900946680355327,17.423203,1.2218866,-1.3828487,0.4225239,11.215793,-10.821179,1.22373,-0.43365583,0.33993325,-0.23081489,-0.8019426,-7.5006638,2.2120578,0.9316205,-2.694398,2.919703,1.212701,0
0.6300000000000003,17.036799772532557,-0.944088865629579,1.2993280015423112,1.2900946680355327,17.423203,1.2218866,-1.3828487,0.4225239,11.140485,-10.798492,1.2331161,-0.42114004,0.3551899,-0.22864354,-0.8026224,-7.5615735,2.3254478,0.9451206,-2.4212453,2.6672158,1.2164987,0
0.6400000000000003,17.036799772532557,-0.944088865629579,1.2993280015423112,1.2900946680355327,17.367168,1.2675301,-1.4584906,0.5254081,11.064542,-10.774671,1.2426214,-0.4091677,0.36885184,-0.22691451,-0.8031434,-7.6278086,2.4389672,0.95541215,-2.1907206,2.4540718,1.22011,0
0.6500000000000004,17.036799772532557,-0.944088865629579,1.2993280015423112,1.2900946680355327,17.367168,1.2675301,-1.4584906,0.5254081,10.987912,-10.749713,1.252214,-0.39766794,0.38117433,-0.2255719,-0.8035441,-7.698832,2.5524564,0.9626626,-1.9961714,2.2741401,1.2235442,0
0.6600000000000004,17.036799772532557,-0.944088865629579,1.2993280015423112,1.2900946680355327,17.367168,1.2675301,-1.4584906,0.5254081,10.910551,-10.723621,1.2618645,-0.38657582,0.39237007,-0.22456498,-0.80385005,-7.7741947,2.6657917,0.96702665,-1.8319832,2.1222458,1.2268099,0
0.6700000000000004,17.036799772532557,-0.944088865629579,1.2993280015423112,1.2900946680355327,17.367168,1.2675301,-1.4584906,0.5254081,10.832417,-10.696398,1.2715449,-0.3758331,0.40261635,-0.22384828,-0.80407774,-7.853516,2.7788756,0.96864444,-1.6934183,1.9940196,1.2299153,0
0.6800000000000004,16.100648971736103,0.5980493736474937,-0.2938263111398628,0.9292305359832197,15.786522,0.7475559,-3.7049403,0.58801264,10.75347,-10.668045,1.2812284,-0.3653879,0.41206095,-0.22338139,-0.80423737,-7.9364777,2.8916292,0.9676406,-1.5764779,1.8857735,1.2328682,0
0.6900000000000004,16.100648971736103,0.5980493736474937,-0.2938263111398628,0.9292305359832197,15.786522,0.7475559,-3.7049403,0.58801264,10.6737,-10.6385975,1.2908632,-0.3556315,0.420104,-0.22337772,-0.80445063,-8.018015,2.997824,0.95896333,-1.2370737,1.5461507,1.2179685,0
0.7000000000000004,16.100648971736103,0.5980493736474937,-0.2938263111398628,0.9292305359832197,15.786522,0.7475559,-3.7049403,0.58801264,10.5931015,-10.60809,1.3004009,-0.34688923,0.42629343,-0.2240127,-0.80483514,-8.102132,3.1036806,0.9482767,-0.950648,1.2594433,1.2038001,0
0.7100000000000004,16.100648971736103,0.5980493736474937,-0.2938263111398628,0.9292305359832197,15.786522,0.7475559,-3.7049403,0.58801264,10.511651,-10.576526,1.309823,-0.3390247,0.4309371,-0.22519833,-0.8053824,-8.188269,3.209265,0.93593735,-0.7089308,1.0174074,1.1903268,0
0.7200000000000004,15.585469627838455,1.9732347261486942,-1.7962224373644622,0.564463998752852,15.992403,0.7544099,-3.9461987,0.7217359,10.429331,-10.543905,1.3191148,-0.33191735,0.43428954,-0.22685649,-0.8060764,-8.275963,3.314653,0.9222524,-0.50494266,0.8130835,1.1775147,0
0.7300000000000004,15.585469627838455,1.9732347261486942,-1.7962224373644622,0.564463998752852,15.992403,0.7544099,-3.9461987,0.7217359,10.346142,-10.510249,1.3282509,-0.32587498,0.43590665,-0.22914524,-0.807021,-8.36194,3.4165668,0.9048497,-0.11815213,0.4064627,1.1474322,0
0.7400000000000004,15.585469627838455,1.9732347261486942,-1.7962224373644622,0.564463998752852,15.992403,0.7544099,-3.9461987,0.7217359,10.26209,-10.475574,1.3372096,-0.3211421,0.4354508,-0.23218687,-0.808294,-8.4484,3.518538,0.88685834,0.20825642,0.063195385,1.1188257,0
0.7500000000000004,15.585469627838455,1.9732347261486942,-1.7962224373644622,0.564463998752852,15.992403,0.7544099,-3.9461987,0.7217359,10.177174,-10.4398775,1.3459873,-0.31753147,0.43325412,-0.23586607,-0.8098342,-8.534741,3.6207407,0.8686986,0.4837113,-0.2265876,1.0916231,0
0.7600000000000005,15.805394813539843,2.9369712931761276,-2.9782510977496273,0.2182392686049324,16.054743,0.72950846,-4.1824384,0.8591091,10.091396,-10.403157,1.3545841,-0.31487957,0.4295905,-0.24008144,-0.8115807,-8.620456,3.723332,0.8507152,0.7161679,-0.47121787,1.0657551,0
0.7700000000000005,15.805394813539843,2.9369712931761276,-2.9782510977496273,0.2182392686049324,16.054743,0.72950846,-4.1824384,0.8591091,10.004762,-10.365401,1.363009,-0.31335825,0.42419112,-0.24489063,-0.8135703,-8.706267,3.8279116,0.8343483,1.0627494,-0.861976,1.0241673,0
0.7800000000000005,15.805394813539843,2.9369712931761276,-2.9782510977496273,0.2182392686049324,16.054743,0.72950846,-4.1824384,0.8591091,9.917277,-10.326596,1.3712741,-0.3130951,0.41684815,-0.2503291,-0.8158088,-8.790356,3.9332035,0.81885165,1.355223,-1.1918477,0.98462015,0
0.7900000000000005,15.805394813539843,2.9369712931761276,-2.9782510977496273,0.2182392686049324,16.054743,0.72950846,-4.1824384,0.8591091,9.828963,-10.286735,1.3793901,-0.31389666,0.4078503,-0.25628278,-0.81819665,-8.872119,4.03936,0.8045716,1.6020386,-1.4703172,0.94701356,0
0.8000000000000005,16.41750856349308,3.382503087026826,-3.558113335564953,-0.03328488867435009,15.792065,0.5950919,-4.3519077,0.9631161,9.739845,-10.245806,1.3873707,-0.31559542,0.39743772,-0.2626522,-0.8206437,-8.951026,4.146495,0.7917696,1.810326,-1.7053922,0.9112524,0
0.8100000000000005,16.41750856349308,3.382503087026826,-3.558113335564953,-0.03328488867435009,15.792065,0.5950919,-4.3519077,0.9631161,9.64994,-10.20378,1.395248,-0.31820318,0.385572,-0.26941133,-0.82310265,-9.029516,4.2588763,0.78401226,2.0556176,-1.9942393,0.8649036,0
0.8200000000000005,16.41750856349308,3.382503087026826,-3.558113335564953,-0.03328488867435009,15.792065,0.5950919,-4.3519077,0.9631161,9.559268,-10.1606245,1.4030576,-0.32171878,0.37222847,-0.2765288,-0.82551455,-9.103975,4.372415,0.7781965,2.262618,-2.2380726,0.8208293,0
0.8300000000000005,16.41750856349308,3.382503087026826,-3.558113335564953,-0.03328488867435009,15.792065,0.5950919,-4.3519077,0.9631161,9.4678755,-10.116328,1.4108192,-0.32598963,0.35761204,-0.28391668,-0.82778937,-9.173869,4.487133,0.77446765,2.437307,-2.4439056,0.7789176,0
0.8400000000000005,16.41750856349308,3.382503087026826,-3.558113335564953,-0.03328488867435009,15.393175,0.54230183,-4.372423,1.0018632,9.375808,-10.070879,1.4185543,-0.33088398,0.3418964,-0.29149914,-0.82984966,-9.238717,4.6030083,0.7728994,2.5847301,-2.6176581,0.7390626,0
0.8500000000000005,16.41750856349308,3.382503087026826,-3.558113335564953,-0.03328488867435009,15.393175,0.54230183,-4.372423,1.0018632,9.283118,-10.024264,1.4262847,-0.33628806,0.32522982,-0.29921088,-0.8316299,-9.298092,4.7199807,0.7735039,2.7091448,-2.7643285,0.7011633,0
0.8600000000000005,16.41750856349308,3.382503087026826,-3.558113335564953,-0.03328488867435009,15.393175,0.54230183,-4.372423,1.0018632,9.189864,-9.976475,1.4340318,-0.34210393,0.30773953,-0.30699587,-0.8330752,-9.351609,4.837955,0.7762408,2.8141437,-2.8881369,0.6651237,0
0.8700000000000006,16.41750856349308,3.382503087026826,-3.558113335564953,-0.03328488867435009,15.393175,0.54230183,-4.372423,1.0018632,9.096107,-9.927502,1.4418167,-0.34824696,0.28953537,-0.31480616,-0.83414024,-9.398931,4.9568057,0.78102493,2.9027576,-2.992646,0.6308526,0
0.8800000000000006,16.942885169742365,3.344162632204443,-3.630434183863728,-0.26858152663930074,15.21171,0.5771709,-4.414545,1.0384148,9.001907,-9.8773365,1.4496591,-0.3546441,0.27071244,-0.32260084,-0.8347877,-9.439754,5.0763817,0.78773296,2.9775445,-3.080863,0.59826314,0
0.8900000000000006,16.942885169742365,3.344162632204443,-3.630434183863728,-0.26858152663930074,15.21171,0.5771709,-4.414545,1.0384148,8.90733,-9.8259535,1.4575944,-0.36126176,0.2513443,-0.33031398,-0.8349899,-9.474908,5.2003517,0.79962176,3.034664,-3.16663,0.5557269,0
0.9000000000000006,16.942885169742365,3.344162632204443,-3.630434183863728,-0.26858152663930074,15.21171,0.5771709,-4.414545,1.0384148,8.812435,-9.773328,1.465657,-0.36807254,0.23149772,-0.3378905,-0.834722,-9.502851,5.3246803,0.81316173,3.0828707,-3.239024,0.51527786,0
0.9100000000000006,16.942885169742365,3.344162632204443,-3.630434183863728,-0.26858152663930074,15.21171,0.5771709,-4.414545,1.0384148,8.7172985,-9.719459,1.4738625,-0.37502548,0.21124113,-0.34531283,-0.8339613,-9.523379,5.4491386,0.8281559,3.123557,-3.3001287,0.47681364,0
0.9200000000000006,17.085287003891203,2.8126328722104463,-3.2261014268067347,-0.4342501381016827,14.563311,0.5491013,-4.4328766,1.0876168,8.621994,-9.664346,1.4822243,-0.38207582,0.1906346,-0.35256606,-0.83269024,-9.536326,5.573487,0.8443859,3.1578968,-3.351704,0.44023693,0
0.9300000000000006,17.085287003891203,2.8126328722104463,-3.2261014268067347,-0.4342501381016827,14.563311,0.5491013,-4.4328766,1.0876168,8.526598,-9.607985,1.4907585,-0.38910618,0.16995554,-0.3595204,-0.83093673,-9.541623,5.6985154,0.8625857,3.103954,-3.3322186,0.39732558,0
0.9400000000000006,17.085287003891203,2.8126328722104463,-3.2261014268067347,-0.4342501381016827,14.563311,0.5491013,-4.4328766,1.0876168,8.431188,-9.550377,1.4994787,-0.3960326,0.1494338,-0.36608002,-0.82874143,-9.539192,5.822918,0.88155,3.0584302,-3.315763,0.35651994,0
0.9500000000000006,17.085287003891203,2.8126328722104463,-3.2261014268067347,-0.4342501381016827,14.563311,0.5491013,-4.4328766,1.0876168,8.33584,-9.491529,1.5083914,-0.402862,0.129054,-0.37227884,-0.8261083,-9.529115,5.9464397,0.90103805,3.0200114,-3.3018658,0.31771663,0
0.9600000000000006,16.75592545393143,1.9243315483509915,-2.5017196214287387,-0.5237166301344062,17.247864,0.5096927,-2.2850225,1.861354,8.240632,-9.431453,1.5175005,-0.40959832,0.10880361,-0.3781457,-0.82304066,-9.511475,6.068834,0.9208135,2.9875891,-3.290129,0.2808174,0
0.9700000000000006,16.75592545393143,1.9243315483509915,-2.5017196214287387,-0.5237166301344062,17.247864,0.5096927,-2.2850225,1.861354,8.145634,-9.37017,1.5267965,-0.4161083,0.08906224,-0.3835333,-0.81964815,-9.486877,6.187533,0.93837464,2.8216708,-3.16728,0.24133866,0
0.9800000000000006,16.75592545393143,1.9243315483509915,-2.5017196214287387,-0.5237166301344062,17.247864,0.5096927,-2.2850225,1.861354,8.050918,-9.307707,1.5362675,-0.42230296,0.070134915,-0.38833985,-0.8160469,-9.455298,6.304698,0.9558051,2.68164,-3.063574,0.20379716,0
0.9900000000000007,16.75592545393143,1.9243315483509915,-2.5017196214287387,-0.5237166301344062,17.247864,0.5096927,-2.2850225,1.861354,7.9565506,-9.244082,1.5459116,-0.42824063,0.051910587,-0.3926477,-0.8122451,-9.417081,6.4201612,0.9729451,2.563457,-2.9760287,0.16809785,0
1.0000000000000007,16.652888771629026,0.9522088642453258,-1.6454107079660918,-0.5479335428794249,17.543877,0.17428848,-2.5520568,2.3605204,7.8625975,-9.179311,1.5557249,-0.4339675,0.034294248,-0.39652544,-0.8082467,-9.37253,6.5337725,0.9896517,2.4637134,-2.9021263,0.1341503,0
1.0100000000000007,16.652888771629026,0.9522088642453258,-1.6454107079660918,-0.5479335428794249,17.543877,0.17428848,-2.5520568,2.3605204,7.7691183,-9.113417,1.5656991,-0.43937758,0.017652212,-0.39986792,-0.80420166,-9.322266,6.644719,1.0051,2.2279186,-2.7062118,0.10068024,0
1.0200000000000007,16.652888771629026,0.9522088642453258,-1.6454107079660918,-0.5479335428794249,17.543877,0.17428848,-2.5520568,2.3605204,7.6761703,-9.046423,1.5758247,-0.44440347,0.0022710213,-0.40260765,-0.800254,-9.266493,6.753641,1.0199366,2.0289087,-2.5408359,0.06885258,0
1.0300000000000007,16.652888771629026,0.9522088642453258,-1.6454107079660918,-0.5479335428794249,17.543877,0.17428848,-2.5520568,2.3605204,7.583806,-8.97835,1.5860956,-0.44912696,-0.0120329,-0.40484548,-0.79639137,-9.205689,6.860513,1.0341352,1.8609443,-2.4012392,0.038586706,0
1.0400000000000007,16.652888771629026,0.9522088642453258,-1.6454107079660918,-0.5479335428794249,17.389784,0.651983,-2.699858,1.6708688,7.492073,-8.909219,1.5965052,-0.45361316,-0.02541604,-0.40666434,-0.7925983,-9.140264,6.9653206,1.0476813,1.7191817,-2.2834039,0.009805988,0
1.0500000000000007,16.652888771629026,0.9522088642453258,-1.6454107079660918,-0.5479335428794249,17.389784,0.651983,-2.699858,1.6708688,7.4010153,-8.83905,1.607047,-0.45791367,-0.03801161,-0.40813243,-0.78885794,-9.070561,7.0680537,1.0605665,1.5995331,-2.1839387,-0.017562449,0
1.0600000000000007,16.652888771629026,0.9522088642453258,-1.6454107079660918,-0.5479335428794249,17.389784,0.651983,-2.699858,1.6708688,7.3106747,-8.767864,1.6177142,-0.4620694,-0.049932864,-0.4093059,-0.7851535,-8.996881,7.168706,1.0727856,1.4985483,-2.09998,-0.04358792,0
1.0700000000000007,16.652888771629026,0.9522088642453258,-1.6454107079660918,-0.5479335428794249,17.389784,0.651983,-2.699858,1.6708688,7.2210903,-8.695683,1.6285003,-0.46611267,-0.06127605,-0.41023108,-0.78146875,-8.91947,7.267272,1.0843345,1.4133161,-2.029111,-0.06833628,0
1.0800000000000007,16.092578438990067,0.06913452929127915,-1.041222237017315,-0.47025367364320164,15.4496155,0.20959044,-5.1243362,1.2229475,7.132297,-8.622526,1.6393985,-0.47006905,-0.07212289,-0.4109463,-0.7777887,-8.838551,7.363746,1.0952089,1.3413792,-1.9692903,-0.09187025,0
1.0900000000000007,16.092578438990067,0.06913452929127915,-1.041222237017315,-0.47025367364320164,15.4496155,0.20959044,-5.1243362,1.2229475,7.044316,-8.54843,1.6503838,-0.47387975,-0.0821926,-0.41132328,-0.7742701,-8.757172,7.4549537,1.1017733,1.1429598,-1.8245606,-0.11043764,0
1.1000000000000008,16.092578438990067,0.06913452929127915,-1.041222237017315,-0.47025367364320164,15.4496155,0.20959044,-5.1243362,1.2229475,6.9571633,-8.4734335,1.661432,-0.47750613,-0.0912676,-0.41126832,-0.77104807,-8.67294,7.544191,1.1077791,0.9754864,-1.7023989,-0.12809393,0
1.1100000000000008,16.092578438990067,0.06913452929127915,-1.041222237017315,-0.47025367364320164,15.4496155,0.20959044,-5.1243362,1.2229475,6.870866,-8.397554,1.6725378,-0.48099154,-0.09949728,-0.4108555,-0.768078,-8.5861845,7.63152,1.1133299,0.83413225,-1.5992862,-0.14488381,0
1.1200000000000008,15.449285847942402,-0.7360582061990869,-0.411224262383806,-0.32003402448648466,14.931486,-0.05463452,-4.967118,1.2986654,6.7854466,-8.32081,1.6836973,-0.48436993,-0.10700815,-0.41014564,-0.7653196,-8.497181,7.716997,1.118517,0.7148237,-1.5122526,-0.16084982,0
1.1300000000000008,15.449285847942402,-0.7360582061990869,-0.411224262383806,-0.32003402448648466,14.931486,-0.05463452,-4.967118,1.2986654,6.7009106,-8.2432375,1.6948867,-0.48758662,-0.11356598,-0.40906373,-0.7629072,-8.409821,7.7973394,1.1193159,0.4885706,-1.3405267,-0.16866103,0
1.1400000000000008,15.449285847942402,-0.7360582061990869,-0.411224262383806,-0.32003402448648466,14.931486,-0.05463452,-4.967118,1.2986654,6.6172557,-8.164869,1.7060833,-0.49060175,-0.1189923,-0.40755582,-0.76095176,-8.320888,7.8760743,1.1200045,0.29760054,-1.1955832,-0.17608893,0
1.1500000000000008,15.449285847942402,-0.7360582061990869,-0.411224262383806,-0.32003402448648466,14.931486,-0.05463452,-4.967118,1.2986654,6.5344963,-8.085721,1.7172871,-0.49345788,-0.12346096,-0.4056948,-0.75938594,-8.230708,7.9533215,1.1207387,0.13641119,-1.0732452,-0.18315236,0
1.1600000000000008,14.81624982696934,-1.4116174816091147,0.09993117558194796,-0.12761965472965758,17.0775,0.9503749,-3.0827801,1.6624675,6.4526443,-8.005808,1.7284988,-0.49618828,-0.12711874,-0.40354025,-0.7581503,-8.139558,8.029186,1.1216534,0.00035828352,-0.9699872,-0.18986918,0
1.1700000000000008,14.81624982696934,-1.4116174816091147,0.09993117558194796,-0.12761965472965758,17.0775,0.9503749,-3.0827801,1.6624675,6.371689,-7.925158,1.7397009,-0.49875355,-0.12980983,-0.40103507,-0.75733995,-8.051449,8.100711,1.1188054,-0.21981621,-0.80310726,-0.18681458,0
1.1800000000000008,14.81624982696934,-1.4116174816091147,0.09993117558194796,-0.12761965472965758,17.0775,0.9503749,-3.0827801,1.6624675,6.2916164,-7.8437986,1.7508765,-0.5011217,-0.13141806,-0.39813623,-0.7570287,-7.96295,8.171135,1.1164155,-0.4056585,-0.6622572,-0.18390986,0
1.1900000000000008,14.81624982696934,-1.4116174816091147,0.09993117558194796,-0.12761965472965758,17.0775,0.9503749,-3.0827801,1.6624675,6.21243,-7.7617397,1.7620313,-0.50332534,-0.13211103,-0.39490655,-0.7571378,-7.874353,8.240585,1.1146432,-0.5625221,-0.54337645,-0.18114768,0
1.2000000000000008,13.361344079328397,-1.699482845469867,0.15901406052651237,0.0691257133528645,16.091177,0.7373431,-3.059599,2.0765483,6.1341295,-7.67899,1.773172,-0.5053899,-0.13203001,-0.39139754,-0.7575986,-7.785904,8.309175,1.1136221,-0.6949253,-0.4430386,-0.17852104,0
1.2100000000000009,13.361344079328397,-1.699482845469867,0.15901406052651237,0.0691257133528645,16.091177,0.7373431,-3.059599,2.0765483,6.0566683,-7.5955915,1.7842587,-0.5073229,-0.13122751,-0.38757303,-0.7584119,-7.706467,8.370333,1.1038505,-0.8515717,-0.34913746,-0.16636895,0
1.2200000000000009,13.361344079328397,-1.699482845469867,0.15901406052651237,0.0691257133528645,16.091177,0.7373431,-3.059599,2.0765483,5.9799986,-7.5115857,1.7952521,-0.5091269,-0.129752,-0.38340488,-0.75957453,-7.6275535,8.430864,1.094974,-0.98379225,-0.26988453,-0.15481317,0
1.2300000000000009,13.361344079328397,-1.699482845469867,0.15901406052651237,0.0691257133528645,16.091177,0.7373431,-3.059599,2.0765483,5.9041147,-7.426977,1.8061618,-0.5108136,-0.12770815,-0.37894282,-0.7610263,-7.549342,8.4908285,1.0870938,-1.0953957,-0.2029945,-0.14382443,0
1.2400000000000009,13.361344079328397,-1.699482845469867,0.15901406052651237,0.0691257133528645,14.462531,0.7650757,-2.8131876,1.6584986,5.829009,-7.3417716,1.8169978,-0.51239246,-0.12518424,-0.37422845,-0.76271534,-7.4719872,8.550271,1.0802908,-1.1895963,-0.14653859,-0.13337488,0
1.2500000000000009,13.361344079328397,-1.699482845469867,0.15901406052651237,0.0691257133528645,14.462531,0.7650757,-2.8131876,1.6584986,5.754672,-7.2559733,1.8277713,-0.51387084,-0.122254804,-0.36929667,-0.7645975,-7.395622,8.609227,1.0746285,-1.2691079,-0.09888902,-0.12343813,0
1.260000000000001,13.361344079328397,-1.699482845469867,0.15901406052651237,0.0691257133528645,14.462531,0.7650757,-2.8131876,1.6584986,5.6810927,-7.169588,1.8384943,-0.515255,-0.11898277,-0.3641769,-0.7666351,-7.3203626,8.667727,1.0701561,-1.3362211,-0.058671914,-0.113988966,0
1.270000000000001,13.361344079328397,-1.699482845469867,0.15901406052651237,0.0691257133528645,14.462531,0.7650757,-2.8131876,1.6584986,5.6082606,-7.0826206,1.8491786,-0.5165499,-0.11542131,-0.3588939,-0.7687965,-7.2463117,8.725791,1.06691,-1.3928689,-0.024727944,-0.10500348,0
1.280000000000001,11.530012468229645,-1.590727618703697,-0.31204197569292835,0.2611090649301322,14.396821,1.4710261,-3.6119666,0.7416226,5.5361624,-6.9950743,1.8598367,-0.51776004,-0.111615345,-0.35346866,-0.7710546,-7.173558,8.783437,1.064916,-1.4406832,0.003921884,-0.096458904,0
1.290000000000001,11.530012468229645,-1.590727618703697,-0.31204197569292835,0.2611090649301322,14.396821,1.4710261,-3.6119666,0.7416226,5.464736,-6.9069924,1.8704147,-0.5189323,-0.10777925,-0.3478524,-0.77336305,-7.11196,8.83282,1.0508447,-1.4640852,-0.045367688,-0.07891294,0
1.300000000000001,11.530012468229645,-1.590727618703697,-0.31204197569292835,0.2611090649301322,14.396821,1.4710261,-3.6119666,0.7416226,5.393919,-6.818419,1.8808575,-0.52010095,-0.1040866,-0.3420073,-0.7756872,-7.051566,8.881795,1.0378791,-1.483836,-0.08697051,-0.06222797,0
1.310000000000001,11.530012468229645,-1.590727618703697,-0.31204197569292835,0.2611090649301322,14.396821,1.4710261,-3.6119666,0.7416226,5.3237004,-6.729358,1.8911761,-0.5212527,-0.1005172,-0.33596486,-0.77802193,-6.9923854,8.930305,1.0260252,-1.5005059,-0.12208505,-0.046361737,0
1.320000000000001,9.883448639719635,-1.4170550673128472,-0.7419458902774029,0.4615950506471003,14.924053,1.3966423,-4.3215175,0.5622721,5.254067,-6.639815,1.9013817,-0.5223767,-0.09705378,-0.32975173,-0.7803624,-6.9344287,8.978298,1.0152842,-1.5145754,-0.15172319,-0.031274065,0
1.330000000000001,9.883448639719635,-1.4170550673128472,-0.7419458902774029,0.4615950506471003,14.924053,1.3966423,-4.3215175,0.5622721,5.184967,-6.549828,1.9114226,-0.52349484,-0.09386046,-0.32335272,-0.7826781,-6.885801,9.0189495,0.9930187,-1.4993651,-0.24379203,-0.007088828,0
1.340000000000001,9.883448639719635,-1.4170550673128472,-0.7419458902774029,0.4615950506471003,14.924053,1.3966423,-4.3215175,0.5622721,5.116348,-6.459438,1.9212453,-0.52462083,-0.09106792,-0.31675702,-0.7849479,-6.838198,9.059041,0.97169614,-1.4865245,-0.3215012,0.015909635,0
1.350000000000001,9.883448639719635,-1.4170550673128472,-0.7419458902774029,0.4615950506471003,14.924053,1.3966423,-4.3215175,0.5622721,5.048199,-6.36865,1.9308597,-0.5257364,-0.08861718,-0.30999166,-0.78717977,-6.7915874,9.098495,0.95130605,-1.4756846,-0.38709038,0.037779562,0
1.360000000000001,8.897492021821929,-1.3989561645805262,-0.9807332867041845,0.6696142878248879,13.295908,-1.4289149,-6.3109202,0.57382315,4.9805126,-6.2774706,1.9402746,-0.52682656,-0.08645803,-0.30307943,-0.78937966,-6.7459416,9.137247,0.9318365,-1.466534,-0.4424495,0.05857632,0
1.370000000000001,8.897492021821929,-1.3989561645805262,-0.9807332867041845,0.6696142878248879,13.295908,-1.4289149,-6.3109202,0.57382315,4.9132547,-6.1859264,1.9494599,-0.5278869,-0.08463476,-0.2959928,-0.79155487,-6.7056975,9.17145,0.9053401,-1.4559817,-0.5264226,0.088560134,0
1.380000000000001,8.897492021821929,-1.3989561645805262,-0.9807332867041845,0.6696142878248879,13.295908,-1.4289149,-6.3109202,0.57382315,4.8463955,-6.094044,1.9583842,-0.5289102,-0.08318103,-0.28871047,-0.79371256,-6.666275,9.204899,0.87965107,-1.4470736,-0.59729856,0.11707262,0
1.390000000000001,8.897492021821929,-1.3989561645805262,-0.9807332867041845,0.6696142878248879,13.295908,-1.4289149,-6.3109202,0.57382315,4.779927,-6.001831,1.9670557,-0.5298813,-0.08204273,-0.28125894,-0.79585594,-6.627648,9.237532,0.8547589,-1.4395536,-0.65711987,0.14418602,0
1.400000000000001,8.056162556938096,-1.30748200074394,-0.8950102299996887,0.8489677447480398,12.222565,-2.3371944,-5.703718,0.42512363,4.7138405,-5.9092965,1.9754821,-0.5307883,-0.081173755,-0.27366054,-0.7979868,-6.589796,9.269293,0.8306509,-1.4332058,-0.7076108,0.16996893,0
1.410000000000001,8.056162556938096,-1.30748200074394,-0.8950102299996887,0.8489677447480398,12.222565,-2.3371944,-5.703718,0.42512363,4.6481113,-5.8164635,1.983636,-0.53159213,-0.08053284,-0.26597998,-0.8001108,-6.5562105,9.297219,0.8002427,-1.41358,-0.73686427,0.2032876,0
1.420000000000001,8.056162556938096,-1.30748200074394,-0.8950102299996887,0.8489677447480398,12.222565,-2.3371944,-5.703718,0.42512363,4.5827146,-5.7233553,1.9914893,-0.5322602,-0.0800856,-0.25826985,-0.80223465,-6.5232964,9.324284,0.7705109,-1.3970151,-0.76155376,0.2349713,0
1.430000000000001,8.056162556938096,-1.30748200074394,-0.8950102299996887,0.8489677447480398,12.222565,-2.3371944,-5.703718,0.42512363,4.517643,-5.6299815,1.9990486,-0.53279316,-0.079804726,-0.25053135,-0.80436003,-6.4910407,9.350465,0.7414339,-1.383034,-0.7823913,0.2651003,0
1.440000000000001,8.056162556938096,-1.30748200074394,-0.8950102299996887,0.8489677447480398,10.938478,-2.9660616,-4.3716073,0.3846969,4.452891,-5.5363493,2.00632,-0.5331922,-0.07966685,-0.24276552,-0.80648774,-6.459432,9.375741,0.7129907,-1.3712337,-0.79997796,0.29375088,0
1.450000000000001,8.056162556938096,-1.30748200074394,-0.8950102299996887,0.8489677447480398,10.938478,-2.9660616,-4.3716073,0.3846969,4.3884516,-5.4424696,2.0133102,-0.5334592,-0.079651885,-0.23497339,-0.8086178,-6.4284625,9.400094,0.6851606,-1.3612744,-0.8148205,0.32099557,0
1.460000000000001,8.056162556938096,-1.30748200074394,-0.8950102299996887,0.8489677447480398,10.938478,-2.9660616,-4.3716073,0.3846969,4.324319,-5.348351,2.020025,-0.5335963,-0.07974256,-0.22715591,-0.8107495,-6.3981237,9.423508,0.65792286,-1.3528689,-0.8273471,0.34690332,0
1.470000000000001,8.056162556938096,-1.30748200074394,-0.8950102299996887,0.8489677447480398,10.938478,-2.9660616,-4.3716073,0.3846969,4.2604866,-5.254003,2.0264704,-0.5336058,-0.079924025,-0.219314,-0.81288177,-6.3684106,9.445966,0.63125736,-1.345775,-0.8379192,0.37153977,0
1.480000000000001,7.512098808332209,-1.2476564989321706,-0.7400645665177971,0.983825305820442,10.401245,-2.6219313,-3.3917825,0.56430537,4.1969485,-5.1594353,2.032652,-0.53349036,-0.080183476,-0.2114485,-0.8150132,-6.3393188,9.467454,0.6051437,-1.3397882,-0.8468414,0.39496732,0
1.490000000000001,7.512098808332209,-1.2476564989321706,-0.7400645665177971,0.983825305820442,10.401245,-2.6219313,-3.3917825,0.56430537,4.1336884,-5.0646644,2.0385506,-0.53322434,-0.080475576,-0.20361163,-0.8171512,-6.312768,9.486575,0.5746638,-1.3254089,-0.8302108,0.42386276,0
1.500000000000001,7.512098808332209,-1.2476564989321706,-0.7400645665177971,0.983825305820442,10.401245,-2.6219313,-3.3917825,0.56430537,4.0706906,-4.969707,2.0441468,-0.53278726,-0.08076385,-0.19584484,-0.8193034,-6.286791,9.504785,0.544657,-1.3132727,-0.8161727,0.4513403,0
1.5100000000000011,7.512098808332209,-1.2476564989321706,-0.7400645665177971,0.983825305820442,10.401245,-2.6219313,-3.3917825,0.56430537,4.0079503,-4.874572,2.0494452,-0.53218865,-0.08104997,-0.18813469,-0.82146806,-6.261388,9.522088,0.51510125,-1.3030297,-0.8043231,0.47746953,0
1.5200000000000011,7.181453455783363,-1.2561706155496781,-0.3120219849491676,1.096122082807742,9.677168,-2.167231,-2.2989106,0.5000215,3.945461,-4.7792683,2.0544503,-0.5314371,-0.081335165,-0.18046981,-0.82364327,-6.236557,9.538489,0.48597565,-1.2943845,-0.7943203,0.50231653,0
1.5300000000000011,7.181453455783363,-1.2561706155496781,-0.3120219849491676,1.096122082807742,9.677168,-2.167231,-2.2989106,0.5000215,3.883212,-4.683809,2.0591507,-0.53049874,-0.08147973,-0.1729278,-0.82584894,-6.213367,9.553312,0.45420596,-1.2884359,-0.7191287,0.5314547,0
1.5400000000000011,7.181453455783363,-1.2561706155496781,-0.3120219849491676,1.096122082807742,9.677168,-2.167231,-2.2989106,0.5000215,3.821192,-4.5882053,2.0635355,-0.52934825,-0.08137277,-0.16556965,-0.8281026,-6.19074,9.567314,0.42280838,-1.2834142,-0.6556622,0.55916303,0
1.5500000000000012,7.181453455783363,-1.2561706155496781,-0.3120219849491676,1.096122082807742,9.677168,-2.167231,-2.2989106,0.5000215,3.7593956,-4.4924655,2.067608,-0.528004,-0.08105381,-0.1583643,-0.8303982,-6.1686935,9.580531,0.39176434,-1.2791747,-0.60209215,0.58551174,0
1.5600000000000012,7.487731757424001,-1.4348550180150716,0.22766836775948443,1.2457116835665878,9.509953,-1.6763586,-1.4681025,0.5696345,3.6978166,-4.396597,2.071372,-0.5264814,-0.08055616,-0.15128556,-0.8327299,-6.147241,9.592993,0.36105677,-1.2755954,-0.55687535,0.6105675,0
1.5700000000000012,7.487731757424001,-1.4348550180150716,0.22766836775948443,1.2457116835665878,9.509953,-1.6763586,-1.4681025,0.5696345,3.6364534,-4.300606,2.0748446,-0.52475196,-0.07969296,-0.14436388,-0.83512974,-6.1255116,9.605232,0.33355826,-1.3004715,-0.4345625,0.6417342,0
1.5800000000000012,7.487731757424001,-1.4348550180150716,0.22766836775948443,1.2457116835665878,9.509953,-1.6763586,-1.4681025,0.5696345,3.575304,-4.2044954,2.078044,-0.52279335,-0.07831726,-0.1376215,-0.8376229,-6.1044645,9.616773,0.3063832,-1.3214654,-0.33132225,0.6713715,0
1.5900000000000012,7.487731757424001,-1.4348550180150716,0.22766836775948443,1.2457116835665878,9.509953,-1.6763586,-1.4681025,0.5696345,3.5143616,-4.1082726,2.0809731,-0.52062565,-0.076508716,-0.13102728,-0.84019375,-6.0841465,9.627672,0.27952164,-1.339182,-0.24418028,0.69955456,0
1.6000000000000012,8.554008878925535,-1.8021730523310664,0.8707970845688565,1.4726679675864183,9.88225,-1.0857124,-0.12689036,1.0760261,3.4536185,-4.011944,2.0836353,-0.51826555,-0.07433451,-0.12455512,-0.84282833,-6.064599,9.637977,0.25296345,-1.3541327,-0.17062636,0.72635466,0
1.6100000000000012,8.554008878925535,-1.8021730523310664,0.8707970845688565,1.4726679675864183,9.88225,-1.0857124,-0.12689036,1.0760261,3.3930802,-3.915508,2.0860844,-0.5156825,-0.071561575,-0.118190095,-0.8455649,-6.0431967,9.649119,0.23692912,-1.4240807,-0.008283924,0.76297647,0
1.6200000000000012,8.554008878925535,-1.8021730523310664,0.8707970845688565,1.4726679675864183,9.88225,-1.0857124,-0.12689036,1.0760261,3.332751,-3.8189635,2.0883749,-0.51284945,-0.06800778,-0.11191769,-0.84842986,-6.0228186,9.659708,0.22122797,-1.483115,0.12874539,0.7978012,0
1.6300000000000012,8.554008878925535,-1.8021730523310664,0.8707970845688565,1.4726679675864183,9.88225,-1.0857124,-0.12689036,1.0760261,3.27262,-3.7223155,2.0905101,-0.50978357,-0.06379416,-0.10571871,-0.8513947,-6.0035634,9.669815,0.20585671,-1.532937,0.24440922,0.8309171,0
1.6400000000000012,8.554008878925535,-1.8021730523310664,0.8707970845688565,1.4726679675864183,11.1208515,-0.6086935,0.12116319,1.053565,3.2126753,-3.6255689,2.0924933,-0.506499,-0.059022907,-0.09957742,-0.85443413,-5.9855165,9.679499,0.19080786,-1.574984,0.34203902,0.86240804,0
1.6500000000000012,8.554008878925535,-1.8021730523310664,0.8707970845688565,1.4726679675864183,11.1208515,-0.6086935,0.12116319,1.053565,3.1529052,-3.5287273,2.0943272,-0.50300753,-0.053780388,-0.09348102,-0.8575258,-5.9687514,9.688804,0.17607018,-1.6104684,0.4244472,0.89235365,0
1.6600000000000013,8.554008878925535,-1.8021730523310664,0.8707970845688565,1.4726679675864183,11.1208515,-0.6086935,0.12116319,1.053565,3.0932958,-3.4317942,2.0960155,-0.49931934,-0.048139594,-0.087419204,-0.86065024,-5.95333,9.697765,0.16162905,-1.6404144,0.4940074,0.92082983,0
1.6700000000000013,8.554008878925535,-1.8021730523310664,0.8707970845688565,1.4726679675864183,11.1208515,-0.6086935,0.12116319,1.053565,3.0338337,-3.334773,2.097561,-0.49544302,-0.042162266,-0.081383705,-0.8637902,-5.9393063,9.706409,0.14746682,-1.6656853,0.55272305,0.9479087,0
1.6800000000000013,9.780267705020078,-2.1648386652815668,1.270965714706121,1.6819129193277895,12.515955,-0.53782713,-0.34683245,0.7747372,2.9745047,-3.237667,2.098966,-0.49138632,-0.035900634,-0.075367995,-0.8669306,-5.926725,9.714751,0.13356327,-1.687011,0.6022851,0.9736588,0
1.6900000000000013,9.780267705020078,-2.1648386652815668,1.270965714706121,1.6819129193277895,12.515955,-0.53782713,-0.34683245,0.7747372,2.9153023,-3.1404734,2.1002934,-0.48712614,-0.029190704,-0.06931837,-0.8700858,-5.9140434,9.723961,0.13200063,-1.7616099,0.70647836,1.0084131,0
1.7000000000000013,9.780267705020078,-2.1648386652815668,1.270965714706121,1.6819129193277895,12.515955,-0.53782713,-0.34683245,0.7747372,2.8562179,-3.043189,2.1016066,-0.48263904,-0.02190502,-0.06319082,-0.8732611,-5.903162,9.732867,0.13068579,-1.8245679,0.7944295,1.041462,0
1.7100000000000013,9.780267705020078,-2.1648386652815668,1.270965714706121,1.6819129193277895,12.515955,-0.53782713,-0.34683245,0.7747372,2.7972326,-2.945817,2.102908,-0.4779311,-0.014133731,-0.056994226,-0.87643135,-5.894182,9.741488,0.12959133,-1.877701,0.8686707,1.0728891,0
1.7200000000000013,11.056768330535641,-2.3258146620601123,1.632241700105774,1.7678266330384966,13.319223,-0.7082549,-0.19599146,0.79335886,2.7383273,-2.84836,2.1041992,-0.47300804,-0.005953175,-0.050736833,-0.87957484,-5.8871875,9.749836,0.12868406,-1.9225419,0.9313397,1.102774,0
1.7300000000000013,11.056768330535641,-2.3258146620601123,1.632241700105774,1.7678266330384966,13.319223,-0.7082549,-0.19599146,0.79335886,2.6794853,-2.7508156,2.1055455,-0.4678585,0.0027291048,-0.044437476,-0.8826803,-5.8816133,9.758971,0.14063056,-1.9855324,1.0405576,1.1354083,0
1.7400000000000013,11.056768330535641,-2.3258146620601123,1.632241700105774,1.7678266330384966,13.319223,-0.7082549,-0.19599146,0.79335886,2.6206868,-2.6531813,2.107012,-0.46247154,0.011982844,-0.03811096,-0.88573265,-5.878483,9.767826,0.15269636,-2.0386903,1.1327499,1.1664412,0
1.7500000000000013,11.056768330535641,-2.3258146620601123,1.632241700105774,1.7678266330384966,13.319223,-0.7082549,-0.19599146,0.79335886,2.5619068,-2.55546,2.1085997,-0.45685288,0.021717437,-0.03175944,-0.88870883,-5.8779044,9.776421,0.16482556,-2.0835495,1.2105713,1.1959515,0
1.7600000000000013,12.0839452662196,-2.4153394764806935,1.4970795777463084,1.7966818612370417,13.742315,-0.81973237,-0.41894966,0.8728034,2.5031195,-2.457654,2.1103086,-0.4510079,0.031855896,-0.025385557,-0.891589,-5.8799667,9.784761,0.1769563,-2.121405,1.2762624,1.2240136,0
1.7700000000000014,12.0839452662196,-2.4153394764806935,1.4970795777463084,1.7966818612370417,13.742315,-0.81973237,-0.41894966,0.8728034,2.4442961,-2.359762,2.1121898,-0.44493854,0.04230041,-0.018936187,-0.8943601,-5.885188,9.793594,0.19925636,-2.1672952,1.3106225,1.2521147,0
1.7800000000000014,12.0839452662196,-2.4153394764806935,1.4970795777463084,1.7966818612370417,13.742315,-0.81973237,-0.41894966,0.8728034,2.3854053,-2.2617831,2.1142933,-0.438646,0.05296917,-0.012370434,-0.8970113,-5.8934402,9.802111,0.22140941,-2.2060246,1.3396305,1.2788366,0
1.7900000000000014,12.0839452662196,-2.4153394764806935,1.4970795777463084,1.7966818612370417,13.742315,-0.81973237,-0.41894966,0.8728034,2.3264165,-2.163721,2.1166174,-0.43213457,0.06382317,-0.0057077967,-0.8995288,-5.904774,9.810265,0.24333626,-2.2387102,1.3641204,1.3042474,0
1.8000000000000014,12.676593968817585,-2.4695122374205654,0.8767642090055656,1.7448556483917053,14.662178,-0.78755194,-1.3262653,1.0787424,2.2672992,-2.0655797,2.1191592,-0.42540893,0.0748291,0.0010346739,-0.9019008,-5.919228,9.818011,0.26495457,-2.2662947,1.3847961,1.3284113,0
1.8100000000000014,12.676593968817585,-2.4695122374205654,0.8767642090055656,1.7448556483917053,14.662178,-0.78755194,-1.3262653,1.0787424,2.2080173,-1.9673609,2.1219444,-0.4184776,0.08574347,0.007966984,-0.90413463,-5.9376836,9.825647,0.2920337,-2.2979355,1.3055108,1.3488463,0
1.8200000000000014,12.676593968817585,-2.4695122374205654,0.8767642090055656,1.7448556483917053,14.662178,-0.78755194,-1.3262653,1.0787424,2.1485343,-1.8690687,2.1249979,-0.41134876,0.09637101,0.015173277,-0.9062411,-5.9593973,9.832664,0.3186254,-2.3246498,1.238595,1.3682787,0
1.8300000000000014,12.676593968817585,-2.4695122374205654,0.8767642090055656,1.7448556483917053,14.662178,-0.78755194,-1.3262653,1.0787424,2.0888183,-1.7707101,2.1283145,-0.40402701,0.10675042,0.022605134,-0.9082147,-5.9843154,9.838924,0.34465683,-2.347205,1.1821193,1.3867575,0
1.8400000000000014,12.676593968817585,-2.4695122374205654,0.8767642090055656,1.7448556483917053,14.790701,-0.66962814,-2.0240858,1.3639336,2.0288374,-1.6722932,2.1318886,-0.3965174,0.11691433,0.030221624,-0.9100495,-6.012385,9.844307,0.3700553,-2.3662488,1.1344548,1.4043294,0
1.8500000000000014,12.676593968817585,-2.4695122374205654,0.8767642090055656,1.7448556483917053,14.790701,-0.66962814,-2.0240858,1.3639336,1.9685601,-1.5738273,2.135713,-0.38882518,0.12689018,0.037988108,-0.9117396,-6.0435514,9.848701,0.39474818,-2.382328,1.0942276,1.4210391,0
1.8600000000000014,12.676593968817585,-2.4695122374205654,0.8767642090055656,1.7448556483917053,14.790701,-0.66962814,-2.0240858,1.3639336,1.9079559,-1.4753228,2.1397808,-0.38095587,0.13670102,0.045875233,-0.9132794,-6.0777593,9.852005,0.41866297,-2.395904,1.0602771,1.4369289,0
1.8700000000000014,12.676593968817585,-2.4695122374205654,0.8767642090055656,1.7448556483917053,14.790701,-0.66962814,-2.0240858,1.3639336,1.8469946,-1.3767912,2.1440835,-0.37291512,0.14636609,0.053858086,-0.91466326,-6.1149535,9.854131,0.4417273,-2.4073665,1.0316241,1.4520389,0
1.8800000000000014,12.516371863092303,-2.2636276316087818,-0.03690477157866765,1.531091442231364,14.972422,-0.54189867,-2.4643595,1.5006423,1.7856468,-1.2782446,2.148612,-0.3647086,0.15590145,0.06191549,-0.9158859,-6.1550765,9.854995,0.46386927,-2.4170449,1.0074416,1.4664074,0
1.8900000000000015,12.516371863092303,-2.2636276316087818,-0.03690477157866765,1.531091442231364,14.972422,-0.54189867,-2.4643595,1.5006423,1.723886,-1.179696,2.1533496,-0.35635647,0.16495416,0.07009026,-0.91699815,-6.1975102,9.854515,0.48351616,-2.3929658,0.8445943,1.4695815,0
1.9000000000000015,12.516371863092303,-2.2636276316087818,-0.03690477157866765,1.531091442231364,14.972422,-0.54189867,-2.4643595,1.5006423,1.6616875,-1.0811594,2.158279,-0.34787935,0.17324613,0.078412995,-0.9180497,-6.242589,9.852567,0.5021606,-2.3726654,0.70713955,1.4725999,0
1.9100000000000015,12.516371863092303,-2.2636276316087818,-0.03690477157866765,1.531091442231364,14.972422,-0.54189867,-2.4643595,1.5006423,1.5990257,-0.9826501,2.1633894,-0.3392832,0.18089038,0.08685133,-0.9190324,-6.2901254,9.849011,0.51978797,-2.355551,0.5911184,1.4754701,0
1.9200000000000015,12.06390016110823,-1.8174651664812143,-0.732045347952225,1.1825059634151636,14.041138,0.047985666,-3.2316616,0.63129395,1.535877,-0.884185,2.1686711,-0.3305736,0.18798216,0.09537847,-0.9199374,-6.3399506,9.843731,0.5363823,-2.3411226,0.49318835,1.4781992,0
1.9300000000000015,12.06390016110823,-1.8174651664812143,-0.732045347952225,1.1825059634151636,14.041138,0.047985666,-3.2316616,0.63129395,1.4722286,-0.7857805,2.1740932,-0.321803,0.19428347,0.103907205,-0.92081386,-6.3900166,9.836879,0.5478249,-2.2592719,0.30221394,1.4636896,0
1.9400000000000015,12.06390016110823,-1.8174651664812143,-0.732045347952225,1.1825059634151636,14.041138,0.047985666,-3.2316616,0.63129395,1.4080704,-0.68745375,2.1796248,-0.31302038,0.19961163,0.1123669,-0.9217078,-6.441884,9.828168,0.5582929,-2.1902175,0.14100726,1.4498918,0
1.9500000000000015,12.06390016110823,-1.8174651664812143,-0.732045347952225,1.1825059634151636,14.041138,0.047985666,-3.2316616,0.63129395,1.3433856,-0.5892238,2.1852562,-0.3042257,0.20411474,0.12076018,-0.92260444,-6.4953117,9.817514,0.5678276,-2.1319585,0.004928287,1.4367712,0
1.9600000000000015,10.982635678923366,-1.4539524846384115,-1.702347868815972,0.7775601950035674,11.459458,1.0488747,-0.90791786,1.8385092,1.2781596,-0.49111035,2.1909785,-0.29541895,0.20791727,0.12908995,-0.92348903,-6.550087,9.8048525,0.5764635,-2.0828068,-0.109939374,1.4242944,0
1.9700000000000015,10.982635678923366,-1.4539524846384115,-1.702347868815972,0.7775601950035674,11.459458,1.0488747,-0.90791786,1.8385092,1.212405,-0.3931274,2.1967351,-0.28662595,0.21071643,0.1373487,-0.92443365,-6.600993,9.791441,0.5747488,-1.9845142,-0.3581425,1.3925589,0
1.9800000000000015,10.982635678923366,-1.4539524846384115,-1.702347868815972,0.7775601950035674,11.459458,1.0488747,-0.90791786,1.8385092,1.146137,-0.29528832,2.2024713,-0.27787146,0.21227752,0.14552908,-0.92549723,-6.6526732,9.776072,0.57232726,-1.9015944,-0.56765807,1.3623809,0
1.9900000000000015,10.982635678923366,-1.4539524846384115,-1.702347868815972,0.7775601950035674,11.459458,1.0488747,-0.90791786,1.8385092,1.0793496,-0.19761299,2.20818,-0.26915374,0.21278842,0.1536347,-0.9266455,-6.7048616,9.758674,0.5692809,-1.8316417,-0.7445161,1.3336836,0
2.0000000000000013,,,,,9.939979,1.3641343,-1.3328692,0.76640606,1.012039,-0.10012199,2.2138553,-0.26047102,0.21240707,0.16166928,-0.92784655,-6.7573256,9.739196,0.5656776,-1.7726274,-0.89380664,1.3063945,0
2.010000000000001,,,,,9.939979,1.3641343,-1.3328692,0.76640606,0.9442196,-0.0028296262,2.2194624,-0.25184593,0.21091945,0.16960932,-0.92914873,-6.8065248,9.718963,0.5556322,-1.6712207,-1.1473808,1.2591193,0
2.020000000000001,,,,,9.939979,1.3641343,-1.3328692,0.76640606,0.87590915,0.094250284,2.224967,-0.24329989,0.20816137,0.17743453,-0.9305853,-6.855517,9.696697,0.5452107,-1.585673,-1.3614315,1.2141639,0
2.0300000000000007,,,,,9.939979,1.3641343,-1.3328692,0.76640606,0.8071109,0.19109723,2.2303658,-0.23482971,0.20432192,0.18515313,-0.9321073,-6.904046,9.672364,0.53449637,-1.5135021,-1.5421184,1.1714144,0
2.0400000000000005,,,,,9.939979,1.3641343,-1.3328692,0.76640606,0.73783064,0.28769037,2.235656,-0.22643249,0.19956033,0.19277237,-0.9336707,-6.951888,9.645941,0.5235534,-1.452615,-1.6946416,1.1307627,0
2.0500000000000003,,,,,11.614668,0.29496834,-2.6765156,0.2524131,0.6680762,0.3840088,2.240836,-0.21810573,0.19401082,0.20029859,-0.935237,-6.9988456,9.617417,0.5124287,-1.4012456,-1.8233907,1.0921059,1
2.06,,,,,11.614668,0.29496834,-2.6765156,0.2524131,0.5978277,0.480012,2.24596,-0.2099547,0.18760456,0.20722203,-0.9368995,-7.050654,9.582867,0.51236784,-1.1366799,-1.9562161,1.0509019,1
2.07,,,,,11.614668,0.29496834,-2.6765156,0.2524131,0.52706814,0.57565856,2.2510831,-0.20206115,0.18029915,0.21313924,-0.93874025,-7.101002,9.546127,0.512272,-0.91339123,-2.0683699,1.0117198,1
2.0799999999999996,,,,,11.614668,0.29496834,-2.6765156,0.2524131,0.45581347,0.67092764,2.2562053,-0.19439138,0.17223321,0.21819845,-0.94071,-7.1496515,9.507392,0.5122648,-0.7249382,-2.163068,0.9744604,1
2.0899999999999994,,,,,12.541553,-0.4975008,-3.6261642,-0.306719,0.3840817,0.7658002,2.2613287,-0.1869171,0.16352265,0.22252478,-0.9427636,-7.1963983,9.466828,0.51244414,-0.5658855,-2.2430255,0.9390294,1
2.099999999999999,,,,,12.541553,-0.4975008,-3.6261642,-0.306719,0.31187475,0.8602417,2.2664943,-0.17954314,0.15394829,0.22660345,-0.94483507,-7.244618,9.421197,0.5207444,-0.55518657,-2.4586966,0.8779002,1
2.109999999999999,,,,,12.541553,-0.4975008,-3.6261642,-0.306719,0.23919797,0.9542178,2.2717445,-0.17220178,0.14333296,0.23081957,-0.94684887,-7.290323,9.373732,0.5293512,-0.5461861,-2.6407368,0.8197706,1
2.1199999999999988,,,,,12.541553,-0.4975008,-3.6261642,-0.306719,0.1660778,1.04771,2.2770822,-0.16490743,0.13182388,0.23513572,-0.94875574,-7.333259,9.324401,0.53826076,-0.538612,-2.7943902,0.7644934,1
2.1299999999999986,,,,,11.190475,-0.50687546,-2.7748406,-0.8624271,0.092543066,1.1406993,2.2825105,-0.15767154,0.11954663,0.2395201,-0.9505139,-7.373201,9.273194,0.54744744,-0.53223604,-2.9240835,0.7119287,1
2.1399999999999983,,,,,11.190475,-0.50687546,-2.7748406,-0.8624271,0.018644782,1.2331957,2.2879739,-0.15065072,0.106917016,0.24390526,-0.9520408,-7.4060063,9.225842,0.5452816,-0.52843815,-2.9007804,0.63467467,1
2.149999999999998,,,,,11.190475,-0.50687546,-2.7748406,-0.8624271,-0.055567153,1.3252106,2.2934165,-0.14398225,0.094270594,0.24824242,-0.95328707,-7.435928,9.176887,0.54325366,-0.5252216,-2.8811138,0.56121147,1
2.159999999999998,,,,,11.190475,-0.50687546,-2.7748406,-0.8624271,-0.13006382,1.4167281,2.2988393,-0.13764709,0.08159837,0.25253102,-0.9542649,-7.4629517,9.126395,0.54128987,-0.52249706,-2.8645158,0.4913531,1
2.1699999999999977,,,,,9.97786,-0.4658253,-2.2431855,-0.9392643,-0.20481618,1.5077335,2.3042424,-0.13162728,0.068893455,0.25676993,-0.95498455,-7.487066,9.074434,0.5393167,-0.5201888,-2.8505077,0.4249227,1
2.1799999999999975,,,,,9.97786,-0.4658253,-2.2431855,-0.9392643,-0.27978337,1.5982409,2.3095734,-0.12597117,0.0563495,0.26091537,-0.95544624,-7.50597,9.026852,0.5268532,-0.5118575,-2.7557714,0.35798168,1
2.1899999999999973,,,,,9.97786,-0.4658253,-2.2431855,-0.9392643,-0.35492682,1.6882664,2.314779,-0.12071756,0.0441206,0.26493546,-0.9556611,-7.5223284,8.97809,0.5142513,-0.5048087,-2.675811,0.29432547,1
