time-since-start [s],throttle_mpc,roll_mpc,pitch_mpc,yaw_mpc,throttle_nw,roll_nw,pitch_nw,yaw_nw,position_x [m],position_y [m],position_z [m],rotation_w [quaternion],rotation_x [quaternion],rotation_y [quaternion],rotation_z [quaternion],velocity_x [m/s],velocity_y [m/s],velocity_z [m/s],omega_x [rad/s],omega_y [rad/s],omega_z [rad/s],network_used
0.0,8.36857743632362,5.999999186537044,-5.999999656091696,0.6783131000105287,11.250178,2.4760957,-2.5322497,-0.6992326,15.730978,-10.839774,1.3798207,-0.30794352,0.38557112,-0.15379848,-0.8560676,-9.770797,-0.25850406,0.14987567,0.7255457,-0.15442382,0.16048448,0
0.01,8.36857743632362,5.999999186537044,-5.999999656091696,0.6783131000105287,11.659515,2.7738397,-1.7232418,-0.43238902,15.632998,-10.842117,1.3811452,-0.30967996,0.38139164,-0.15790923,-0.8565649,-9.824579,-0.21042122,0.11453799,1.4245178,-0.94225246,0.19699432,0
0.02,8.36857743632362,5.999999186537044,-5.999999656091696,0.6783131000105287,11.659515,2.7738397,-1.7232418,-0.43238902,15.534501,-10.843988,1.3821023,-0.31311968,0.37290064,-0.16377567,-0.85795027,-9.874409,-0.16421235,0.07649479,2.0658119,-1.65851,0.22712299,0
0.03,8.36857743632362,5.999999186537044,-5.999999656091696,0.6783131000105287,11.659515,2.7738397,-1.7232418,-0.43238902,15.435526,-10.845407,1.382668,-0.3180915,0.36042613,-0.17122947,-0.8599949,-9.919909,-0.119596295,0.03636381,2.6544058,-2.3103611,0.25154203,0
0.04,8.36857743632362,5.999999186537044,-5.999999656091696,0.6783131000105287,11.020066,3.459311,-3.1498947,-0.1745493,15.336116,-10.846381,1.3828279,-0.3244012,0.34428197,-0.1800897,-0.8624392,-9.961654,-0.075445026,-0.004198906,3.1762824,-2.88563,0.27248383,0
0.05,8.36857743632362,5.999999186537044,-5.999999656091696,0.6783131000105287,11.020066,3.459311,-3.1498947,-0.1745493,15.236303,-10.846911,1.3825892,-0.33177578,0.32490048,-0.1901136,-0.8649978,-10.000326,-0.030427342,-0.043307766,3.6167688,-3.3711894,0.29239795,0
0.060000000000000005,8.36857743632362,5.999999186537044,-5.999999656091696,0.6783131000105287,11.020066,3.459311,-3.1498947,-0.1745493,15.136122,-10.846988,1.3819673,-0.33994606,0.3026985,-0.20106405,-0.8674004,-10.035356,0.015460252,-0.08083485,3.9885566,-3.7810311,0.3113349,0
0.07,8.36857743632362,5.999999186537044,-5.999999656091696,0.6783131000105287,11.020066,3.459311,-3.1498947,-0.1745493,15.03561,-10.8466,1.3809781,-0.34867582,0.27803352,-0.21273273,-0.8694063,-10.066223,0.06216915,-0.11674971,4.3023577,-4.126964,0.32934266,0
0.08,10.97635126413802,5.999999182450993,-5.9999996664740705,0.6376772803717902,11.430618,3.1766956,-4.6336446,-0.61150175,14.9348135,-10.845741,1.3796377,-0.3577588,0.2512169,-0.22493647,-0.87080556,-10.092462,0.1096035,-0.15110974,4.567216,-4.4189553,0.34646675,0
0.09,10.97635126413802,5.999999182450993,-5.9999996664740705,0.6376772803717902,11.430618,3.1766956,-4.6336446,-0.61150175,14.833745,-10.844331,1.378062,-0.3670199,0.22252418,-0.23751275,-0.8714167,-10.120259,0.17258999,-0.16374582,4.7907567,-4.6654234,0.36075652,0
0.09999999999999999,10.97635126413802,5.999999182450993,-5.9999996664740705,0.6376772803717902,11.430618,3.1766956,-4.6336446,-0.61150175,14.732433,-10.842288,1.3763683,-0.37630743,0.19220139,-0.2503184,-0.8710866,-10.140964,0.236119,-0.17478792,4.9794292,-4.8734617,0.3743451,0
0.10999999999999999,10.97635126413802,5.999999182450993,-5.9999996664740705,0.6376772803717902,11.430618,3.1766956,-4.6336446,-0.61150175,14.630952,-10.839608,1.3745707,-0.38548616,0.16046903,-0.26322827,-0.86969006,-10.154171,0.299922,-0.1845812,5.138672,-5.049063,0.3872669,0
0.11999999999999998,10.97635126413802,5.999999182450993,-5.9999996664740705,0.6376772803717902,11.430618,3.1766956,-4.6336446,-0.61150175,14.529377,-10.836289,1.3726796,-0.39443928,0.12752739,-0.27613166,-0.86712486,-10.159554,0.36369726,-0.19353648,5.273074,-5.197285,0.3995546,0
0.12999999999999998,15.30237521697025,5.695142775324482,-5.999999444256843,-0.11982898629408473,12.324057,2.0588372,-3.6696622,-0.83713377,14.427789,-10.832335,1.3707013,-0.40306598,0.09355965,-0.2889306,-0.8633095,-10.1568575,0.4271172,-0.2021188,5.386511,-5.322397,0.41123936,0
0.13999999999999999,15.30237521697025,5.695142775324482,-5.999999444256843,-0.11982898629408473,12.324057,2.0588372,-3.6696622,-0.83713377,14.326287,-10.827627,1.368813,-0.41135126,0.05881141,-0.30142567,-0.8581804,-10.141599,0.5145492,-0.17560548,5.434578,-5.4281483,0.3851797,0
0.15,15.30237521697025,5.695142775324482,-5.999999444256843,-0.11982898629408473,12.324057,2.0588372,-3.6696622,-0.83713377,14.224997,-10.822051,1.3671861,-0.41929716,0.023506451,-0.3134575,-0.8516933,-10.114748,0.60046935,-0.15000397,5.4751463,-5.5174065,0.36039877,0
0.16,16.617051942145928,2.8802516976466555,-5.9999985445313415,0.1687764320465584,12.253932,1.6821724,-2.2921822,-0.9776245,14.124032,-10.815625,1.3658074,-0.42684463,-0.01222388,-0.32499897,-0.8438185,-10.076323,0.6843375,-0.12606002,5.5093865,-5.592743,0.33683383,0
0.17,16.617051942145928,2.8802516976466555,-5.9999985445313415,0.1687764320465584,12.253932,1.6821724,-2.2921822,-0.9776245,14.02353,-10.808338,1.3647083,-0.43394676,-0.047786534,-0.3350841,-0.83494014,-10.022213,0.7725667,-0.09420849,5.099358,-5.6563716,0.32858723,0
0.18000000000000002,16.617051942145928,2.8802516976466555,-5.9999985445313415,0.1687764320465584,12.253932,1.6821724,-2.2921822,-0.9776245,13.923629,-10.800186,1.3639127,-0.44063753,-0.08269315,-0.3429821,-0.8254474,-9.956325,0.8571725,-0.0654191,4.7532716,-5.710058,0.32074532,0
0.19000000000000003,16.617051942145928,2.8802516976466555,-5.9999985445313415,0.1687764320465584,12.253932,1.6821724,-2.2921822,-0.9776245,13.824442,-10.791209,1.3633882,-0.4469648,-0.1169754,-0.34898576,-0.8153208,-9.8793745,0.9374051,-0.040059492,4.4611564,-5.755357,0.31328818,0
0.20000000000000004,16.20173727282109,0.498667872592114,-4.647910153565336,0.19888409834472384,12.222866,-0.3227044,0.4760809,-0.9018592,13.726077,-10.781454,1.3630986,-0.45295617,-0.15065943,-0.35334113,-0.80453855,-9.792058,1.012614,-0.018489638,4.2145963,-5.793578,0.30619693,0
0.21000000000000005,16.20173727282109,0.498667872592114,-4.647910153565336,0.19888409834472384,12.222866,-0.3227044,0.4760809,-0.9018592,13.628622,-10.770985,1.3629898,-0.45859432,-0.18290423,-0.3557453,-0.7935253,-9.697546,1.0805041,-0.0039049773,3.635044,-5.61504,0.30093104,0
0.22000000000000006,16.20173727282109,0.498667872592114,-4.647910153565336,0.19888409834472384,12.222866,-0.3227044,0.4760809,-0.9018592,13.532154,-10.759864,1.3630067,-0.46393022,-0.21306118,-0.35601467,-0.78270495,-9.594699,1.142558,0.006681161,3.1458805,-5.4643226,0.2959236,0
0.23000000000000007,16.20173727282109,0.498667872592114,-4.647910153565336,0.19888409834472384,12.222866,-0.3227044,0.4760809,-0.9018592,13.436752,-10.748154,1.3631101,-0.4690525,-0.241411,-0.35449356,-0.77203923,-9.484555,1.1984864,0.013376404,2.7330081,-5.3370914,0.29116184,0
0.24000000000000007,16.20173727282109,0.498667872592114,-4.647910153565336,0.19888409834472384,11.064731,-2.1084392,3.8870482,-1.1477729,13.342484,-10.735916,1.3632613,-0.47401857,-0.2681926,-0.3514657,-0.7614793,-9.368014,1.2480669,0.016283773,2.3845282,-5.229687,0.28663373,0
0.25000000000000006,16.20173727282109,0.498667872592114,-4.647910153565336,0.19888409834472384,11.064731,-2.1084392,3.8870482,-1.1477729,13.249412,-10.723215,1.3634232,-0.47886327,-0.2936084,-0.3471654,-0.75097275,-9.245867,1.2911277,0.015491635,2.090398,-5.1390195,0.28232783,0
0.26000000000000006,16.20173727282109,0.498667872592114,-4.647910153565336,0.19888409834472384,11.064731,-2.1084392,3.8870482,-1.1477729,13.157584,-10.710117,1.3635588,-0.48360518,-0.3178294,-0.34178632,-0.74046767,-9.118814,1.3275365,0.011068661,1.8421412,-5.062482,0.27823323,0
0.2700000000000001,16.20173727282109,0.498667872592114,-4.647910153565336,0.19888409834472384,11.064731,-2.1084392,3.8870482,-1.1477729,13.06705,-10.696688,1.3636322,-0.48825142,-0.34099942,-0.33548898,-0.7299157,-8.987485,1.357193,0.0030619735,1.6326029,-4.997872,0.27433953,0
0.2800000000000001,14.732886093407688,-2.1108590630724513,0.4523222746001907,0.1858923322231596,12.060691,-3.2381315,5.152779,-1.1070684,12.977848,-10.682997,1.3636076,-0.49280113,-0.36323923,-0.3284067,-0.71927273,-8.85245,1.3800231,-0.008502715,1.4557449,-4.9433303,0.27063692,0
0.2900000000000001,14.732886093407688,-2.1108590630724513,0.4523222746001907,0.1858923322231596,12.060691,-3.2381315,5.152779,-1.1070684,12.889951,-10.669119,1.3634123,-0.49698853,-0.38268578,-0.32092363,-0.70962095,-8.726827,1.3946362,-0.031056847,0.8993753,-4.101982,0.2664785,0
0.3000000000000001,14.732886093407688,-2.1108590630724513,0.4523222746001907,0.1858923322231596,12.060691,-3.2381315,5.152779,-1.1070684,12.80332,-10.655123,1.3629777,-0.5007017,-0.39793536,-0.31340978,-0.7019397,-8.599183,1.4037817,-0.05617156,0.429799,-3.3918233,0.2625241,0
0.3100000000000001,14.732886093407688,-2.1108590630724513,0.4523222746001907,0.1858923322231596,12.060691,-3.2381315,5.152779,-1.1070684,12.717972,-10.641059,1.3622824,-0.5041127,-0.4096853,-0.30592826,-0.6960144,-8.470252,1.4082582,-0.0831317,0.03347536,-2.7923987,0.25876376,0
0.3200000000000001,13.709714628418418,-4.118234639257117,5.999995871962569,0.5359093358532223,11.962869,-4.8203664,5.7728114,-1.5814284,12.633917,-10.626971,1.3613111,-0.50733757,-0.4185094,-0.29851344,-0.6916271,-8.340587,1.4087454,-0.111292504,-0.3010233,-2.286442,0.25518793,0
0.3300000000000001,13.709714628418418,-4.118234639257117,5.999995871962569,0.5359093358532223,11.962869,-4.8203664,5.7728114,-1.5814284,12.551142,-10.612896,1.3600445,-0.5100801,-0.42315057,-0.29176268,-0.6896638,-8.21532,1.4060435,-0.14250527,-0.8459729,-1.0448128,0.27353674,0
0.34000000000000014,13.709714628418418,-4.118234639257117,5.999995871962569,0.5359093358532223,11.962869,-4.8203664,5.7728114,-1.5814284,12.469593,-10.598856,1.358454,-0.5121534,-0.422395,-0.2861202,-0.69095325,-8.0944805,1.4015203,-0.17551224,-1.35419,0.05143401,0.28662533,0
0.35000000000000014,13.709714628418418,-4.118234639257117,5.999995871962569,0.5359093358532223,11.962869,-4.8203664,5.7728114,-1.5814284,12.389248,-10.584867,1.3565389,-0.51370054,-0.41694027,-0.28140068,-0.69504386,-7.9746547,1.3963351,-0.20720235,-1.7854218,0.97901446,0.29885778,0
0.36000000000000015,12.272739886791555,-5.999982499853829,5.999999667736495,-0.7923017948543717,10.294566,-5.561926,5.9956574,-1.7671896,12.310096,-10.570929,1.3543177,-0.5147759,-0.4074727,-0.27743864,-0.7014266,-7.856112,1.3915232,-0.2366061,-2.149388,1.7619469,0.31048998,0
0.37000000000000016,12.272739886791555,-5.999982499853829,5.999999667736495,-0.7923017948543717,10.294566,-5.561926,5.9956574,-1.7671896,12.232116,-10.557033,1.3518137,-0.51574534,-0.39455694,-0.27366868,-0.70953274,-7.740917,1.3879768,-0.26400664,-2.6204405,2.293355,0.2679881,0
0.38000000000000017,12.272739886791555,-5.999982499853829,5.999999667736495,-0.7923017948543717,10.294566,-5.561926,5.9956574,-1.7671896,12.155258,-10.543163,1.3490416,-0.51691043,-0.37846982,-0.26960194,-0.71894276,-7.631499,1.3862368,-0.29013547,-3.0619977,2.785928,0.22363639,0
0.3900000000000002,12.272739886791555,-5.999982499853829,5.999999667736495,-0.7923017948543717,10.294566,-5.561926,5.9956574,-1.7671896,12.079465,-10.5293,1.3460166,-0.51818466,-0.35934734,-0.26519388,-0.7294012,-7.5280824,1.386604,-0.3145628,-3.476319,3.2433777,0.1777352,0
0.4000000000000002,12.465932993403483,-5.999997013017627,5.999999772904056,-1.3455098633868647,10.138362,-6.600987,5.632412,-3.0724537,12.004675,-10.515422,1.3427573,-0.51947117,-0.3373125,-0.26039842,-0.74065,-7.430742,1.3893219,-0.33685213,-3.8629472,3.6664712,0.13077188,0
0.4100000000000002,12.465932993403483,-5.999997013017627,5.999999772904056,-1.3455098633868647,10.138362,-6.600987,5.632412,-3.0724537,11.930859,-10.501502,1.3393141,-0.52069366,-0.31270832,-0.25523034,-0.75229573,-7.3333864,1.3949407,-0.3513733,-4.1570325,3.9915097,0.061847646,0
0.4200000000000002,12.465932993403483,-5.999997013017627,5.999999772904056,-1.3455098633868647,10.138362,-6.600987,5.632412,-3.0724537,11.857982,-10.487513,1.335739,-0.5217882,-0.2858208,-0.24969919,-0.76399845,-7.242825,1.4034098,-0.36316267,-4.4368067,4.297462,-0.0065241586,0
0.4300000000000002,12.465932993403483,-5.999997013017627,5.999999772904056,-1.3455098633868647,10.138362,-6.600987,5.632412,-3.0724537,11.785982,-10.473424,1.3320657,-0.52266026,-0.25679305,-0.24377057,-0.775538,-7.1579137,1.4150114,-0.37076086,-4.6803894,4.5631733,-0.072228566,0
0.4400000000000002,12.465932993403483,-5.999997013017627,5.999999772904056,-1.3455098633868647,11.288631,-6.2327766,5.594004,-3.0919983,11.714804,-10.459202,1.3283396,-0.52321327,-0.22588085,-0.23743449,-0.7866703,-7.078751,1.4299611,-0.3737594,-4.885977,4.7874537,-0.13470885,0
0.45000000000000023,12.465932993403483,-5.999997013017627,5.999999772904056,-1.3455098633868647,11.288631,-6.2327766,5.594004,-3.0919983,11.644385,-10.444813,1.3246056,-0.52336353,-0.19332695,-0.23068595,-0.7971819,-7.0059614,1.448379,-0.37237817,-5.059499,4.9767604,-0.1941232,0
0.46000000000000024,12.465932993403483,-5.999997013017627,5.999999772904056,-1.3455098633868647,11.288631,-6.2327766,5.594004,-3.0919983,11.57466,-10.430222,1.320906,-0.5230397,-0.15935184,-0.22352286,-0.8068914,-6.9401383,1.470337,-0.36694622,-5.2059593,5.136544,-0.25062206,0
0.47000000000000025,12.465932993403483,-5.999997013017627,5.999999772904056,-1.3455098633868647,11.288631,-6.2327766,5.594004,-3.0919983,11.505557,-10.415394,1.3172792,-0.52218205,-0.12415738,-0.21594584,-0.8156457,-6.8818355,1.4958615,-0.35788947,-5.3295827,5.271406,-0.30434853,0
0.48000000000000026,14.242317068468843,-5.309242620196087,5.999999755371082,-1.1635874103387835,14.311948,-5.4232063,6.0567036,-2.5917814,11.4369955,-10.400292,1.3137591,-0.5207408,-0.08792954,-0.20795813,-0.82331675,-6.831557,1.5249367,-0.34571853,-5.433932,5.3852315,-0.35543862,0
0.49000000000000027,14.242317068468843,-5.309242620196087,5.999999755371082,-1.1635874103387835,14.311948,-5.4232063,6.0567036,-2.5917814,11.368926,-10.384861,1.3104538,-0.5186384,-0.050989404,-0.1997927,-0.82975715,-6.7837787,1.5621539,-0.31494996,-5.4143224,5.48124,-0.3950947,0
0.5000000000000002,14.242317068468843,-5.309242620196087,5.999999755371082,-1.1635874103387835,14.311948,-5.4232063,6.0567036,-2.5917814,11.301286,-10.369038,1.3074673,-0.5158318,-0.013615418,-0.19164383,-0.83486795,-6.746007,1.6033075,-0.28207448,-5.397778,5.5622683,-0.43280482,0
0.5100000000000002,14.242317068468843,-5.309242620196087,5.999999755371082,-1.1635874103387835,14.311948,-5.4232063,6.0567036,-2.5917814,11.233972,-10.352782,1.3048167,-0.5123293,0.024085999,-0.18346465,-0.8386173,-6.7184877,1.6483047,-0.24791434,-5.38382,5.630654,-0.4686646,0
0.5200000000000002,16.348774269148063,-2.992799801487102,5.9999995480666,-0.09436985881626625,16.101625,-3.397504,6.2594795,-1.7907133,11.166881,-10.336059,1.3025105,-0.5081371,0.062013544,-0.17521697,-0.8409814,-6.701402,1.6970121,-0.21331026,-5.3720455,5.688369,-0.50276464,0
0.5300000000000002,16.348774269148063,-2.992799801487102,5.9999995480666,-0.09436985881626625,16.101625,-3.397504,6.2594795,-1.7907133,11.099914,-10.318791,1.3006468,-0.50322694,0.09957914,-0.16766213,-0.84186447,-6.6938357,1.7570148,-0.15956117,-5.001063,5.73678,-0.4827246,0
0.5400000000000003,16.348774269148063,-2.992799801487102,5.9999995480666,-0.09436985881626625,16.101625,-3.397504,6.2594795,-1.7907133,11.032964,-10.300904,1.2993139,-0.49763277,0.13631257,-0.16142122,-0.841263,-6.6979737,1.8210716,-0.10734166,-4.687934,5.7776723,-0.46366793,0
0.5500000000000003,16.348774269148063,-2.992799801487102,5.9999995480666,-0.09436985881626625,16.101625,-3.397504,6.2594795,-1.7907133,10.965917,-10.282355,1.2984914,-0.49143276,0.17228323,-0.15627354,-0.83927983,-6.713342,1.8891554,-0.057640277,-4.423637,5.812212,-0.44554636,0
0.5600000000000003,17.126464873353466,-0.7501298506778077,5.9999991012119605,0.20804487723024925,15.88192,-0.5367463,6.1313024,-0.7235627,10.898662,-10.263107,1.2981493,-0.48468354,0.2075454,-0.15202998,-0.8359985,-6.7394733,1.9611893,-0.011360512,-4.200556,5.8413854,-0.42831403,0
0.5700000000000003,17.126464873353466,-0.7501298506778077,5.9999991012119605,0.20804487723024925,15.88192,-0.5367463,6.1313024,-0.7235627,10.831084,-10.243101,1.298283,-0.47759676,0.24170403,-0.14928782,-0.8313804,-6.7775745,2.0406935,0.037329897,-3.6625764,5.8658957,-0.3970877,0
0.5800000000000003,17.126464873353466,-0.7501298506778077,5.9999991012119605,0.20804487723024925,15.88192,-0.5367463,6.1313024,-0.7235627,10.763076,-10.22228,1.2988777,-0.47038794,0.2744615,-0.14851415,-0.8254389,-6.8255277,2.1243014,0.080761164,-3.2084908,5.886629,-0.36739367,0
0.5900000000000003,17.126464873353466,-0.7501298506778077,5.9999991012119605,0.20804487723024925,15.88192,-0.5367463,6.1313024,-0.7235627,10.694544,-10.200601,1.2998776,-0.46308556,0.30598402,-0.1493816,-0.8182973,-6.882413,2.2120857,0.11823202,-2.8252153,5.9041643,-0.33915675,0
0.6000000000000003,16.81152597375785,1.2324769512622058,5.482611623393355,0.3933149107234922,17.325283,1.1495334,4.985344,-0.33705574,10.6254015,-10.178024,1.3012197,-0.45569828,0.33640665,-0.15161069,-0.8100516,-6.9473944,2.3040593,0.1491288,-2.501707,5.918994,-0.31230542,1
0.6100000000000003,16.81152597375785,1.2324769512622058,5.482611623393355,0.3933149107234922,17.325283,1.1495334,4.985344,-0.33705574,10.555568,-10.154501,1.302843,-0.44860744,0.36518082,-0.15537186,-0.8007833,-7.020485,2.401308,0.1743484,-1.932323,5.7732778,-0.31351992,1
0.6200000000000003,16.81152597375785,1.2324769512622058,5.482611623393355,0.3933149107234922,17.325283,1.1495334,4.985344,-0.33705574,10.484971,-10.129984,1.304681,-0.44216132,0.39190385,-0.16078307,-0.7906032,-7.0998263,2.5027657,0.19209048,-1.45173,5.650303,-0.31467482,1
0.6300000000000003,16.81152597375785,1.2324769512622058,5.482611623393355,0.3933149107234922,17.325283,1.1495334,4.985344,-0.33705574,10.413554,-10.10443,1.3066581,-0.43629676,0.41686776,-0.16755256,-0.7796104,-7.1843343,2.6084316,0.2021655,-1.0460818,5.54652,-0.31577307,1
0.6400000000000003,16.81152597375785,1.2324769512622058,5.482611623393355,0.3933149107234922,16.505863,2.2228625,4.284762,-0.4771759,10.34127,-10.0778,1.3086972,-0.43094343,0.44031253,-0.17543252,-0.7678776,-7.27306,2.7182746,0.20442232,-0.7036911,5.4589353,-0.31681743,0
0.6500000000000004,16.81152597375785,1.2324769512622058,5.482611623393355,0.3933149107234922,16.505863,2.2228625,4.284762,-0.4771759,10.268095,-10.050067,1.3107054,-0.4259378,0.46255517,-0.18436326,-0.7554004,-7.362434,2.8288612,0.1959823,-0.40187,5.4625554,-0.28197104,0
0.6600000000000004,16.81152597375785,1.2324769512622058,5.482611623393355,0.3933149107234922,16.505863,2.2228625,4.284762,-0.4771759,10.194013,-10.021209,1.3125898,-0.42112145,0.48383957,-0.19429006,-0.74216396,-7.4543686,2.9434085,0.17963159,-0.14711192,5.4656324,-0.24883454,0
0.6700000000000004,16.81152597375785,1.2324769512622058,5.482611623393355,0.3933149107234922,16.505863,2.2228625,4.284762,-0.4771759,10.119001,-9.991186,1.3142701,-0.4164331,0.50424707,-0.20502545,-0.7282053,-7.548214,3.0618396,0.1551735,0.067922205,5.4682465,-0.21732406,0
0.6800000000000004,15.562906701894093,2.5600350325131958,1.468963327213398,0.6905695112225945,15.693544,2.4864228,2.5465117,0.26469478,10.043045,-9.95996,1.3156648,-0.41181663,0.52384216,-0.21641034,-0.71355665,-7.6433716,3.1840262,0.1224306,0.2494272,5.4704657,-0.18735984,0
0.6900000000000004,15.562906701894093,2.5600350325131958,1.468963327213398,0.6905695112225945,15.693544,2.4864228,2.5465117,0.26469478,9.966167,-9.927541,1.3166685,-0.4078417,0.54132634,-0.2280524,-0.69901586,-7.7321234,3.3004346,0.077126436,0.60955185,4.8464065,-0.14427963,0
0.7000000000000004,15.562906701894093,2.5600350325131958,1.468963327213398,0.6905695112225945,15.693544,2.4864228,2.5465117,0.26469478,9.888402,-9.893942,1.317183,-0.40502405,0.5557541,-0.23965883,-0.68531495,-7.820817,3.4198575,0.02471924,0.91356295,4.319691,-0.10331334,0
0.7100000000000004,15.562906701894093,2.5600350325131958,1.468963327213398,0.6905695112225945,15.693544,2.4864228,2.5465117,0.26469478,9.809752,-9.859135,1.317141,-0.40322703,0.56763387,-0.25123632,-0.67236906,-7.90879,3.5420446,-0.0340368,1.1702003,3.875134,-0.06435729,0
0.7200000000000004,14.423628351567173,3.3182962078948695,-4.1049203121492654,1.16807532780917,13.920252,2.8324165,-2.6244187,0.7294506,9.730229,-9.823092,1.3164828,-0.4023188,0.5773805,-0.26278776,-0.66008633,-7.9955072,3.6668048,-0.09848339,1.3868436,3.4999173,-0.0273128,0
0.7300000000000004,14.423628351567173,3.3182962078948695,-4.1049203121492654,1.16807532780917,13.920252,2.8324165,-2.6244187,0.7294506,9.649878,-9.785835,1.315144,-0.40292004,0.5837468,-0.27366617,-0.64961684,-8.074416,3.7848425,-0.16995406,1.6901845,2.3162494,0.031135252,0
0.7400000000000004,14.423628351567173,3.3182962078948695,-4.1049203121492654,1.16807532780917,13.920252,2.8324165,-2.6244187,0.7294506,9.5687475,-9.747389,1.3130727,-0.40554836,0.5858064,-0.2833552,-0.6419277,-8.151181,3.9046912,-0.24467936,1.9440578,1.314947,0.08692522,0
0.7500000000000004,14.423628351567173,3.3182962078948695,-4.1049203121492654,1.16807532780917,13.920252,2.8324165,-2.6244187,0.7294506,9.486861,-9.707734,1.3102444,-0.40993163,0.5842737,-0.29204533,-0.63662374,-8.225571,4.0263515,-0.32114148,2.158399,0.4698081,0.13997756,0
0.7600000000000005,14.27728408010879,3.4030150672739716,-5.999998892438034,1.2957664985032369,13.760078,3.0089447,-5.9738903,0.865808,9.404244,-9.666855,1.3066481,-0.41580892,0.5797123,-0.29988453,-0.63332915,-8.297297,4.1496863,-0.39809424,2.339356,-0.24352528,0.1904266,1
0.7700000000000005,14.27728408010879,3.4030150672739716,-5.999998892438034,1.2957664985032369,13.760078,3.0089447,-5.9738903,0.865808,9.320941,-9.6247635,1.3022797,-0.42311528,0.57216007,-0.3065746,-0.63215363,-8.36295,4.2688165,-0.47544348,2.4439123,-1.1371068,0.22356774,1
0.7800000000000005,14.27728408010879,3.4030150672739716,-5.999998892438034,1.2957664985032369,13.760078,3.0089447,-5.9738903,0.865808,9.236996,-9.581475,1.2971452,-0.43177527,0.5616501,-0.31186587,-0.63313407,-8.425664,4.3892136,-0.55108654,2.5321765,-1.8913357,0.25508267,1
0.7900000000000005,14.27728408010879,3.4030150672739716,-5.999998892438034,1.2957664985032369,13.760078,3.0089447,-5.9738903,0.865808,9.152438,-9.536977,1.2912674,-0.44153813,0.5485787,-0.31592447,-0.6358435,-8.485282,4.5106363,-0.62399447,2.6066825,-2.527945,0.28505114,1
0.8000000000000005,14.215714203277864,3.488564644867045,-5.999999666168236,0.5171353542256323,13.598914,2.947702,-5.6183224,0.7403254,9.067301,-9.491261,1.2846777,-0.45217398,0.53326607,-0.31888393,-0.6399052,-8.541635,4.6328163,-0.69331676,2.6695712,-3.065277,0.313549,1
0.8100000000000005,14.215714203277864,3.488564644867045,-5.999999666168236,0.5171353542256323,13.598914,2.947702,-5.6183224,0.7403254,8.98162,-9.444326,1.2774138,-0.46342745,0.51608413,-0.3208947,-0.64491737,-8.593923,4.7540174,-0.7587555,2.7130737,-3.4633775,0.33449104,1
0.8200000000000005,14.215714203277864,3.488564644867045,-5.999999666168236,0.5171353542256323,13.598914,2.947702,-5.6183224,0.7403254,8.895434,-9.396179,1.269519,-0.4750803,0.49734533,-0.32208306,-0.65054476,-8.642628,4.875347,-0.8194808,2.749786,-3.7993963,0.35440543,1
0.8300000000000005,14.215714203277864,3.488564644867045,-5.999999666168236,0.5171353542256323,13.598914,2.947702,-5.6183224,0.7403254,8.808781,-9.34682,1.2610419,-0.4869891,0.4772153,-0.3225178,-0.6565737,-8.687568,4.9964585,-0.8751281,2.7807665,-4.0830154,0.3733426,1
0.8400000000000005,14.215714203277864,3.488564644867045,-5.999999666168236,0.5171353542256323,13.367747,2.363712,-5.744943,0.80520546,8.721698,-9.296252,1.2520348,-0.49902737,0.4558375,-0.3222576,-0.66282237,-8.728559,5.1169763,-0.92543,2.8069088,-4.3224063,0.39135057,0
0.8500000000000005,14.215714203277864,3.488564644867045,-5.999999666168236,0.5171353542256323,13.367747,2.363712,-5.744943,0.80520546,8.634215,-9.244456,1.2425642,-0.51124644,0.4331344,-0.32140625,-0.6691183,-8.7670765,5.2419267,-0.9677791,2.9132977,-4.583987,0.39752287,0
0.8600000000000005,14.215714203277864,3.488564644867045,-5.999999666168236,0.5171353542256323,13.367747,2.363712,-5.744943,0.80520546,8.546371,-9.191419,1.2326996,-0.5236654,0.40904626,-0.32004255,-0.6752984,-8.8009815,5.3654075,-1.0041808,3.0030854,-4.804779,0.4033923,0
0.8700000000000006,14.215714203277864,3.488564644867045,-5.999999666168236,0.5171353542256323,13.367747,2.363712,-5.744943,0.80520546,8.458214,-9.137156,1.2225013,-0.53613716,0.3837179,-0.31817997,-0.6812331,-8.8299885,5.486957,-1.0345478,3.0788627,-4.991142,0.4089737,0
0.8800000000000006,15.510326159555364,2.5728383630406486,-5.999999597380509,0.7650344078075809,13.522235,2.3279533,-6.1560593,1.0817791,8.36979,-9.081688,1.2120295,-0.5485341,0.35727936,-0.31583124,-0.6868128,-8.853834,5.606091,-1.0588818,3.142815,-5.148445,0.4142812,0
0.8900000000000006,15.510326159555364,2.5728383630406486,-5.999999597380509,0.7650344078075809,13.522235,2.3279533,-6.1560593,1.0817791,8.281146,-9.02499,1.2013799,-0.56059945,0.3300426,-0.31276837,-0.69208056,-8.873995,5.7328925,-1.0700041,3.0540226,-5.2812343,0.43149275,0
0.9000000000000006,15.510326159555364,2.5728383630406486,-5.999999597380509,0.7650344078075809,13.522235,2.3279533,-6.1560593,1.0817791,8.19233,-8.967043,1.1906509,-0.5721386,0.3022774,-0.3088161,-0.6970781,-8.888243,5.855935,-1.074791,2.9790711,-5.3933144,0.44785973,0
0.9100000000000006,15.510326159555364,2.5728383630406486,-5.999999597380509,0.7650344078075809,13.522235,2.3279533,-6.1560593,1.0817791,8.103402,-8.9078865,1.1799052,-0.5831312,0.2740371,-0.30405837,-0.7017191,-8.896584,5.9746532,-1.0734609,2.9158027,-5.487916,0.4634236,0
0.9200000000000006,16.585490088820304,1.4504958021184136,-5.999999394726972,0.9016863547169384,13.667938,1.1833934,-6.008533,0.802725,8.01442,-8.847567,1.169202,-0.59355676,0.24537218,-0.29856864,-0.70593137,-8.899023,6.0885024,-1.0662892,2.8623955,-5.5677633,0.47822374,0
0.9300000000000006,16.585490088820304,1.4504958021184136,-5.999999394726972,0.9016863547169384,13.667938,1.1833934,-6.008533,0.802725,7.9254427,-8.7860985,1.1586365,-0.6032805,0.21659444,-0.2920988,-0.7098009,-8.895372,6.20448,-1.0459185,2.6423075,-5.635203,0.49900317,0
0.9400000000000006,16.585490088820304,1.4504958021184136,-5.999999394726972,0.9016863547169384,13.667938,1.1833934,-6.008533,0.802725,7.836533,-8.723501,1.1483027,-0.6122147,0.18796615,-0.28446075,-0.7134028,-8.885707,6.314151,-1.0200082,2.4565372,-5.6921215,0.51876295,0
0.9500000000000006,16.585490088820304,1.4504958021184136,-5.999999394726972,0.9016863547169384,13.667938,1.1833934,-6.008533,0.802725,7.747749,-8.65984,1.138254,-0.62040085,0.15946466,-0.2757959,-0.7166659,-8.870315,6.4170084,-0.98894566,2.2997322,-5.74016,0.53755313,0
0.9600000000000006,17.046188267067272,0.24339926615552776,-5.999998120179145,0.9511734324838945,16.137201,0.4172425,-6.0050077,0.69394946,7.6591454,-8.595185,1.12854,-0.6278692,0.13107318,-0.26622623,-0.71953,-8.849455,6.5125937,-0.95315015,2.1673758,-5.780703,0.55542123,1
0.9700000000000006,17.046188267067272,0.24339926615552776,-5.999998120179145,0.9511734324838945,16.137201,0.4172425,-6.0050077,0.69394946,7.5707736,-8.529626,1.1191871,-0.634611,0.103048086,-0.25555685,-0.722039,-8.824101,6.598111,-0.9167986,1.8944819,-5.8149924,0.56221884,1
0.9800000000000006,17.046188267067272,0.24339926615552776,-5.999998120179145,0.9511734324838945,16.137201,0.4172425,-6.0050077,0.69394946,7.4826794,-8.46325,1.110217,-0.64064026,0.07559964,-0.2436436,-0.7242253,-8.794099,6.675767,-0.8766857,1.6641424,-5.8439217,0.56868297,1
0.9900000000000007,17.046188267067272,0.24339926615552776,-5.999998120179145,0.9511734324838945,16.137201,0.4172425,-6.0050077,0.69394946,7.3949065,-8.396139,1.1016649,-0.64600146,0.048655223,-0.23065342,-0.7260258,-8.75987,6.745224,-0.8332315,1.4697216,-5.868328,0.5748298,1
1.0000000000000007,16.82175368043806,-0.7474526214461354,-3.8686851767864785,0.9100180974090083,15.55411,0.060520016,-5.898071,0.26879692,7.3074956,-8.328375,1.0935622,-0.65072614,0.022154965,-0.21673007,-0.7273874,-8.721794,6.8061876,-0.7868767,1.305618,-5.888919,0.58067507,0
1.0100000000000007,16.82175368043806,-0.7474526214461354,-3.8686851767864785,0.9100180974090083,15.55411,0.060520016,-5.898071,0.26879692,7.220492,-8.260034,1.0859667,-0.6546412,-0.0030305595,-0.20221877,-0.7283838,-8.678494,6.860677,-0.73185754,0.9853826,-5.573975,0.596836,0
1.0200000000000007,16.82175368043806,-0.7474526214461354,-3.8686851767864785,0.9100180974090083,15.55411,0.060520016,-5.898071,0.26879692,7.133936,-8.191192,1.0789319,-0.65767705,-0.026210899,-0.18741813,-0.7291419,-8.632187,6.9062753,-0.6748231,0.715098,-5.3081336,0.6122039,0
1.0300000000000007,16.82175368043806,-0.7474526214461354,-3.8686851767864785,0.9100180974090083,15.55411,0.060520016,-5.898071,0.26879692,7.047856,-8.121938,1.0724757,-0.6599814,-0.04767752,-0.17237654,-0.729683,-8.58347,6.9432645,-0.6162405,0.48697308,-5.083739,0.62681764,0
1.0400000000000007,16.82175368043806,-0.7474526214461354,-3.8686851767864785,0.9100180974090083,15.11245,-0.8170354,-3.9975438,0.62269175,6.962273,-8.052355,1.0666112,-0.66166717,-0.06767955,-0.15713263,-0.73001707,-8.532849,6.9719005,-0.5565143,0.29443222,-4.8943276,0.6407144,0
1.0500000000000007,16.82175368043806,-0.7474526214461354,-3.8686851767864785,0.9100180974090083,15.11245,-0.8170354,-3.9975438,0.62269175,6.877204,-7.9825273,1.0613481,-0.6628205,-0.08642905,-0.14171775,-0.73014694,-8.480758,6.9924154,-0.49600297,0.1319251,-4.734446,0.65392923,0
1.0600000000000007,16.82175368043806,-0.7474526214461354,-3.8686851767864785,0.9100180974090083,15.11245,-0.8170354,-3.9975438,0.62269175,6.792661,-7.9125338,1.0566928,-0.66350716,-0.10410603,-0.12615779,-0.7300711,-8.427563,7.005018,-0.43503138,-0.0052332245,-4.599489,0.6664956,0
1.0700000000000007,16.82175368043806,-0.7474526214461354,-3.8686851767864785,0.9100180974090083,15.11245,-0.8170354,-3.9975438,0.62269175,6.7086554,-7.842453,1.0526481,-0.6637772,-0.120862804,-0.1104745,-0.72978544,-8.373579,7.0098977,-0.37390023,-0.12099632,-4.485572,0.67844534,0
1.0800000000000007,15.925266724120812,-1.3872592075668853,0.6848082065509501,0.9732468483700255,14.006946,-0.6618343,-0.702625,1.0941654,6.6251917,-7.7723613,1.0492144,-0.66366863,-0.13682799,-0.09468641,-0.7292845,-8.319078,7.007224,-0.31289274,-0.2187018,-4.389414,0.68980867,0
1.0900000000000007,15.925266724120812,-1.3872592075668853,0.6848082065509501,0.9732468483700255,14.006946,-0.6618343,-0.702625,1.0941654,6.54226,-7.7023315,1.0463465,-0.6630942,-0.15061536,-0.0798325,-0.72886705,-8.267238,6.9978175,-0.260719,-0.40125993,-3.5981772,0.703717,0
1.1000000000000008,15.925266724120812,-1.3872592075668853,0.6848082065509501,0.9732468483700255,14.006946,-0.6618343,-0.702625,1.0941654,6.459847,-7.6324253,1.0439982,-0.66207546,-0.16114703,-0.06674187,-0.72885704,-8.215514,6.9825053,-0.20898774,-0.55530626,-2.9303231,0.7169429,0
1.1100000000000008,15.925266724120812,-1.3872592075668853,0.6848082065509501,0.9732468483700255,14.006946,-0.6618343,-0.702625,1.0941654,6.3779483,-7.562698,1.0421653,-0.6607593,-0.16893658,-0.055142283,-0.7292572,-8.164249,6.9623528,-0.15766998,-0.68529224,-2.3666117,0.7295198,0
1.1200000000000008,15.263638771584276,-1.5100650910895344,5.648027488736364,1.0733260898306938,13.742701,-0.8393551,2.6649163,1.0517663,6.2965593,-7.493192,1.0408436,-0.6592448,-0.17441535,-0.04480043,-0.73004645,-8.113719,6.938253,-0.10668546,-0.7949746,-1.8908025,0.74147946,0
1.1300000000000008,15.263638771584276,-1.5100650910895344,5.648027488736364,1.0733260898306938,13.742701,-0.8393551,2.6649163,1.0517663,6.2156606,-7.423938,1.0399998,-0.65751994,-0.17646383,-0.036787596,-0.7315559,-8.06622,6.9122186,-0.0620851,-0.90705156,-0.71519005,0.7577632,0
1.1400000000000008,15.263638771584276,-1.5100650910895344,5.648027488736364,1.0733260898306938,13.742701,-0.8393551,2.6649163,1.0517663,6.135231,-7.354953,1.0396023,-0.6555915,-0.1742109,-0.031937525,-0.73405015,-8.019919,6.884712,-0.017366279,-1.001583,0.2770935,0.77324796,0
1.1500000000000008,15.263638771584276,-1.5100650910895344,5.648027488736364,1.0733260898306938,13.742701,-0.8393551,2.6649163,1.0517663,6.0552573,-7.286244,1.0396541,-0.65350634,-0.16831717,-0.029746337,-0.7373691,-7.975074,6.857218,0.027818501,-1.0813123,1.1146375,0.7879728,0
1.1600000000000008,14.925727190366967,-1.166124710942423,5.999998972746413,0.8847376840954833,13.51712,-0.38782504,5.854667,1.0403082,5.9757237,-7.217804,1.0401615,-0.65126383,-0.15933247,-0.029788302,-0.74133694,-7.9319234,6.8309846,0.073757365,-1.1485549,1.8215723,0.8019752,0
1.1700000000000008,14.925727190366967,-1.166124710942423,5.999998972746413,0.8847376840954833,13.51712,-0.38782504,5.854667,1.0403082,5.8966074,-7.149613,1.0411167,-0.6488276,-0.14770104,-0.031901646,-0.7457806,-7.891606,6.8076067,0.117448494,-1.1516414,2.473191,0.80603635,0
1.1800000000000008,14.925727190366967,-1.166124710942423,5.999998972746413,0.8847376840954833,13.51712,-0.38782504,5.854667,1.0403082,5.8178844,-7.0816407,1.042514,-0.6461513,-0.13379632,-0.035939936,-0.7505295,-7.853339,6.7874455,0.16219592,-1.1541959,3.0231905,0.8098983,0
1.1900000000000008,14.925727190366967,-1.166124710942423,5.999998972746413,0.8847376840954833,13.51712,-0.38782504,5.854667,1.0403082,5.739533,-7.01385,1.0443642,-0.6431919,-0.11794935,-0.041591696,-0.7554214,-7.8172884,6.7713203,0.20802663,-1.1563092,3.4874184,0.81357074,0
1.2000000000000008,14.918154209665921,-0.635598857175034,5.9999991931606855,0.6797376241344564,13.073577,-0.052395098,6.112338,1.2865912,5.6615305,-6.9461975,1.0466782,-0.63990396,-0.10044268,-0.04859282,-0.76031053,-7.7836294,6.7599244,0.2548832,-1.1580561,3.8792505,0.8170629,0
1.2100000000000009,14.918154209665921,-0.635598857175034,5.9999991931606855,0.6797376241344564,13.073577,-0.052395098,6.112338,1.2865912,5.583852,-6.8786335,1.0494646,-0.6362438,-0.08165348,-0.056883123,-0.7650425,-7.7525463,6.753846,0.3025536,-1.0767367,4.2100286,0.8103243,0
1.2200000000000009,14.918154209665921,-0.635598857175034,5.9999991931606855,0.6797376241344564,13.073577,-0.052395098,6.112338,1.2865912,5.5064707,-6.811101,1.0527313,-0.63218135,-0.061897084,-0.06640253,-0.7694838,-7.7241163,6.7535806,0.3508891,-1.00807,4.489214,0.80391634,0
1.2300000000000009,14.918154209665921,-0.635598857175034,5.9999991931606855,0.6797376241344564,13.073577,-0.052395098,6.112338,1.2865912,5.42936,-6.7435403,1.0564835,-0.6276938,-0.041316886,-0.07694255,-0.7735453,-7.6984196,6.759544,0.39960676,-0.95008796,4.724854,0.79782283,0
1.2400000000000009,14.918154209665921,-0.635598857175034,5.9999991931606855,0.6797376241344564,12.93211,0.36654618,5.8450627,1.1561052,5.352493,-6.6758876,1.0607234,-0.6227607,-0.020039167,-0.08832456,-0.77715206,-7.675549,6.772071,0.44837734,-0.9011283,4.923741,0.79202837,0
1.2500000000000009,14.918154209665921,-0.635598857175034,5.9999991931606855,0.6797376241344564,12.93211,0.36654618,5.8450627,1.1561052,5.2758393,-6.6080756,1.0654498,-0.617365,0.0018242574,-0.100395195,-0.78024155,-7.6556044,6.79142,0.4968327,-0.85978746,5.091607,0.7865182,0
1.260000000000001,14.918154209665921,-0.635598857175034,5.9999991931606855,0.6797376241344564,12.93211,0.36654618,5.8450627,1.1561052,5.1993704,-6.5400352,1.0706575,-0.6114925,0.024173884,-0.1130224,-0.7827627,-7.638688,6.817781,0.5445729,-0.82488,5.2332907,0.78127843,0
1.270000000000001,14.918154209665921,-0.635598857175034,5.9999991931606855,0.6797376241344564,12.93211,0.36654618,5.8450627,1.1561052,5.1230545,-6.4716954,1.0763372,-0.6051322,0.04692077,-0.1260922,-0.7846739,-7.6249037,6.8512774,0.591173,-0.79540515,5.3528757,0.7762958,0
1.280000000000001,15.169766310103919,-0.08654079476309114,5.999998808431226,0.5681355307824889,13.412788,0.5608626,5.5073485,0.82163876,5.0468607,-6.402985,1.0824755,-0.59827626,0.06998504,-0.13950594,-0.78594196,-7.6143494,6.891975,0.63618946,-0.77051765,5.453809,0.77155757,0
1.290000000000001,15.169766310103919,-0.08654079476309114,5.999998808431226,0.5681355307824889,13.412788,0.5608626,5.5073485,0.82163876,4.970757,-6.333828,1.089066,-0.5909476,0.093165815,-0.15334982,-0.78650105,-7.606982,6.940693,0.6815432,-0.66385865,5.539045,0.7615756,0
1.300000000000001,15.169766310103919,-0.08654079476309114,5.999998808431226,0.5681355307824889,13.412788,0.5608626,5.5073485,0.82163876,4.89471,-6.264147,1.0960976,-0.5831744,0.11629845,-0.16768518,-0.78629696,-7.602974,6.9967256,0.7243359,-0.57382727,5.610978,0.7520835,0
1.310000000000001,15.169766310103919,-0.08654079476309114,5.999998808431226,0.5681355307824889,13.412788,0.5608626,5.5073485,0.82163876,4.8186865,-6.1938686,1.1035422,-0.5749583,0.13936321,-0.18239804,-0.78532207,-7.602293,7.0600104,0.76407987,-0.49783155,5.6716857,0.7430571,0
1.320000000000001,15.262070636709405,0.41456581954931415,5.999911191516547,0.4818826013322298,12.970721,0.6257984,4.2845755,0.7055862,4.742653,-6.122922,1.111367,-0.5663007,0.16233933,-0.19738954,-0.7835724,-7.604917,7.1304355,0.8002919,-0.4336838,5.7229195,0.73447365,0
1.330000000000001,15.262070636709405,0.41456581954931415,5.999911191516547,0.4818826013322298,12.970721,0.6257984,4.2845755,0.7055862,4.666577,-6.051234,1.1195383,-0.55724585,0.18509457,-0.21272902,-0.7810008,-7.610848,7.2083187,0.8332878,-0.30137387,5.766182,0.7220789,0
1.340000000000001,15.262070636709405,0.41456581954931415,5.999911191516547,0.4818826013322298,12.970721,0.6257984,4.2845755,0.7055862,4.590425,-5.9787326,1.1280174,-0.5478366,0.20752206,-0.22846346,-0.77756864,-7.6199646,7.293056,0.8617714,-0.18969585,5.8026853,0.71029246,0
1.350000000000001,15.262070636709405,0.41456581954931415,5.999911191516547,0.4818826013322298,12.970721,0.6257984,4.2845755,0.7055862,4.5141664,-5.90535,1.1367567,-0.5380715,0.22963423,-0.24448203,-0.77328813,-7.632148,7.3844385,0.8852758,-0.095433176,5.833487,0.69908434,0
1.360000000000001,14.50402313175404,0.7882343264361581,2.70927941626936,0.4754824688222427,14.078413,0.9098632,2.3979766,0.55005115,4.4377713,-5.831022,1.1457042,-0.52794904,0.2514377,-0.2606886,-0.76817256,-7.6472907,7.4822173,0.9033514,-0.015870271,5.859477,0.6884262,1
1.370000000000001,14.50402313175404,0.7882343264361581,2.70927941626936,0.4754824688222427,14.078413,0.9098632,2.3979766,0.55005115,4.3612175,-5.755725,1.1547605,-0.5179105,0.2717306,-0.2764054,-0.76258117,-7.6638594,7.577993,0.9070731,0.12876302,5.319722,0.6816361,1
1.380000000000001,14.50402313175404,0.7882343264361581,2.70927941626936,0.4754824688222427,14.078413,0.9098632,2.3979766,0.55005115,4.284486,-5.6794453,1.1638274,-0.5083879,0.28959846,-0.29113457,-0.75691074,-7.6826787,7.6787143,0.9054983,0.25079796,4.8641305,0.67517924,1
1.390000000000001,14.50402313175404,0.7882343264361581,2.70927941626936,0.4754824688222427,14.078413,0.9098632,2.3979766,0.55005115,4.207557,-5.6021366,1.172853,-0.4993519,0.3054281,-0.30503714,-0.75120735,-7.703374,7.7837424,0.8988181,0.35376605,4.4795785,0.66903925,1
1.400000000000001,13.625766216889755,0.8292097434188361,-2.005194225314586,0.5379601935136532,14.219152,1.1367065,-3.2209237,0.52109486,4.130413,-5.5237575,1.181787,-0.4907628,0.3195433,-0.31824487,-0.7454951,-7.725628,7.8925495,0.88722193,0.4406463,4.15499,0.66320044,0
1.410000000000001,13.625766216889755,0.8292097434188361,-2.005194225314586,0.5379601935136532,14.219152,1.1367065,-3.2209237,0.52109486,4.0530434,-5.4442916,1.1905682,-0.48314634,0.33092755,-0.32998887,-0.74038005,-7.748384,8.001038,0.8683461,0.50167036,3.1943371,0.6570549,0
1.420000000000001,13.625766216889755,0.8292097434188361,-2.005194225314586,0.5379601935136532,14.219152,1.1367065,-3.2209237,0.52109486,3.9754424,-5.363728,1.199141,-0.47696656,0.33882195,-0.3397031,-0.7364123,-7.771932,8.11201,0.84571487,0.553106,2.383493,0.65121084,0
1.430000000000001,13.625766216889755,0.8292097434188361,-2.005194225314586,0.5379601935136532,14.219152,1.1367065,-3.2209237,0.52109486,3.8976038,-5.2820454,1.2074726,-0.47207502,0.34381044,-0.3477464,-0.7334921,-7.7958546,8.2248335,0.8201699,0.59646064,1.6990958,0.64565367,0
1.440000000000001,13.625766216889755,0.8292097434188361,-2.005194225314586,0.5379601935136532,13.7991495,0.9092474,-4.951235,0.5679283,3.8195252,-5.1992273,1.215537,-0.46832117,0.3463724,-0.3544072,-0.73150223,-7.8198,8.33902,0.7924523,0.6330046,1.121427,0.64036906,0
1.450000000000001,13.625766216889755,0.8292097434188361,-2.005194225314586,0.5379601935136532,13.7991495,0.9092474,-4.951235,0.5679283,3.7412086,-5.115262,1.2233162,-0.46556032,0.34690234,-0.35991824,-0.7303217,-7.8434715,8.454195,0.76320416,0.66380817,0.6338427,0.63534385,0
1.460000000000001,13.625766216889755,0.8292097434188361,-2.005194225314586,0.5379601935136532,13.7991495,0.9092474,-4.951235,0.5679283,3.6626577,-5.030141,1.2307978,-0.4636582,0.34572583,-0.3644682,-0.729833,-7.866616,8.570057,0.7329758,0.6897736,0.22229478,0.6305652,0
1.470000000000001,13.625766216889755,0.8292097434188361,-2.005194225314586,0.5379601935136532,13.7991495,0.9092474,-4.951235,0.5679283,3.5838792,-4.943859,1.237974,-0.462493,0.34311253,-0.36821064,-0.72992706,-7.8890142,8.686364,0.70223427,0.7116609,-0.12507392,0.6260211,0
1.480000000000001,13.089765672772755,0.5217939498401746,-5.67061516487458,0.6183767455055869,12.289944,0.29645234,-5.515881,0.5335554,3.504881,-4.856413,1.244842,-0.46195582,0.33928654,-0.37127125,-0.73050505,-7.91048,8.802917,0.6713729,0.73011106,-0.4182721,0.62169987,1
1.490000000000001,13.089765672772755,0.5217939498401746,-5.67061516487458,0.6183767455055869,12.289944,0.29645234,-5.515881,0.5335554,3.4256835,-4.767858,1.2513695,-0.4624005,0.33350512,-0.37294757,-0.7320305,-7.928836,8.908074,0.6341749,0.6628007,-1.2132705,0.6173746,1
1.500000000000001,13.089765672772755,0.5217939498401746,-5.67061516487458,0.6183767455055869,12.289944,0.29645234,-5.515881,0.5335554,3.3463082,-4.6782527,1.2575289,-0.46409324,0.3251782,-0.37267694,-0.73483807,-7.9459505,9.01289,0.5979184,0.60593355,-1.8842849,0.6132616,1
1.5100000000000011,13.089765672772755,0.5217939498401746,-5.67061516487458,0.6183767455055869,12.289944,0.29645234,-5.515881,0.5335554,3.266769,-4.5876026,1.2633336,-0.46681535,0.31467715,-0.37073472,-0.73865825,-7.9615793,9.116955,0.5632983,0.5578899,-2.450651,0.6093503,1
1.5200000000000011,12.825892715674083,-0.13972352224199,-5.999997352366722,0.6225743582871576,13.050545,-0.23269528,-6.2814465,0.47658324,3.187082,-4.4959173,1.2688026,-0.47036946,0.30230963,-0.3673451,-0.743248,-7.9755006,9.219892,0.53087527,0.5173015,-2.9286895,0.60563105,1
1.5300000000000011,12.825892715674083,-0.13972352224199,-5.999997352366722,0.6225743582871576,13.050545,-0.23269528,-6.2814465,0.47658324,3.1072617,-4.403178,1.2739811,-0.4745922,0.2882906,-0.36244074,-0.7485226,-7.9882627,9.327609,0.50533104,0.40051475,-3.4077065,0.59929866,1
1.5400000000000011,12.825892715674083,-0.13972352224199,-5.999997352366722,0.6225743582871576,13.050545,-0.23269528,-6.2814465,0.47658324,3.0273244,-4.309372,1.2789202,-0.4793378,0.2728015,-0.3559701,-0.7543861,-7.9988565,9.433303,0.48303628,0.30190885,-3.8120131,0.593277,1
1.5500000000000012,12.825892715674083,-0.13972352224199,-5.999997352366722,0.6225743582871576,13.050545,-0.23269528,-6.2814465,0.47658324,2.9472928,-4.214521,1.283654,-0.4844645,0.25603575,-0.34812513,-0.7606229,-8.007156,9.536533,0.46433434,0.21865398,-4.1532617,0.5875508,1
1.5600000000000012,12.605672142908286,-0.6954843863328659,-5.999998040171717,0.6450457501167846,12.853385,-0.6688855,-6.5803895,0.8244344,2.86719,-4.118652,1.2882199,-0.4898474,0.23815905,-0.33906823,-0.767047,-8.013044,9.636872,0.44946107,0.14836074,-4.4412866,0.5821056,1
1.5700000000000012,12.605672142908286,-0.6954843863328659,-5.999998040171717,0.6450457501167846,12.853385,-0.6688855,-6.5803895,0.8244344,2.7870407,-4.021803,1.2926505,-0.4953036,0.21938573,-0.3288141,-0.7735787,-8.016371,9.732431,0.43724257,0.021039983,-4.6844153,0.5939967,1
1.5800000000000012,12.605672142908286,-0.6954843863328659,-5.999998040171717,0.6450457501167846,12.853385,-0.6688855,-6.5803895,0.8244344,2.706871,-3.924016,1.2969787,-0.5006783,0.19989645,-0.317383,-0.7801469,-8.017188,9.824307,0.4290102,-0.08643823,-4.889622,0.6053043,1
1.5900000000000012,12.605672142908286,-0.6954843863328659,-5.999998040171717,0.6450457501167846,12.853385,-0.6688855,-6.5803895,0.8244344,2.626706,-3.8253307,1.3012445,-0.50590694,0.17977987,-0.30491254,-0.78661567,-8.015477,9.912088,0.42476726,-0.17716691,-5.062822,0.6160571,1
1.6000000000000012,12.253609654054042,-1.0687123341855929,-5.999997175883087,0.7172926379737605,12.823019,-1.327562,-6.075578,0.897084,2.5465703,-3.7257898,1.3054875,-0.51093304,0.15911508,-0.29152215,-0.7928702,-8.011219,9.995385,0.42444798,-0.25375676,-5.2090063,0.6262823,1
1.6100000000000012,12.253609654054042,-1.0687123341855929,-5.999997175883087,0.7172926379737605,12.823019,-1.327562,-6.075578,0.897084,2.46649,-3.6254406,1.3097452,-0.5156599,0.13810553,-0.2771079,-0.79889387,-8.004427,10.073635,0.4276902,-0.42111948,-5.332433,0.63957053,1
1.6200000000000012,12.253609654054042,-1.0687123341855929,-5.999997175883087,0.7172926379737605,12.823019,-1.327562,-6.075578,0.897084,2.3864899,-3.5243351,1.3140537,-0.5200119,0.11692142,-0.2615942,-0.8046639,-7.995167,10.146654,0.4345746,-0.5623907,-5.4366035,0.6522068,1
1.6300000000000012,12.253609654054042,-1.0687123341855929,-5.999997175883087,0.7172926379737605,12.823019,-1.327562,-6.075578,0.897084,2.3065946,-3.4225268,1.3184483,-0.5239697,0.09558515,-0.24511796,-0.8100832,-7.9835315,10.214079,0.4449072,-0.68163824,-5.524521,0.664223,1
1.6400000000000012,12.253609654054042,-1.0687123341855929,-5.999997175883087,0.7172926379737605,12.017928,-1.9865147,-6.103888,0.99404097,2.2268271,-3.3200738,1.3229628,-0.5275152,0.074119374,-0.22779891,-0.8150706,-7.9696035,10.275576,0.458446,-0.782296,-5.598721,0.6756496,1
1.6500000000000012,12.253609654054042,-1.0687123341855929,-5.999997175883087,0.7172926379737605,12.017928,-1.9865147,-6.103888,0.99404097,2.1472049,-3.2170544,1.3275915,-0.5306033,0.05268357,-0.20952754,-0.8196226,-7.954485,10.327364,0.46771833,-0.97000813,-5.6613927,0.69127315,1
1.6600000000000013,12.253609654054042,-1.0687123341855929,-5.999997175883087,0.7172926379737605,12.017928,-1.9865147,-6.103888,0.99404097,2.067744,-3.1135476,1.3323256,-0.53319967,0.031409632,-0.1902246,-0.823726,-7.937448,10.373015,0.47945908,-1.1284528,-5.7142806,0.7061301,1
1.6700000000000013,12.253609654054042,-1.0687123341855929,-5.999997175883087,0.7172926379737605,12.017928,-1.9865147,-6.103888,0.99404097,1.9884623,-3.009616,1.3371881,-0.53530073,0.0102831535,-0.1700305,-0.8273061,-7.9186506,10.412263,0.49336544,-1.2621934,-5.758911,0.72025794,1
1.6800000000000013,11.751139858623937,-1.1228105055672082,-5.999994978487121,0.9052985946590542,13.347322,-1.9906335,-5.9309416,0.8517263,1.9093767,-2.905325,1.3421992,-0.5369011,-0.010704592,-0.1490686,-0.8303008,-7.8982306,10.444876,0.5091013,-1.3750826,-5.7965736,0.7336926,0
1.6900000000000013,11.751139858623937,-1.1228105055672082,-5.999994978487121,0.9052985946590542,13.347322,-1.9906335,-5.9309416,0.8517263,1.8305005,-2.800745,1.3473625,-0.53799886,-0.031741485,-0.12773553,-0.83260536,-7.8767853,10.470087,0.5237378,-1.3356938,-5.8282857,0.74211335,0
1.7000000000000013,11.751139858623937,-1.1228105055672082,-5.999994978487121,0.9052985946590542,13.347322,-1.9906335,-5.9309416,0.8517263,1.7518461,-2.695947,1.3526776,-0.53858715,-0.052973688,-0.10635763,-0.83414865,-7.853867,10.48851,0.53939354,-1.3024513,-5.8550544,0.75012094,0
1.7100000000000013,11.751139858623937,-1.1228105055672082,-5.999994978487121,0.9052985946590542,13.347322,-1.9906335,-5.9309416,0.8517263,1.6734283,-2.5909986,1.3581525,-0.5386562,-0.07434667,-0.08494175,-0.8349283,-7.8294587,10.500074,0.55564183,-1.2743963,-5.8776503,0.75773555,0
1.7200000000000013,11.290495514849388,-0.8237779631801377,-5.602524288794483,1.1280859521992146,13.858035,-1.3174403,-5.9403257,0.9906837,1.595262,-2.485969,1.3637911,-0.5381988,-0.09581078,-0.06349686,-0.8349423,-7.803557,10.504738,0.572051,-1.2507193,-5.896724,0.76497644,0
1.7300000000000013,11.290495514849388,-0.8237779631801377,-5.602524288794483,1.1280859521992146,13.858035,-1.3174403,-5.9403257,0.9906837,1.5173569,-2.380927,1.3695704,-0.5371682,-0.11725406,-0.042216543,-0.8342169,-7.7772403,10.5025835,0.5837087,-1.1840928,-5.850825,0.7827944,0
1.7400000000000013,11.290495514849388,-0.8237779631801377,-5.602524288794483,1.1280859521992146,13.858035,-1.3174403,-5.9403257,0.9906837,1.4397221,-2.2759397,1.3754631,-0.5355334,-0.13858332,-0.021256767,-0.83279353,-7.7494974,10.49387,0.59468853,-1.1278573,-5.812086,0.799738,0
1.7500000000000013,11.290495514849388,-0.8237779631801377,-5.602524288794483,1.1280859521992146,13.858035,-1.3174403,-5.9403257,0.9906837,1.3623717,-2.171072,1.3814604,-0.5333123,-0.15978085,-0.0005773618,-0.8306901,-7.720336,10.478709,0.6045877,-1.0803925,-5.779392,0.81585014,0
1.7600000000000013,10.689977077239304,-0.4780312198374767,-3.206852368437491,1.27165199997927,13.890197,-1.0114894,-5.921296,1.324553,1.28532,-2.0663874,1.3875496,-0.5305212,-0.18082923,0.019853577,-0.82792044,-7.689773,10.457225,0.61301655,-1.0403308,-5.751798,0.8311717,0
1.7700000000000014,10.689977077239304,-0.4780312198374767,-3.206852368437491,1.27165199997927,13.890197,-1.0114894,-5.921296,1.324553,1.2085725,-1.9619416,1.3936864,-0.5271697,-0.20099464,0.03944305,-0.82470345,-7.659543,10.431067,0.6140455,-0.9527793,-5.3548813,0.8527862,0
1.7800000000000014,10.689977077239304,-0.4780312198374767,-3.206852368437491,1.27165199997927,13.890197,-1.0114894,-5.921296,1.324553,1.1321332,-1.8577847,1.3998238,-0.52332085,-0.21971013,0.057729334,-0.82129675,-7.6281185,10.3995075,0.61311316,-0.8788609,-5.0198684,0.8733401,0
1.7900000000000014,10.689977077239304,-0.4780312198374767,-3.206852368437491,1.27165199997927,13.890197,-1.0114894,-5.921296,1.324553,1.0560138,-1.7539686,1.4059414,-0.51905257,-0.23718521,0.07491337,-0.81774926,-7.595604,10.362996,0.6100659,-0.81645185,-4.7371044,0.8928854,0
1.8000000000000014,10.081380532672254,-0.179106757000275,0.10358555698356274,1.3159378068925576,13.711284,-0.59069616,-2.8412118,1.2332425,0.9802247,-1.6505407,1.4120173,-0.5144242,-0.25359672,0.091165304,-0.81409067,-7.562084,10.321924,0.60478336,-0.76375926,-4.498441,0.91147155,0
1.8100000000000014,10.081380532672254,-0.179106757000275,0.10358555698356274,1.3159378068925576,13.711284,-0.59069616,-2.8412118,1.2332425,0.90476567,-1.547532,1.4180032,-0.50958335,-0.26808202,0.10585592,-0.81070936,-7.5296087,10.27926,0.5920477,-0.6729597,-3.7807124,0.9313188,0
1.8200000000000014,10.081380532672254,-0.179106757000275,0.10358555698356274,1.3159378068925576,13.711284,-0.59069616,-2.8412118,1.2332425,0.82963496,-1.4449669,1.4238513,-0.504699,-0.27998784,0.11850955,-0.8079848,-7.4964237,10.233261,0.5772861,-0.59627134,-3.1749191,0.95019215,0
1.8300000000000014,10.081380532672254,-0.179106757000275,0.10358555698356274,1.3159378068925576,13.711284,-0.59069616,-2.8412118,1.2332425,0.7548391,-1.3428761,1.4295425,-0.49982604,-0.28972918,0.12946336,-0.80589604,-7.462682,10.184513,0.56071985,-0.53149956,-2.663604,0.9681394,0
1.8400000000000014,10.081380532672254,-0.179106757000275,0.10358555698356274,1.3159378068925576,12.626428,-0.16221759,0.9222785,1.321484,0.6803829,-1.2412845,1.4350601,-0.49499494,-0.29765192,0.13899939,-0.8044009,-7.4285035,10.133492,0.54256755,-0.47679105,-2.232033,0.98520595,0
1.8500000000000014,10.081380532672254,-0.179106757000275,0.10358555698356274,1.3159378068925576,12.626428,-0.16221759,0.9222785,1.321484,0.60627013,-1.1402127,1.4403892,-0.49022013,-0.3040444,0.14735317,-0.8034467,-7.3939867,10.080589,0.5230359,-0.4305809,-1.8677696,1.0014349,0
1.8600000000000014,10.081380532672254,-0.179106757000275,0.10358555698356274,1.3159378068925576,12.626428,-0.16221759,0.9222785,1.321484,0.532504,-1.039678,1.4455168,-0.4855057,-0.30914742,0.15472122,-0.8029769,-7.3592114,10.026125,0.5023146,-0.39154813,-1.5603162,1.0168678,0
1.8700000000000014,10.081380532672254,-0.179106757000275,0.10358555698356274,1.3159378068925576,12.626428,-0.16221759,0.9222785,1.321484,0.45908663,-0.9396946,1.4504318,-0.4808495,-0.3131622,0.16126741,-0.80293494,-7.324242,9.970362,0.4805748,-0.3585772,-1.3008133,1.0315433,0
1.8800000000000014,9.740251224166819,-0.03282980834457597,3.1127472032132633,1.2793209566574264,12.32218,-0.24286368,2.1180618,1.511295,0.38601968,-0.8402744,1.4551251,-0.47624564,-0.31625724,0.16712837,-0.8032671,-7.2891335,9.913516,0.45796803,-0.33072603,-1.0817823,1.0454986,0
1.8900000000000015,9.740251224166819,-0.03282980834457597,3.1127472032132633,1.2793209566574264,12.32218,-0.24286368,2.1180618,1.511295,0.31329826,-0.7414175,1.459576,-0.47187662,-0.31763548,0.17179894,-0.80431575,-7.255139,9.857755,0.43213296,-0.28471088,-0.42761856,1.0569724,0
1.9000000000000015,9.740251224166819,-0.03282980834457597,3.1127472032132633,1.2793209566574264,12.32218,-0.24286368,2.1180618,1.511295,0.2409166,-0.64312094,1.4637666,-0.46789443,-0.31667224,0.17489035,-0.8063531,-7.2212157,9.801527,0.40596977,-0.24581066,0.12452473,1.0678831,0
1.9100000000000015,9.740251224166819,-0.03282980834457597,3.1127472032132633,1.2793209566574264,12.32218,-0.24286368,2.1180618,1.511295,0.16887315,-0.5453873,1.4676955,-0.4642417,-0.31372562,0.17666005,-0.80922526,-7.1875234,9.745211,0.37984514,-0.21292427,0.59055775,1.0782585,0
1.9200000000000015,9.471059682992303,-0.07844721196428031,5.925627107664031,1.1772226158938859,12.174654,-0.03584081,5.076103,1.1196113,0.097164854,-0.44821596,1.4713646,-0.46086064,-0.3090934,0.1773207,-0.8127881,-7.154206,9.6891165,0.35406873,-0.18512094,0.9839102,1.0881246,0
1.9300000000000015,9.471059682992303,-0.07844721196428031,5.925627107664031,1.1772226158938859,12.174654,-0.03584081,5.076103,1.1196113,0.025782708,-0.35159552,1.4747689,-0.4579096,-0.30209965,0.17654146,-0.817243,-7.1223207,9.635077,0.3269131,-0.16903585,1.7545793,1.0924968,0
1.9400000000000015,9.471059682992303,-0.07844721196428031,5.925627107664031,1.1772226158938859,12.174654,-0.03584081,5.076103,1.1196113,-0.045284174,-0.2555112,1.4779065,-0.45549452,-0.29220656,0.17406522,-0.8227027,-7.091197,9.581962,0.30078334,-0.1553776,2.4050612,1.0966542,0
1.9500000000000015,9.471059682992303,-0.07844721196428031,5.925627107664031,1.1772226158938859,12.174654,-0.03584081,5.076103,1.1196113,-0.11604479,-0.15995164,1.4807895,-0.45348507,-0.2798262,0.17014937,-0.8289127,-7.061108,9.53019,0.27605858,-0.14377975,2.9540994,1.1006076,0
1.9600000000000015,9.432051890782574,-0.11548251108180159,5.9999870316359125,1.1066018784897629,10.876853,-0.32736075,5.617042,1.1692783,-0.18651079,-0.06490149,1.4834335,-0.4517615,-0.2653043,0.16500689,-0.8356413,-7.0323105,9.480136,0.2530232,-0.13393162,3.4175146,1.1043671,0
1.9700000000000015,9.432051890782574,-0.11548251108180159,5.9999870316359125,1.1066018784897629,10.876853,-0.32736075,5.617042,1.1692783,-0.25669688,0.02965912,1.4858547,-0.45023265,-0.24890338,0.15881173,-0.8426833,-7.0051627,9.432331,0.2315592,-0.13134438,3.8202517,1.1044768,0
1.9800000000000015,9.432051890782574,-0.11548251108180159,5.9999870316359125,1.1066018784897629,10.876853,-0.32736075,5.617042,1.1692783,-0.32662013,0.123753175,1.4880713,-0.4488168,-0.23084894,0.15170975,-0.8498559,-6.979784,9.386869,0.21210021,-0.12911524,4.160182,1.1045811,0
1.9900000000000015,9.432051890782574,-0.11548251108180159,5.9999870316359125,1.1066018784897629,10.876853,-0.32736075,5.617042,1.1692783,-0.39629942,0.2174055,1.4901036,-0.44742775,-0.2113639,0.14382713,-0.8569983,-6.956403,9.344024,0.19470158,-0.1271959,4.4471,1.1046803,0
2.0000000000000013,,,,,11.035439,-0.57823926,4.631586,1.3066335,-0.46575576,0.3106435,1.4919723,-0.44599167,-0.19064137,0.13527107,-0.86397207,-6.935234,9.304043,0.17935598,-0.12554361,4.6892734,1.1047745,0
2.010000000000001,,,,,11.035439,-0.57823926,4.631586,1.3066335,-0.53501433,0.40350088,1.4936888,-0.4444834,-0.16879022,0.1262501,-0.87063426,-6.916879,9.26792,0.16421558,-0.1778261,4.8936405,1.0992986,0
2.020000000000001,,,,,11.035439,-0.57823926,4.631586,1.3066335,-0.6041022,0.49601287,1.495263,-0.4428784,-0.14591134,0.11693668,-0.8768655,-6.901106,9.234987,0.15091254,-0.22193177,5.0661435,1.0940914,0
2.0300000000000007,,,,,11.035439,-0.57823926,4.631586,1.3066335,-0.6730461,0.58821213,1.4967128,-0.4411206,-0.12215209,0.107367374,-0.88258845,-6.8881164,9.205391,0.13929431,-0.25913978,5.2117496,1.0891398,0
2.0400000000000005,,,,,11.035439,-0.57823926,4.631586,1.3066335,-0.7418748,0.6801326,1.4980539,-0.43916404,-0.09764242,0.09757447,-0.887738,-6.8780923,9.179258,0.12917322,-0.29052916,5.3346524,1.0844312,0
2.0500000000000003,,,,,9.027705,-0.85720086,4.5044928,0.96660155,-0.8106188,0.77180964,1.4993006,-0.4369713,-0.07249749,0.087586746,-0.89225966,-6.8711934,9.156699,0.120331794,-0.31701,5.4383926,1.0799536,1
2.06,,,,,9.027705,-0.85720086,4.5044928,0.96660155,-0.8793105,0.8632814,1.5004541,-0.43447948,-0.04728642,0.07783353,-0.89606476,-6.8676314,9.138202,0.11051124,-0.40113077,5.292693,1.0743912,1
2.07,,,,,9.027705,-0.85720086,4.5044928,0.96660155,-0.9479826,0.95458573,1.5015132,-0.4316593,-0.022474857,0.06865974,-0.89913815,-6.867303,9.123187,0.10142013,-0.47215074,5.169726,1.0691019,1
2.0799999999999996,,,,,9.027705,-0.85720086,4.5044928,0.96660155,-1.0166677,1.0457568,1.502484,-0.42852756,0.0019834274,0.059974924,-0.90153295,-6.870228,9.111531,0.09278427,-0.5321104,5.065943,1.0640721,1
2.0899999999999994,,,,,9.384285,-1.23131,3.1110563,1.194571,-1.0853983,1.1368275,1.5033696,-0.42509854,0.026126917,0.05170271,-0.9032906,-6.8764153,9.103124,0.0843466,-0.5827318,4.9783516,1.0592891,1
2.099999999999999,,,,,9.384285,-1.23131,3.1110563,1.194571,-1.1542089,1.2278287,1.5041883,-0.42133045,0.049548298,0.04414968,-0.904475,-6.8862324,9.09763,0.07940378,-0.6836968,4.687075,1.0659274,1
2.109999999999999,,,,,9.384285,-1.23131,3.1110563,1.194571,-1.2231343,1.3187904,1.5049566,-0.41720203,0.071926154,0.037553553,-0.9051836,-6.899363,9.095134,0.07418189,-0.7689446,4.441233,1.07224,1
2.1199999999999988,,,,,9.384285,-1.23131,3.1110563,1.194571,-1.2922071,1.409741,1.5056703,-0.41275078,0.09340684,0.031761806,-0.90548426,-6.9157195,9.095373,0.06848061,-0.84092206,4.23374,1.0782428,1
2.1299999999999986,,,,,9.623377,-1.538426,0.070361584,0.9056642,-1.3614594,1.5007067,1.5063239,-0.40800723,0.114114866,0.026645387,-0.90542614,-6.9352217,9.098116,0.06212683,-0.90169525,4.058612,1.083951,1
2.1399999999999983,,,,,9.623377,-1.538426,0.070361584,0.9056642,-1.4309248,1.5917119,1.5069218,-0.40298986,0.1331047,0.022705039,-0.905188,-6.9583406,9.103246,0.057295438,-1.0005344,3.4365823,1.0752025,1
2.149999999999998,,,,,9.623377,-1.538426,0.070361584,0.9056642,-1.5006359,1.6827781,1.5074669,-0.39774337,0.14964046,0.020327361,-0.9049825,-6.984314,9.1102295,0.051589705,-1.084035,2.9115696,1.0668832,1
2.159999999999998,,,,,9.623377,-1.538426,0.070361584,0.9056642,-1.5706198,1.7739213,1.5079507,-0.39231873,0.16410233,0.019258756,-0.90486693,-7.012858,9.118596,0.04500776,-1.1545764,2.4684415,1.0589721,1
2.1699999999999977,,,,,8.956119,-1.6584488,-3.5323966,0.7495095,-1.6409011,1.8651534,1.5083641,-0.38675198,0.1768113,0.019285982,-0.9048687,-7.0437303,9.127945,0.037571456,-1.2141696,2.0944269,1.0514493,1
2.1799999999999975,,,,,8.956119,-1.6584488,-3.5323966,0.7495095,-1.7114912,1.9564792,1.5086706,-0.3810494,0.18677124,0.020838585,-0.90525264,-7.074514,9.137242,0.023412859,-1.2860991,1.2201449,1.0369359,1
2.1899999999999973,,,,,8.956119,-1.6584488,-3.5323966,0.7495095,-1.7823964,2.047898,1.5088298,-0.37522712,0.19317642,0.024227498,-0.9062556,-7.106733,9.146532,0.008359236,-1.3436619,0.47896197,1.0228318,1
2.199999999999997,,,,,8.956119,-1.6584488,-3.5323966,0.7495095,-1.8536297,2.1394079,1.5088365,-0.36930376,0.19657443,0.029147705,-0.90781194,-7.140087,9.155321,-0.0070886957,-1.3923372,-0.14662756,1.0094197,1
