time-since-start [s],throttle_mpc,roll_mpc,pitch_mpc,yaw_mpc,throttle_nw,roll_nw,pitch_nw,yaw_nw,position_x [m],position_y [m],position_z [m],rotation_w [quaternion],rotation_x [quaternion],rotation_y [quaternion],rotation_z [quaternion],velocity_x [m/s],velocity_y [m/s],velocity_z [m/s],omega_x [rad/s],omega_y [rad/s],omega_z [rad/s],network_used
0.0,10.268194143669119,5.999999549813319,-5.999999817882816,-2.455250111979487,16.868828,2.542334,-1.8884741,0.049077198,14.639783,-11.364639,2.5943658,-0.2731518,0.32165623,-0.36064142,-0.8317831,-9.3537445,-1.5256376,1.1111474,1.1815052,-0.4159298,-0.28763238,0
0.01,10.268194143669119,5.999999549813319,-5.999999817882816,-2.455250111979487,11.518146,-2.668367,-4.532959,1.3474823,14.546005,-11.379337,2.6053693,-0.2778144,0.3177077,-0.36483994,-0.8299234,-9.401432,-1.4143804,1.0891844,1.5132151,-0.8672824,-0.35645702,0
0.02,10.268194143669119,5.999999549813319,-5.999999817882816,-2.455250111979487,11.518146,-2.668367,-4.532959,1.3474823,14.451767,-11.392934,2.6161425,-0.28405192,0.3115997,-0.36964518,-0.8279992,-9.445717,-1.3051307,1.0651554,1.8324863,-1.2875968,-0.42542085,0
0.03,10.268194143669119,5.999999549813319,-5.999999817882816,-2.455250111979487,11.518146,-2.668367,-4.532959,1.3474823,14.357105,-11.405447,2.6266663,-0.29177612,0.30345204,-0.37501422,-0.8259224,-9.486072,-1.197744,1.0393603,2.1396217,-1.6800714,-0.49437028,0
0.04,10.268194143669119,5.999999549813319,-5.999999817882816,-2.455250111979487,11.8446665,0.5986423,-4.980968,0.5277701,14.262061,-11.416894,2.6369245,-0.30089757,0.29336774,-0.38089663,-0.823598,-9.5220375,-1.0921252,1.0120398,2.4349906,-2.0475202,-0.56316954,0
0.05,10.268194143669119,5.999999549813319,-5.999999817882816,-2.455250111979487,11.8446665,0.5986423,-4.980968,0.5277701,14.16668,-11.427294,2.6469028,-0.3113257,0.28143585,-0.38723585,-0.8209253,-9.553211,-0.98823035,0.9833806,2.7190092,-2.3924224,-0.6316988,0
0.060000000000000005,10.268194143669119,5.999999549813319,-5.999999817882816,-2.455250111979487,11.8446665,0.5986423,-4.980968,0.5277701,14.071014,-11.436665,2.656588,-0.3229684,0.26773447,-0.39397028,-0.8178,-9.5792465,-0.8860677,0.9535203,2.9921231,-2.716966,-0.6998527,0
0.07,10.268194143669119,5.999999549813319,-5.999999817882816,-2.455250111979487,11.8446665,0.5986423,-4.980968,0.5277701,13.975115,-11.445023,2.6659694,-0.33573195,0.2523331,-0.40103418,-0.81411505,-9.599844,-0.78569674,0.922551,3.2547941,-3.0230827,-0.76753867,0
0.08,12.116800660847236,5.999999660844059,-5.999999848858742,-2.603464877332101,12.741632,1.1699882,-5.0089417,0.49875754,13.879037,-11.452386,2.6750355,-0.3495208,0.23529495,-0.40835822,-0.8097622,-9.614754,-0.68722653,0.89052415,3.5074914,-3.312484,-0.8346758,0
0.09,12.116800660847236,5.999999660844059,-5.999999848858742,-2.603464877332101,12.741632,1.1699882,-5.0089417,0.49875754,13.782833,-11.458709,2.6838202,-0.36430353,0.21660316,-0.415897,-0.8046089,-9.624977,-0.5778499,0.86619794,3.7798796,-3.6159637,-0.9110768,0
0.09999999999999999,12.116800660847236,5.999999660844059,-5.999999848858742,-2.603464877332101,12.741632,1.1699882,-5.0089417,0.49875754,13.686561,-11.46395,2.6923556,-0.38003963,0.19623947,-0.42359665,-0.79851466,-9.628292,-0.47101304,0.84068495,4.042264,-3.9046283,-0.98663425,0
0.10999999999999999,12.116800660847236,5.999999660844059,-5.999999848858742,-2.603464877332101,12.741632,1.1699882,-5.0089417,0.49875754,13.590291,-11.468138,2.7006295,-0.3966153,0.17426114,-0.4313706,-0.7913587,-9.624523,-0.367,0.8139282,4.295147,-4.1797266,-1.0612948,0
0.11999999999999998,12.116800660847236,5.999999660844059,-5.999999848858742,-2.603464877332101,12.741632,1.1699882,-5.0089417,0.49875754,13.494096,-11.471301,2.7086296,-0.4139128,0.15072604,-0.43912983,-0.7830215,-9.613559,-0.26614293,0.78583604,4.539013,-4.4423733,-1.1350129,0
0.12999999999999998,15.144165984803038,5.422724268823768,-5.99999961873666,-2.5511791646581656,11.854649,1.9111851,-5.3396773,0.46030384,13.398046,-11.473472,2.7163427,-0.43180272,0.12570783,-0.44677925,-0.77339,-9.595221,-0.16817068,0.7567427,4.7656517,-4.6848726,-1.2069951,0
0.13999999999999999,15.144165984803038,5.422724268823768,-5.99999961873666,-2.5511791646581656,11.854649,1.9111851,-5.3396773,0.46030384,13.302248,-11.47455,2.7238503,-0.45006815,0.09948407,-0.45402107,-0.7625,-9.562521,-0.04801819,0.74478495,4.8677506,-4.8902555,-1.2729546,0
0.15,15.144165984803038,5.422724268823768,-5.99999961873666,-2.5511791646581656,11.854649,1.9111851,-5.3396773,0.46030384,13.206827,-11.4744425,2.7312374,-0.46850073,0.07235267,-0.46060598,-0.75040925,-9.519856,0.06916261,0.7325584,4.953948,-5.063593,-1.3356775,0
0.16,14.974448427240224,3.2741865843403715,-4.964172115582987,-1.0088057283234642,12.542677,1.2449853,-3.5924184,-0.04173608,13.111884,-11.473181,2.7384999,-0.48695037,0.04448449,-0.46649525,-0.7370769,-9.467199,0.1825867,0.71982604,5.0267243,-5.209884,-1.3953226,0
0.17,14.974448427240224,3.2741865843403715,-4.964172115582987,-1.0088057283234642,12.542677,1.2449853,-3.5924184,-0.04173608,13.017513,-11.470813,2.7456264,-0.50492823,0.016672082,-0.47125074,-0.72297436,-9.405393,0.29025882,0.705399,4.7535157,-5.171258,-1.3763561,0
0.18000000000000002,14.974448427240224,3.2741865843403715,-4.964172115582987,-1.0088057283234642,12.542677,1.2449853,-3.5924184,-0.04173608,12.923807,-11.467394,2.752605,-0.5220865,-0.01044338,-0.4745843,-0.7085802,-9.334399,0.392804,0.69012094,4.522905,-5.138703,-1.3583204,0
0.19000000000000003,14.974448427240224,3.2741865843403715,-4.964172115582987,-1.0088057283234642,12.542677,1.2449853,-3.5924184,-0.04173608,12.830853,-11.462976,2.7594259,-0.53848565,-0.03692881,-0.47666472,-0.69387305,-9.254881,0.4896776,0.6739217,4.3282495,-5.1112647,-1.3411696,0
0.20000000000000004,13.722961621238689,1.8313571958563406,-3.274066662459764,-0.7432942200636214,11.287682,0.23789494,-1.9826474,-0.4075877,12.738736,-11.457621,2.76608,-0.55417067,-0.06284198,-0.47763202,-0.6788321,-9.167474,0.5803998,0.6567238,4.1639433,-5.088138,-1.3248605,0
0.21000000000000005,13.722961621238689,1.8313571958563406,-3.274066662459764,-0.7432942200636214,11.287682,0.23789494,-1.9826474,-0.4075877,12.64749,-11.451426,2.7725232,-0.56888086,-0.087470554,-0.47759917,-0.66379386,-9.080745,0.6575511,0.63177913,3.8005116,-4.80485,-1.2963228,0
0.22000000000000006,13.722961621238689,1.8313571958563406,-3.274066662459764,-0.7432942200636214,11.287682,0.23789494,-1.9826474,-0.4075877,12.55714,-11.4444895,2.778712,-0.5824625,-0.11026457,-0.47671488,-0.64909315,-8.988176,0.72863173,0.60582674,3.4937057,-4.565804,-1.2691855,0
0.23000000000000007,13.722961621238689,1.8313571958563406,-3.274066662459764,-0.7432942200636214,11.287682,0.23789494,-1.9826474,-0.4075877,12.467743,-11.436873,2.7846365,-0.59508306,-0.13149083,-0.47512513,-0.6346986,-8.890529,0.7936736,0.57887304,3.2347038,-4.364089,-1.2433798,0
0.24000000000000007,13.722961621238689,1.8313571958563406,-3.274066662459764,-0.7432942200636214,10.026067,-0.36061773,-0.9021389,0.15654133,12.379345,-11.428637,2.7902863,-0.606876,-0.15137719,-0.4729443,-0.6205724,-8.788461,0.8527274,0.5509323,3.0160575,-4.193875,-1.2188405,0
0.25000000000000006,13.722961621238689,1.8313571958563406,-3.274066662459764,-0.7432942200636214,10.026067,-0.36061773,-0.9021389,0.15654133,12.291987,-11.419839,2.795652,-0.61794806,-0.17011745,-0.4702619,-0.60667443,-8.682544,0.905853,0.52202165,2.8314798,-4.0502415,-1.1955053,0
0.26000000000000006,13.722961621238689,1.8313571958563406,-3.274066662459764,-0.7432942200636214,10.026067,-0.36061773,-0.9021389,0.15654133,12.205706,-11.410539,2.8007233,-0.6283845,-0.1878759,-0.46714833,-0.59296536,-8.573278,0.9531132,0.49215782,2.6756625,-3.9290373,-1.173315,0
0.2700000000000001,13.722961621238689,1.8313571958563406,-3.274066662459764,-0.7432942200636214,10.026067,-0.36061773,-0.9021389,0.15654133,12.120532,-11.400796,2.8054917,-0.63825357,-0.20479137,-0.4636589,-0.5794076,-8.461113,0.9945704,0.46135506,2.5441244,-3.8267593,-1.1522138,0
0.2800000000000001,12.622764022284713,0.28085408415717705,-1.313837497225189,-0.3482939580951825,9.386973,-1.068657,-0.091832794,0.3863262,12.036492,-11.390667,2.8099475,-0.64760995,-0.2209809,-0.45983723,-0.56596667,-8.346446,1.0302843,0.42962414,2.4330823,-3.7404518,-1.1321481,0
0.2900000000000001,12.622764022284713,0.28085408415717705,-1.313837497225189,-0.3482939580951825,9.386973,-1.068657,-0.091832794,0.3863262,11.953563,-11.380221,2.8140552,-0.65625983,-0.23572451,-0.45587587,-0.55311286,-8.239023,1.0579548,0.3917382,2.0978074,-3.3617225,-1.0936842,0
0.3000000000000001,12.622764022284713,0.28085408415717705,-1.313837497225189,-0.3482939580951825,9.386973,-1.068657,-0.091832794,0.3863262,11.8717165,-11.369525,2.81778,-0.66409576,-0.24847783,-0.4519655,-0.54125994,-8.13007,1.0808349,0.3531142,1.8147551,-3.0421107,-1.0571077,0
0.3100000000000001,12.622764022284713,0.28085408415717705,-1.313837497225189,-0.3482939580951825,9.386973,-1.068657,-0.091832794,0.3863262,11.790965,-11.358621,2.8211155,-0.6712656,-0.25956598,-0.44812623,-0.5302927,-8.0199585,1.0993698,0.31387058,1.5757929,-2.772387,-1.022326,0
0.3200000000000001,12.102953608973499,-1.8388908990957369,0.9746435934906229,0.3656970898748205,9.579472,-2.059083,1.1590958,0.37329966,11.71132,-11.347551,2.8240557,-0.67788535,-0.26926124,-0.44436586,-0.52010405,-7.9089837,1.1139474,0.27411655,1.3740544,-2.5447628,-0.9892511,0
0.3300000000000001,12.102953608973499,-1.8388908990957369,0.9746435934906229,0.3656970898748205,9.579472,-2.059083,1.1590958,0.37329966,11.632764,-11.336357,2.8265843,-0.68383265,-0.2767833,-0.44084993,-0.5112872,-7.8019905,1.1245142,0.23158704,0.8734391,-1.995552,-0.9227634,0
0.34000000000000014,12.102953608973499,-1.8388908990957369,0.9746435934906229,0.3656970898748205,9.579472,-2.059083,1.1590958,0.37329966,11.555281,-11.325071,2.828687,-0.689039,-0.281542,-0.43772978,-0.5043326,-7.6946893,1.1323556,0.18891743,0.45079526,-1.532078,-0.85953826,0
0.35000000000000014,12.102953608973499,-1.8388908990957369,0.9746435934906229,0.3656970898748205,9.579472,-2.059083,1.1590958,0.37329966,11.47887,-11.313717,2.830363,-0.6936452,-0.2839969,-0.43497327,-0.49899858,-7.5873137,1.1381797,0.14635569,0.093984395,-1.1409522,-0.7994155,0
0.36000000000000015,13.13969621108993,-4.050389499983399,3.2568437506223447,0.583995790902743,9.069706,-2.2146926,2.5353346,0.5505889,11.403533,-11.302313,2.831615,-0.6977535,-0.28452873,-0.43253982,-0.49506766,-7.4800367,1.1425914,0.10411461,-0.20724387,-0.81087637,-0.7422431,0
0.37000000000000016,13.13969621108993,-4.050389499983399,3.2568437506223447,0.583995790902743,9.069706,-2.2146926,2.5353346,0.5505889,11.329314,-11.290867,2.8324711,-0.70128226,-0.28239533,-0.43057993,-0.49300724,-7.363834,1.146475,0.06722678,-0.80626446,-0.176261,-0.6771642,0
0.38000000000000017,13.13969621108993,-4.050389499983399,3.2568437506223447,0.583995790902743,9.069706,-2.2146926,2.5353346,0.5505889,11.256255,-11.279383,2.8329625,-0.7041534,-0.27701816,-0.42920464,-0.4931647,-7.2481084,1.1503798,0.031234358,-1.3119612,0.3593011,-0.61527866,0
0.3900000000000002,13.13969621108993,-4.050389499983399,3.2568437506223447,0.583995790902743,9.069706,-2.2146926,2.5353346,0.5505889,11.184349,-11.267856,2.8330998,-0.70642245,-0.26890188,-0.428308,-0.49518734,-7.133075,1.1552287,-0.003551811,-1.7388669,0.8112767,-0.5564299,0
0.4000000000000002,16.26757172508963,-5.781848675367877,5.075382877478503,1.0092062595145694,10.108976,-2.5762827,4.1002326,0.55026054,11.11359,-11.256272,2.8328962,-0.7081161,-0.258465,-0.42778707,-0.49876332,-7.018937,1.161804,-0.036892515,-2.0992522,1.1927162,-0.50046885,0
0.4100000000000002,16.26757172508963,-5.781848675367877,5.075382877478503,1.0092062595145694,10.108976,-2.5762827,4.1002326,0.55026054,11.044101,-11.2446,2.8324459,-0.7090763,-0.24522206,-0.42769772,-0.5041338,-6.8790073,1.1729672,-0.052792188,-2.6734395,1.7982756,-0.42638862,0
0.4200000000000002,16.26757172508963,-5.781848675367877,5.075382877478503,1.0092062595145694,10.108976,-2.5762827,4.1002326,0.55026054,10.976003,-11.232798,2.8318477,-0.7091233,-0.2287923,-0.4280498,-0.51144,-6.740853,1.1882871,-0.06639664,-3.158157,2.3093293,-0.35594356,0
0.4300000000000002,16.26757172508963,-5.781848675367877,5.075382877478503,1.0092062595145694,10.108976,-2.5762827,4.1002326,0.55026054,10.909276,-11.220817,2.8311262,-0.7082257,-0.20963882,-0.42868474,-0.52028507,-6.604945,1.2088426,-0.07751146,-3.5673392,2.740634,-0.28895527,0
0.4400000000000002,16.26757172508963,-5.781848675367877,5.075382877478503,1.0092062595145694,11.888436,-3.0758896,5.0351977,0.71572,10.843895,-11.2086,2.8303065,-0.70634377,-0.18815468,-0.42945957,-0.5303208,-6.471801,1.2355233,-0.086059585,-3.9127502,3.1046402,-0.2252541,0
0.45000000000000023,16.26757172508963,-5.781848675367877,5.075382877478503,1.0092062595145694,11.888436,-3.0758896,5.0351977,0.71572,10.779829,-11.196082,2.8294137,-0.7034369,-0.1646772,-0.4302482,-0.54124284,-6.3419795,1.2690467,-0.09206988,-4.2043242,3.4118536,-0.16467877,0
0.46000000000000024,16.26757172508963,-5.781848675367877,5.075382877478503,1.0092062595145694,11.888436,-3.0758896,5.0351977,0.71572,10.717042,-11.183192,2.828473,-0.6994686,-0.13949876,-0.43094134,-0.5527863,-6.2160788,1.3099724,-0.09566564,-4.450448,3.67114,-0.107075855,0
0.47000000000000025,16.26757172508963,-5.781848675367877,5.075382877478503,1.0092062595145694,11.888436,-3.0758896,5.0351977,0.71572,10.655492,-11.169854,2.8275077,-0.69440836,-0.112875015,-0.43144575,-0.5647213,-6.0947237,1.3587146,-0.09705322,-4.6582026,3.8899794,-0.052299544,0
0.48000000000000026,18.74341921929522,-5.999995899247523,5.713773707740119,1.590171783002551,13.366403,-4.190093,4.4101596,-0.117041424,10.59513,-11.15599,2.8265383,-0.68823296,-0.085031345,-0.43168277,-0.57684875,-5.978557,1.4155513,-0.09651091,-4.8335667,4.0746846,-0.00021115784,0
0.49000000000000027,18.74341921929522,-5.999995899247523,5.713773707740119,1.590171783002551,13.366403,-4.190093,4.4101596,-0.117041424,10.535986,-11.141466,2.825659,-0.6807777,-0.05599022,-0.43170363,-0.5890994,-5.8514423,1.4905598,-0.07913003,-5.0156903,4.3300447,0.07782941,0
0.5000000000000002,18.74341921929522,-5.999995899247523,5.713773707740119,1.590171783002551,13.366403,-4.190093,4.4101596,-0.117041424,10.478076,-11.126145,2.8249605,-0.67189246,-0.025790557,-0.43153623,-0.6013911,-5.731855,1.5752584,-0.0604221,-5.1694226,4.545579,0.15204047,0
0.5100000000000002,18.74341921929522,-5.999995899247523,5.713773707740119,1.590171783002551,13.366403,-4.190093,4.4101596,-0.117041424,10.421321,-11.109929,2.8244534,-0.66158515,0.0053540934,-0.43108964,-0.61354506,-5.620597,1.6696924,-0.040954694,-5.2991853,4.7275023,0.22260998,0
0.5200000000000002,19.456360365645565,-5.566874724600656,4.7475983427208766,1.2243891074982163,13.977118,-3.6721637,3.9321856,-0.022086814,10.365633,-11.092718,2.824142,-0.64986926,0.037251323,-0.43028903,-0.6254064,-5.5184526,1.7737459,-0.021339566,-5.4087114,4.881058,0.28971666,0
0.5300000000000002,19.456360365645565,-5.566874724600656,4.7475983427208766,1.2243891074982163,13.977118,-3.6721637,3.9321856,-0.022086814,10.310936,-11.074399,2.8240473,-0.6369726,0.06939167,-0.42893493,-0.63676137,-5.422646,1.8914392,0.0022512698,-5.433518,4.8600783,0.33558133,0
0.5400000000000003,19.456360365645565,-5.566874724600656,4.7475983427208766,1.2243891074982163,13.977118,-3.6721637,3.9321856,-0.022086814,10.257143,-11.054857,2.8241837,-0.6231192,0.101355016,-0.4268912,-0.64746654,-5.3376656,2.0182202,0.024750108,-5.454449,4.8423777,0.3791954,0
0.5500000000000003,19.456360365645565,-5.566874724600656,4.7475983427208766,1.2243891074982163,13.977118,-3.6721637,3.9321856,-0.022086814,10.204144,-11.034005,2.824537,-0.6083224,0.13309976,-0.42418674,-0.65749025,-5.2640142,2.1533737,0.045596305,-5.472109,4.827445,0.42066932,0
0.5600000000000003,18.02247409684777,-4.12882751409207,3.117278207491292,1.0149358437912943,13.704835,-3.458317,3.1747158,-0.5132,10.151822,-11.011763,2.825088,-0.5925986,0.16458529,-0.42084748,-0.6668024,-5.2021337,2.2961395,0.06423541,-5.4870076,4.814848,0.46010807,0
0.5700000000000003,18.02247409684777,-4.12882751409207,3.117278207491292,1.0149358437912943,13.704835,-3.458317,3.1747158,-0.5132,10.1000395,-10.988113,2.8257701,-0.57637113,0.19501163,-0.41690373,-0.6752463,-5.1560106,2.434657,0.07174501,-5.2752013,4.550082,0.48733366,0
0.5800000000000003,18.02247409684777,-4.12882751409207,3.117278207491292,1.0149358437912943,13.704835,-3.458317,3.1747158,-0.5132,10.048663,-10.963051,2.8265133,-0.5600468,0.2237612,-0.41243172,-0.6827724,-5.1209903,2.5784729,0.07640456,-5.096427,4.326608,0.5132233,0
0.5900000000000003,18.02247409684777,-4.12882751409207,3.117278207491292,1.0149358437912943,13.704835,-3.458317,3.1747158,-0.5132,9.9975815,-10.936528,2.8272877,-0.5436129,0.2510449,-0.4075088,-0.6894908,-5.0968437,2.7266343,0.077979356,-4.9455338,4.1379843,0.5378425,0
0.6000000000000003,15.41956044170877,-2.332825277879083,1.1429942884844497,0.72620924464187,13.104691,-2.4844484,2.605269,-0.27081025,9.946689,-10.908506,2.8280616,-0.5270537,0.27704138,-0.40219522,-0.6954862,-5.0833416,2.8782833,0.07626909,-4.818174,3.9787765,0.5612536,0
0.6100000000000003,15.41956044170877,-2.332825277879083,1.1429942884844497,0.72620924464187,13.104691,-2.4844484,2.605269,-0.27081025,9.895875,-10.8790655,2.8287337,-0.5109096,0.30099595,-0.3966258,-0.700757,-5.080638,3.0103269,0.05770973,-4.4304423,3.5366557,0.569348,0
0.6200000000000003,15.41956044170877,-2.332825277879083,1.1429942884844497,0.72620924464187,13.104691,-2.4844484,2.605269,-0.27081025,9.845048,-10.848295,2.8292058,-0.49566314,0.32235345,-0.39095417,-0.70537984,-5.0861716,3.1439545,0.03631527,-4.1031976,3.163466,0.5770452,0
0.6300000000000003,15.41956044170877,-2.332825277879083,1.1429942884844497,0.72620924464187,13.104691,-2.4844484,2.605269,-0.27081025,9.794127,-10.816183,2.8294506,-0.48120725,0.34151953,-0.3852377,-0.7095037,-5.099276,3.278556,0.012257631,-3.8270042,2.84846,0.5843647,0
0.6400000000000003,15.41956044170877,-2.332825277879083,1.1429942884844497,0.72620924464187,12.857904,-1.5490173,2.1698802,-0.16652735,9.74304,-10.782722,2.8294423,-0.46743843,0.35883456,-0.37951335,-0.7132379,-5.1193705,3.4136455,-0.014292605,-3.5938985,2.5825658,0.59132504,0
0.6500000000000004,15.41956044170877,-2.332825277879083,1.1429942884844497,0.72620924464187,12.857904,-1.5490173,2.1698802,-0.16652735,9.691719,-10.74791,2.8291564,-0.45426005,0.37458372,-0.37380373,-0.7166625,-5.1459494,3.548831,-0.04317373,-3.397159,2.3581266,0.5979439,0
0.6600000000000004,15.41956044170877,-2.332825277879083,1.1429942884844497,0.72620924464187,12.857904,-1.5490173,2.1698802,-0.16652735,9.6401005,-10.711746,2.828571,-0.44158417,0.38900587,-0.36812156,-0.719836,-5.1785765,3.6837933,-0.07423704,-3.2311122,2.1686788,0.6042379,0
0.6700000000000004,15.41956044170877,-2.332825277879083,1.1429942884844497,0.72620924464187,12.857904,-1.5490173,2.1698802,-0.16652735,9.588128,-10.674236,2.8276649,-0.4293322,0.40230092,-0.3624728,-0.7228006,-5.216873,3.8182683,-0.107348606,-3.09097,2.0087667,0.61022305,0
0.6800000000000004,13.583425398133171,-0.6558818965343945,-0.6783612408016717,0.44008301436004454,12.85353,-1.1056277,1.8375812,1.0868387,9.535746,-10.635385,2.8264177,-0.41743466,0.41463622,-0.35685882,-0.72558695,-5.2605124,3.9520333,-0.14238971,-2.9726913,1.8737859,0.6159145,0
0.6900000000000004,13.583425398133171,-0.6558818965343945,-0.6783612408016717,0.44008301436004454,12.85353,-1.1056277,1.8375812,1.0868387,9.482929,-10.595279,2.8247743,-0.40640062,0.4253618,-0.35145319,-0.72827613,-5.303361,4.069081,-0.18651487,-2.6112182,1.4759398,0.6072864,0
0.7000000000000004,13.583425398133171,-0.6558818965343945,-0.6783612408016717,0.44008301436004454,12.85353,-1.1056277,1.8375812,1.0868387,9.429666,-10.554008,2.8226829,-0.39665103,0.43399283,-0.3464128,-0.73096913,-5.3500705,4.18523,-0.23191331,-2.3061457,1.1401106,0.5990817,0
0.7100000000000004,13.583425398133171,-0.6558818965343945,-0.6783612408016717,0.44008301436004454,12.85353,-1.1056277,1.8375812,1.0868387,9.375917,-10.511579,2.8201325,-0.38800472,0.4408753,-0.3417064,-0.7337012,-5.400087,4.300423,-0.278254,-2.0486727,0.85663176,0.5912795,0
0.7200000000000004,12.487095005649852,1.005325532795288,-2.123832317608777,0.18503488916417346,11.346992,-0.49762923,1.121457,0.46679905,9.321654,-10.468002,2.8171153,-0.38030216,0.44629565,-0.33730018,-0.73649067,-5.4529457,4.414636,-0.32524925,-1.8313727,0.61734295,0.5838603,0
0.7300000000000004,12.487095005649852,1.005325532795288,-2.123832317608777,0.18503488916417346,11.346992,-0.49762923,1.121457,0.46679905,9.266872,-10.423334,2.8136053,-0.37392142,0.4498263,-0.33341953,-0.7393713,-5.5037518,4.5187364,-0.3767191,-1.388826,0.19004452,0.5642898,0
0.7400000000000004,12.487095005649852,1.005325532795288,-2.123832317608777,0.18503488916417346,11.346992,-0.49762923,1.121457,0.46679905,9.211574,-10.377629,2.8095803,-0.36915997,0.45114747,-0.3302456,-0.74237734,-5.556197,4.6220193,-0.428186,-1.0153286,-0.17065337,0.5456796,0
0.7500000000000004,12.487095005649852,1.005325532795288,-2.123832317608777,0.18503488916417346,11.346992,-0.49762923,1.121457,0.46679905,9.155744,-10.330895,2.8050427,-0.36577582,0.4506165,-0.3276815,-0.74550456,-5.6097183,4.72459,-0.4793029,-0.7001059,-0.47513038,0.52798265,0
0.7600000000000005,11.918055888787727,2.164706602936629,-3.3261972384872784,-0.05789621593116568,10.741503,0.35796112,0.48055798,0.26049694,9.099376,-10.283139,2.7999969,-0.36355898,0.44852766,-0.32563835,-0.7487368,-5.6638403,4.826547,-0.5297771,-0.43406436,-0.73214823,0.5111541,0
0.7700000000000005,11.918055888787727,2.164706602936629,-3.3261972384872784,-0.05789621593116568,10.741503,0.35796112,0.48055798,0.26049694,9.0424795,-10.234389,2.7944393,-0.36271456,0.4446042,-0.32419592,-0.7521047,-5.715657,4.9233623,-0.58155584,-0.028673165,-1.1365529,0.48323065,0
0.7800000000000005,11.918055888787727,2.164706602936629,-3.3261972384872784,-0.05789621593116568,10.741503,0.35796112,0.48055798,0.26049694,8.985065,-10.184673,2.7883697,-0.36339062,0.43863204,-0.32340762,-0.7556162,-5.767114,5.019795,-0.6321507,0.31346527,-1.4779242,0.4566774,0
0.7900000000000005,11.918055888787727,2.164706602936629,-3.3261972384872784,-0.05789621593116568,10.741503,0.35796112,0.48055798,0.26049694,8.927141,-10.133993,2.7818012,-0.36534,0.43091592,-0.32316047,-0.75921315,-5.817706,5.115944,-0.6812651,0.6022221,-1.7660854,0.43142712,0
0.8000000000000005,12.019297917601964,2.6510906121333124,-3.833547926774754,-0.23356772332339665,10.731109,1.1139071,-0.37048286,0.3653483,8.868716,-10.082354,2.7747502,-0.36835018,0.42170858,-0.32335454,-0.7628374,-5.8669934,5.2118783,-0.72866166,0.8459278,-2.0093286,0.40741587,0
0.8100000000000005,12.019297917601964,2.6510906121333124,-3.833547926774754,-0.23356772332339665,10.731109,1.1139071,-0.37048286,0.3653483,8.809805,-10.029752,2.7672367,-0.37240204,0.4110002,-0.3239663,-0.76644665,-5.9149857,5.308454,-0.7737003,1.1274706,-2.2937627,0.3759626,0
0.8200000000000005,12.019297917601964,2.6510906121333124,-3.833547926774754,-0.23356772332339665,10.731109,1.1139071,-0.37048286,0.3653483,8.750423,-9.976185,2.7592833,-0.37746575,0.39878818,-0.32496616,-0.7699894,-5.9608407,5.404881,-0.8166216,1.365088,-2.5338593,0.34605274,0
0.8300000000000005,12.019297917601964,2.6510906121333124,-3.833547926774754,-0.23356772332339665,10.731109,1.1139071,-0.37048286,0.3653483,8.690596,-9.921656,2.7509122,-0.3833575,0.3852772,-0.32626435,-0.77340096,-6.004158,5.501154,-0.85727215,1.5656345,-2.7365286,0.31761056,0
0.8400000000000005,12.019297917601964,2.6510906121333124,-3.833547926774754,-0.23356772332339665,10.61449,1.2094873,-0.62615985,0.43631837,8.630349,-9.866165,2.742146,-0.38992015,0.3706406,-0.32778332,-0.776624,-6.044585,5.597236,-0.89554715,1.7348952,-2.9076037,0.29056406,0
0.8500000000000005,12.019297917601964,2.6510906121333124,-3.833547926774754,-0.23356772332339665,10.61449,1.2094873,-0.62615985,0.43631837,8.5697155,-9.809713,2.7330093,-0.39701948,0.35502595,-0.3294567,-0.7796084,-6.08181,5.6930614,-0.9313839,1.8777517,-3.0520084,0.26484478,0
0.8600000000000005,12.019297917601964,2.6510906121333124,-3.833547926774754,-0.23356772332339665,10.61449,1.2094873,-0.62615985,0.43631837,8.508726,-9.752305,2.7235267,-0.40454087,0.3385597,-0.3312279,-0.7823113,-6.1155577,5.7885413,-0.964757,1.9983239,-3.1739,0.24038751,0
0.8700000000000006,12.019297917601964,2.6510906121333124,-3.833547926774754,-0.23356772332339665,10.61449,1.2094873,-0.62615985,0.43631837,8.447417,-9.693944,2.7137225,-0.41238648,0.32135075,-0.33304894,-0.78469634,-6.145585,5.8835645,-0.99567324,2.100089,-3.2767875,0.2171304,0
0.8800000000000006,12.12825958216652,2.3231922715886997,-3.6696191826604516,-0.30904056728615237,11.43498,1.0616835,-0.5035669,0.25350276,8.385828,-9.634637,2.7036214,-0.42047274,0.30349344,-0.33487928,-0.7867332,-6.1716805,5.978003,-1.0241675,2.1859815,-3.3636334,0.1950145,0
0.8900000000000006,12.12825958216652,2.3231922715886997,-3.6696191826604516,-0.30904056728615237,11.43498,1.0616835,-0.5035669,0.25350276,8.3239975,-9.574384,2.6932504,-0.42867523,0.2851805,-0.33660707,-0.78841877,-6.1938653,6.072564,-1.0496475,2.2073307,-3.4113848,0.17028038,0
0.9000000000000006,12.12825958216652,2.3231922715886997,-3.6696191826604516,-0.30904056728615237,11.43498,1.0616835,-0.5035669,0.25350276,8.261966,-9.513188,2.6826363,-0.43689758,0.26657516,-0.33814463,-0.7897565,-6.2117944,6.1662297,-1.0728284,2.2253509,-3.451688,0.14675999,0
0.9100000000000006,12.12825958216652,2.3231922715886997,-3.6696191826604516,-0.30904056728615237,11.43498,1.0616835,-0.5035669,0.25350276,8.199777,-9.451062,2.6718016,-0.4451109,0.24771349,-0.3394934,-0.7907322,-6.225391,6.258834,-1.0938104,2.2405617,-3.4857056,0.12439374,0
0.9200000000000006,12.292148541862348,1.4661698265583774,-2.9851436708210284,-0.28021167477180214,11.197349,0.48887295,-0.2200536,0.314559,8.137473,-9.388017,2.6607673,-0.45328972,0.2286276,-0.34065503,-0.79133487,-6.2345924,6.350208,-1.1127045,2.2534018,-3.5144172,0.10312499,0
0.9300000000000006,12.292148541862348,1.4661698265583774,-2.9851436708210284,-0.28021167477180214,11.197349,0.48887295,-0.2200536,0.314559,8.075099,-9.324057,2.6495595,-0.46124172,0.20971936,-0.34148753,-0.791618,-6.2394357,6.441403,-1.1285383,2.130586,-3.431912,0.08431454,0
0.9400000000000006,12.292148541862348,1.4661698265583774,-2.9851436708210284,-0.28021167477180214,11.197349,0.48887295,-0.2200536,0.314559,8.012699,-9.259193,2.6382027,-0.4688295,0.19131751,-0.34188905,-0.79164845,-6.2399173,6.531033,-1.1425316,2.0269272,-3.362268,0.06642713,0
0.9500000000000006,12.292148541862348,1.4661698265583774,-2.9851436708210284,-0.28021167477180214,11.197349,0.48887295,-0.2200536,0.314559,7.9503155,-9.193441,2.6267145,-0.47610453,0.17334862,-0.34191462,-0.79143417,-6.236191,6.618967,-1.1548318,1.9394381,-3.3034809,0.04941746,0
0.9600000000000006,11.99693987474265,0.26722745804885123,-2.125318380346889,-0.1297901905576246,11.370061,-0.08564505,0.41380733,0.25858805,7.8879895,-9.12682,2.6151114,-0.48310795,0.1557499,-0.3416105,-0.79098034,-6.2283916,6.705083,-1.165575,1.8655962,-3.2538583,0.033242453,0
0.9700000000000006,11.99693987474265,0.26722745804885123,-2.125318380346889,-0.1297901905576246,11.370061,-0.08564505,0.41380733,0.25858805,7.8257604,-9.059357,2.6033974,-0.48967168,0.13896737,-0.340808,-0.7904167,-6.2169557,6.7872524,-1.1770232,1.6163113,-3.0778773,0.025242401,0
0.9800000000000006,11.99693987474265,0.26722745804885123,-2.125318380346889,-0.1297901905576246,11.370061,-0.08564505,0.41380733,0.25858805,7.763663,-8.991081,2.5915754,-0.49568203,0.123356916,-0.3393866,-0.78987217,-6.2020063,6.8674793,-1.1871935,1.4059055,-2.9293365,0.017634915,0
0.9900000000000007,11.99693987474265,0.26722745804885123,-2.125318380346889,-0.1297901905576246,11.370061,-0.08564505,0.41380733,0.25858805,7.701731,-8.922014,2.5796576,-0.5012387,0.108745545,-0.3374449,-0.7893441,-6.183874,6.945722,-1.1961826,1.2283146,-2.8039582,0.010400714,0
1.0000000000000007,11.748398239838803,-0.9625677225595075,-1.0801267686839702,0.11683474581656175,11.202714,-1.2649871,1.1083521,0.641886,7.6399956,-8.852175,2.5676553,-0.5064217,0.094985,-0.33506426,-0.7888256,-6.162838,7.021951,-1.2040707,1.0784209,-2.6981304,0.0035214988,0
1.0100000000000007,11.748398239838803,-0.9625677225595075,-1.0801267686839702,0.11683474581656175,11.202714,-1.2649871,1.1083521,0.641886,7.5784817,-8.7815895,2.5555701,-0.51108927,0.082518764,-0.332141,-0.788454,-6.139661,7.0946155,-1.2128156,0.7601381,-2.4458015,0.009081819,0
1.0200000000000007,11.748398239838803,-0.9625677225595075,-1.0801267686839702,0.11683474581656175,11.202714,-1.2649871,1.1083521,0.641886,7.51721,-8.710287,2.5434024,-0.5151441,0.07169295,-0.32860377,-0.78835595,-6.1143193,7.165342,-1.2205975,0.49148953,-2.2328253,0.014369281,0
1.0300000000000007,11.748398239838803,-0.9625677225595075,-1.0801267686839702,0.11683474581656175,11.202714,-1.2649871,1.1083521,0.641886,7.456201,-8.638288,2.5311615,-0.5186998,0.062257897,-0.32455543,-0.7885031,-6.0872254,7.234199,-1.2274474,0.26473522,-2.053064,0.01939729,0
1.0400000000000007,11.748398239838803,-0.9625677225595075,-1.0801267686839702,0.11683474581656175,11.012085,-2.473664,1.8741751,1.0991232,7.3954706,-8.56561,2.5188565,-0.5218466,0.05400102,-0.32007998,-0.7888649,-6.058726,7.3012505,-1.2333851,0.07334215,-1.9013373,0.02417858,0
1.0500000000000007,11.748398239838803,-0.9625677225595075,-1.0801267686839702,0.11683474581656175,11.012085,-2.473664,1.8741751,1.0991232,7.33503,-8.49227,2.5064967,-0.5246563,0.046741623,-0.31524634,-0.789411,-6.0291114,7.3665543,-1.2384233,-0.08820423,-1.7732728,0.028725237,0
1.0600000000000007,11.748398239838803,-0.9625677225595075,-1.0801267686839702,0.11683474581656175,11.012085,-2.473664,1.8741751,1.0991232,7.2748914,-8.418285,2.494091,-0.5271863,0.04032633,-0.3101112,-0.7901129,-5.998627,7.430161,-1.2425712,-0.22455803,-1.6651802,0.033048797,0
1.0700000000000007,11.748398239838803,-0.9625677225595075,-1.0801267686839702,0.11683474581656175,11.012085,-2.473664,1.8741751,1.0991232,7.2150607,-8.343673,2.4816482,-0.52948254,0.034625072,-0.30472142,-0.7909444,-5.9674807,7.492115,-1.2458359,-0.33964792,-1.5739447,0.037160207,0
1.0800000000000007,11.77268798121339,-1.9887848548122287,-0.06793624719690823,0.44493520070577436,11.709322,-2.785351,2.2270224,1.3656646,7.155544,-8.268449,2.4691772,-0.5315821,0.029527629,-0.29911602,-0.7918819,-5.9358473,7.5524535,-1.248224,-0.4367901,-1.4969376,0.041069865,0
1.0900000000000007,11.77268798121339,-1.9887848548122287,-0.06793624719690823,0.44493520070577436,11.709322,-2.785351,2.2270224,1.3656646,7.0963454,-8.192628,2.4566877,-0.5333516,0.025468087,-0.29321912,-0.7930378,-5.903836,7.611341,-1.2495413,-0.67881215,-1.2741008,0.06088765,0
1.1000000000000008,11.77268798121339,-1.9887848548122287,-0.06793624719690823,0.44493520070577436,11.709322,-2.785351,2.2270224,1.3656646,7.0374675,-8.116225,2.4441895,-0.53468704,0.022785377,-0.286973,-0.7945037,-5.8718204,7.6687574,-1.24998,-0.88309556,-1.0860189,0.07973297,0
1.1100000000000008,11.77268798121339,-1.9887848548122287,-0.06793624719690823,0.44493520070577436,11.709322,-2.785351,2.2270224,1.3656646,6.978908,-8.039256,2.4316914,-0.53565305,0.021264864,-0.28043073,-0.79622936,-5.840116,7.7248163,-1.2495326,-1.0555245,-0.92727065,0.09765354,0
1.1200000000000008,12.136298982983735,-2.8889456611339077,0.8293432187604484,0.7638832784209572,11.933444,-3.46175,2.9325445,1.8719447,6.9206634,-7.9617333,2.419202,-0.536301,0.020724982,-0.27363604,-0.79816914,-5.8089886,7.779611,-1.2481941,-1.2010657,-0.7932805,0.11469475,0
1.1300000000000008,12.136298982983735,-2.8889456611339077,0.8293432187604484,0.7638832784209572,11.933444,-3.46175,2.9325445,1.8719447,6.8627305,-7.8836603,2.4067461,-0.53653514,0.021481529,-0.26653033,-0.80039316,-5.777752,7.834885,-1.2428641,-1.464297,-0.5402831,0.14655063,0
1.1400000000000008,12.136298982983735,-2.8889456611339077,0.8293432187604484,0.7638832784209572,11.933444,-3.46175,2.9325445,1.8719447,6.8051043,-7.80504,2.3943481,-0.5362753,0.023776328,-0.25906682,-0.80294883,-5.7477307,7.8890815,-1.2366083,-1.686484,-0.32674488,0.17684332,0
1.1500000000000008,12.136298982983735,-2.8889456611339077,0.8293432187604484,0.7638832784209572,11.933444,-3.46175,2.9325445,1.8719447,6.7477703,-7.7258816,2.3820171,-0.53557783,0.027367748,-0.25129363,-0.8057654,-5.719284,7.94233,-1.2294277,-1.874025,-0.14651023,0.20564951,0
1.1600000000000008,12.938321191572662,-3.5177170922709826,1.3573643883866213,1.0669918212030274,12.751184,-3.9200919,3.5221372,2.3775325,6.690712,-7.646196,2.3697627,-0.5344872,0.03205137,-0.24325083,-0.8087794,-5.692717,7.994732,-1.2213355,-2.0323217,0.005616028,0.23304217,0
1.1700000000000008,12.938321191572662,-3.5177170922709826,1.3573643883866213,1.0669918212030274,12.751184,-3.9200919,3.5221372,2.3775325,6.6339164,-7.565973,2.3576288,-0.53294826,0.037950564,-0.23488188,-0.812007,-5.666695,8.049782,-1.205279,-2.264006,0.21632524,0.27396432,0
1.1800000000000008,12.938321191572662,-3.5177170922709826,1.3573643883866213,1.0669918212030274,12.751184,-3.9200919,3.5221372,2.3775325,6.5773683,-7.4852033,2.3456602,-0.5309092,0.04515277,-0.226141,-0.8154483,-5.6433306,8.104114,-1.1883076,-2.4595628,0.39417273,0.3128784,0
1.1900000000000008,12.938321191572662,-3.5177170922709826,1.3573643883866213,1.0669918212030274,12.751184,-3.9200919,3.5221372,2.3775325,6.5210395,-7.4038935,2.333866,-0.52840614,0.053449508,-0.21707404,-0.81902874,-5.6229634,8.157804,-1.1704693,-2.6246247,0.54428524,0.34988296,0
1.2000000000000008,13.874386918895048,-3.765951916924795,1.5559142735868194,1.288076518875274,13.496402,-4.4183154,3.443986,2.7894788,6.464898,-7.3220496,2.3222537,-0.5254684,0.06266395,-0.20772025,-0.82268316,-5.605885,8.210901,-1.1518303,-2.7639458,0.6709896,0.3850717,0
1.2100000000000009,13.874386918895048,-3.765951916924795,1.5559142735868194,1.288076518875274,13.496402,-4.4183154,3.443986,2.7894788,6.408915,-7.2396584,2.310874,-0.5220742,0.07275784,-0.19807498,-0.82638377,-5.591369,8.267233,-1.1239758,-2.9202657,0.8088699,0.42938238,0
1.2200000000000009,13.874386918895048,-3.765951916924795,1.5559142735868194,1.288076518875274,13.496402,-4.4183154,3.443986,2.7894788,6.353057,-7.156707,2.2997763,-0.5182015,0.08369132,-0.18813615,-0.8301005,-5.580928,8.322973,-1.0954566,-3.0522077,0.92525053,0.47151875,0
1.2300000000000009,13.874386918895048,-3.765951916924795,1.5559142735868194,1.288076518875274,13.496402,-4.4183154,3.443986,2.7894788,6.2972813,-7.073201,2.2889667,-0.51387215,0.09532322,-0.17793943,-0.8337778,-5.5748086,8.378118,-1.0663953,-3.1635723,1.0234857,0.5115875,0
1.2400000000000009,13.874386918895048,-3.765951916924795,1.5559142735868194,1.288076518875274,13.723281,-4.466776,3.1668572,3.0731966,6.2415447,-6.989147,2.2784498,-0.50910544,0.10753332,-0.16751628,-0.83736813,-5.5732174,8.432639,-1.03693,-3.2575681,1.1064056,0.54969007,0
1.2500000000000009,13.874386918895048,-3.765951916924795,1.5559142735868194,1.288076518875274,13.723281,-4.466776,3.1668572,3.0731966,6.1858006,-6.9045506,2.2682292,-0.50391847,0.12021914,-0.15689455,-0.84083086,-5.576325,8.486497,-1.007211,-3.3369033,1.1763992,0.5859229,0
1.260000000000001,13.874386918895048,-3.765951916924795,1.5559142735868194,1.288076518875274,13.723281,-4.466776,3.1668572,3.0731966,6.1300015,-6.819419,2.2583063,-0.49832666,0.13329317,-0.14609917,-0.8441312,-5.5842686,8.539634,-0.9773994,-3.4038637,1.2354825,0.6203778,0
1.270000000000001,13.874386918895048,-3.765951916924795,1.5559142735868194,1.288076518875274,13.723281,-4.466776,3.1668572,3.0731966,6.074098,-6.73376,2.2486808,-0.49234426,0.14668055,-0.13515241,-0.8472395,-5.597157,8.591979,-0.94766456,-3.4603786,1.2853571,0.653142,0
1.280000000000001,14.26415692363123,-3.582875890990902,1.4311671619321926,1.329289776425769,13.881111,-4.505173,2.5825734,2.8358054,6.0180407,-6.647582,2.239352,-0.48598456,0.16031717,-0.12407444,-0.8501306,-5.6150727,8.643453,-0.9181822,-3.5080776,1.3274587,0.68429834,0
1.290000000000001,14.26415692363123,-3.582875890990902,1.4311671619321926,1.329289776425769,13.881111,-4.505173,2.5825734,2.8358054,5.961776,-6.5608873,2.2303338,-0.47927427,0.17406958,-0.112922594,-0.8527857,-5.638714,8.695387,-0.8855599,-3.519777,1.3435543,0.7159482,0
1.300000000000001,14.26415692363123,-3.582875890990902,1.4311671619321926,1.329289776425769,13.881111,-4.505173,2.5825734,2.8358054,5.905248,-6.473679,2.221639,-0.47223845,0.18782948,-0.10174572,-0.85519457,-5.667578,8.746238,-0.8535624,-3.5296502,1.3571436,0.7460451,0
1.310000000000001,14.26415692363123,-3.582875890990902,1.4311671619321926,1.329289776425769,13.881111,-4.505173,2.5825734,2.8358054,5.848407,-6.3859673,2.2132597,-0.46488687,0.20157957,-0.09054931,-0.8573481,-5.7016406,8.795907,-0.82236767,-3.5379817,1.3686175,0.77466506,0
1.320000000000001,14.743153976942342,-3.1105561708502334,0.8120747756400288,1.3012852711819554,13.801185,-4.2860274,1.775496,2.393571,5.7911983,-6.2977653,2.205188,-0.45722896,0.21530455,-0.0793388,-0.8592381,-5.740864,8.844291,-0.7921523,-3.5450125,1.3783056,0.80188066,0
1.330000000000001,14.743153976942342,-3.1105561708502334,0.8120747756400288,1.3012852711819554,13.801185,-4.2860274,1.775496,2.393571,5.7335644,-6.209078,2.1974342,-0.44933864,0.22869283,-0.06816899,-0.8608987,-5.7866716,8.89286,-0.75881267,-3.4772336,1.289982,0.82638663,0
1.340000000000001,14.743153976942342,-3.1105561708502334,0.8120747756400288,1.3012852711819554,13.801185,-4.2860274,1.775496,2.393571,5.675447,-6.119913,2.1900074,-0.44128212,0.24150051,-0.057087574,-0.86237335,-5.837568,8.939851,-0.72677755,-3.420029,1.2154312,0.84969,0
1.350000000000001,14.743153976942342,-3.1105561708502334,0.8120747756400288,1.3012852711819554,13.801185,-4.2860274,1.775496,2.393571,5.616796,-6.0302863,2.182894,-0.4330573,0.2538059,-0.04608921,-0.863666,-5.893352,8.985127,-0.6961452,-3.3717487,1.1525059,0.87184983,0
1.360000000000001,14.49157540013418,-2.339603020616644,-0.19078748754400654,1.1125647595963701,14.049798,-3.8489985,0.30006117,1.8932399,5.557564,-5.9402165,2.1760793,-0.42466307,0.2656747,-0.0351691,-0.86477774,-5.953837,9.028566,-0.6670107,-3.3310008,1.0993931,0.89292234,0
1.370000000000001,14.49157540013418,-2.339603020616644,-0.19078748754400654,1.1125647595963701,14.049798,-3.8489985,0.30006117,1.8932399,5.4977098,-5.8497257,2.1695375,-0.4162173,0.27668673,-0.024414735,-0.8658006,-6.0177126,9.069339,-0.6415948,-3.1762824,0.89825743,0.9037003,0
1.380000000000001,14.49157540013418,-2.339603020616644,-0.19078748754400654,1.1125647595963701,14.049798,-3.8489985,0.30006117,1.8932399,5.4371953,-5.7588367,2.163242,-0.40782335,0.28651896,-0.01389848,-0.86682934,-6.085671,9.108048,-0.61770236,-3.0457077,0.72847795,0.9139493,0
1.390000000000001,14.49157540013418,-2.339603020616644,-0.19078748754400654,1.1125647595963701,14.049798,-3.8489985,0.30006117,1.8932399,5.375983,-5.6675725,2.1571784,-0.39946032,0.29535216,-0.003594685,-0.8678623,-6.1573606,9.144568,-0.59527844,-2.9355097,0.58516574,0.92369545,0
1.400000000000001,14.159450784240018,-1.495324116530529,-1.2008858406766654,0.8082712333511168,14.254244,-2.8420334,-0.699789,1.7565327,5.3140364,-5.575954,2.1513314,-0.39110997,0.30333796,0.0065196184,-0.86889344,-6.232476,9.178791,-0.5742752,-2.8425086,0.46419483,0.9329633,0
1.410000000000001,14.159450784240018,-1.495324116530529,-1.2008858406766654,0.8082712333511168,14.254244,-2.8420334,-0.699789,1.7565327,5.2513313,-5.4840083,2.1456742,-0.38289034,0.3101219,0.016339408,-0.8700297,-6.308931,9.209894,-0.5573315,-2.6322572,0.20466468,0.92684466,0
1.420000000000001,14.159450784240018,-1.495324116530529,-1.2008858406766654,0.8082712333511168,14.254244,-2.8420334,-0.699789,1.7565327,5.1878486,-5.3917637,2.1401806,-0.37490183,0.31543526,0.025781346,-0.87136894,-6.388039,9.238573,-0.54155743,-2.4548209,-0.01441396,0.9210262,0
1.430000000000001,14.159450784240018,-1.495324116530529,-1.2008858406766654,0.8082712333511168,14.254244,-2.8420334,-0.699789,1.7565327,5.1235633,-5.299245,2.1348395,-0.36710492,0.3195093,0.034894757,-0.87288564,-6.469402,9.264753,-0.5267737,-2.3050778,-0.19934548,0.91549325,0
1.440000000000001,14.159450784240018,-1.495324116530529,-1.2008858406766654,0.8082712333511168,14.988212,-2.1003594,-1.3839664,1.6432552,5.0584545,-5.206477,2.1296422,-0.35946506,0.32253724,0.043722708,-0.8745525,-6.552678,9.288378,-0.5128241,-2.1787055,-0.35545245,0.9102318,1
1.450000000000001,14.159450784240018,-1.495324116530529,-1.2008858406766654,0.8082712333511168,14.988212,-2.1003594,-1.3839664,1.6432552,4.99248,-5.11348,2.1246133,-0.35177967,0.32470715,0.052507274,-0.87638944,-6.642552,9.310617,-0.49305987,-2.1663804,-0.5158922,0.9462015,1
1.460000000000001,14.159450784240018,-1.495324116530529,-1.2008858406766654,0.8082712333511168,14.988212,-2.1003594,-1.3839664,1.6432552,4.925598,-5.0202746,2.1197789,-0.34386885,0.32617208,0.061437294,-0.8784023,-6.7339244,9.329949,-0.47393712,-2.1559868,-0.65130955,0.9804061,1
1.470000000000001,14.159450784240018,-1.495324116530529,-1.2008858406766654,0.8082712333511168,14.988212,-2.1003594,-1.3839664,1.6432552,4.857796,-4.9268913,2.1151328,-0.33573714,0.32703447,0.070475996,-0.880546,-6.8266053,9.346229,-0.4553796,-2.1472228,-0.76560694,1.0129323,1
1.480000000000001,14.138958861051405,-0.6690013544462988,-1.7572368987782765,0.47293554027544876,15.187279,-1.6381259,-1.4605777,0.4352018,4.789062,-4.8333607,2.1106699,-0.3273898,0.3273807,0.079593,-0.88278073,-6.9204197,9.35933,-0.4373291,-2.1398337,-0.8620781,1.0438625,0
1.490000000000001,14.138958861051405,-0.6690013544462988,-1.7572368987782765,0.47293554027544876,15.187279,-1.6381259,-1.4605777,0.4352018,4.719412,-4.7397184,2.106352,-0.31913713,0.32695553,0.088353194,-0.8851239,-7.009809,9.368618,-0.42627978,-1.9103819,-1.0014867,1.0158468,0
1.500000000000001,14.138958861051405,-0.6690013544462988,-1.7572368987782765,0.47293554027544876,15.187279,-1.6381259,-1.4605777,0.4352018,4.6488647,-4.6459985,2.1021433,-0.3112484,0.32556698,0.09641622,-0.8875999,-7.0997887,9.374901,-0.41550106,-1.7167306,-1.1191872,0.9892061,0
1.5100000000000011,14.138958861051405,-0.6690013544462988,-1.7572368987782765,0.47293554027544876,15.187279,-1.6381259,-1.4605777,0.4352018,4.577416,-4.5522304,2.0980415,-0.3036725,0.32336566,0.103887156,-0.89018214,-7.190055,9.378284,-0.40483072,-1.5532938,-1.2185597,0.96387255,0
1.5200000000000011,13.051050137255123,0.17860191198279396,-2.3208187171035526,0.06994108073021599,14.043541,-1.0902982,-1.7934554,-0.12874864,4.5050635,-4.458442,2.0940466,-0.29636553,0.320477,0.11085528,-0.892845,-7.280349,9.378865,-0.39413208,-1.4153566,-1.3024573,0.93978214,0
1.5300000000000011,13.051050137255123,0.17860191198279396,-2.3208187171035526,0.06994108073021599,14.043541,-1.0902982,-1.7934554,-0.12874864,4.4318433,-4.364661,2.0901175,-0.28941774,0.31669927,0.11717538,-0.89566064,-7.3634977,9.376901,-0.39165932,-1.1667231,-1.4610853,0.8970988,0
1.5400000000000011,13.051050137255123,0.17860191198279396,-2.3208187171035526,0.06994108073021599,14.043541,-1.0902982,-1.7934554,-0.12874864,4.357795,-4.2709117,2.0862148,-0.282902,0.31187823,0.1227359,-0.8986842,-7.44616,9.372562,-0.3888601,-0.9568842,-1.5950123,0.8565099,0
1.5500000000000012,13.051050137255123,0.17860191198279396,-2.3208187171035526,0.06994108073021599,14.043541,-1.0902982,-1.7934554,-0.12874864,4.282923,-4.177217,2.0823424,-0.27675998,0.30617326,0.12765236,-0.9018679,-7.5280538,9.365979,-0.38555703,-0.7797856,-1.7080827,0.81791276,0
1.5600000000000012,12.237089475560229,0.8449087714735105,-2.7066855288830216,-0.33405909186686544,12.8333645,-0.25141054,-2.4659834,0.03447458,4.2072377,-4.083599,2.078506,-0.27094185,0.29971746,0.13202251,-0.90516794,-7.608937,9.357265,-0.3816055,-0.6303177,-1.8035437,0.7812096,0
1.5700000000000012,12.237089475560229,0.8449087714735105,-2.7066855288830216,-0.33405909186686544,12.8333645,-0.25141054,-2.4659834,0.03447458,4.130774,-3.9900753,2.074681,-0.265509,0.29240388,0.13574375,-0.90861297,-7.683619,9.347202,-0.38329273,-0.40025443,-1.9442563,0.72648305,0
1.5800000000000012,12.237089475560229,0.8449087714735105,-2.7066855288830216,-0.33405909186686544,12.8333645,-0.25141054,-2.4659834,0.03447458,4.0535703,-3.896661,2.0708432,-0.26051077,0.28415215,0.13873841,-0.91221833,-7.756897,9.33538,-0.38410586,-0.20608537,-2.0630574,0.67444193,0
1.5900000000000012,12.237089475560229,0.8449087714735105,-2.7066855288830216,-0.33405909186686544,12.8333645,-0.25141054,-2.4659834,0.03447458,3.975642,-3.8033733,2.0670023,-0.2558912,0.27510014,0.14111651,-0.91592824,-7.828531,9.321932,-0.38391095,-0.042209096,-2.1633575,0.62495446,0
1.6000000000000012,11.753999108466743,1.135606027676398,-2.905312550879524,-0.70253640524278,12.218459,0.3422795,-2.4231713,-0.73952556,3.897006,-3.7102277,2.063169,-0.25160265,0.26536366,0.14297095,-0.91969365,-7.898311,9.30698,-0.38260671,0.096102074,-2.2480357,0.57789534,1
1.6100000000000012,11.753999108466743,1.135606027676398,-2.905312550879524,-0.70253640524278,12.218459,0.3422795,-2.4231713,-0.73952556,3.817683,-3.6172385,2.0593538,-0.2476145,0.25518808,0.14455028,-0.9234014,-7.96596,9.29065,-0.38028026,0.13440776,-2.2753391,0.5132491,1
1.6200000000000012,11.753999108466743,1.135606027676398,-2.905312550879524,-0.70253640524278,12.218459,0.3422795,-2.4231713,-0.73952556,3.7376943,-3.5244193,2.0555675,-0.24391049,0.24477252,0.14605877,-0.9269627,-8.031479,9.272976,-0.37677652,0.16674095,-2.2983894,0.45177507,1
1.6300000000000012,11.753999108466743,1.135606027676398,-2.905312550879524,-0.70253640524278,12.218459,0.3422795,-2.4231713,-0.73952556,3.657061,-3.4317834,2.051822,-0.24047169,0.23414488,0.14750855,-0.9303707,-8.094791,9.253997,-0.37211648,0.19403334,-2.3178482,0.3933176,1
1.6400000000000012,11.753999108466743,1.135606027676398,-2.905312550879524,-0.70253640524278,15.1518135,-0.014128163,-3.9439905,-0.31359437,3.5758061,-3.3393438,2.048129,-0.23728085,0.22332916,0.14890932,-0.9336202,-8.15583,9.233749,-0.3663282,0.21707174,-2.3342752,0.33772865,0
1.6500000000000012,11.753999108466743,1.135606027676398,-2.905312550879524,-0.70253640524278,15.1518135,-0.014128163,-3.9439905,-0.31359437,3.4939637,-3.2471087,2.0444796,-0.2343585,0.21209103,0.15001631,-0.9367963,-8.212284,9.213094,-0.363427,0.36025575,-2.4233086,0.28668252,0
1.6600000000000013,11.753999108466743,1.135606027676398,-2.905312550879524,-0.70253640524278,15.1518135,-0.014128163,-3.9439905,-0.31359437,3.4115689,-3.1550858,2.0408645,-0.23171218,0.20024528,0.1506324,-0.9399574,-8.266324,9.19135,-0.35943934,0.48110628,-2.498469,0.23814124,0
1.6700000000000013,11.753999108466743,1.135606027676398,-2.905312550879524,-0.70253640524278,15.1518135,-0.014128163,-3.9439905,-0.31359437,3.3286464,-3.0632854,2.0372946,-0.22930995,0.18787745,0.15082902,-0.94306326,-8.317787,9.168616,-0.35434172,0.58310807,-2.5619175,0.19198191,0
1.6800000000000013,11.304025114234,1.4029908537635838,-2.4529260450786348,-0.9525931341876623,12.349584,0.56355643,-2.2807097,-0.7987062,3.2452226,-2.971717,2.0337815,-0.2271245,0.17506026,0.15066633,-0.9460797,-8.366528,9.14498,-0.3481317,0.6692017,-2.615478,0.14808765,0
1.6900000000000013,11.304025114234,1.4029908537635838,-2.4529260450786348,-0.9525931341876623,12.349584,0.56355643,-2.2807097,-0.7987062,3.1613343,-2.880384,2.0303156,-0.22520751,0.16199863,0.15005818,-0.9489569,-8.410669,9.121468,-0.3448607,0.7835421,-2.5901444,0.094076924,0
1.7000000000000013,11.304025114234,1.4029908537635838,-2.4529260450786348,-0.9525931341876623,12.349584,0.56355643,-2.2807097,-0.7987062,3.0770187,-2.7892897,2.026888,-0.22360201,0.14885986,0.14893991,-0.9516609,-8.452004,9.097298,-0.34056652,0.8800575,-2.5687687,0.042716518,0
1.7100000000000013,11.304025114234,1.4029908537635838,-2.4529260450786348,-0.9525931341876623,12.349584,0.56355643,-2.2807097,-0.7987062,2.992304,-2.6984398,2.0235078,-0.22227451,0.13565059,0.14738703,-0.95418483,-8.490482,9.072598,-0.33528978,0.961527,-2.5507314,-0.00612361,0
1.7200000000000013,10.954265699746063,1.4169262494294839,-1.8933561125170832,-1.129254712325165,11.859477,0.6612376,-2.1449637,-1.0109116,2.9072192,-2.607839,2.0201855,-0.22119616,0.12237686,0.1454631,-0.9565225,-8.526056,9.047478,-0.3290784,1.0302963,-2.5355098,-0.052567154,1
1.7300000000000013,10.954265699746063,1.4169262494294839,-1.8933561125170832,-1.129254712325165,11.859477,0.6612376,-2.1449637,-1.0109116,2.821785,-2.5174975,2.0169554,-0.22033216,0.109226994,0.14347969,-0.9586112,-8.560299,9.020771,-0.3168238,0.9726678,-2.4746323,-0.09959339,1
1.7400000000000013,10.954265699746063,1.4169262494294839,-1.8933561125170832,-1.129254712325165,11.859477,0.6612376,-2.1449637,-1.0109116,2.7360237,-2.4274247,2.013852,-0.21966009,0.096351676,0.1416883,-0.9604107,-8.591502,8.993728,-0.30375275,0.92403305,-2.4232445,-0.14431204,1
1.7500000000000013,10.954265699746063,1.4169262494294839,-1.8933561125170832,-1.129254712325165,11.859477,0.6612376,-2.1449637,-1.0109116,2.649965,-2.337624,2.0108826,-0.21917221,0.08370532,0.14005691,-0.9619458,-8.619722,8.966341,-0.2899708,0.8829883,-2.3798676,-0.18683635,1
1.7600000000000013,10.57035114001279,1.2457652930327565,-1.2046453224932527,-1.2075710836933842,11.472173,0.5163909,-1.61237,-1.0208532,2.5636392,-2.2480989,2.0080543,-0.21886037,0.07124965,0.13855807,-0.9632362,-8.645008,8.938605,-0.27557483,0.8483489,-2.3432527,-0.22727397,1
1.7700000000000014,10.57035114001279,1.2457652930327565,-1.2046453224932527,-1.2075710836933842,11.472173,0.5163909,-1.61237,-1.0208532,2.4770784,-2.1588483,2.0053542,-0.21874325,0.05917059,0.1371777,-0.96427757,-8.666679,8.911433,-0.26434734,0.7965403,-2.2292848,-0.26621515,1
1.7800000000000014,10.57035114001279,1.2457652930327565,-1.2046453224932527,-1.2075710836933842,11.472173,0.5163909,-1.61237,-1.0208532,2.3903148,-2.0698714,2.0027685,-0.21883586,0.04761464,0.13590421,-0.9650764,-8.685669,8.883931,-0.25270423,0.7528161,-2.1330879,-0.30324548,1
1.7900000000000014,10.57035114001279,1.2457652930327565,-1.2046453224932527,-1.2075710836933842,11.472173,0.5163909,-1.61237,-1.0208532,2.303374,-1.981171,2.0003011,-0.2191247,0.036498953,0.13471882,-0.9656613,-8.702089,8.856112,-0.24072699,0.7159146,-2.0518913,-0.3384587,1
1.8000000000000014,10.204438960212583,1.0877877832360945,-0.5670674994128849,-1.22203056395086,11.099195,0.23902947,-0.4720443,-0.48444656,2.2162817,-1.8927503,1.9979547,-0.2195969,0.025753537,0.13360548,-0.966055,-8.716036,8.827983,-0.22848701,0.6847706,-1.9833565,-0.37194395,1
1.8100000000000014,10.204438960212583,1.0877877832360945,-0.5670674994128849,-1.22203056395086,11.099195,0.23902947,-0.4720443,-0.48444656,2.1290636,-1.8046077,1.9957138,-0.22023524,0.01579357,0.13255605,-0.9662684,-8.727238,8.800484,-0.21964248,0.6153081,-1.7476536,-0.37746447,1
1.8200000000000014,10.204438960212583,1.0877877832360945,-0.5670674994128849,-1.22203056395086,11.099195,0.23902947,-0.4720443,-0.48444656,2.041744,-1.7167414,1.9935621,-0.2210184,0.006946533,0.13156511,-0.9663291,-8.736366,8.7727375,-0.2106645,0.5566713,-1.5487103,-0.38271415,1
1.8300000000000014,10.204438960212583,1.0877877832360945,-0.5670674994128849,-1.22203056395086,11.099195,0.23902947,-0.4720443,-0.48444656,1.9543426,-1.6291536,1.9915007,-0.2219289,-0.0009605109,0.1306233,-0.96627265,-8.743654,8.744784,-0.2015987,0.50717264,-1.3807942,-0.38770616,1
1.8400000000000014,10.204438960212583,1.0877877832360945,-0.5670674994128849,-1.22203056395086,10.832156,0.11694048,-0.15739779,-0.40877232,1.8668766,-1.5418463,1.9895303,-0.22295108,-0.008073845,0.1297225,-0.9661254,-8.749293,8.71666,-0.19247855,0.4653878,-1.2390659,-0.39245325,1
1.8500000000000014,10.204438960212583,1.0877877832360945,-0.5670674994128849,-1.22203056395086,10.832156,0.11694048,-0.15739779,-0.40877232,1.7793623,-1.4548177,1.9876384,-0.22407894,-0.014383357,0.12887491,-0.9659046,-8.753357,8.689069,-0.18590918,0.41109008,-1.0703666,-0.39325404,1
1.8600000000000014,10.204438960212583,1.0877877832360945,-0.5670674994128849,-1.22203056395086,10.832156,0.11694048,-0.15739779,-0.40877232,1.6918137,-1.3680655,1.9858121,-0.22530586,-0.019887365,0.12808986,-0.9656259,-8.756157,8.661363,-0.17932868,0.36525354,-0.9279781,-0.39401552,1
1.8700000000000014,10.204438960212583,1.0877877832360945,-0.5670674994128849,-1.22203056395086,10.832156,0.11694048,-0.15739779,-0.40877232,1.6042428,-1.2815907,1.9840516,-0.22661789,-0.024711337,0.12735711,-0.9653044,-8.75786,8.633564,-0.17274901,0.3265597,-0.80779684,-0.39473963,1
1.8800000000000014,9.898238688175637,0.9986384227814766,0.41883929022010297,-1.1416881390320404,10.577227,-0.020415515,0.24934442,-0.3795931,1.5166599,-1.1953943,1.9823569,-0.2280029,-0.028961234,0.1266679,-0.9649507,-8.758605,8.605692,-0.16617768,0.29389554,-0.7063591,-0.39542824,0
1.8900000000000015,9.898238688175637,0.9986384227814766,0.41883929022010297,-1.1416881390320404,10.577227,-0.020415515,0.24934442,-0.3795931,1.4290737,-1.1094649,1.980683,-0.22955625,-0.032596204,0.125619,-0.96460354,-8.758518,8.580187,-0.16863771,0.40383202,-0.53092265,-0.43204743,0
1.9000000000000015,9.898238688175637,0.9986384227814766,0.41883929022010297,-1.1416881390320404,10.577227,-0.020415515,0.24934442,-0.3795931,1.3414918,-1.0237902,1.9789844,-0.23136312,-0.035590734,0.12388925,-0.9642897,-8.75777,8.554777,-0.17107539,0.4966245,-0.3828452,-0.46686968,0
1.9100000000000015,9.898238688175637,0.9986384227814766,0.41883929022010297,-1.1416881390320404,10.577227,-0.020415515,0.24934442,-0.3795931,1.2539202,-0.9383686,1.9772617,-0.23339942,-0.038047668,0.12158241,-0.9639988,-8.756447,8.529608,-0.17345588,0.5749455,-0.25785908,-0.49998322,0
1.9200000000000015,9.844085175219945,0.9540702605227371,1.0705790725506694,-1.044571483766845,10.343377,0.23198968,0.5254948,-0.38844642,1.1663644,-0.8531969,1.9755155,-0.23564385,-0.04005346,0.11878601,-0.96372014,-8.754627,8.504801,-0.17574999,0.64105135,-0.15236278,-0.5314719,1
1.9300000000000015,9.844085175219945,0.9540702605227371,1.0705790725506694,-1.044571483766845,10.343377,0.23198968,0.5254948,-0.38844642,1.0788296,-0.7682765,1.9737686,-0.2380055,-0.041556016,0.11586336,-0.96343195,-8.752278,8.479354,-0.17362309,0.5772953,-0.046626672,-0.5244535,1
1.9400000000000015,9.844085175219945,0.9540702605227371,1.0705790725506694,-1.044571483766845,10.343377,0.23198968,0.5254948,-0.38844642,0.9913201,-0.6836082,1.9720435,-0.24039908,-0.04251561,0.11310718,-0.96312326,-8.749592,8.454398,-0.17138077,0.52347547,0.042615987,-0.51777965,1
1.9500000000000015,9.844085175219945,0.9540702605227371,1.0705790725506694,-1.044571483766845,10.343377,0.23198968,0.5254948,-0.38844642,0.9038386,-0.5991869,1.9703414,-0.24281502,-0.04301609,0.11049064,-0.9627987,-8.7466755,8.42993,-0.1690253,0.4780433,0.117937796,-0.51143324,1
1.9600000000000015,9.874686332395788,0.7934543155553143,1.448063511394984,-0.9078953665432242,10.78386,0.27384657,0.6441597,-0.3094674,0.81638706,-0.5150079,1.9686633,-0.24524537,-0.0431283,0.107991144,-0.9624612,-8.743618,8.405942,-0.1665581,0.43969184,0.18151057,-0.5053983,1
1.9700000000000015,9.874686332395788,0.7934543155553143,1.448063511394984,-0.9078953665432242,10.78386,0.27384657,0.6441597,-0.3094674,0.7289671,-0.4310714,1.9670321,-0.2476786,-0.042869497,0.105562314,-0.96211904,-8.740365,8.381432,-0.1596924,0.41385058,0.25367153,-0.4957839,1
1.9800000000000015,9.874686332395788,0.7934543155553143,1.448063511394984,-0.9078953665432242,10.78386,0.27384657,0.6441597,-0.3094674,0.64157975,-0.34737748,1.96547,-0.2501039,-0.042256434,0.10316641,-0.9617786,-8.7371235,8.357429,-0.15270905,0.39203483,0.31457737,-0.4866413,1
1.9900000000000015,9.874686332395788,0.7934543155553143,1.448063511394984,-0.9078953665432242,10.78386,0.27384657,0.6441597,-0.3094674,0.55422443,-0.26392102,1.9639783,-0.2525164,-0.041343715,0.10079759,-0.961439,-8.733963,8.333946,-0.14560595,0.37361774,0.36598358,-0.47794732,1
2.0000000000000013,,,,,10.438933,0.28284788,0.92077637,-0.06983269,0.46690002,-0.18069674,1.9625583,-0.25491235,-0.04017748,0.098451026,-0.9610993,-8.73094,8.310994,-0.13838187,0.3580698,0.4093717,-0.46968,1
2.010000000000001,,,,,10.438933,0.28284788,0.92077637,-0.06983269,0.37960452,-0.097695686,1.9611943,-0.25727096,-0.038688358,0.09609207,-0.96077067,-8.728195,8.289301,-0.13440846,0.3463573,0.4891331,-0.45005938,1
2.020000000000001,,,,,10.438933,0.28284788,0.92077637,-0.06983269,0.29233524,-0.01490883,1.9598706,-0.2595714,-0.03682314,0.09369287,-0.96046215,-8.725701,8.268159,-0.13031301,0.336466,0.5564546,-0.43140155,1
2.0300000000000007,,,,,10.438933,0.28284788,0.92077637,-0.06983269,0.20508939,0.06766949,1.9585884,-0.26181123,-0.034639604,0.09125894,-0.96016985,-8.723522,8.247597,-0.12609214,0.32811326,0.6132765,-0.41365927,1
2.0400000000000005,,,,,10.438933,0.28284788,0.92077637,-0.06983269,0.117863536,0.15004519,1.9573491,-0.26398885,-0.032186586,0.088795014,-0.95988995,-8.721712,8.227639,-0.121744476,0.32105988,0.6612364,-0.39678758,1
2.0500000000000003,,,,,10.342989,0.03197363,1.2230902,0.20227687,0.030653723,0.23222442,1.9561539,-0.2661036,-0.02950538,0.086305104,-0.9596192,-8.720318,8.208308,-0.11727033,0.3151039,0.70171654,-0.3807438,1
2.06,,,,,10.342989,0.03197363,1.2230902,0.20227687,-0.056544453,0.31421444,1.9549993,-0.2681361,-0.026485126,0.08385766,-0.95935845,-8.719393,8.189794,-0.11361557,0.2709556,0.7830406,-0.35213482,1
2.07,,,,,10.342989,0.03197363,1.2230902,0.20227687,-0.14373598,0.39602256,1.953882,-0.2700662,-0.023039326,0.081506774,-0.95910853,-8.719002,8.171927,-0.1098416,0.23368713,0.85167885,-0.32492968,1
2.0799999999999996,,,,,10.342989,0.03197363,1.2230902,0.20227687,-0.2309266,0.4776553,1.952803,-0.27189276,-0.019233104,0.079236336,-0.9588666,-8.719226,8.1547165,-0.1059544,0.20222685,0.9096103,-0.2990595,1
2.0899999999999994,,,,,10.342254,-0.16463499,1.371876,0.34679157,-0.31812286,0.5591192,1.9517633,-0.27361578,-0.015121575,0.07703275,-0.95862967,-8.720133,8.138167,-0.101961434,0.17567027,0.95850533,-0.27445877,1
2.099999999999999,,,,,10.342254,-0.16463499,1.371876,0.34679157,-0.40533185,0.640421,1.9507641,-0.27522445,-0.010671374,0.074943915,-0.9583945,-8.721785,8.122287,-0.0978791,0.12259098,1.0229824,-0.24397384,1
2.109999999999999,,,,,10.342254,-0.16463499,1.371876,0.34679157,-0.49256137,0.7215672,1.9498061,-0.27670783,-0.0058583096,0.07300697,-0.95815843,-8.724256,8.10707,-0.0937124,0.07778663,1.0774007,-0.21498482,1
2.1199999999999988,,,,,10.342254,-0.16463499,1.371876,0.34679157,-0.57982,0.8025647,1.9488901,-0.2780669,-0.0007378906,0.07119687,-0.9579188,-8.727618,8.092511,-0.0894754,0.039967373,1.1233302,-0.18741827,1
2.1299999999999986,,,,,10.180008,-0.3133049,1.2502486,0.5069142,-0.66711694,0.88341975,1.9480168,-0.27930337,0.004642862,0.06949247,-0.9576733,-8.731934,8.078607,-0.08518327,0.008044581,1.1620947,-0.16120443,1
2.1399999999999983,,,,,10.180008,-0.3133049,1.2502486,0.5069142,-0.75446165,0.96414006,1.9471786,-0.28039694,0.010215512,0.067946404,-0.9574215,-8.737168,8.0655575,-0.08245935,-0.04209327,1.1758467,-0.12841965,1
2.149999999999998,,,,,10.180008,-0.3133049,1.2502486,0.5069142,-0.8418638,1.044733,1.9463677,-0.28132957,0.015923882,0.06659941,-0.9571646,-8.743429,8.053121,-0.07971654,-0.08441176,1.1874514,-0.09724363,1
2.159999999999998,,,,,10.180008,-0.3133049,1.2502486,0.5069142,-0.92933387,1.1252047,1.9455843,-0.28210717,0.021747656,0.06541892,-0.9569025,-8.75075,8.04127,-0.076974526,-0.12013002,1.1972445,-0.067597434,1
2.1699999999999977,,,,,9.977281,-0.44000018,0.501438,0.4388241,-1.0168825,1.2055606,1.9448282,-0.2827356,0.027669549,0.06437744,-0.9566347,-8.759155,8.029982,-0.07425263,-0.15027721,1.2055093,-0.039405975,1
2.1799999999999975,,,,,9.977281,-0.44000018,0.501438,0.4388241,-1.1045198,1.2858074,1.944089,-0.28320837,0.03340203,0.063585296,-0.9563648,-8.768471,8.019443,-0.07357689,-0.19547905,1.0957079,-0.015939085,1
2.1899999999999973,,,,,9.977281,-0.44000018,0.501438,0.4388241,-1.1922554,1.3659511,1.9433564,-0.28352386,0.0387166,0.063129224,-0.9561012,-8.778814,8.00935,-0.0729568,-0.23362775,1.0030289,0.006376272,1
