time-since-start [s],throttle_mpc,roll_mpc,pitch_mpc,yaw_mpc,throttle_nw,roll_nw,pitch_nw,yaw_nw,position_x [m],position_y [m],position_z [m],rotation_w [quaternion],rotation_x [quaternion],rotation_y [quaternion],rotation_z [quaternion],velocity_x [m/s],velocity_y [m/s],velocity_z [m/s],omega_x [rad/s],omega_y [rad/s],omega_z [rad/s],network_used
0.0,9.221474471866184,4.5699263477725625,-5.999999855882414,-1.864316464549497,11.475208,0.71533346,-5.1353755,0.07409159,15.925936,-10.497644,1.5354078,0.13964471,-0.32822227,0.32476264,0.8759559,-9.312551,-0.6278572,-0.086808264,0.54205585,0.124289475,0.40147302,0
0.01,9.221474471866184,4.5699263477725625,-5.999999855882414,-1.864316464549497,13.11061,0.3617463,-5.2996964,-0.3532303,15.832481,-10.503472,1.5344393,0.1392857,-0.32661554,0.32802576,0.87539756,-9.378125,-0.5379853,-0.10720515,0.71765417,-0.37811548,0.33078238,0
0.02,9.221474471866184,4.5699263477725625,-5.999999855882414,-1.864316464549497,13.11061,0.3617463,-5.2996964,-0.3532303,15.738383,-10.5084095,1.5332562,0.14031482,-0.3228885,0.3316199,0.8752617,-9.441309,-0.4497136,-0.12973835,0.90158117,-0.837952,0.2603623,0
0.03,9.221474471866184,4.5699263477725625,-5.999999855882414,-1.864316464549497,13.11061,0.3617463,-5.2996964,-0.3532303,15.643665,-10.51247,1.5318385,0.1426781,-0.31720456,0.3355959,0.87544256,-9.501641,-0.36283556,-0.15404955,1.0911345,-1.2604496,0.19032559,0
0.04,9.221474471866184,4.5699263477725625,-5.999999855882414,-1.864316464549497,12.890757,0.9025942,-5.426247,-0.31960464,15.548362,-10.51567,1.5301701,0.146321,-0.30970252,0.33998573,0.87583345,-9.55872,-0.27716404,-0.17985387,1.2841282,-1.6501172,0.12077106,0
0.05,9.221474471866184,4.5699263477725625,-5.999999855882414,-1.864316464549497,12.890757,0.9025942,-5.426247,-0.31960464,15.452504,-10.518018,1.528237,0.15118858,-0.30050033,0.34480584,0.8763279,-9.612189,-0.19253762,-0.20693108,1.4788033,-2.0108476,0.051784836,0
0.060000000000000005,9.221474471866184,4.5699263477725625,-5.999999855882414,-1.864316464549497,12.890757,0.9025942,-5.426247,-0.31960464,15.356131,-10.519524,1.5260274,0.1572255,-0.28969875,0.35006002,0.87681973,-9.661736,-0.10882479,-0.23511775,1.6737534,-2.346005,-0.016558269,0
0.07,9.221474471866184,4.5699263477725625,-5.999999855882414,-1.864316464549497,12.890757,0.9025942,-5.426247,-0.31960464,15.259284,-10.520197,1.5235312,0.16437587,-0.27738428,0.3557416,0.8772039,-9.70708,-0.025926704,-0.26430053,1.8678633,-2.6585004,-0.08419353,0
0.08,9.954545400824294,4.75590439419628,-5.999999893449473,-2.6401788237263784,14.013323,0.56128323,-5.316397,-0.05208145,15.162005,-10.520044,1.5207385,0.17258325,-0.2636317,0.36183527,0.8773761,-9.7479725,0.05622133,-0.29441023,2.0602562,-2.950857,-0.15106529,0
0.09,9.954545400824294,4.75590439419628,-5.999999893449473,-2.6401788237263784,14.013323,0.56128323,-5.316397,-0.05208145,15.064314,-10.519014,1.5176895,0.18172358,-0.24877858,0.36819416,0.8772223,-9.789567,0.14968845,-0.31549558,2.1836314,-3.1297193,-0.2466564,0
0.09999999999999999,9.954545400824294,4.75590439419628,-5.999999893449473,-2.6401788237263784,14.013323,0.56128323,-5.316397,-0.05208145,14.966232,-10.517052,1.5144262,0.19169423,-0.23311615,0.3746933,0.87665004,-9.825868,0.24271926,-0.33728057,2.3124235,-3.3053749,-0.3397625,0
0.10999999999999999,9.954545400824294,4.75590439419628,-5.999999893449473,-2.6401788237263784,14.013323,0.56128323,-5.316397,-0.05208145,14.867815,-10.514162,1.5109411,0.2024679,-0.2166415,0.38133898,0.87558776,-9.85674,0.33520925,-0.35984603,2.4455202,-3.4780545,-0.43048155,0
0.11999999999999998,9.954545400824294,4.75590439419628,-5.999999893449473,-2.6401788237263784,14.013323,0.56128323,-5.316397,-0.05208145,14.769116,-10.510351,1.5072261,0.21401358,-0.19935247,0.38813028,0.87396324,-9.882065,0.42703503,-0.38328797,2.581965,-3.6479363,-0.5189051,0
0.12999999999999998,12.5496229627769,3.3845865129031716,-5.999999899112339,-1.6873933126527414,14.606907,0.121745706,-5.706983,-0.31671873,14.670194,-10.505626,1.5032719,0.2262966,-0.18124822,0.3950596,0.87170345,-9.901736,0.5180532,-0.40771604,2.7209353,-3.8151553,-0.6051188,0
0.13999999999999999,12.5496229627769,3.3845865129031716,-5.999999899112339,-1.6873933126527414,14.606907,0.121745706,-5.706983,-0.31671873,14.571097,-10.499961,1.499095,0.23937869,-0.16191553,0.4019428,0.86886317,-9.9167185,0.61505115,-0.4276279,2.824154,-4.156019,-0.6582263,0
0.15,12.5496229627769,3.3845865129031716,-5.999999899112339,-1.6873933126527414,14.606907,0.121745706,-5.706983,-0.31671873,14.471881,-10.493323,1.4947202,0.253239,-0.14110756,0.4085639,0.8654676,-9.92548,0.71258694,-0.4472673,2.9112842,-4.44372,-0.70872784,0
0.16,15.607905478702316,1.6385060075548774,-5.999999856650011,-0.24181922247368084,15.239163,-0.06073496,-5.479887,-0.2642615,14.372609,-10.485709,1.4901502,0.2677277,-0.11905255,0.4148694,0.86141264,-9.927629,0.8103279,-0.4667048,2.9848368,-4.6865478,-0.7567512,0
0.17,15.607905478702316,1.6385060075548774,-5.999999856650011,-0.24181922247368084,15.239163,-0.06073496,-5.479887,-0.2642615,14.273356,-10.476998,1.4854825,0.2824814,-0.0960659,0.42023677,0.85695785,-9.921713,0.9316573,-0.4668308,2.7748566,-4.891231,-0.73148334,0
0.18000000000000002,15.607905478702316,1.6385060075548774,-5.999999856650011,-0.24181922247368084,15.239163,-0.06073496,-5.479887,-0.2642615,14.174206,-10.467078,1.4808142,0.2972044,-0.072415814,0.42418483,0.8523455,-9.9070835,1.0521064,-0.4667852,2.5976403,-5.064018,-0.7074554,0
0.19000000000000003,15.607905478702316,1.6385060075548774,-5.999999856650011,-0.24181922247368084,15.239163,-0.06073496,-5.479887,-0.2642615,14.075246,-10.455962,1.4761474,0.31186056,-0.04822095,0.42686188,0.8474708,-9.883728,1.1710006,-0.46653315,2.448074,-5.2098784,-0.6846065,0
0.20000000000000004,17.31035684167092,0.37359896025403233,-5.999999728470102,0.3549800710513795,14.510589,-1.5832318,-4.9843907,-0.3219586,13.976562,-10.443666,1.4714841,0.32641298,-0.023583697,0.4283938,0.8422454,-9.85168,1.2876973,-0.46609858,2.321843,-5.3330083,-0.6628789,0
0.21000000000000005,17.31035684167092,0.37359896025403233,-5.999999728470102,0.3549800710513795,14.510589,-1.5832318,-4.9843907,-0.3219586,13.878263,-10.430155,1.4668796,0.34075633,0.0012707184,0.42846528,0.8368401,-9.8066025,1.4139905,-0.4547685,2.0181475,-5.436828,-0.6129323,0
0.22000000000000006,17.31035684167092,0.37359896025403233,-5.999999728470102,0.3549800710513795,14.510589,-1.5832318,-4.9843907,-0.3219586,13.780461,-10.4154005,1.4623893,0.35481143,0.02615276,0.4268404,0.8314039,-9.752269,1.5364044,-0.44323435,1.7618169,-5.5244966,-0.56543654,0
0.23000000000000007,17.31035684167092,0.37359896025403233,-5.999999728470102,0.3549800710513795,14.510589,-1.5832318,-4.9843907,-0.3219586,13.6832485,-10.399444,1.4580158,0.36857495,0.051028974,0.42372388,0.82583714,-9.689019,1.6542236,-0.4314474,1.5454625,-5.5985255,-0.5202715,0
0.24000000000000007,17.31035684167092,0.37359896025403233,-5.999999728470102,0.3549800710513795,13.832966,-2.6886284,-3.996318,-0.5059723,13.586711,-10.382335,1.4537612,0.3820376,0.07587002,0.4192886,0.82005394,-9.617206,1.7667938,-0.4194219,1.3628483,-5.6610346,-0.4773226,0
0.25000000000000006,17.31035684167092,0.37359896025403233,-5.999999728470102,0.3549800710513795,13.832966,-2.6886284,-3.996318,-0.5059723,13.490932,-10.364129,1.449628,0.39518625,0.10064941,0.41368106,0.8139815,-9.537191,1.8735169,-0.40722728,1.2087108,-5.713815,-0.43648127,0
0.26000000000000006,17.31035684167092,0.37359896025403233,-5.999999728470102,0.3549800710513795,13.832966,-2.6886284,-3.996318,-0.5059723,13.395994,-10.344887,1.445617,0.40800524,0.12534262,0.40702575,0.80755883,-9.449358,1.9738448,-0.39498067,1.0786085,-5.758381,-0.39764404,0
0.2700000000000001,17.31035684167092,0.37359896025403233,-5.999999728470102,0.3549800710513795,13.832966,-2.6886284,-3.996318,-0.5059723,13.301971,-10.324676,1.4417281,0.42047763,0.14992651,0.39942905,0.8007355,-9.354099,2.0672767,-0.3828402,0.96879244,-5.7960095,-0.36071256,0
0.2800000000000001,17.971506050516517,-0.8964555864553351,-5.999999450959629,0.9603495299625127,13.445347,-3.2699034,-1.83216,-0.34645265,13.208936,-10.303567,1.4379592,0.43258604,0.17437886,0.39098206,0.79346997,-9.251825,2.1533573,-0.37099886,0.87609816,-5.82778,-0.32559332,0
0.2900000000000001,17.971506050516517,-0.8964555864553351,-5.999999450959629,0.9603495299625127,13.445347,-3.2699034,-1.83216,-0.34645265,13.116977,-10.281621,1.4343272,0.44434702,0.19848551,0.38134834,0.78595984,-9.13883,2.2346525,-0.35546827,0.59990454,-5.8545537,-0.26249173,0
0.3000000000000001,17.971506050516517,-0.8964555864553351,-5.999999450959629,0.9603495299625127,13.445347,-3.2699034,-1.83216,-0.34645265,13.02618,-10.2589035,1.4308479,0.45577875,0.22207005,0.37026924,0.77836454,-9.019626,2.3074079,-0.34049508,0.3667741,-5.877181,-0.20248652,0
0.3100000000000001,17.971506050516517,-0.8964555864553351,-5.999999450959629,0.9603495299625127,13.445347,-3.2699034,-1.83216,-0.34645265,12.9366045,-10.235503,1.4275154,0.46686307,0.24516287,0.35792154,0.7706012,-8.894849,2.371191,-0.32611746,0.16999087,-5.896302,-0.14542583,0
0.3200000000000001,17.34069401420651,-2.1298068582521363,-4.547150720785398,1.081046606588052,12.780492,-3.920544,1.8208388,0.5794167,12.848302,-10.211512,1.4243232,0.4775794,0.26778743,0.34445545,0.76259965,-8.765124,2.4256313,-0.3124295,0.0038868003,-5.9124575,-0.09116511,0
0.3300000000000001,17.34069401420651,-2.1298068582521363,-4.547150720785398,1.081046606588052,12.780492,-3.920544,1.8208388,0.5794167,12.761295,-10.187032,1.4212445,0.48783836,0.28929016,0.3299035,0.75464463,-8.635808,2.4688714,-0.30343375,-0.32863477,-5.6995306,-0.033644356,0
0.34000000000000014,17.34069401420651,-2.1298068582521363,-4.547150720785398,1.081046606588052,12.780492,-3.920544,1.8208388,0.5794167,12.675598,-10.162167,1.4182521,0.49760553,0.30916458,0.31432396,0.7469983,-8.503161,2.5027714,-0.29514527,-0.6093254,-5.519832,0.021053866,0
0.35000000000000014,17.34069401420651,-2.1298068582521363,-4.547150720785398,1.081046606588052,12.780492,-3.920544,1.8208388,0.5794167,12.59124,-10.137009,1.4153395,0.5069276,0.3276247,0.29786557,0.7395692,-8.367993,2.527366,-0.28747436,-0.84626365,-5.368174,0.07306802,0
0.36000000000000015,15.650397273140596,-3.0820452873055983,0.8730538695284148,1.5059259457558034,12.393653,-4.2183037,4.7358265,0.7747729,12.5082445,-10.111651,1.4125006,0.5158358,0.34485015,0.28065103,0.73227507,-8.231023,2.5427046,-0.28037563,-1.0462682,-5.240179,0.12252982,0
0.37000000000000016,15.650397273140596,-3.0820452873055983,0.8730538695284148,1.5059259457558034,12.393653,-4.2183037,4.7358265,0.7747729,12.426558,-10.08619,1.4096789,0.5238664,0.359237,0.2636199,0.7259596,-8.10641,2.5483859,-0.2839881,-1.3636305,-4.2869086,0.19041348,0
0.38000000000000017,15.650397273140596,-3.0820452873055983,0.8730538695284148,1.5059259457558034,12.393653,-4.2183037,4.7358265,0.7747729,12.346117,-10.060708,1.4068204,0.53075325,0.36957854,0.2475697,0.72140276,-7.981605,2.5468647,-0.28768888,-1.6315676,-3.482317,0.25496605,0
0.3900000000000002,15.650397273140596,-3.0820452873055983,0.8730538695284148,1.5059259457558034,12.393653,-4.2183037,4.7358265,0.7747729,12.266924,-10.035272,1.4039264,0.5367506,0.37653494,0.23238383,0.71841353,-7.8573084,2.5392325,-0.29100972,-1.8577676,-2.8032107,0.31635103,0
0.4000000000000002,14.643014299132808,-3.4772531528301496,5.999996622438449,1.7950382799934765,11.682685,-5.0463777,5.9090095,0.853147,12.188968,-10.009939,1.401003,0.54204226,0.38064963,0.21794647,0.71679527,-7.734063,2.526414,-0.2935188,-2.048725,-2.2300162,0.3747238,0
0.4100000000000002,14.643014299132808,-3.4772531528301496,5.999996622438449,1.7950382799934765,11.682685,-5.0463777,5.9090095,0.853147,12.112224,-9.984756,1.3980496,0.5464779,0.38085237,0.2049226,0.7171612,-7.615555,2.5097647,-0.29734886,-2.332821,-1.0077809,0.43892336,0
0.4200000000000002,14.643014299132808,-3.4772531528301496,5.999996622438449,1.7950382799934765,11.682685,-5.0463777,5.9090095,0.853147,12.036638,-9.959752,1.3950536,0.54986477,0.37628993,0.19401723,0.7200084,-7.5022345,2.490863,-0.30190367,-2.529037,0.06748128,0.50387454,0
0.4300000000000002,14.643014299132808,-3.4772531528301496,5.999996622438449,1.7950382799934765,11.682685,-5.0463777,5.9090095,0.853147,11.962167,-9.934943,1.3920168,0.55226815,0.3676578,0.1851064,0.7249575,-7.392589,2.4709058,-0.30502942,-2.6772528,0.9924949,0.5672323,0
0.4400000000000002,14.643014299132808,-3.4772531528301496,5.999996622438449,1.7950382799934765,11.27444,-5.471479,6.095931,1.472726,11.888778,-9.910335,1.3889636,0.5537908,0.3555434,0.17789748,0.7316128,-7.2856755,2.450895,-0.3051024,-2.8023686,1.7732558,0.6274811,0
0.45000000000000023,14.643014299132808,-3.4772531528301496,5.999996622438449,1.7950382799934765,11.27444,-5.471479,6.095931,1.472726,11.8164425,-9.885922,1.3859267,0.55450493,0.34043416,0.17210086,0.73960143,-7.181869,2.4318597,-0.30170578,-2.907975,2.432262,0.68477345,0
0.46000000000000024,14.643014299132808,-3.4772531528301496,5.999996622438449,1.7950382799934765,11.27444,-5.471479,6.095931,1.472726,11.745129,-9.861692,1.3829424,0.5544496,0.3227362,0.16746674,0.74858665,-7.081554,2.414666,-0.29454225,-2.9971066,2.9885023,0.7392545,0
0.47000000000000025,14.643014299132808,-3.4772531528301496,5.999996622438449,1.7950382799934765,11.27444,-5.471479,6.095931,1.472726,11.674798,-9.837621,1.3800493,0.5536431,0.30279213,0.16378137,0.7582691,-6.985131,2.4000416,-0.28342986,-3.072327,3.4580033,0.79106206,0
0.48000000000000026,13.36603643531025,-4.141305942185305,5.9999996996353655,0.3092594369515442,11.439686,-4.3532243,6.193598,1.7619132,11.605412,-9.813681,1.3772876,0.5520914,0.28089473,0.16086277,0.76838565,-6.8930182,2.3885942,-0.26829505,-3.135802,3.8542924,0.84032744,0
0.49000000000000027,13.36603643531025,-4.141305942185305,5.9999996996353655,0.3092594369515442,11.439686,-4.3532243,6.193598,1.7619132,11.536883,-9.789832,1.3746463,0.55000675,0.25712037,0.15840203,0.7786466,-6.8132763,2.381498,-0.25937948,-3.292722,4.188884,0.8142678,0
0.5000000000000002,13.36603643531025,-4.141305942185305,5.9999996996353655,0.3092594369515442,11.439686,-4.3532243,6.193598,1.7619132,11.4691305,-9.766037,1.3721124,0.5475641,0.2315449,0.15614387,0.78878367,-6.738353,2.378095,-0.24686377,-3.4251359,4.4713116,0.7894869,0
0.5100000000000002,13.36603643531025,-4.141305942185305,5.9999996996353655,0.3092594369515442,11.439686,-4.3532243,6.193598,1.7619132,11.402099,-9.742256,1.369721,0.5447129,0.20440611,0.15401883,0.79861397,-6.668742,2.3786435,-0.23088236,-3.5368726,4.7097063,0.765922,0
0.5200000000000002,13.670740460073985,-3.612869534704415,5.999999770976655,-0.0413541948633339,12.50875,-3.9984586,6.2828274,1.3233696,11.335735,-9.71845,1.3675059,0.54140997,0.17591457,0.15196873,0.80798197,-6.6049204,2.3833423,-0.21165895,-3.6311624,4.9109325,0.74351346,0
0.5300000000000002,13.670740460073985,-3.612869534704415,5.999999770976655,-0.0413541948633339,12.50875,-3.9984586,6.2828274,1.3233696,11.269986,-9.694573,1.3655117,0.53762066,0.14636606,0.15012439,0.816703,-6.5460143,2.3925424,-0.18675974,-3.6282642,5.0808644,0.7049998,0
0.5400000000000003,13.670740460073985,-3.612869534704415,5.999999770976655,-0.0413541948633339,12.50875,-3.9984586,6.2828274,1.3233696,11.204792,-9.670583,1.3637795,0.5333351,0.116014265,0.14859065,0.82463044,-6.493837,2.4062607,-0.15927127,-3.6258047,5.2242913,0.668376,0
0.5500000000000003,13.670740460073985,-3.612869534704415,5.999999770976655,-0.0413541948633339,12.50875,-3.9984586,6.2828274,1.3233696,11.140084,-9.646432,1.3623334,0.52855253,0.08497983,0.1472871,0.83169544,-6.448696,2.4245784,-0.1296618,-3.6237187,5.3453455,0.6335494,0
0.5600000000000003,15.497935175546509,-2.00368057249787,5.999999662196929,0.5854539550732133,12.823199,-3.7738912,6.54034,0.554837,11.075791,-9.622075,1.3611919,0.5232722,0.05337328,0.14614537,0.837842,-6.4108706,2.4475284,-0.098435506,-3.6219516,5.447518,0.60043174,0
0.5700000000000003,15.497935175546509,-2.00368057249787,5.999999662196929,0.5854539550732133,12.823199,-3.7738912,6.54034,0.554837,11.011862,-9.597447,1.3604554,0.51740485,0.021643505,0.14564572,0.8429775,-6.3765206,2.4788005,-0.048708573,-3.3696144,5.533777,0.59969676,0
0.5800000000000003,15.497935175546509,-2.00368057249787,5.999999662196929,0.5854539550732133,12.823199,-3.7738912,6.54034,0.554837,10.948233,-9.572482,1.3602194,0.5109087,-0.009843476,0.14617535,0.8470586,-6.3506837,2.5153894,0.0015304312,-3.1566236,5.6065693,0.59899783,0
0.5900000000000003,15.497935175546509,-2.00368057249787,5.999999662196929,0.5854539550732133,12.823199,-3.7738912,6.54034,0.554837,10.88482,-9.547122,1.3604853,0.50384176,-0.041103594,0.14755303,0.8501072,-6.333259,2.5573392,0.051577207,-2.976844,5.667996,0.59833324,0
0.6000000000000003,16.794432042224447,-0.5093922789237522,5.999999424257735,0.7339066071800584,15.169053,-0.6624967,6.4492664,0.40016264,10.82154,-9.521316,1.3612479,0.4962482,-0.0721451,0.14962325,0.8521419,-6.324149,2.604638,0.10075511,-2.8250976,5.7198324,0.59770125,0
0.6100000000000003,16.794432042224447,-0.5093922789237522,5.999999424257735,0.7339066071800584,15.169053,-0.6624967,6.4492664,0.40016264,10.75831,-9.494988,1.3625562,0.488198,-0.10267238,0.15276478,0.85310274,-6.323142,2.6616442,0.16059734,-2.4640067,5.763654,0.60438484,0
0.6200000000000003,16.794432042224447,-0.5093922789237522,5.999999424257735,0.7339066071800584,15.169053,-0.6624967,6.4492664,0.40016264,10.695047,-9.468062,1.3644515,0.47977382,-0.1324537,0.15727323,0.85295874,-6.330631,2.7244272,0.21805748,-2.1592243,5.800623,0.61074054,0
0.6300000000000003,16.794432042224447,-0.5093922789237522,5.999999424257735,0.7339066071800584,15.169053,-0.6624967,6.4492664,0.40016264,10.63167,-9.440479,1.3669066,0.47101665,-0.16157421,0.1629108,0.8517614,-6.346206,2.7929978,0.27244484,-1.9019693,5.8318105,0.61678433,0
0.6400000000000003,16.794432042224447,-0.5093922789237522,5.999999424257735,0.7339066071800584,17.347769,0.5176317,6.179853,0.064662814,10.568097,-9.412183,1.3698875,0.4619534,-0.19010095,0.16947366,0.84955263,-6.369496,2.8673093,0.32311454,-1.6848301,5.858121,0.62253153,0
0.6500000000000004,16.794432042224447,-0.5093922789237522,5.999999424257735,0.7339066071800584,17.347769,0.5176317,6.179853,0.064662814,10.504255,-9.383115,1.3733538,0.4526012,-0.21808569,0.17678711,0.84636724,-6.4001603,2.9472616,0.3694598,-1.501551,5.880316,0.62799674,0
0.6600000000000004,16.794432042224447,-0.5093922789237522,5.999999424257735,0.7339066071800584,17.347769,0.5176317,6.179853,0.064662814,10.440071,-9.353219,1.3772597,0.44297025,-0.2455674,0.18470155,0.84223497,-6.437881,3.0327058,0.41090775,-1.3468521,5.899039,0.63319373,0
0.6700000000000004,16.794432042224447,-0.5093922789237522,5.999999424257735,0.7339066071800584,17.347769,0.5176317,6.179853,0.064662814,10.375476,-9.322442,1.3815533,0.43306625,-0.27257434,0.19308874,0.83718216,-6.482357,3.1234472,0.4469162,-1.2162762,5.914833,0.63813573,0
0.6800000000000004,17.481749491306704,0.5273064344538629,5.999997986267981,0.7125061654344146,18.146578,0.77608085,4.8912063,0.48409754,10.310403,-9.290732,1.3861775,0.4228921,-0.2991259,0.20183882,0.8312325,-6.533297,3.219251,0.4769723,-1.1060618,5.928157,0.6428353,0
0.6900000000000004,17.481749491306704,0.5273064344538629,5.999997986267981,0.7125061654344146,18.146578,0.77608085,4.8912063,0.48409754,10.244779,-9.258019,1.3910958,0.4125793,-0.32506132,0.21120103,0.8243227,-6.592727,3.3239791,0.5055709,-0.8513569,5.9394655,0.6462541,0
0.7000000000000004,17.481749491306704,0.5273064344538629,5.999997986267981,0.7125061654344146,18.146578,0.77608085,4.8912063,0.48409754,10.178529,-9.224236,1.3962643,0.4022459,-0.35025632,0.2213636,0.81640506,-6.658095,3.433514,0.5269769,-0.63637185,5.9489946,0.6495051,0
0.7100000000000004,17.481749491306704,0.5273064344538629,5.999997986267981,0.7125061654344146,18.146578,0.77608085,4.8912063,0.48409754,10.111598,-9.189333,1.4016091,0.39187124,-0.3747684,0.23215634,0.8075205,-6.7289104,3.5476491,0.54072964,-0.45491228,5.9570246,0.65259653,0
0.7200000000000004,17.088994782643805,1.3868152676383088,3.2476429837744374,0.6581734684204766,18.337784,1.5809424,4.699524,0.48450142,10.043933,-9.153268,1.4070512,0.38143414,-0.3986411,0.24343367,0.7977053,-6.804715,3.6661289,0.5464027,-0.30175012,5.9637904,0.65553635,0
0.7300000000000004,17.088994782643805,1.3868152676383088,3.2476429837744374,0.6581734684204766,18.337784,1.5809424,4.699524,0.48450142,9.975496,-9.116011,1.4124973,0.37133986,-0.42091224,0.25493106,0.7873692,-6.8832183,3.7858856,0.54153013,-0.03823893,5.540321,0.65566576,0
0.7400000000000004,17.088994782643805,1.3868152676383088,3.2476429837744374,0.6581734684204766,18.337784,1.5809424,4.699524,0.48450142,9.906256,-9.077538,1.4178541,0.3619601,-0.44087034,0.26646057,0.77692825,-6.9653845,3.9091663,0.52856076,0.18414946,5.182874,0.65578884,0
0.7500000000000004,17.088994782643805,1.3868152676383088,3.2476429837744374,0.6581734684204766,18.337784,1.5809424,4.699524,0.48450142,9.836179,-9.037816,1.4230417,0.3532196,-0.45887816,0.2780073,0.7664067,-7.0504856,4.0355835,0.5077524,0.37183285,4.8811564,0.65590584,0
0.7600000000000005,16.463960909159177,1.7478138343491214,-1.8071466857571166,0.7939312229444111,18.070377,2.6972349,2.9632535,0.25871974,9.765238,-8.996817,1.4279829,0.3450436,-0.47523636,0.28955576,0.75581306,-7.137905,4.1648088,0.47934353,0.5302272,4.6264787,0.6560172,0
0.7700000000000005,16.463960909159177,1.7478138343491214,-1.8071466857571166,0.7939312229444111,18.070377,2.6972349,2.9632535,0.25871974,9.69343,-8.9545355,1.4325918,0.3380206,-0.48863107,0.3005234,0.7461019,-7.2238054,4.29171,0.44140616,0.7205215,3.623243,0.6627847,0
0.7800000000000005,16.463960909159177,1.7478138343491214,-1.8071466857571166,0.7939312229444111,18.070377,2.6972349,2.9632535,0.25871974,9.620758,-8.910975,1.4367908,0.33266377,-0.4981003,0.3104918,0.73812354,-7.310625,4.420627,0.3975878,0.88108045,2.7764497,0.6692201,0
0.7900000000000005,16.463960909159177,1.7478138343491214,-1.8071466857571166,0.7939312229444111,18.070377,2.6972349,2.9632535,0.25871974,9.547216,-8.8661175,1.4405276,0.32878357,-0.50432456,0.3196539,0.7316968,-7.3976626,4.5512624,0.3491229,1.0165502,2.0617032,0.6753397,0
0.8000000000000005,15.99513981446135,1.5090405664470177,-5.999996788411127,0.8570991715126002,17.387924,2.4921873,-2.2228868,0.44858998,9.472806,-8.819945,1.443761,0.3261973,-0.50785404,0.32815883,0.7266306,-7.4843597,4.683429,0.2970763,1.1308498,1.4584128,0.6811591,0
0.8100000000000005,15.99513981446135,1.5090405664470177,-5.999996788411127,0.8570991715126002,17.387924,2.4921873,-2.2228868,0.44858998,9.397545,-8.772462,1.4464539,0.32523772,-0.5079496,0.33551294,0.72362936,-7.567789,4.813188,0.24123704,1.1903421,0.29531088,0.6897925,0
0.8200000000000005,15.99513981446135,1.5090405664470177,-5.999996788411127,0.8570991715126002,17.387924,2.4921873,-2.2228868,0.44858998,9.321455,-8.723676,1.4485824,0.32616213,-0.50404143,0.34132725,0.72322667,-7.649878,4.944111,0.18442635,1.240487,-0.68640965,0.6980023,0
0.8300000000000005,15.99513981446135,1.5090405664470177,-5.999996788411127,0.8570991715126002,17.387924,2.4921873,-2.2228868,0.44858998,9.244554,-8.673575,1.4501443,0.32869262,-0.49674496,0.34583288,0.7249868,-7.7301064,5.0760145,0.1281432,1.2827518,-1.5150349,0.7058092,0
0.8400000000000005,15.99513981446135,1.5090405664470177,-5.999996788411127,0.8570991715126002,16.405659,1.3690763,-5.39118,0.3744857,9.166862,-8.622151,1.4511514,0.33257234,-0.48655212,0.34920645,0.728504,-7.8080072,5.208734,0.07363881,1.3183733,-2.2144394,0.71323305,1
0.8500000000000005,15.99513981446135,1.5090405664470177,-5.999996788411127,0.8570991715126002,16.405659,1.3690763,-5.39118,0.3744857,9.088394,-8.569381,1.4516327,0.33750057,-0.4740801,0.35159686,0.73329514,-7.8850803,5.345514,0.023121633,1.3264812,-2.709861,0.6966105,1
0.8600000000000005,15.99513981446135,1.5090405664470177,-5.999996788411127,0.8570991715126002,16.405659,1.3690763,-5.39118,0.3744857,9.0091715,-8.515239,1.4516264,0.34322587,-0.45983967,0.35312295,0.7389508,-7.9589596,5.4827423,-0.023767,1.3332816,-3.128022,0.6808037,1
0.8700000000000006,15.99513981446135,1.5090405664470177,-5.999996788411127,0.8570991715126002,16.405659,1.3690763,-5.39118,0.3744857,8.929228,-8.459723,1.4511719,0.34959835,-0.4440567,0.35387063,0.74523205,-8.029309,5.620189,-0.066448845,1.3389863,-3.4809706,0.66577256,1
0.8800000000000006,16.269122404624525,0.8111337243669619,-5.99999925406696,0.6524136687313391,15.769551,0.56332326,-6.0033097,-0.0021261112,8.848599,-8.402835,1.4503134,0.35648605,-0.42692193,0.3539111,0.7519328,-8.095802,5.757597,-0.10447221,1.3437731,-3.778877,0.651479,1
0.8900000000000006,16.269122404624525,0.8111337243669619,-5.99999925406696,0.6524136687313391,15.769551,0.56332326,-6.0033097,-0.0021261112,8.767338,-8.344601,1.4490871,0.36375836,-0.40854558,0.35295328,0.75907505,-8.155719,5.889352,-0.13999957,1.2221234,-4.125337,0.6194064,1
0.9000000000000006,16.269122404624525,0.8111337243669619,-5.99999925406696,0.6524136687313391,15.769551,0.56332326,-6.0033097,-0.0021261112,8.685498,-8.28505,1.4475312,0.3713111,-0.38902593,0.3507609,0.76665133,-8.211427,6.0203815,-0.17033449,1.1194143,-4.4177537,0.5889076,1
0.9100000000000006,16.269122404624525,0.8111337243669619,-5.99999925406696,0.6524136687313391,15.769551,0.56332326,-6.0033097,-0.0021261112,8.603125,-8.224196,1.4456992,0.37906966,-0.36849788,0.3474644,0.7744576,-8.262733,6.150245,-0.19517717,1.032699,-4.6645575,0.5599054,1
0.9200000000000006,16.519271903035133,0.0464092706124524,-5.999999355392797,0.5945334652158604,15.213464,-0.40624005,-6.1793437,0.5014508,8.52026,-8.162051,1.4436473,0.38696587,-0.34707838,0.34317613,0.7823201,-8.309447,6.278497,-0.21433069,0.9594885,-4.872863,0.53232634,0
0.9300000000000006,16.519271903035133,0.0464092706124524,-5.999999355392797,0.5945334652158604,15.213464,-0.40624005,-6.1793437,0.5014508,8.436942,-8.098604,1.4414526,0.39480987,-0.32492524,0.3378564,0.7901913,-8.353383,6.41068,-0.22365734,0.81716514,-5.048687,0.53537893,0
0.9400000000000006,16.519271903035133,0.0464092706124524,-5.999999355392797,0.5945334652158604,15.213464,-0.40624005,-6.1793437,0.5014508,8.3532095,-8.033848,1.4391953,0.4024414,-0.30217203,0.3314821,0.79803073,-8.392212,6.5401773,-0.2268592,0.6970277,-5.197084,0.5382816,0
0.9500000000000006,16.519271903035133,0.0464092706124524,-5.999999355392797,0.5945334652158604,15.213464,-0.40624005,-6.1793437,0.5014508,8.269116,-7.967812,1.4369365,0.40984127,-0.27888218,0.32416663,0.8057117,-8.425845,6.666471,-0.22395723,0.5956176,-5.322333,0.5410419,0
0.9600000000000006,17.19670671071969,-0.6316157312287998,-5.999998850762029,0.6013878953480719,15.769496,-1.0484092,-5.923158,0.41854605,8.184711,-7.9005313,1.4347368,0.41698995,-0.2551132,0.31600854,0.81312716,-8.454191,6.789058,-0.2150458,0.5100154,-5.428044,0.5436668,0
0.9700000000000006,17.19670671071969,-0.6316157312287998,-5.999998850762029,0.6013878953480719,15.769496,-1.0484092,-5.923158,0.41854605,8.100045,-7.8320208,1.4326787,0.42380086,-0.23103131,0.30687305,0.82027245,-8.478119,6.912298,-0.19565073,0.3320204,-5.5173025,0.5464992,0
0.9800000000000006,17.19670671071969,-0.6316157312287998,-5.999998850762029,0.6013878953480719,15.769496,-1.0484092,-5.923158,0.41854605,8.015166,-7.7623024,1.4308443,0.43020993,-0.20677724,0.29665893,0.8271376,-8.496494,7.0306168,-0.17034648,0.18177858,-5.592632,0.5491926,0
0.9900000000000007,17.19670671071969,-0.6316157312287998,-5.999998850762029,0.6013878953480719,15.769496,-1.0484092,-5.923158,0.41854605,7.9301324,-7.691427,1.4292914,0.43622777,-0.18236665,0.28549275,0.8336319,-8.509368,7.1434803,-0.13936666,0.05496235,-5.6562057,0.5517538,0
1.0000000000000007,17.040160344779732,-0.9732748540781943,-5.999874123201228,0.5985029791806572,15.633779,-1.264452,-5.820931,0.13975035,7.8449974,-7.6194534,1.4280753,0.44185978,-0.157816,0.27348477,0.8396789,-8.516779,7.250388,-0.103000835,-0.052080825,-5.7098584,0.5541894,0
1.0100000000000007,17.040160344779732,-0.9732748540781943,-5.999874123201228,0.5985029791806572,15.633779,-1.264452,-5.820931,0.13975035,7.7598157,-7.546447,1.4272423,0.44708768,-0.13320336,0.26061633,0.8452509,-8.518755,7.349955,-0.06285552,-0.19571605,-5.7551384,0.5563638,0
1.0200000000000007,17.040160344779732,-0.9732748540781943,-5.999874123201228,0.5985029791806572,15.633779,-1.264452,-5.820931,0.13975035,7.6746407,-7.4724784,1.4268342,0.45189846,-0.10859586,0.24687997,0.8503209,-8.515454,7.4426956,-0.018065812,-0.31695437,-5.7933493,0.5584316,0
1.0300000000000007,17.040160344779732,-0.9732748540781943,-5.999874123201228,0.5985029791806572,15.633779,-1.264452,-5.820931,0.13975035,7.5895243,-7.397618,1.4268956,0.4562994,-0.083996214,0.23238158,0.8548303,-8.506978,7.5281787,0.030972686,-0.41928804,-5.8255944,0.560398,0
1.0400000000000007,17.040160344779732,-0.9732748540781943,-5.999874123201228,0.5985029791806572,15.2242565,-1.5595202,-4.6887336,0.342698,7.5045185,-7.321941,1.4274669,0.46029416,-0.059410058,0.21721415,0.8587307,-8.493421,7.606015,0.08382512,-0.5056649,-5.8528056,0.5622678,0
1.0500000000000007,17.040160344779732,-0.9732748540781943,-5.999874123201228,0.5985029791806572,15.2242565,-1.5595202,-4.6887336,0.342698,7.4196734,-7.2455254,1.4285836,0.46388373,-0.034845613,0.20145951,0.8619817,-8.474878,7.675854,0.1400222,-0.5785731,-5.875768,0.5640458,0
1.0600000000000007,17.040160344779732,-0.9732748540781943,-5.999874123201228,0.5985029791806572,15.2242565,-1.5595202,-4.6887336,0.342698,7.335038,-7.1684527,1.430277,0.46706733,-0.010313315,0.18519007,0.8645502,-8.4514475,7.7373843,0.19906491,-0.64011294,-5.895146,0.56573665,0
1.0700000000000007,17.040160344779732,-0.9732748540781943,-5.999874123201228,0.5985029791806572,15.2242565,-1.5595202,-4.6887336,0.342698,7.250661,-7.0908074,1.4325728,0.46984303,0.014174493,0.16847019,0.8664093,-8.423229,7.7903337,0.26042876,-0.6920572,-5.9114976,0.56734455,0
1.0800000000000007,16.38181071652499,-1.181570683412381,-2.45497725898791,0.6674252870855792,14.593206,-1.6965955,-2.6192973,0.55502367,7.1665893,-7.0126762,1.4354918,0.47220802,0.03860385,0.15135738,0.8675373,-8.390329,7.834472,0.32356793,-0.73590183,-5.9252963,0.56887347,0
1.0900000000000007,16.38181071652499,-1.181570683412381,-2.45497725898791,0.6674252870855792,14.593206,-1.6965955,-2.6192973,0.55502367,7.0828624,-6.9341555,1.4390172,0.47396183,0.061691545,0.13450487,0.8680227,-8.354374,7.8683333,0.38164088,-0.805587,-5.3841305,0.5737095,0
1.1000000000000008,16.38181071652499,-1.181570683412381,-2.45497725898791,0.6674252870855792,14.593206,-1.6965955,-2.6192973,0.55502367,6.9995146,-6.855337,1.4431268,0.4750221,0.08242415,0.11845072,0.86806124,-8.314608,7.894035,0.44034842,-0.86437726,-4.9273553,0.5783081,0
1.1100000000000008,16.38181071652499,-1.181570683412381,-2.45497725898791,0.6674252870855792,14.593206,-1.6965955,-2.6192973,0.55502367,6.916581,-6.776301,1.4478248,0.4755329,0.10115517,0.10308229,0.8677619,-8.27159,7.912116,0.4992645,-0.9139755,-4.5418105,0.5826811,0
1.1200000000000008,15.266164350212927,-1.029703785460046,1.635655914811204,0.7518596806541085,14.436677,-2.1156495,1.1006408,0.7329066,6.8340926,-6.6971197,1.4531116,0.47560444,0.118186034,0.08830045,0.86720014,-8.225796,7.9230533,0.5580571,-0.9558187,-4.216388,0.58683956,0
1.1300000000000008,15.266164350212927,-1.029703785460046,1.635655914811204,0.7518596806541085,14.436677,-2.1156495,1.1006408,0.7329066,6.752057,-6.6178646,1.4589313,0.47517788,0.13238585,0.074850015,0.86664754,-8.180955,7.9270725,0.60581946,-0.9676719,-3.3037748,0.59493715,0
1.1400000000000008,15.266164350212927,-1.029703785460046,1.635655914811204,0.7518596806541085,14.436677,-2.1156495,1.1006408,0.7329066,6.6704783,-6.5385966,1.4652264,0.47426054,0.14288387,0.06331829,0.866402,-8.134612,7.925892,0.65316606,-0.97763103,-2.5334818,0.6026374,0
1.1500000000000008,15.266164350212927,-1.029703785460046,1.635655914811204,0.7518596806541085,14.436677,-2.1156495,1.1006408,0.7329066,6.5893683,-6.4593616,1.4719931,0.4729979,0.15026473,0.05340936,0.866511,-8.087417,7.920525,0.7001463,-0.98599756,-1.883315,0.6099598,0
1.1600000000000008,14.606598277544025,-0.7672167715577359,5.948867879212994,0.7471811156512426,14.705994,-1.8167257,4.112467,0.9264713,6.508732,-6.3801975,1.4792284,0.4714903,0.15501918,0.044869665,0.86697924,-8.039906,7.911824,0.74686277,-0.9930252,-1.3345407,0.61692286,0
1.1700000000000008,14.606598277544025,-0.7672167715577359,5.948867879212994,0.7471811156512426,14.705994,-1.8167257,4.112467,0.9264713,6.42856,-6.3011312,1.4868988,0.46971968,0.156112,0.038387105,0.86805487,-7.994621,7.9010897,0.7872151,-0.95826566,-0.1986871,0.6233147,0
1.1800000000000008,14.606598277544025,-0.7672167715577359,5.948867879212994,0.7471811156512426,14.705994,-1.8167257,4.112467,0.9264713,6.3488364,-6.2221794,1.4949734,0.4676766,0.1527398,0.034491427,0.86991954,-7.9502096,7.8891554,0.8277525,-0.9288636,0.760029,0.62939286,0
1.1900000000000008,14.606598277544025,-0.7672167715577359,5.948867879212994,0.7471811156512426,14.705994,-1.8167257,4.112467,0.9264713,6.26955,-6.143348,1.5034556,0.46541107,0.14558831,0.03276991,0.87242377,-7.9073725,7.8772235,0.8687839,-0.90399235,1.5692323,0.6351727,0
1.2000000000000008,13.893798046878638,-0.3479139618762668,5.999995440715137,0.632455822943368,14.738516,-1.0850335,6.120201,0.842408,6.1906815,-6.0646315,1.5123515,0.4629381,0.13523038,0.032873657,0.87539756,-7.8667197,7.866302,0.9105505,-0.88295245,2.2522397,0.640669,1
1.2100000000000009,13.893798046878638,-0.3479139618762668,5.999995440715137,0.632455822943368,14.738516,-1.0850335,6.120201,0.842408,6.1122084,-5.9860153,1.521676,0.46025774,0.12207071,0.03440434,0.87867993,-7.8284574,7.857149,0.9544835,-0.91472864,2.8366816,0.6505684,1
1.2200000000000009,13.893798046878638,-0.3479139618762668,5.999995440715137,0.632455822943368,14.738516,-1.0850335,6.120201,0.842408,6.0341015,-5.9074793,1.5314445,0.45735314,0.10645533,0.037030216,0.8821138,-7.7934885,7.850553,0.9994023,-0.94151676,3.3299823,0.6599821,1
1.2300000000000009,13.893798046878638,-0.3479139618762668,5.999995440715137,0.632455822943368,14.738516,-1.0850335,6.120201,0.842408,5.9563255,-5.828994,1.5416672,0.4541955,0.08875123,0.040568966,0.8855419,-7.762309,7.847081,1.0453022,-0.96409875,3.7463546,0.66893375,1
1.2400000000000009,13.893798046878638,-0.3479139618762668,5.999995440715137,0.632455822943368,14.761374,-0.35202354,6.0885806,0.4878064,5.878841,-5.7505255,1.5523535,0.4507561,0.06927205,0.044866256,0.8888239,-7.735363,7.8472013,1.0920937,-0.98313415,4.097796,0.6774461,1
1.2500000000000009,13.893798046878638,-0.3479139618762668,5.999995440715137,0.632455822943368,14.761374,-0.35202354,6.0885806,0.4878064,5.8016024,-5.6720357,1.5635126,0.44702965,0.048417218,0.05005519,0.89180464,-7.712996,7.8513126,1.1398342,-0.8848171,4.394492,0.66814053,1
1.260000000000001,13.893798046878638,-0.3479139618762668,5.999995440715137,0.632455822943368,14.761374,-0.35202354,6.0885806,0.4878064,5.7245636,-5.5934834,1.5751517,0.44302398,0.026520833,0.056234054,0.89435166,-7.695501,7.859798,1.1880494,-0.80181044,4.6449113,0.6592915,1
1.270000000000001,13.893798046878638,-0.3479139618762668,5.999995440715137,0.632455822943368,14.761374,-0.35202354,6.0885806,0.4878064,5.647675,-5.514824,1.5872741,0.4387313,0.003746401,0.06323404,0.8963833,-7.6830716,7.8729844,1.2364333,-0.73173064,4.8562703,0.65087676,1
1.280000000000001,13.301775939621209,-0.01433130177061232,5.999993169847092,0.4936962266694861,14.696378,-0.18559363,4.706412,0.34088293,5.5708847,-5.436007,1.5998799,0.43414378,-0.019762604,0.07091091,0.8978313,-7.675878,7.8911242,1.2846371,-0.672565,5.034663,0.64287484,0
1.290000000000001,13.301775939621209,-0.01433130177061232,5.999993169847092,0.4936962266694861,14.696378,-0.18559363,4.706412,0.34088293,5.494138,-5.3569946,1.612893,0.42925733,-0.043821245,0.07926261,0.89863014,-7.67424,7.912108,1.3178654,-0.5699521,5.1852517,0.63555455,0
1.300000000000001,13.301775939621209,-0.01433130177061232,5.999993169847092,0.4936962266694861,14.696378,-0.18559363,4.706412,0.34088293,5.4173827,-5.2777486,1.626234,0.42407244,-0.06827205,0.08827952,0.89872634,-7.6775136,7.9378743,1.3502078,-0.48333195,5.312348,0.6285935,0
1.310000000000001,13.301775939621209,-0.01433130177061232,5.999993169847092,0.4936962266694861,14.696378,-0.18559363,4.706412,0.34088293,5.3405704,-5.1982203,1.6398926,0.41858786,-0.09303284,0.09783647,0.8980857,-7.685739,7.9685273,1.3812684,-0.41021204,5.4196177,0.6219741,0
1.320000000000001,12.16559348173475,0.28412153630162074,3.9067872421371486,0.3892713103291488,13.051453,0.49768367,1.9459964,0.32805648,5.2636504,-5.118361,1.6538537,0.41280216,-0.11802935,0.10782584,0.89668155,-7.6989393,8.004118,1.4106385,-0.3484888,5.5101533,0.61567944,0
1.330000000000001,12.16559348173475,0.28412153630162074,3.9067872421371486,0.3892713103291488,13.051453,0.49768367,1.9459964,0.32805648,5.1865816,-5.0381384,1.6680444,0.40684026,-0.14239793,0.11791827,0.8945948,-7.7155347,8.041163,1.4272077,-0.24969518,5.2601504,0.6045695,0
1.340000000000001,12.16559348173475,0.28412153630162074,3.9067872421371486,0.3892713103291488,13.051453,0.49768367,1.9459964,0.32805648,5.1093254,-4.9575233,1.6823903,0.40084013,-0.16545928,0.1278586,0.891966,-7.7364216,8.082492,1.4415923,-0.1663287,5.0491285,0.59400475,0
1.350000000000001,12.16559348173475,0.28412153630162074,3.9067872421371486,0.3892713103291488,13.051453,0.49768367,1.9459964,0.32805648,5.03184,-4.876475,1.6968681,0.39481324,-0.18740067,0.13766044,0.88884974,-7.7613287,8.127852,1.4535799,-0.09598038,4.8710093,0.5839584,0
1.360000000000001,11.423077980551726,0.3676963715648723,0.5767352465330902,0.3642026882485168,11.977613,0.5956767,-0.12241509,0.24679285,4.954086,-4.7949533,1.711453,0.3887649,-0.20837994,0.14733423,0.885287,-7.790016,8.17702,1.4629838,-0.036616974,4.720662,0.5744051,1
1.370000000000001,11.423077980551726,0.3676963715648723,0.5767352465330902,0.3642026882485168,11.977613,0.5956767,-0.12241509,0.24679285,4.8760295,-4.712927,1.7261103,0.38299045,-0.22706386,0.15637471,0.88165075,-7.821716,8.228921,1.4680609,0.06231329,3.9654233,0.5583291,1
1.380000000000001,11.423077980551726,0.3676963715648723,0.5767352465330902,0.3642026882485168,11.977613,0.5956767,-0.12241509,0.24679285,4.7976418,-4.630365,1.7408057,0.3777749,-0.24243098,0.16440423,0.8783424,-7.856315,8.28382,1.4706279,0.14575621,3.327956,0.54304194,1
1.390000000000001,11.423077980551726,0.3676963715648723,0.5767352465330902,0.3642026882485168,11.977613,0.5956767,-0.12241509,0.24679285,4.7188954,-4.547241,1.7555152,0.37309006,-0.25502,0.17159735,0.8753992,-7.8932366,8.341223,1.4709498,0.21613804,2.7898953,0.52850497,1
1.400000000000001,10.506443957211951,0.19217666838352201,-3.579299897964718,0.33470435268609317,12.176432,0.26328686,-4.6519146,0.51871014,4.6397705,-4.4635324,1.7702179,0.36889726,-0.26528144,0.17809694,0.87282455,-7.9320045,8.400738,1.4692897,0.27550447,2.3357399,0.5146813,0
1.410000000000001,10.506443957211951,0.19217666838352201,-3.579299897964718,0.33470435268609317,12.176432,0.26328686,-4.6519146,0.51871014,4.5602756,-4.3792577,1.7848368,0.36535284,-0.272445,0.18337546,0.8710139,-7.967249,8.454478,1.4543041,0.26282704,1.4132868,0.5058498,0
1.420000000000001,10.506443957211951,0.19217666838352201,-3.579299897964718,0.33470435268609317,12.176432,0.26328686,-4.6519146,0.51871014,4.4804235,-4.2944393,1.7993004,0.36258435,-0.27592465,0.18702917,0.87029827,-8.00323,8.509272,1.43831,0.25206926,0.63469106,0.49745163,0
1.430000000000001,10.506443957211951,0.19217666838352201,-3.579299897964718,0.33470435268609317,12.176432,0.26328686,-4.6519146,0.51871014,4.40021,-4.20907,1.8136013,0.36049956,-0.27630717,0.1893256,0.87054634,-8.039468,8.5646515,1.4218081,0.24294195,-0.022482991,0.4894656,0
1.440000000000001,10.506443957211951,0.19217666838352201,-3.579299897964718,0.33470435268609317,12.010642,0.56731945,-5.6712537,0.5988481,4.3196344,-4.1231456,1.8277364,0.3590057,-0.27407804,0.19048291,0.87161523,-8.075556,8.620239,1.4052323,0.23519914,-0.5771703,0.4818714,0
1.450000000000001,10.506443957211951,0.19217666838352201,-3.579299897964718,0.33470435268609317,12.010642,0.56731945,-5.6712537,0.5988481,4.2387,-4.036666,1.841707,0.3580142,-0.2696404,0.19067967,0.87336236,-8.111148,8.675716,1.3889489,0.22863193,-1.0453538,0.47464988,0
1.460000000000001,10.506443957211951,0.19217666838352201,-3.579299897964718,0.33470435268609317,12.010642,0.56731945,-5.6712537,0.5988481,4.1574135,-3.949633,1.8555175,0.3574434,-0.26333013,0.19006275,0.875653,-8.145947,8.730814,1.3732609,0.22306263,-1.4405242,0.4677827,0
1.470000000000001,10.506443957211951,0.19217666838352201,-3.579299897964718,0.33470435268609317,12.010642,0.56731945,-5.6712537,0.5988481,4.0757847,-3.8620517,1.8691752,0.35721955,-0.25542837,0.18875356,0.87836397,-8.179691,8.785302,1.3584116,0.21833992,-1.7740675,0.4612525,0
1.480000000000001,10.219491862177884,-0.1050357223724652,-5.997683815886299,0.29053301369993323,12.079638,-0.83853304,-5.721058,2.316079,3.9938242,-3.7739296,1.8826894,0.35727727,-0.24617118,0.18685296,0.88138485,-8.212153,8.83898,1.3445914,0.2143359,-2.0555944,0.45504272,0
1.490000000000001,10.219491862177884,-0.1050357223724652,-5.997683815886299,0.29053301369993323,12.079638,-0.83853304,-5.721058,2.316079,3.9115508,-3.685283,1.8960595,0.35771257,-0.23494501,0.18399179,0.8848673,-8.242262,8.890203,1.3296354,0.16469842,-2.6703765,0.4469702,0
1.500000000000001,10.219491862177884,-0.1050357223724652,-5.997683815886299,0.29053301369993323,12.079638,-0.83853304,-5.721058,2.316079,3.8289852,-3.5961304,1.9092871,0.3585834,-0.22126262,0.17987382,0.88887954,-8.270569,8.940101,1.3161054,0.12276876,-3.1892812,0.4392938,0
1.5100000000000011,10.219491862177884,-0.1050357223724652,-5.997683815886299,0.29053301369993323,12.079638,-0.83853304,-5.721058,2.316079,3.746147,-3.506487,1.9223874,0.35978118,-0.20547758,0.17467366,0.8932112,-8.296728,8.988311,1.3042284,0.08735086,-3.6272607,0.43199405,0
1.5200000000000011,10.050616690811966,-0.46673930601761887,-5.9999883669559315,0.17651717680171766,12.885571,-0.68553495,-5.9410706,1.6247957,3.663059,-3.416371,1.9353777,0.36120933,-0.18788989,0.1685377,0.8976752,-8.32043,9.034505,1.2941451,0.05743432,-3.9969358,0.42505252,0
1.5300000000000011,10.050616690811966,-0.46673930601761887,-5.9999883669559315,0.17651717680171766,12.885571,-0.68553495,-5.9410706,1.6247957,3.5797496,-3.3258085,1.9482692,0.36276948,-0.16880971,0.1614567,0.9021274,-8.341052,9.077657,1.2844347,-0.024258114,-4.309334,0.41285685,0
1.5400000000000011,10.050616690811966,-0.46673930601761887,-5.9999883669559315,0.17651717680171766,12.885571,-0.68553495,-5.9410706,1.6247957,3.4962482,-3.2348268,1.9610727,0.36438206,-0.14850058,0.15343001,0.9064397,-8.358772,9.118233,1.2765539,-0.09322639,-4.573008,0.4012596,0
1.5500000000000012,10.050616690811966,-0.46673930601761887,-5.9999883669559315,0.17651717680171766,12.885571,-0.68553495,-5.9410706,1.6247957,3.4125848,-3.1434536,1.9738064,0.36599308,-0.12713858,0.14458485,0.91048366,-8.373408,9.155953,1.2704468,-0.15145163,-4.795559,0.3902314,0
1.5600000000000012,9.788370676002462,-0.7190728800127146,-5.999988985950189,0.15394485093509136,12.9977455,-1.4763601,-5.779531,1.9734781,3.3287911,-3.0517185,1.9864874,0.36755523,-0.10487711,0.13503082,0.9141504,-8.3848,9.190566,1.2660047,-0.20060688,-4.9834003,0.37974438,0
1.5700000000000012,9.788370676002462,-0.7190728800127146,-5.999988985950189,0.15394485093509136,12.9977455,-1.4763601,-5.779531,1.9734781,3.2449014,-2.9596577,1.9991192,0.36902013,-0.08188808,0.1247702,0.917361,-8.3926,9.221024,1.260591,-0.28145924,-5.141955,0.36866435,0
1.5800000000000012,9.788370676002462,-0.7190728800127146,-5.999988985950189,0.15394485093509136,12.9977455,-1.4763601,-5.779531,1.9734781,3.1609507,-2.8673096,2.0117037,0.37034938,-0.058319725,0.11381194,0.9200475,-8.397009,9.248014,1.256466,-0.34970888,-5.2757792,0.358128,0
1.5900000000000012,9.788370676002462,-0.7190728800127146,-5.999988985950189,0.15394485093509136,12.9977455,-1.4763601,-5.779531,1.9734781,3.0769732,-2.77471,2.0242527,0.37151775,-0.034266442,0.10225417,0.92214155,-8.397952,9.271339,1.2534143,-0.40731972,-5.38873,0.34810868,0
1.6000000000000012,9.690765373082863,-0.8473077187730563,-5.999977232553247,0.1672528945103148,13.605331,-2.1553254,-5.7667475,2.6632948,2.9930038,-2.681896,2.036775,0.37250295,-0.009812588,0.09018253,0.923587,-8.395372,9.290828,1.251192,-0.45594996,-5.4840636,0.33858103,0
1.6100000000000012,9.690765373082863,-0.8473077187730563,-5.999977232553247,0.1672528945103148,13.605331,-2.1553254,-5.7667475,2.6632948,2.9090776,-2.588908,2.0492735,0.37328377,0.014947068,0.07762468,0.92434347,-8.389292,9.30618,1.2485707,-0.5169948,-5.5645304,0.3301739,0
1.6200000000000012,9.690765373082863,-0.8473077187730563,-5.999977232553247,0.1672528945103148,13.605331,-2.1553254,-5.7667475,2.6632948,2.8252301,-2.4957867,2.0617476,0.37384298,0.039929014,0.06460903,0.92437726,-8.37967,9.317459,1.2462254,-0.5685217,-5.632446,0.32217935,0
1.6300000000000012,9.690765373082863,-0.8473077187730563,-5.999977232553247,0.1672528945103148,13.605331,-2.1553254,-5.7667475,2.6632948,2.7414963,-2.4025733,2.0741982,0.37416747,0.06507642,0.051207226,0.9236569,-8.36651,9.324559,1.2438601,-0.6120145,-5.6897683,0.31457704,0
1.6400000000000012,9.690765373082863,-0.8473077187730563,-5.999977232553247,0.1672528945103148,12.655536,-0.88523245,-5.7690697,0.90654296,2.6579118,-2.3093102,2.086624,0.3742455,0.0903371,0.037482414,0.9221578,-8.349832,9.327398,1.2411666,-0.6487253,-5.7381496,0.3073478,0
1.6500000000000012,9.690765373082863,-0.8473077187730563,-5.999977232553247,0.1672528945103148,12.655536,-0.88523245,-5.7690697,0.90654296,2.5745115,-2.2160404,2.0990195,0.3740668,0.1156629,0.023490503,0.91986126,-8.329666,9.325918,1.2378283,-0.6797117,-5.7789845,0.3004733,0
1.6600000000000013,9.690765373082863,-0.8473077187730563,-5.999977232553247,0.1672528945103148,12.655536,-0.88523245,-5.7690697,0.90654296,2.4913301,-2.122807,2.1113772,0.37362242,0.14100918,0.009281203,0.9167535,-8.306061,9.320086,1.2335227,-0.70586634,-5.8134503,0.29393616,0
1.6700000000000013,9.690765373082863,-0.8473077187730563,-5.999977232553247,0.1672528945103148,12.655536,-0.88523245,-5.7690697,0.90654296,2.408402,-2.0296538,2.1236856,0.37290463,0.16633435,-0.0051010754,0.9128249,-8.279079,9.309887,1.2279239,-0.7279423,-5.8425403,0.28771976,0
1.6800000000000013,9.41024969145856,-0.7885211970950622,-5.550375678151355,0.2879642919655307,13.001783,-0.7836552,-5.7937746,0.89810175,2.3257601,-1.9366243,2.1359298,0.3719068,0.19159943,-0.019616451,0.9080697,-8.248795,9.295333,1.2207062,-0.74657524,-5.8670926,0.2818084,0
1.6900000000000013,9.41024969145856,-0.7885211970950622,-5.550375678151355,0.2879642919655307,13.001783,-0.7836552,-5.7937746,0.89810175,2.2434323,-1.8437593,2.1480796,0.3706109,0.21661387,-0.034143835,0.9025301,-8.216271,9.277007,1.2089734,-0.75312454,-5.8177023,0.28211048,0
1.7000000000000013,9.41024969145856,-0.7885211970950622,-5.550375678151355,0.2879642919655307,13.001783,-0.7836552,-5.7937746,0.89810175,2.161445,-1.7510983,2.160102,0.3690082,0.2412253,-0.048585113,0.8962606,-8.180759,9.254575,1.1950673,-0.75865114,-5.7760143,0.2823977,0
1.7100000000000013,9.41024969145856,-0.7885211970950622,-5.550375678151355,0.2879642919655307,13.001783,-0.7836552,-5.7937746,0.89810175,2.0798268,-1.6586816,2.1719728,0.36710575,0.26545027,-0.06293745,0.88927424,-8.142396,9.228146,1.178715,-0.7633148,-5.7408276,0.28267086,0
1.7200000000000013,9.444508757801884,-0.6129021116678738,-5.260280344025645,0.3918496389169082,12.749685,-0.32724372,-6.3202763,1.1046876,1.9986061,-1.5665486,2.1836667,0.36490932,0.28930026,-0.077196926,0.88158244,-8.101323,9.197836,1.1596549,-0.7672502,-5.7111273,0.2829306,0
1.7300000000000013,9.444508757801884,-0.6129021116678738,-5.260280344025645,0.3918496389169082,12.749685,-0.32724372,-6.3202763,1.1046876,1.9178098,-1.4747382,2.195157,0.362402,0.31270558,-0.0912586,0.8732423,-8.057528,9.163652,1.137916,-0.7431728,-5.6408157,0.2882753,0
1.7400000000000013,9.444508757801884,-0.6129021116678738,-5.260280344025645,0.3918496389169082,12.749685,-0.32724372,-6.3202763,1.1046876,1.8374637,-1.3832878,2.2064142,0.3595726,0.33561248,-0.105040446,0.8643139,-8.01131,9.125874,1.1129894,-0.72284967,-5.5814695,0.2933577,0
1.7500000000000013,9.444508757801884,-0.6129021116678738,-5.260280344025645,0.3918496389169082,12.749685,-0.32724372,-6.3202763,1.1046876,1.7575914,-1.2922324,2.217405,0.35643345,0.3580479,-0.11856823,0.8548091,-7.9628253,9.084676,1.0846727,-0.70569575,-5.531379,0.2981907,0
1.7600000000000013,9.142701917028,-0.24904843309072627,-3.596977164755881,0.5200600238379838,12.405158,0.23646055,-6.223841,1.34958,1.6782146,-1.2016054,2.2280953,0.35299525,0.38003254,-0.13186242,0.8447378,-7.912227,9.040237,1.0527755,-0.69121635,-5.4891005,0.3027866,0
1.7700000000000014,9.142701917028,-0.24904843309072627,-3.596977164755881,0.5200600238379838,12.405158,0.23646055,-6.223841,1.34958,1.5993451,-1.1114306,2.238438,0.34929273,0.4010756,-0.14459023,0.8344019,-7.861357,8.994272,1.0151441,-0.62228245,-5.194016,0.31344825,0
1.7800000000000014,9.142701917028,-0.24904843309072627,-3.596977164755881,0.5200600238379838,12.405158,0.23646055,-6.223841,1.34958,1.5209931,-1.021729,2.2483857,0.3453752,0.42081338,-0.1565007,0.82409924,-7.8087955,8.945642,0.9738736,-0.56409484,-4.9449506,0.32358673,0
1.7900000000000014,9.142701917028,-0.24904843309072627,-3.596977164755881,0.5200600238379838,12.405158,0.23646055,-6.223841,1.34958,1.4431744,-0.9325258,2.2579029,0.34126815,0.43942952,-0.16771817,0.8138233,-7.75473,8.894632,0.92899185,-0.514978,-4.7347274,0.33322775,0
1.8000000000000014,9.427340940242711,0.09317659920933774,-1.9245989649328328,0.5396446766944967,12.243666,0.27100882,-3.03455,0.9332709,1.3659031,-0.8438437,2.2669532,0.3369907,0.4570771,-0.17834663,0.80356103,-7.6993265,8.841489,0.8805273,-0.47351745,-4.5572896,0.34239566,0
1.8100000000000014,9.427340940242711,0.09317659920933774,-1.9245989649328328,0.5396446766944967,12.243666,0.27100882,-3.03455,0.9332709,1.2892008,-0.75571114,2.2755084,0.3326172,0.47339806,-0.1881418,0.793639,-7.640974,8.784734,0.82996595,-0.38520703,-4.1467056,0.3520747,0
1.8200000000000014,9.427340940242711,0.09317659920933774,-1.9245989649328328,0.5396446766944967,12.243666,0.27100882,-3.03455,0.9332709,1.2130873,-0.6681547,2.2835407,0.3282229,0.48813853,-0.19692601,0.78435373,-7.5815625,8.726313,0.7759526,-0.31065992,-3.800154,0.36127883,0
1.8300000000000014,9.427340940242711,0.09317659920933774,-1.9245989649328328,0.5396446766944967,12.243666,0.27100882,-3.03455,0.9332709,1.1375726,-0.5811897,2.2910166,0.32381877,0.5015525,-0.20486729,0.7756392,-7.5212364,8.666494,0.718708,-0.24773055,-3.5076487,0.37003133,0
1.8400000000000014,9.427340940242711,0.09317659920933774,-1.9245989649328328,0.5396446766944967,11.859331,0.20888175,1.5590292,0.6092956,1.0626653,-0.49482888,2.297905,0.31941018,0.5138504,-0.21210533,0.76742846,-7.460112,8.605503,0.6584285,-0.19460808,-3.2607613,0.3783543,0
1.8500000000000014,9.427340940242711,0.09317659920933774,-1.9245989649328328,0.5396446766944967,11.859331,0.20888175,1.5590292,0.6092956,0.9883729,-0.40908307,2.3041759,0.31499887,0.5252067,-0.21875632,0.75965744,-7.3982825,8.543521,0.5952866,-0.14976373,-3.0523775,0.38626885,0
1.8600000000000014,9.427340940242711,0.09317659920933774,-1.9245989649328328,0.5396446766944967,11.859331,0.20888175,1.5590292,0.6092956,0.91470194,-0.32396135,2.3098013,0.31058455,0.5357663,-0.22491676,0.75226605,-7.3358245,8.480704,0.5294327,-0.11190746,-2.876492,0.393795,0
1.8700000000000014,9.427340940242711,0.09317659920933774,-1.9245989649328328,0.5396446766944967,11.859331,0.20888175,1.5590292,0.6092956,0.8416584,-0.23947138,2.3147554,0.3061655,0.54564977,-0.2306669,0.74519926,-7.272801,8.417183,0.46099696,-0.079949975,-2.728037,0.4009519,0
1.8800000000000014,9.052873514028486,0.47174217044898953,0.997422927752216,0.5575424300609897,10.56882,0.68904877,4.656831,0.28332576,0.7692477,-0.1556197,2.3190129,0.30173928,0.5549572,-0.2360734,0.7384073,-7.209266,8.353068,0.3900915,-0.05297202,-2.6027346,0.4077576,0
1.8900000000000015,9.052873514028486,0.47174217044898953,0.997422927752216,0.5575424300609897,10.56882,0.68904877,4.656831,0.28332576,0.697462,-0.07239886,2.322544,0.29749805,0.5629612,-0.2407326,0.7325418,-7.1478124,8.291035,0.31587237,0.02871769,-2.04127,0.4151076,0
1.9000000000000015,9.052873514028486,0.47174217044898953,0.997422927752216,0.5575424300609897,10.56882,0.68904877,4.656831,0.28332576,0.62629277,0.010199949,2.3253236,0.29360744,0.5691138,-0.24434133,0.72814935,-7.085981,8.22869,0.2398029,0.09768642,-1.5673684,0.4220969,0
1.9100000000000015,9.052873514028486,0.47174217044898953,0.997422927752216,0.5575424300609897,10.56882,0.68904877,4.656831,0.28332576,0.5557435,0.09217439,2.3273351,0.29002395,0.5737252,-0.24708161,0.7250353,-7.023825,8.16618,0.16230257,0.15591533,-1.1673739,0.42874327,0
1.9200000000000015,9.129328972192097,0.5759269971444405,5.5746798100649775,0.5710992575657882,8.803442,1.137386,6.073749,0.17001794,0.48581722,0.17352337,2.3285658,0.28670603,0.577049,-0.24910246,0.7230229,-6.9613824,8.103611,0.08372979,0.20507765,-0.8297605,0.43506345,1
1.9300000000000015,9.129328972192097,0.5759269971444405,5.5746798100649775,0.5710992575657882,8.803442,1.137386,6.073749,0.17001794,0.41652662,0.25423688,2.3290102,0.28395683,0.57804036,-0.2497712,0.7230851,-6.897544,8.039947,0.0048075058,0.35395283,0.1932998,0.4223888,1
1.9400000000000015,9.129328972192097,0.5759269971444405,5.5746798100649775,0.5710992575657882,8.803442,1.137386,6.073749,0.17001794,0.347857,0.33433306,2.3286593,0.28206676,0.57572716,-0.24853265,0.7260909,-6.836362,7.979346,-0.07491225,0.47608548,1.0986841,0.41002333,1
1.9500000000000015,9.129328972192097,0.5759269971444405,5.5746798100649775,0.5710992575657882,8.803442,1.137386,6.073749,0.17001794,0.2797998,0.41382518,2.327515,0.28092068,0.57053804,-0.24566615,0.7315859,-6.7750664,7.919156,-0.15377839,0.5790248,1.8630648,0.39824617,1
1.9600000000000015,8.618865590080274,0.7645218874083952,5.999999029003824,0.5260578953116033,6.0283933,0.9415131,6.4457316,-0.8607299,0.21235584,0.4927181,2.325589,0.28038192,0.5628669,-0.24140786,0.7391137,-6.713722,7.8595276,-0.23111442,0.66595185,2.5082352,0.38704693,0
1.9700000000000015,8.618865590080274,0.7645218874083952,5.999999029003824,0.5260578953116033,6.0283933,0.9415131,6.4457316,-0.8607299,0.14551875,0.5710244,2.3228974,0.2803776,0.5529788,-0.23608498,0.7482424,-6.653715,7.8018517,-0.30684048,0.6811732,3.0527809,0.39386827,0
1.9800000000000015,8.618865590080274,0.7645218874083952,5.999999029003824,0.5260578953116033,6.0283933,0.9415131,6.4457316,-0.8607299,0.07928089,0.648758,2.3194609,0.2808316,0.54109156,-0.22996716,0.7585964,-6.5938973,7.7450066,-0.38007247,0.69403887,3.5124042,0.40035483,0
1.9900000000000015,8.618865590080274,0.7645218874083952,5.999999029003824,0.5260578953116033,6.0283933,0.9415131,6.4457316,-0.8607299,0.013639582,0.72592777,2.3153057,0.28162497,0.5274352,-0.2231534,0.7698714,-6.5344334,7.6891227,-0.45044747,0.70491403,3.9003491,0.4065231,0
2.0000000000000013,,,,,8.436977,1.2583715,5.693981,1.0709732,-0.051409595,0.8025442,2.3104625,0.28265563,0.5122041,-0.21572608,0.7818024,-6.4754987,7.6343384,-0.51767826,0.714107,4.2277937,0.41238874,1
2.010000000000001,,,,,8.436977,1.2583715,5.693981,1.0709732,-0.11587901,0.87862456,2.30496,0.28365767,0.49570292,-0.20766866,0.79416037,-6.4185038,7.581935,-0.5822713,0.79882985,4.4564843,0.4447057,1
2.020000000000001,,,,,8.436977,1.2583715,5.693981,1.0709732,-0.1797826,0.95418775,2.2988288,0.28441322,0.47818848,-0.19897445,0.8067553,-6.3623567,7.530935,-0.643444,0.87034625,4.649509,0.47543684,1
2.0300000000000007,,,,,8.436977,1.2583715,5.693981,1.0709732,-0.2431296,1.0292487,2.2921033,0.28490672,0.459752,-0.18972188,0.81942785,-6.307208,7.481523,-0.7011201,0.93071675,4.8124304,0.50465995,1
2.0400000000000005,,,,,8.436977,1.2583715,5.693981,1.0709732,-0.30593076,1.1038243,2.2848186,0.2851252,0.44047508,-0.1799789,0.8320415,-6.2532206,7.4338775,-0.7552643,0.9816797,4.9499426,0.5324491,1
2.0500000000000003,,,,,8.510712,1.2280836,5.680227,1.0320992,-0.36819857,1.177933,2.27701,0.28505817,0.42043135,-0.16980463,0.8444796,-6.2005644,7.38817,-0.8058787,1.0247022,5.066007,0.55887467,1
2.06,,,,,8.510712,1.2280836,5.680227,1.0320992,-0.42994496,1.2515931,2.2687151,0.28470555,0.39968982,-0.1592606,0.856637,-6.1489677,7.3441815,-0.852554,1.0563064,5.1618223,0.5820959,1
2.07,,,,,8.510712,1.2280836,5.680227,1.0320992,-0.49118376,1.3248245,2.2599707,0.2840682,0.37831375,-0.14840011,0.8684247,-6.0990725,7.3024654,-0.89577365,1.082989,5.242693,0.6041778,1
2.0799999999999996,,,,,8.510712,1.2280836,5.680227,1.0320992,-0.5519329,1.3976506,2.250811,0.28314015,0.35635936,-0.13726057,0.87977237,-6.051061,7.263164,-0.93563396,1.1055168,5.3109503,0.625176,1
2.0899999999999994,,,,,9.340119,0.7612867,5.6765566,0.53032804,-0.612212,1.4700966,2.2412696,0.2819172,0.33387867,-0.12587526,0.89061964,-6.005113,7.2264094,-0.9722564,1.1245377,5.3685613,0.64514387,1
2.099999999999999,,,,,9.340119,0.7612867,5.6765566,0.53032804,-0.6720213,1.5421714,2.2314084,0.2805133,0.3108768,-0.11442106,0.9008751,-5.9571514,7.188997,-0.9994926,1.0678887,5.4165654,0.6395098,1
2.109999999999999,,,,,9.340119,0.7612867,5.6765566,0.53032804,-0.73136425,1.613887,2.2212913,0.27902403,0.28736612,-0.10304268,0.9104662,-5.911871,7.1545873,-1.0235159,1.0200764,5.4570875,0.63415223,1
2.1199999999999988,,,,,9.340119,0.7612867,5.6765566,0.53032804,-0.79026866,1.6852736,2.210949,0.2774234,0.2634029,-0.09172452,0.9193704,-5.869485,7.123242,-1.044528,0.97972226,5.4912934,0.62905765,1
2.1299999999999986,,,,,10.9493265,0.005852663,5.865964,0.48962456,-0.84876454,1.7563624,2.2004106,0.27569064,0.23903844,-0.08045451,0.92756814,-5.8301907,7.0950165,-1.0627471,0.9456629,5.5201683,0.624213,1
2.1399999999999983,,,,,10.9493265,0.005852663,5.865964,0.48962456,-0.9068523,1.8271629,2.1897736,0.27388942,0.21416652,-0.0694828,0.93503463,-5.787976,7.0656343,-1.0642015,0.79910207,5.5740323,0.6176087,1
2.149999999999998,,,,,10.9493265,0.005852663,5.865964,0.48962456,-0.9645383,1.8976879,2.1791356,0.27206072,0.18870884,-0.059010714,0.9417484,-5.7498765,7.039937,-1.0629338,0.6753998,5.6195064,0.6113285,1
2.159999999999998,,,,,10.9493265,0.005852663,5.865964,0.48962456,-1.0218649,1.9679742,2.1685228,0.27016065,0.16274835,-0.048963815,0.9476967,-5.716153,7.0178857,-1.0592387,0.5709909,5.6578975,0.60535645,1
2.1699999999999977,,,,,11.345383,-1.1173006,6.2625694,0.6780467,-1.0788771,2.038058,2.157958,0.26815447,0.1363592,-0.039279435,0.9528676,-5.6870337,6.999443,-1.0534267,0.48286614,5.6903086,0.59967744,1
2.1799999999999975,,,,,11.345383,-1.1173006,6.2625694,0.6780467,-1.1356176,2.1079724,2.1474795,0.26605213,0.10943586,-0.03032275,0.95724654,-5.6618505,6.9840174,-1.0419991,0.23328774,5.738508,0.6035231,1
2.1899999999999973,,,,,11.345383,-1.1173006,6.2625694,0.6780467,-1.1921324,2.1777503,2.137123,0.26384327,0.08190307,-0.022382487,0.9608215,-5.6419253,6.9721174,-1.0290594,0.02263441,5.779205,0.60718,1
2.199999999999997,,,,,11.345383,-1.1173006,6.2625694,0.6780467,-1.2484752,2.2474263,2.1269023,0.26147887,0.05386526,-0.015306179,0.9635836,-5.627511,6.9635625,-1.0149658,-0.15516467,5.8135667,0.61065745,1
2.209999999999997,,,,,11.369488,-1.6605997,6.1578846,0.56057614,-1.3047023,2.3170326,2.1168268,0.25892177,0.02541503,-0.008964262,0.9655224,-5.6188145,6.9581885,-1.0000886,-0.30523333,5.842581,0.61396426,1
2.2199999999999966,,,,,11.369488,-1.6605997,6.1578846,0.56057614,-1.3608717,2.3866003,2.1069036,0.2561619,-0.0034208093,-0.0034565476,0.9666218,-5.616001,6.9558306,-0.9845683,-0.5166016,5.867047,0.6113445,1
2.2299999999999964,,,,,11.369488,-1.6605997,6.1578846,0.56057614,-1.4170433,2.4561586,2.0971355,0.25318775,-0.032611445,0.0011433465,0.96686685,-5.6192513,6.956295,-0.96903634,-0.6950062,5.8877115,0.6088533,1
