time-since-start [s],throttle_mpc,roll_mpc,pitch_mpc,yaw_mpc,throttle_nw,roll_nw,pitch_nw,yaw_nw,position_x [m],position_y [m],position_z [m],rotation_w [quaternion],rotation_x [quaternion],rotation_y [quaternion],rotation_z [quaternion],velocity_x [m/s],velocity_y [m/s],velocity_z [m/s],omega_x [rad/s],omega_y [rad/s],omega_z [rad/s],network_used
0.0,11.212359514467638,4.914360220554082,-5.999999797230947,-0.891297100902834,11.959423,0.06844187,-5.344043,-0.80937475,16.431948,-10.32544,2.2111633,0.22895765,-0.3313849,0.37167704,0.8364321,-9.0667515,0.028760467,-0.25358528,0.6673183,-0.1480343,-0.055026308,0
0.01,11.212359514467638,4.914360220554082,-5.999999797230947,-0.891297100902834,12.485151,0.36728215,-5.8395944,-0.579782,16.34103,-10.324642,2.2084692,0.23167808,-0.32833454,0.37474802,0.83551526,-9.116746,0.13038023,-0.28566113,1.1325947,-0.8636694,-0.07841107,0
0.02,11.212359514467638,4.914360220554082,-5.999999797230947,-0.891297100902834,12.485151,0.36728215,-5.8395944,-0.579782,16.249628,-10.322843,2.2054427,0.236514,-0.321934,0.37885836,0.8347971,-9.163462,0.22911474,-0.32000068,1.573341,-1.5157678,-0.104945906,0
0.03,11.212359514467638,4.914360220554082,-5.999999797230947,-0.891297100902834,12.485151,0.36728215,-5.8395944,-0.579782,16.157778,-10.320068,2.202063,0.2433084,-0.3124383,0.38393044,0.8341348,-9.206204,0.32531622,-0.35616162,1.9904705,-2.1113274,-0.1342158,0
0.04,11.212359514467638,4.914360220554082,-5.999999797230947,-0.891297100902834,13.280101,0.61338866,-6.054954,-0.3748498,16.065521,-10.316343,2.1983144,0.25190565,-0.30006433,0.38987216,0.83336955,-9.244396,0.41925338,-0.3938046,2.3849976,-2.6564972,-0.16584784,0
0.05,11.212359514467638,4.914360220554082,-5.999999797230947,-0.891297100902834,13.280101,0.61338866,-6.054954,-0.3748498,15.972907,-10.31169,2.1941829,0.26215163,-0.2849987,0.39658073,0.83233184,-9.27756,0.51110995,-0.4326826,2.7580006,-3.1566877,-0.19950713,0
0.060000000000000005,11.212359514467638,4.914360220554082,-5.999999797230947,-0.891297100902834,13.280101,0.61338866,-6.054954,-0.3748498,15.879987,-10.306124,2.1896596,0.2738736,-0.26743287,0.4039316,0.8308504,-9.305669,0.60223335,-0.4718233,3.094147,-3.6002123,-0.23345348,0
0.07,11.212359514467638,4.914360220554082,-5.999999797230947,-0.891297100902834,13.280101,0.61338866,-6.054954,-0.3748498,15.786811,-10.299642,2.1847494,0.28681606,-0.24766544,0.41173664,0.8287771,-9.328681,0.69421875,-0.510103,3.3778684,-3.974572,-0.26573405,0
0.08,12.895121388185972,4.296356410813574,-5.9999998165638795,-0.7623358076887083,13.585557,0.9057476,-6.31543,-0.4590444,15.693433,-10.292236,2.1794605,0.30072576,-0.22599356,0.41981035,0.8259845,-9.346017,0.7868953,-0.5475449,3.6173434,-4.29055,-0.2964306,0
0.09,12.895121388185972,4.296356410813574,-5.9999998165638795,-0.7623358076887083,13.585557,0.9057476,-6.31543,-0.4590444,15.599903,-10.283833,2.1738472,0.3153147,-0.20274487,0.42779317,0.8224745,-9.358868,0.89398724,-0.57500255,3.7231164,-4.5572133,-0.3192927,0
0.09999999999999999,12.895121388185972,4.296356410813574,-5.9999998165638795,-0.7623358076887083,13.585557,0.9057476,-6.31543,-0.4590444,15.506282,-10.274357,2.1679633,0.33034495,-0.17820624,0.43539613,0.81825733,-9.36422,1.0011909,-0.6016708,3.8123984,-4.782287,-0.34103295,0
0.10999999999999999,12.895121388185972,4.296356410813574,-5.9999998165638795,-0.7623358076887083,13.585557,0.9057476,-6.31543,-0.4590444,15.412645,-10.263809,2.1618161,0.34567603,-0.15256439,0.44256654,0.81324476,-9.361761,1.1080536,-0.6276753,3.8877623,-4.9722576,-0.3617064,0
0.11999999999999998,12.895121388185972,4.296356410813574,-5.9999998165638795,-0.7623358076887083,13.585557,0.9057476,-6.31543,-0.4590444,15.319075,-10.252197,2.1554117,0.3611835,-0.12598473,0.4492599,0.807366,-9.351256,1.2140893,-0.65318584,3.9513788,-5.1326,-0.3813654,0
0.12999999999999998,16.309273191465834,1.8733333951104958,-5.999999685472086,0.40172941137728646,14.333307,-0.4094731,-6.1243253,-0.065942034,15.225649,-10.2395315,2.1487534,0.3767565,-0.098614804,0.45543885,0.8005656,-9.332542,1.3187872,-0.67840904,4.00508,-5.2679324,-0.40005973,0
0.13999999999999999,16.309273191465834,1.8733333951104958,-5.999999685472086,0.40172941137728646,14.333307,-0.4094731,-6.1243253,-0.065942034,15.132485,-10.225691,2.14194,0.39209953,-0.07089269,0.46031767,0.79330957,-9.298426,1.4488262,-0.68422586,3.6727438,-5.381917,-0.36071572,0
0.15,16.309273191465834,1.8733333951104958,-5.999999685472086,0.40172941137728646,14.333307,-0.4094731,-6.1243253,-0.065942034,15.039714,-10.210566,2.1350694,0.40700433,-0.04318921,0.46330148,0.7860243,-9.254151,1.5756935,-0.68994135,3.3922372,-5.4781575,-0.3233023,0
0.16,17.76014350838335,-0.4583899585544758,-5.999999335028033,1.1773613079486445,14.23217,-1.8916317,-5.6958847,0.42966598,14.947435,-10.194191,2.1281419,0.42149037,-0.015532631,0.46461657,0.7786118,-9.200123,1.6986227,-0.69552076,3.1554768,-5.559415,-0.28772476,0
0.17,17.76014350838335,-0.4583899585544758,-5.999999335028033,1.1773613079486445,14.23217,-1.8916317,-5.6958847,0.42966598,14.855771,-10.176557,2.1212008,0.43548882,0.01169996,0.46373418,0.77146846,-9.131163,1.827424,-0.6926898,2.592147,-5.627896,-0.21583259,0
0.18000000000000002,17.76014350838335,-0.4583899585544758,-5.999999335028033,1.1773613079486445,14.23217,-1.8916317,-5.6958847,0.42966598,14.764845,-10.157662,2.11429,0.4489719,0.03819996,0.46026468,0.7649325,-9.052845,1.9503813,-0.68939507,2.1166627,-5.685763,-0.14746815,0
0.19000000000000003,17.76014350838335,-0.4583899585544758,-5.999999335028033,1.1773613079486445,14.23217,-1.8916317,-5.6958847,0.42966598,14.674745,-10.13757,2.1074157,0.46199042,0.06404101,0.45456535,0.7588374,-8.965979,2.0667872,-0.6853324,1.7153229,-5.734656,-0.08245841,0
0.20000000000000004,17.6840235655434,-1.9414556365734437,-5.828002524972266,1.4003332477649184,14.401501,-4.0685186,-1.842425,0.44191447,14.585551,-10.116351,2.1005867,0.47457322,0.08928746,0.44693318,0.7530332,-8.871308,2.176024,-0.68029124,1.3765643,-5.775962,-0.020638695,0
0.21000000000000005,17.6840235655434,-1.9414556365734437,-5.828002524972266,1.4003332477649184,14.401501,-4.0685186,-1.842425,0.44191447,14.497339,-10.09408,2.0938118,0.4867416,0.113671124,0.43720236,0.7476737,-8.769991,2.2771082,-0.6745598,0.85938364,-5.7840304,0.049088802,0
0.22000000000000006,17.6840235655434,-1.9414556365734437,-5.828002524972266,1.4003332477649184,14.401501,-4.0685186,-1.842425,0.44191447,14.410172,-10.070838,2.0871005,0.49852395,0.13697702,0.42526156,0.7428756,-8.662483,2.3700125,-0.6674209,0.4228447,-5.7908826,0.11539476,0
0.23000000000000007,17.6840235655434,-1.9414556365734437,-5.828002524972266,1.4003332477649184,14.401501,-4.0685186,-1.842425,0.44191447,14.324107,-10.04671,2.0804687,0.50993246,0.15932804,0.41141003,0.7384616,-8.549637,2.4542994,-0.6586305,0.05437217,-5.796696,0.17844708,0
0.24000000000000007,17.6840235655434,-1.9414556365734437,-5.828002524972266,1.4003332477649184,14.428564,-5.5751853,0.97122914,0.8613858,14.239195,-10.021783,2.0739338,0.52096474,0.18082762,0.395898,0.73427665,-8.432233,2.5295842,-0.6480442,-0.25664902,-5.801624,0.23840539,0
0.25000000000000006,17.6840235655434,-1.9414556365734437,-5.828002524972266,1.4003332477649184,14.428564,-5.5751853,0.97122914,0.8613858,14.155477,-9.996149,2.0675142,0.531609,0.20156206,0.37893635,0.73018646,-8.311,2.5955284,-0.6356086,-0.51917744,-5.805797,0.2954215,0
0.26000000000000006,17.6840235655434,-1.9414556365734437,-5.828002524972266,1.4003332477649184,14.428564,-5.5751853,0.97122914,0.8613858,14.072987,-9.969905,2.061228,0.5418474,0.22160268,0.36070395,0.72607625,-8.186623,2.6518354,-0.6213511,-0.74077505,-5.8093286,0.34963983,0
0.2700000000000001,17.6840235655434,-1.9414556365734437,-5.828002524972266,1.4003332477649184,14.428564,-5.5751853,0.97122914,0.8613858,13.991754,-9.943147,2.055093,0.5516587,0.24100782,0.34135368,0.721849,-8.059753,2.6982493,-0.6053713,-0.9278242,-5.812314,0.40119764,0
0.2800000000000001,16.195224158746523,-3.4306801212650044,-0.8468534970855818,1.796410783821467,14.209818,-5.6834335,2.6638725,1.1108576,13.9117985,-9.915975,2.049126,0.56101996,0.25982463,0.32101724,0.71742314,-7.9310155,2.7345536,-0.5878319,-1.0857129,-5.814836,0.4502255,0
0.2900000000000001,16.195224158746523,-3.4306801212650044,-0.8468534970855818,1.796410783821467,14.209818,-5.6834335,2.6638725,1.1108576,13.833082,-9.888502,2.0432918,0.56942487,0.2763522,0.3005035,0.7135003,-7.812009,2.7585146,-0.57876223,-1.4514172,-5.040251,0.5162832,0
0.3000000000000001,16.195224158746523,-3.4306801212650044,-0.8468534970855818,1.796410783821467,14.209818,-5.6834335,2.6638725,1.1108576,13.755559,-9.860833,2.037555,0.57659286,0.28928375,0.28051722,0.71075034,-7.6927705,2.7739494,-0.56838524,-1.7601206,-4.386468,0.5790994,0
0.3100000000000001,16.195224158746523,-3.4306801212650044,-0.8468534970855818,1.796410783821467,14.209818,-5.6834335,2.6638725,1.1108576,13.679226,-9.833048,2.0319293,0.582779,0.2991804,0.26100573,0.70903885,-7.5741124,2.7817845,-0.5565622,-2.020701,-3.8346431,0.6388333,0
0.3200000000000001,15.161142139977898,-4.155570013390191,5.696456737710229,2.2692230800575137,14.306677,-5.373419,4.059612,1.731019,13.604074,-9.805221,2.0264294,0.58817166,0.30651075,0.24190973,0.7082269,-7.456685,2.7828133,-0.5431508,-2.2406545,-3.368873,0.6956359,0
0.3300000000000001,15.161142139977898,-4.155570013390191,5.696456737710229,2.2692230800575137,14.306677,-5.373419,4.059612,1.731019,13.530081,-9.777413,2.021066,0.59248894,0.30968195,0.22420484,0.70907444,-7.34285,2.7779572,-0.52972245,-2.620839,-2.036478,0.76556987,0
0.34000000000000014,15.161142139977898,-4.155570013390191,5.696456737710229,2.2692230800575137,14.306677,-5.373419,4.059612,1.731019,13.457197,-9.749676,2.0158322,0.5954833,0.3074443,0.20886324,0.7122178,-7.2344623,2.7690845,-0.5171022,-2.8975594,-0.8676407,0.8360257,0
0.35000000000000014,15.161142139977898,-4.155570013390191,5.696456737710229,2.2692230800575137,14.306677,-5.373419,4.059612,1.731019,13.385371,-9.722038,2.010724,0.5972908,0.30060416,0.19578665,0.7173206,-7.131356,2.7580037,-0.5042394,-3.096951,0.15313165,0.9061059,0
0.36000000000000015,13.943748096580926,-4.991524959660026,5.999999607740961,1.1401524105077925,15.131069,-4.69848,5.7035427,1.6772248,13.314558,-9.694519,2.0057578,0.5980424,0.28983486,0.18471763,0.724031,-7.0318713,2.7459977,-0.48857236,-3.262594,1.0173708,0.97299445,0
0.37000000000000016,13.943748096580926,-4.991524959660026,5.999999607740961,1.1401524105077925,15.131069,-4.69848,5.7035427,1.6772248,13.244682,-9.667112,2.0009174,0.5980255,0.27538583,0.17518996,0.73200893,-6.9439597,2.7352123,-0.4789873,-3.5327213,1.7942191,0.98119694,0
0.38000000000000017,13.943748096580926,-4.991524959660026,5.999999607740961,1.1401524105077925,15.131069,-4.69848,5.7035427,1.6772248,13.175665,-9.63981,1.9961894,0.5974447,0.2574712,0.16680595,0.7409079,-6.860149,2.7256367,-0.46607256,-3.7606518,2.4499438,0.9889969,0
0.3900000000000002,13.943748096580926,-4.991524959660026,5.999999607740961,1.1401524105077925,15.131069,-4.69848,5.7035427,1.6772248,13.107464,-9.612594,1.991608,0.59628654,0.2365671,0.1593497,0.7503909,-6.780986,2.7180693,-0.44964975,-3.9529767,3.0034301,0.9964142,0
0.4000000000000002,14.07225484569726,-4.703920959712647,5.999999728197297,0.5453193526643683,14.190887,-5.046104,5.984651,1.9857998,13.040028,-9.58544,1.9872086,0.5945226,0.2130805,0.15263747,0.7601591,-6.7070127,2.713169,-0.42967013,-4.115257,3.4706194,1.0034674,0
0.4100000000000002,14.07225484569726,-4.703920959712647,5.999999728197297,0.5453193526643683,14.190887,-5.046104,5.984651,1.9857998,12.973307,-9.558319,1.9830321,0.5921517,0.18742096,0.14661767,0.7698918,-6.638129,2.7114613,-0.4050905,-4.2072597,3.8650763,0.980986,0
0.4200000000000002,14.07225484569726,-4.703920959712647,5.999999728197297,0.5453193526643683,14.190887,-5.046104,5.984651,1.9857998,12.907244,-9.531198,1.9791182,0.5891815,0.15994163,0.14124428,0.7793166,-6.575502,2.71344,-0.37720844,-4.2848682,4.1980267,0.9596077,0
0.4300000000000002,14.07225484569726,-4.703920959712647,5.999999728197297,0.5453193526643683,14.190887,-5.046104,5.984651,1.9857998,12.841774,-9.504036,1.9754984,0.5855901,0.13089722,0.13638178,0.78825796,-6.5195856,2.719462,-0.34633482,-4.3503356,4.4790597,0.9392784,0
0.4400000000000002,14.07225484569726,-4.703920959712647,5.999999728197297,0.5453193526643683,15.801294,-4.482301,5.8028035,2.251425,12.776827,-9.476792,1.9722006,0.5813569,0.10051446,0.13191628,0.7965674,-6.470812,2.7297978,-0.31286374,-4.405563,4.716271,0.9199468,0
0.45000000000000023,14.07225484569726,-4.703920959712647,5.999999728197297,0.5453193526643683,15.801294,-4.482301,5.8028035,2.251425,12.712332,-9.449425,1.9692484,0.5764632,0.06899644,0.12775244,0.80412036,-6.4295816,2.7446387,-0.27726236,-4.4521523,4.9164934,0.90156376,0
0.46000000000000024,14.07225484569726,-4.703920959712647,5.999999728197297,0.5453193526643683,15.801294,-4.482301,5.8028035,2.251425,12.648209,-9.421885,1.9666609,0.57089365,0.036526226,0.12381056,0.81081307,-6.3962574,2.7641034,-0.24006066,-4.491457,5.085494,0.88408273,0
0.47000000000000025,14.07225484569726,-4.703920959712647,5.999999728197297,0.5453193526643683,15.801294,-4.482301,5.8028035,2.251425,12.584378,-9.394127,1.9644507,0.56463575,0.0032697404,0.12002435,0.8165601,-6.3711596,2.7882442,-0.20184147,-4.5246162,5.2281404,0.8674595,0
0.48000000000000026,15.429602307026588,-3.395322678247183,5.999999670373476,0.9151392188300443,17.522387,-3.8052206,6.1291847,2.2274592,12.520757,-9.366104,1.9626254,0.5576809,-0.030621905,0.116338894,0.8212917,-6.354559,2.817052,-0.16323045,-4.5525923,5.348542,0.85165197,0
0.49000000000000027,15.429602307026588,-3.395322678247183,5.999999670373476,0.9151392188300443,17.522387,-3.8052206,6.1291847,2.2274592,12.457262,-9.337755,1.961251,0.550012,-0.06471503,0.11314237,0.82492304,-6.345882,2.8536954,-0.11173068,-4.3721843,5.4502277,0.8547673,0
0.5000000000000002,15.429602307026588,-3.395322678247183,5.999999670373476,0.9151392188300443,17.522387,-3.8052206,6.1291847,2.2274592,12.393807,-9.309013,1.960387,0.54164904,-0.09865548,0.11074829,0.8274169,-6.3466907,2.895356,-0.061297923,-4.219902,5.536041,0.8577298,0
0.5100000000000002,15.429602307026588,-3.395322678247183,5.999999670373476,0.9151392188300443,17.522387,-3.8052206,6.1291847,2.2274592,12.3302965,-9.279831,1.9600189,0.53263265,-0.13242002,0.109012686,0.8287847,-6.3568573,2.9419634,-0.012691881,-4.09136,5.608459,0.86054695,0
0.5200000000000002,16.625515155827046,-1.6179331517336404,5.99999938881353,1.1705272512029647,17.698399,-2.8017902,6.19416,1.7956946,12.266639,-9.250158,1.9601245,0.5229946,-0.16598202,0.107812926,0.8290376,-6.3762374,2.993395,0.033352185,-3.982857,5.669574,0.8632258,0
0.5300000000000002,16.625515155827046,-1.6179331517336404,5.99999938881353,1.1705272512029647,17.698399,-2.8017902,6.19416,1.7956946,12.202731,-9.219926,1.9607296,0.51286453,-0.19894117,0.107640825,0.8281342,-6.406823,3.05385,0.08704247,-3.6141338,5.721275,0.8783052,0
0.5400000000000003,16.625515155827046,-1.6179331517336404,5.99999938881353,1.1705272512029647,17.698399,-2.8017902,6.19416,1.7956946,12.138471,-9.189065,1.9618508,0.502386,-0.23098746,0.10888422,0.8260737,-6.4466043,3.1192703,0.13648452,-3.302906,5.764889,0.8926446,0
0.5500000000000003,16.625515155827046,-1.6179331517336404,5.99999938881353,1.1705272512029647,17.698399,-2.8017902,6.19416,1.7956946,12.07377,-9.157524,1.9634423,0.49159223,-0.26221275,0.111304626,0.8229175,-6.4950137,3.189583,0.18101662,-3.0402083,5.8016796,0.90628034,0
0.5600000000000003,17.121249371333526,-0.17871154942274467,5.999997919854971,1.0486267761066084,18.118769,-1.1470587,5.572079,1.7127156,12.008542,-9.125257,1.9654521,0.48050296,-0.29268894,0.11469825,0.81871533,-6.5515304,3.2646656,0.22002979,-2.8184729,5.8327146,0.91924703,1
0.5700000000000003,17.121249371333526,-0.17871154942274467,5.999997919854971,1.0486267761066084,18.118769,-1.1470587,5.572079,1.7127156,11.942683,-9.092179,1.9678813,0.469153,-0.3222351,0.118984275,0.8135743,-6.621411,3.3515036,0.26473835,-2.5579395,5.792159,0.9581827,1
0.5800000000000003,17.121249371333526,-0.17871154942274467,5.999997919854971,1.0486267761066084,18.118769,-1.1470587,5.572079,1.7127156,11.876086,-9.05821,1.9707224,0.4575744,-0.35071388,0.124096796,0.807605,-6.6989627,3.4431152,0.3023285,-2.3380313,5.7579184,0.99520785,1
0.5900000000000003,17.121249371333526,-0.17871154942274467,5.999997919854971,1.0486267761066084,18.118769,-1.1470587,5.572079,1.7127156,11.808679,-9.023302,1.973902,0.4457699,-0.3782325,0.1298945,0.80084777,-6.783588,3.5392308,0.33236766,-2.1524127,5.7290077,1.0304163,1
0.6000000000000003,15.831903858046974,1.1418216992012558,3.4807074585480815,0.9157968505360161,18.233519,0.10591206,5.2072573,1.3858199,11.740392,-8.9874115,1.9773426,0.43373793,-0.40487722,0.1362565,0.79333496,-6.8747344,3.6395557,0.35446197,-1.9957366,5.7045956,1.0638969,0
0.6100000000000003,15.831903858046974,1.1418216992012558,3.4807074585480815,0.9157968505360161,18.233519,0.10591206,5.2072573,1.3858199,11.671224,-8.950564,1.9808916,0.4220562,-0.429684,0.14340717,0.78528655,-6.959561,3.730624,0.35418463,-1.5061706,5.3581276,1.0566297,0
0.6200000000000003,15.831903858046974,1.1418216992012558,3.4807074585480815,0.9157968505360161,18.233519,0.10591206,5.2072573,1.3858199,11.601185,-8.91279,1.984402,0.41125602,-0.45194724,0.15152268,0.7769514,-7.0487185,3.824862,0.34680003,-1.0929935,5.065634,1.0497189,0
0.6300000000000003,15.831903858046974,1.1418216992012558,3.4807074585480815,0.9157968505360161,18.233519,0.10591206,5.2072573,1.3858199,11.530236,-8.874059,1.9878038,0.40125456,-0.47207114,0.16043994,0.7683768,-7.1413574,3.9220839,0.3325205,-0.744286,4.8187065,1.0431472,0
0.6400000000000003,15.831903858046974,1.1418216992012558,3.4807074585480815,0.9157968505360161,17.264912,1.5202292,3.3871276,0.7755296,11.458347,-8.834339,1.9910294,0.3919656,-0.49038917,0.17001879,0.75958896,-7.2367635,4.022135,0.31154305,-0.44998813,4.6102476,1.036898,0
0.6500000000000004,15.831903858046974,1.1418216992012558,3.4807074585480815,0.9157968505360161,17.264912,1.5202292,3.3871276,0.7755296,11.385494,-8.793607,1.9940124,0.38330418,-0.5071761,0.18013914,0.7506001,-7.3343344,4.12488,0.28404284,-0.20161036,4.434265,1.0309556,0
0.6600000000000004,15.831903858046974,1.1418216992012558,3.4807074585480815,0.9157968505360161,17.264912,1.5202292,3.3871276,0.7755296,11.311655,-8.751834,1.9966882,0.37518948,-0.5226586,0.19069842,0.7414143,-7.433558,4.230192,0.250171,0.008012779,4.2856984,1.0253048,0
0.6700000000000004,15.831903858046974,1.1418216992012558,3.4807074585480815,0.9157968505360161,17.264912,1.5202292,3.3871276,0.7755296,11.236818,-8.708996,1.9989941,0.36754635,-0.5370235,0.20160913,0.732031,-7.5339947,4.3379498,0.21005483,0.18492791,4.160278,1.0199312,0
0.6800000000000004,14.781568821199793,1.7926683729855153,-1.2338490574038743,0.9967306898010445,16.717941,1.4575651,0.18430814,1.4538773,11.160973,-8.665069,2.000868,0.36030605,-0.55042493,0.21279676,0.722447,-7.635266,4.448031,0.16379967,0.33423883,4.054397,1.0148213,0
0.6900000000000004,14.781568821199793,1.7926683729855153,-1.2338490574038743,0.9967306898010445,16.717941,1.4575651,0.18430814,1.4538773,11.084146,-8.620067,2.002234,0.353961,-0.5615501,0.22372122,0.713668,-7.730262,4.552839,0.108573794,0.5622268,3.2298486,1.0139335,0
0.7000000000000004,14.781568821199793,1.7926683729855153,-1.2338490574038743,0.9967306898010445,16.717941,1.4575651,0.18430814,1.4538773,11.006368,-8.574007,2.0030236,0.3489485,-0.5694292,0.23398176,0.7065677,-7.82526,4.659436,0.04868476,0.75457406,2.533864,1.0130894,0
0.7100000000000004,14.781568821199793,1.7926683729855153,-1.2338490574038743,0.9967306898010445,16.717941,1.4575651,0.18430814,1.4538773,10.92764,-8.526874,2.0031953,0.3451193,-0.57462174,0.24369995,0.7009372,-7.919866,4.767628,-0.014880573,0.9168527,1.9463977,1.0122867,0
0.7200000000000004,13.829689291955747,1.7260392273461869,-5.9999961644015585,1.050955743040908,14.162117,1.3414645,-5.850532,1.4391117,10.847971,-8.478651,2.0027165,0.34232962,-0.5775804,0.25297123,0.6965751,-8.013767,4.8772936,-0.0812798,1.0537633,1.4505296,1.0115232,1
0.7300000000000004,13.829689291955747,1.7260392273461869,-5.9999961644015585,1.050955743040908,14.162117,1.3414645,-5.850532,1.4391117,10.767387,-8.429348,2.0015564,0.34077877,-0.57743907,0.2611481,0.6944319,-8.102816,4.983675,-0.15092497,1.0993747,0.3119778,1.0325052,1
0.7400000000000004,13.829689291955747,1.7260392273461869,-5.9999961644015585,1.050955743040908,14.162117,1.3414645,-5.850532,1.4391117,10.685919,-8.378974,1.9996958,0.34062183,-0.57352436,0.26772743,0.6952472,-8.190729,5.09115,-0.22115737,1.137782,-0.64902174,1.0524576,1
0.7500000000000004,13.829689291955747,1.7260392273461869,-5.9999961644015585,1.050955743040908,14.162117,1.3414645,-5.850532,1.4391117,10.603578,-8.327521,1.9971359,0.34165564,-0.56640756,0.27295956,0.6985321,-8.277308,5.199505,-0.2906302,1.1701194,-1.460158,1.0714308,1
0.7600000000000005,12.939552640952162,1.4128065549976927,-5.999999710546264,0.3627126290338136,13.947839,0.21713015,-6.2332478,1.3046974,10.520377,-8.2749815,1.9938898,0.3436863,-0.55654174,0.2770408,0.7038391,-8.36235,5.3085575,-0.3582147,1.1973429,-2.1448011,1.0894729,0
0.7700000000000005,12.939552640952162,1.4128065549976927,-5.999999710546264,0.3627126290338136,13.947839,0.21713015,-6.2332478,1.3046974,10.436371,-8.2213955,1.9899672,0.34666052,-0.54427636,0.28005227,0.71074647,-8.438447,5.4086747,-0.42584774,1.2313077,-2.7460217,1.0538106,0
0.7800000000000005,12.939552640952162,1.4128065549976927,-5.999999710546264,0.3627126290338136,13.947839,0.21713015,-6.2332478,1.3046974,10.351615,-8.166807,1.9853842,0.35052913,-0.5299021,0.2820501,0.7188748,-8.512707,5.5091047,-0.49016812,1.259889,-3.2534862,1.0198982,0
0.7900000000000005,12.939552640952162,1.4128065549976927,-5.999999710546264,0.3627126290338136,13.947839,0.21713015,-6.2332478,1.3046974,10.266127,-8.111213,1.9801773,0.35512853,-0.51367617,0.2831435,0.7279082,-8.584879,5.609665,-0.55057997,1.2839439,-3.6818147,0.9876499,0
0.8000000000000005,12.848794865284402,0.6743556610400921,-5.999999826940322,0.20519982138543735,13.990196,-0.052282657,-6.1525326,0.7638776,10.179927,-8.054614,1.9743878,0.36031336,-0.49581447,0.28342262,0.737573,-8.654695,5.7101483,-0.6066101,1.3041922,-4.0433474,0.95698404,0
0.8100000000000005,12.848794865284402,0.6743556610400921,-5.999999826940322,0.20519982138543735,13.990196,-0.052282657,-6.1525326,0.7638776,10.093044,-7.997015,1.9680598,0.36582536,-0.476614,0.28273487,0.74771124,-8.7214155,5.809616,-0.6582214,1.2060555,-4.3485765,0.9200937,0
0.8200000000000005,12.848794865284402,0.6743556610400921,-5.999999826940322,0.20519982138543735,13.990196,-0.052282657,-6.1525326,0.7638776,10.005508,-7.938424,1.9612405,0.37145942,-0.45632777,0.28096074,0.75818485,-8.785338,5.908462,-0.70484483,1.1231867,-4.60619,0.88501364,0
0.8300000000000005,12.848794865284402,0.6743556610400921,-5.999999826940322,0.20519982138543735,13.990196,-0.052282657,-6.1525326,0.7638776,9.917348,-7.878849,1.9539808,0.37716603,-0.43506816,0.2782164,0.7688026,-8.84628,6.006351,-0.74628794,1.0532123,-4.823617,0.851655,0
0.8400000000000005,12.848794865284402,0.6743556610400921,-5.999999826940322,0.20519982138543735,15.246877,-0.61045426,-6.252709,0.6737841,9.828593,-7.8183017,1.946333,0.38289917,-0.41293398,0.27460244,0.7794021,-8.904045,6.1029468,-0.78243434,0.9941285,-5.0071263,0.8199333,0
0.8500000000000005,12.848794865284402,0.6743556610400921,-5.999999826940322,0.20519982138543735,15.246877,-0.61045426,-6.252709,0.6737841,9.739277,-7.756796,1.9383506,0.3886165,-0.39001307,0.27020642,0.7898454,-8.958432,6.197914,-0.8132361,0.9442415,-5.1620092,0.7897681,0
0.8600000000000005,12.848794865284402,0.6743556610400921,-5.999999826940322,0.20519982138543735,15.246877,-0.61045426,-6.252709,0.6737841,9.649436,-7.6943502,1.9300867,0.39427945,-0.36638436,0.265105,0.80001605,-9.009233,6.290919,-0.83870745,0.9021213,-5.292732,0.7610831,0
0.8700000000000006,12.848794865284402,0.6743556610400921,-5.999999826940322,0.20519982138543735,15.246877,-0.61045426,-6.252709,0.6737841,9.559107,-7.6309857,1.9215945,0.39985293,-0.3421192,0.2593657,0.8098158,-9.056242,6.381632,-0.85891896,0.8665601,-5.4030623,0.7338058,0
0.8800000000000006,14.222631765136832,-0.3273280197934272,-5.99999979524406,0.4121596218233137,16.234457,-0.7434461,-6.3958774,0.71397597,9.468326,-7.5667267,1.9129261,0.40530512,-0.31728262,0.25304806,0.81916195,-9.099261,6.46973,-0.87399215,0.8365374,-5.496183,0.7078669,0
0.8900000000000006,14.222631765136832,-0.3273280197934272,-5.99999979524406,0.4121596218233137,16.234457,-0.7434461,-6.3958774,0.71397597,9.377114,-7.5015554,1.9041785,0.4104628,-0.29209122,0.24588373,0.8280968,-9.142272,6.563988,-0.8746813,0.65501684,-5.574843,0.69335645,0
0.9000000000000006,14.222631765136832,-0.3273280197934272,-5.99999979524406,0.4121596218233137,16.234457,-0.7434461,-6.3958774,0.71397597,9.285497,-7.435459,1.8954507,0.41519538,-0.26672682,0.23766255,0.83665174,-9.180612,6.6545587,-0.87006646,0.5018001,-5.64122,0.6795581,0
0.9100000000000006,14.222631765136832,-0.3273280197934272,-5.99999979524406,0.4121596218233137,16.234457,-0.7434461,-6.3958774,0.71397597,9.193519,-7.368478,1.8867946,0.41953072,-0.2411987,0.22851403,0.84474766,-9.214253,6.741013,-0.860384,0.37247407,-5.6972322,0.66643673,0
0.9200000000000006,15.700238444667766,-0.9933702662446734,-5.999999622328018,0.30458274687623194,16.720615,-1.1047044,-6.4128757,0.75639236,9.101229,-7.3006544,1.8782597,0.42348862,-0.21551798,0.218551,0.8523174,-9.243158,6.822955,-0.8459091,0.26331425,-5.7444983,0.6539593,0
0.9300000000000006,15.700238444667766,-0.9933702662446734,-5.999999622328018,0.30458274687623194,16.720615,-1.1047044,-6.4128757,0.75639236,9.008659,-7.231995,1.8699524,0.42703906,-0.18981352,0.20764147,0.85935646,-9.269803,6.908016,-0.81478816,0.06728734,-5.7844276,0.6368153,0
0.9400000000000006,15.700238444667766,-0.9933702662446734,-5.999999622328018,0.30458274687623194,16.720615,-1.1047044,-6.4128757,0.75639236,8.91585,-7.162514,1.8619797,0.4301661,-0.16419293,0.19568728,0.8658547,-9.291237,6.9872437,-0.77907145,-0.098169535,-5.8181133,0.6205126,0
0.9500000000000006,15.700238444667766,-0.9933702662446734,-5.999999622328018,0.30458274687623194,16.720615,-1.1047044,-6.4128757,0.75639236,8.822852,-7.092272,1.8543854,0.43289858,-0.13864055,0.18282717,0.87175214,-9.307525,7.060221,-0.73914164,-0.23782313,-5.846533,0.60500985,0
0.9600000000000006,16.29595171688383,-1.357400523941632,-5.999999135950131,0.1005738731865741,16.675829,-1.2516934,-6.311622,0.8464227,8.729717,-7.0213327,1.8472098,0.43525693,-0.11314622,0.16918205,0.87699866,-9.318722,7.126574,-0.6954142,-0.3556974,-5.870509,0.5902678,1
0.9700000000000006,16.29595171688383,-1.357400523941632,-5.999999135950131,0.1005738731865741,16.675829,-1.2516934,-6.311622,0.8464227,8.636494,-6.9497457,1.8405336,0.43718535,-0.087738395,0.15477405,0.8815984,-9.325259,7.1896567,-0.63931125,-0.49537134,-5.8907604,0.6028374,1
0.9800000000000006,16.29595171688383,-1.357400523941632,-5.999999135950131,0.1005738731865741,16.675829,-1.2516934,-6.311622,0.8464227,8.543231,-6.8775663,1.8344343,0.4386315,-0.06244239,0.13962787,0.8855548,-9.326529,7.245008,-0.5801365,-0.61326677,-5.907847,0.61479014,1
0.9900000000000007,16.29595171688383,-1.357400523941632,-5.999999135950131,0.1005738731865741,16.675829,-1.2516934,-6.311622,0.8464227,8.449981,-6.8048735,1.8289398,0.43961185,-0.03725087,0.12384637,0.8888283,-9.322615,7.292326,-0.51840436,-0.7127794,-5.922263,0.62615645,1
1.0000000000000007,15.844626909505628,-1.4099363303235455,-5.9999968085765065,-0.020761290985950663,15.460936,-1.0769112,-5.819989,0.81215775,8.356796,-6.7317486,1.8240732,0.44013852,-0.012161288,0.107519686,0.89138633,-9.313599,7.3313575,-0.45465305,-0.7967761,-5.934426,0.63696504,1
1.0100000000000007,15.844626909505628,-1.4099363303235455,-5.9999968085765065,-0.020761290985950663,15.460936,-1.0769112,-5.819989,0.81215775,8.263721,-6.658287,1.8197925,0.4402178,0.012790833,0.090821505,0.8931943,-9.300583,7.359675,-0.4013396,-0.8404373,-5.916602,0.6455618,1
1.0200000000000007,15.844626909505628,-1.4099363303235455,-5.9999968085765065,-0.020761290985950663,15.460936,-1.0769112,-5.819989,0.81215775,8.1708,-6.584583,1.8160495,0.43985695,0.037573606,0.073897496,0.89423335,-9.282977,7.380015,-0.34721047,-0.87729007,-5.901555,0.65373677,1
1.0300000000000007,15.844626909505628,-1.4099363303235455,-5.9999968085765065,-0.020761290985950663,15.460936,-1.0769112,-5.819989,0.81215775,8.078077,-6.510715,1.8128494,0.4390654,0.062189057,0.056784317,0.8944996,-9.260855,7.3923173,-0.29280922,-0.9083965,-5.8888526,0.6615105,1
1.0400000000000007,15.844626909505628,-1.4099363303235455,-5.9999968085765065,-0.020761290985950663,14.676434,-0.7940069,-3.1791196,0.8478204,7.985597,-6.4367642,1.8101923,0.43785092,0.08663573,0.039515447,0.8939906,-9.234292,7.396554,-0.23867959,-0.9346527,-5.8781295,0.6689028,0
1.0500000000000007,15.844626909505628,-1.4099363303235455,-5.9999968085765065,-0.020761290985950663,14.676434,-0.7940069,-3.1791196,0.8478204,7.893409,-6.362812,1.8080918,0.4363263,0.110911444,0.02198046,0.89265597,-9.20261,7.3926225,-0.18160543,-1.0088947,-5.897145,0.6350608,0
1.0600000000000007,15.844626909505628,-1.4099363303235455,-5.9999968085765065,-0.020761290985950663,14.676434,-0.7940069,-3.1791196,0.8478204,7.801559,-6.2889404,1.8065554,0.4345939,0.1350122,0.0041009192,0.89043975,-9.166593,7.380386,-0.1259161,-1.0715543,-5.913188,0.6028794,0
1.0700000000000007,15.844626909505628,-1.4099363303235455,-5.9999968085765065,-0.020761290985950663,14.676434,-0.7940069,-3.1791196,0.8478204,7.7100906,-6.215233,1.8055667,0.43264392,0.1589296,-0.014049875,0.8873348,-9.126382,7.3598323,-0.07216517,-1.124438,-5.926724,0.57227725,0
1.0800000000000007,14.913009101574783,-1.2715346329823236,-3.800423925595387,-0.06159094245423726,14.104522,-0.6000632,-0.6570437,0.6809569,7.6190453,-6.1417723,1.8051035,0.43046698,0.18265319,-0.032406837,0.8833378,-9.082127,7.3309937,-0.020906989,-1.1690699,-5.9381456,0.5431767,0
1.0900000000000007,14.913009101574783,-1.2715346329823236,-3.800423925595387,-0.06159094245423726,14.104522,-0.6000632,-0.6570437,0.6809569,7.5284476,-6.06863,1.805095,0.42808902,0.20542185,-0.05048491,0.87863123,-9.036848,7.2961645,0.018726291,-1.1852759,-5.6047516,0.5135006,0
1.1000000000000008,14.913009101574783,-1.2715346329823236,-3.800423925595387,-0.06159094245423726,14.104522,-0.6000632,-0.6570437,0.6809569,7.4383197,-5.995874,1.8054671,0.4255752,0.22664851,-0.06790061,0.8734447,-8.988294,7.254046,0.055172853,-1.1989202,-5.32335,0.4852807,0
1.1100000000000008,14.913009101574783,-1.2715346329823236,-3.800423925595387,-0.06159094245423726,14.104522,-0.6000632,-0.6570437,0.6809569,7.3486924,-5.923573,1.8061867,0.42296308,0.24655706,-0.08473819,0.86783135,-8.93683,7.20509,0.08818149,-1.2104088,-5.0858326,0.45844558,0
1.1200000000000008,13.542263050165719,-0.7841258782777248,0.621258519411784,-0.06566562768355926,13.153979,-0.1728943,1.296724,0.40198267,7.2595925,-5.8517942,1.8072183,0.42027783,0.26533628,-0.10106893,0.86182845,-8.882777,7.1496987,0.117538296,-1.2200826,-4.8853564,0.43292722,1
1.1300000000000008,13.542263050165719,-0.7841258782777248,0.621258519411784,-0.06566562768355926,13.153979,-0.1728943,1.296724,0.40198267,7.1710114,-5.7805643,1.8084513,0.41759753,0.28157824,-0.115738824,0.8561136,-8.833106,7.0955796,0.1285419,-1.0570499,-3.921217,0.43140876,1
1.1400000000000008,13.542263050165719,-0.7841258782777248,0.621258519411784,-0.06566562768355926,13.153979,-0.1728943,1.296724,0.40198267,7.0829353,-5.7098975,1.8097788,0.4150468,0.29421803,-0.12786353,0.85136527,-8.781907,7.0370975,0.13655172,-0.91939765,-3.1074424,0.42996484,1
1.1500000000000008,13.542263050165719,-0.7841258782777248,0.621258519411784,-0.06566562768355926,13.153979,-0.1728943,1.296724,0.40198267,6.995377,-5.639834,1.8111736,0.41268018,0.30385447,-0.13785855,0.84756273,-8.729626,6.975166,0.14205016,-0.80317515,-2.420582,0.42859173,1
1.1600000000000008,12.648209052635096,-0.12378259954273556,5.799392572845587,-0.1231246521512097,12.334105,0.5253242,4.724406,0.45832086,6.9083457,-5.570404,1.8126127,0.4105211,0.31098264,-0.1460709,0.8446452,-8.676616,6.9105234,0.14550462,-0.7050464,-1.8408421,0.42728603,0
1.1700000000000008,12.648209052635096,-0.12378259954273556,5.799392572845587,-0.1231246521512097,12.334105,0.5253242,4.724406,0.45832086,6.821839,-5.5016212,1.8140638,0.4088746,0.31455308,-0.15200233,0.8430737,-8.624935,6.845997,0.1441808,-0.6068266,-0.6572277,0.40101057,0
1.1800000000000008,12.648209052635096,-0.12378259954273556,5.799392572845587,-0.1231246521512097,12.334105,0.5253242,4.724406,0.45832086,6.735846,-5.433487,1.8154927,0.40802586,0.31368604,-0.15529495,0.84320784,-8.573713,6.7807755,0.14157988,-0.53175396,0.3497073,0.3752911,0
1.1900000000000008,12.648209052635096,-0.12378259954273556,5.799392572845587,-0.1231246521512097,12.334105,0.5253242,4.724406,0.45832086,6.650362,-5.366007,1.816896,0.40788576,0.30906817,-0.15636408,0.8447819,-8.52316,6.715294,0.13915701,-0.46832034,1.1996058,0.35083368,0
1.2000000000000008,12.407977137769164,0.44638767913573785,5.9999976920926406,-0.349936631419808,12.211142,0.49011,6.100809,-0.108302236,6.5653787,-5.2991796,1.8182789,0.40834793,0.30127105,-0.15554778,0.8475215,-8.473737,6.6502566,0.1376222,-0.4147253,1.9169586,0.3275764,1
1.2100000000000009,12.407977137769164,0.44638767913573785,5.9999976920926406,-0.349936631419808,12.211142,0.49011,6.100809,-0.108302236,6.480874,-5.232987,1.8196365,0.40924165,0.29079765,-0.15288454,0.8512252,-8.427497,6.588492,0.13416645,-0.27371728,2.5537405,0.3061877,1
1.2200000000000009,12.407977137769164,0.44638767913573785,5.9999976920926406,-0.349936631419808,12.211142,0.49011,6.100809,-0.108302236,6.3968225,-5.1674047,1.8209685,0.41041443,0.27806395,-0.14841458,0.8556948,-8.383031,6.5283384,0.13257857,-0.15466537,3.0912087,0.28584856,1
1.2300000000000009,12.407977137769164,0.44638767913573785,5.9999976920926406,-0.349936631419808,12.211142,0.49011,6.100809,-0.108302236,6.3132057,-5.1024127,1.8222955,0.41178754,0.26338753,-0.1423981,0.86068624,-8.340599,6.4703393,0.13319837,-0.05415331,3.5448525,0.26650745,1
1.2400000000000009,12.407977137769164,0.44638767913573785,5.9999976920926406,-0.349936631419808,11.794152,1.0661061,6.246429,-0.4499546,6.2300024,-5.037988,1.823641,0.4132872,0.24703628,-0.13505484,0.86598325,-8.300449,6.4149814,0.13625671,0.030704651,3.9277458,0.24811539,1
1.2500000000000009,12.407977137769164,0.44638767913573785,5.9999976920926406,-0.349936631419808,11.794152,1.0661061,6.246429,-0.4499546,6.1471815,-4.974093,1.825012,0.41482708,0.22933921,-0.1263612,0.8714097,-8.264088,6.3644967,0.13834447,0.19221708,4.250935,0.2138609,1
1.260000000000001,12.407977137769164,0.44638767913573785,5.9999976920926406,-0.349936631419808,11.794152,1.0661061,6.246429,-0.4499546,6.0647116,-4.910686,1.8264166,0.4163418,0.2105725,-0.1163082,0.87680733,-8.230294,6.3174305,0.14296202,0.32855737,4.523713,0.18128727,1
1.270000000000001,12.407977137769164,0.44638767913573785,5.9999976920926406,-0.349936631419808,11.794152,1.0661061,6.246429,-0.4499546,5.9825664,-4.847731,1.8278798,0.4177954,0.19087729,-0.1050899,0.8820255,-8.199196,6.2741895,0.1500806,0.44364646,4.753944,0.15031205,1
1.280000000000001,12.145802902088265,0.9489937333560491,5.999998213748308,-0.4837220652466395,11.253502,1.809427,6.1208916,-0.6315778,5.900718,-4.7851877,1.8294264,0.41915432,0.17037666,-0.09287376,0.8869363,-8.170915,6.235139,0.1596045,0.5407945,4.9482646,0.120856784,1
1.290000000000001,12.145802902088265,0.9489937333560491,5.999998213748308,-0.4837220652466395,11.253502,1.809427,6.1208916,-0.6315778,5.8191323,-4.7230043,1.8310546,0.42035893,0.14930543,-0.07953681,0.8914484,-8.146722,6.202197,0.16634303,0.73874694,5.1122804,0.0839346,1
1.300000000000001,12.145802902088265,0.9489937333560491,5.999998213748308,-0.4837220652466395,11.253502,1.809427,6.1208916,-0.6315778,5.7377734,-4.6611276,1.83276,0.42136753,0.12785946,-0.064991444,0.89547616,-8.12535,6.173911,0.17503512,0.9058313,5.2507086,0.048824195,1
1.310000000000001,12.145802902088265,0.9489937333560491,5.999998213748308,-0.4837220652466395,11.253502,1.809427,6.1208916,-0.6315778,5.6566153,-4.599509,1.8345611,0.4221734,0.10608783,-0.04942184,0.8989285,-8.106807,6.150595,0.1854423,1.0468593,5.367542,0.015436657,1
1.320000000000001,12.038496214226498,1.3047563831940718,5.999997595228885,-0.4873575378187269,11.545946,1.9916275,6.113312,-0.51198006,5.575628,-4.538097,1.8364737,0.42276773,0.08403597,-0.032988258,0.9017302,-8.091107,6.1325192,0.19728725,1.1658933,5.4661503,-0.016312545,1
1.330000000000001,12.038496214226498,1.3047563831940718,5.999997595228885,-0.4873575378187269,11.545946,1.9916275,6.113312,-0.51198006,5.494785,-4.4768414,1.838525,0.4231214,0.06177665,-0.015765997,0.9038272,-8.077928,6.1195846,0.21314587,1.2947549,5.5493817,-0.040635105,1
1.340000000000001,12.038496214226498,1.3047563831940718,5.999997595228885,-0.4873575378187269,11.545946,1.9916275,6.113312,-0.51198006,5.414059,-4.4156857,1.8407394,0.4232081,0.039373998,0.0021739132,0.9051741,-8.067667,6.11247,0.2298133,1.4035182,5.6196313,-0.06376413,1
1.350000000000001,12.038496214226498,1.3047563831940718,5.999997595228885,-0.4873575378187269,11.545946,1.9916275,6.113312,-0.51198006,5.3334217,-4.3545713,1.8431227,0.42302147,0.016857449,0.020705886,0.9057264,-8.060311,6.1113462,0.24691737,1.4953176,5.678924,-0.0857582,1
1.360000000000001,11.950443722018164,1.3270767984373597,5.9999922475869605,-0.3360230822878472,12.617482,2.037033,5.1549664,-0.14383088,5.252843,-4.293438,1.8456776,0.42255443,-0.0057441355,0.039719515,0.90544873,-8.055842,6.1163416,0.26406637,1.5727979,5.7289696,-0.10667303,1
1.370000000000001,11.950443722018164,1.3270767984373597,5.9999922475869605,-0.3360230822878472,12.617482,2.037033,5.1549664,-0.14383088,5.1722956,-4.2322187,1.8484559,0.42177698,-0.028086817,0.05899179,0.90434265,-8.054077,6.1285715,0.2915173,1.6451955,5.6394467,-0.1084964,1
1.380000000000001,11.950443722018164,1.3270767984373597,5.9999922475869605,-0.3360230822878472,12.617482,2.037033,5.1549664,-0.14383088,5.0917506,-4.170843,1.8515049,0.42067665,-0.049893033,0.07834041,0.9024438,-8.055312,6.1475377,0.31813538,1.7063034,5.563886,-0.11023027,1
1.390000000000001,11.950443722018164,1.3270767984373597,5.9999922475869605,-0.3360230822878472,12.617482,2.037033,5.1549664,-0.14383088,5.0111794,-4.109245,1.8548144,0.41926843,-0.07122582,0.097729735,0.8997722,-8.059412,6.173154,0.34349748,1.7578819,5.50011,-0.111879066,1
1.400000000000001,11.29371786633299,1.044956753476352,4.127903760436277,-0.19185019619684132,12.19434,1.8946682,3.8016248,-0.10732056,4.930554,-4.047357,1.8583694,0.41756302,-0.09213663,0.11712749,0.8963444,-8.066254,6.205318,0.36719498,1.8014171,5.44628,-0.11344696,1
1.410000000000001,11.29371786633299,1.044956753476352,4.127903760436277,-0.19185019619684132,12.19434,1.8946682,3.8016248,-0.10732056,4.8498473,-3.985122,1.8621311,0.41562933,-0.11220649,0.13622916,0.8922464,-8.075384,6.2425933,0.38482603,1.8159395,5.1897955,-0.11314632,1
1.420000000000001,11.29371786633299,1.044956753476352,4.127903760436277,-0.19185019619684132,12.19434,1.8946682,3.8016248,-0.10732056,4.769038,-3.9224844,1.866058,0.41354704,-0.13111094,0.15479726,0.887596,-8.08682,6.2857776,0.40017673,1.8282005,4.973311,-0.11286045,1
1.430000000000001,11.29371786633299,1.044956753476352,4.127903760436277,-0.19185019619684132,12.19434,1.8946682,3.8016248,-0.10732056,4.6881037,-3.859387,1.8701259,0.4113337,-0.1490159,0.17289509,0.88244337,-8.100337,6.334567,0.41299945,1.8385518,4.7905865,-0.11258859,1
1.440000000000001,11.29371786633299,1.044956753476352,4.127903760436277,-0.19185019619684132,11.393504,1.4518743,3.480698,0.038569927,4.6070247,-3.7957747,1.8743085,0.40899995,-0.16606118,0.19057553,0.876826,-8.115743,6.388681,0.42307326,1.8472909,4.6363583,-0.11233007,1
1.450000000000001,11.29371786633299,1.044956753476352,4.127903760436277,-0.19185019619684132,11.393504,1.4518743,3.480698,0.038569927,4.525789,-3.7316153,1.8785425,0.40653178,-0.18232125,0.20767874,0.87083894,-8.131741,6.4439645,0.42329207,1.7855912,4.4561467,-0.10492537,1
1.460000000000001,11.29371786633299,1.044956753476352,4.127903760436277,-0.19185019619684132,11.393504,1.4518743,3.480698,0.038569927,4.444385,-3.6668804,1.8827645,0.40391764,-0.19786213,0.22408459,0.8645735,-8.14922,6.5036836,0.42062283,1.7335181,4.3040376,-0.097884014,1
1.470000000000001,11.29371786633299,1.044956753476352,4.127903760436277,-0.19185019619684132,11.393504,1.4518743,3.480698,0.038569927,4.3627996,-3.6015272,1.8869448,0.40116522,-0.2127805,0.23988676,0.85804737,-8.168078,6.56756,0.41495258,1.6895695,4.1756487,-0.09118817,1
1.480000000000001,10.610683088280664,0.4877810475667058,0.8735141499534874,-0.11466830270319044,11.329133,0.9035209,1.2403622,0.22875012,4.281019,-3.5355155,1.8910527,0.39827946,-0.22715732,0.2551637,0.8512723,-8.188222,6.635342,0.4061784,1.6524777,4.0672803,-0.084820904,1
1.490000000000001,10.610683088280664,0.4877810475667058,0.8735141499534874,-0.11466830270319044,11.329133,0.9035209,1.2403622,0.22875012,4.199032,-3.4688096,1.8950548,0.3954308,-0.24038325,0.2694471,0.84454054,-8.209428,6.706363,0.39374867,1.535617,3.626446,-0.06943388,1
1.500000000000001,10.610683088280664,0.4877810475667058,0.8735141499534874,-0.11466830270319044,11.329133,0.9035209,1.2403622,0.22875012,4.1168275,-3.4013772,1.8989174,0.392781,-0.25199512,0.2823876,0.8381401,-8.231625,6.7806005,0.37829012,1.4369937,3.254356,-0.054801904,1
1.5100000000000011,10.610683088280664,0.4877810475667058,0.8735141499534874,-0.11466830270319044,11.329133,0.9035209,1.2403622,0.22875012,4.034397,-3.333188,1.902611,0.3903149,-0.26225024,0.29420376,0.8320596,-8.254623,6.8576565,0.35998464,1.3537607,2.94029,-0.040887907,1
1.5200000000000011,10.069483928499427,-0.1303548450296888,-3.458405704159376,-0.09806824144809288,10.955296,0.34683475,-0.97925377,0.3625129,3.9517334,-3.2642157,1.9061079,0.38801384,-0.27136368,0.3050778,0.8262775,-8.278266,6.9372044,0.33900183,1.2835158,2.6752,-0.027656697,0
1.5300000000000011,10.069483928499427,-0.1303548450296888,-3.458405704159376,-0.09806824144809288,10.955296,0.34683475,-0.97925377,0.3625129,3.8688426,-3.1944776,1.909345,0.38636488,-0.2781573,0.31412566,0.8213864,-8.299874,7.010403,0.30779198,1.0708741,1.7265314,-0.03184031,0
1.5400000000000011,10.069483928499427,-0.1303548450296888,-3.458405704159376,-0.09806824144809288,10.955296,0.34683475,-0.97925377,0.3625129,3.785736,-3.1240044,1.9122571,0.38578698,-0.28170472,0.3206046,0.81793845,-8.32144,7.0844564,0.2744244,0.88352823,0.9179454,-0.035090137,0
1.5500000000000012,10.069483928499427,-0.1303548450296888,-3.458405704159376,-0.09806824144809288,10.955296,0.34683475,-0.97925377,0.3625129,3.7024145,-3.0527856,1.91483,0.38615388,-0.28253457,0.32492492,0.8157714,-8.342824,7.159431,0.24004963,0.7253987,0.23545803,-0.038180485,0
1.5600000000000012,10.120178195091167,-0.7034147767046457,-5.999984241602284,-0.10308617814655158,10.53677,-0.021098819,-5.2578635,0.4078774,3.618881,-2.980814,1.9170564,0.38734058,-0.28108418,0.32742977,0.8147076,-8.363775,7.234921,0.20520937,0.5919295,-0.3405959,-0.041119177,1
1.5700000000000012,10.120178195091167,-0.7034147767046457,-5.999984241602284,-0.10308617814655158,10.53677,-0.021098819,-5.2578635,0.4078774,3.5351362,-2.9080684,1.9189492,0.38942537,-0.27709046,0.32817644,0.8147814,-8.3850155,7.314135,0.17336538,0.49695376,-1.1068007,-0.01914579,1
1.5800000000000012,10.120178195091167,-0.7034147767046457,-5.999984241602284,-0.10308617814655158,10.53677,-0.021098819,-5.2578635,0.4078774,3.4511843,-2.834532,1.9205257,0.39244294,-0.2703479,0.32720825,0.81598717,-8.405228,7.393079,0.14206031,0.4161792,-1.7541499,0.0018083598,1
1.5900000000000012,10.120178195091167,-0.7034147767046457,-5.999984241602284,-0.10308617814655158,10.53677,-0.021098819,-5.2578635,0.4078774,3.3670363,-2.760209,1.9217942,0.3962186,-0.26126575,0.32476923,0.81809276,-8.424113,7.471422,0.11183992,0.34801605,-2.3005476,0.02173429,1
1.6000000000000012,10.29667842877265,-1.106438186914433,-5.999997256921007,-0.07179376774392185,11.245063,-0.5990559,-6.1376643,0.4874518,3.2827072,-2.685107,1.9227678,0.40059525,-0.25018483,0.32105944,0.82088464,-8.441401,7.5488234,0.083109096,0.29049307,-2.7617366,0.04068245,1
1.6100000000000012,10.29667842877265,-1.106438186914433,-5.999997256921007,-0.07179376774392185,11.245063,-0.5990559,-6.1376643,0.4874518,3.198209,-2.6092117,1.9234866,0.4054624,-0.23723586,0.31593615,0.82431996,-8.457894,7.6300683,0.060979854,0.15182802,-3.2667434,0.062605545,1
1.6200000000000012,10.29667842877265,-1.106438186914433,-5.999997256921007,-0.07179376774392185,11.245063,-0.5990559,-6.1376643,0.4874518,3.1135569,-2.5325122,1.9239951,0.41071552,-0.22253375,0.30928653,0.8283314,-8.472223,7.709543,0.04112527,0.034795072,-3.6929975,0.08345287,1
1.6300000000000012,10.29667842877265,-1.106438186914433,-5.999997256921007,-0.07179376774392185,11.245063,-0.5990559,-6.1376643,0.4874518,3.0287726,-2.4550283,1.9243176,0.41623104,-0.2063217,0.3013034,0.8327058,-8.484203,7.7868347,0.023809856,-0.06398197,-4.0527797,0.1032772,1
1.6400000000000012,10.29667842877265,-1.106438186914433,-5.999997256921007,-0.07179376774392185,11.293116,-1.0245491,-6.0864625,0.49040884,2.9438813,-2.376784,1.9244806,0.4219001,-0.18880725,0.29214975,0.83725756,-8.493672,7.86155,0.009205042,-0.14735273,-4.356455,0.122128755,1
1.6500000000000012,10.29667842877265,-1.106438186914433,-5.999997256921007,-0.07179376774392185,11.293116,-1.0245491,-6.0864625,0.49040884,2.858908,-2.297806,1.9245132,0.4275961,-0.1702409,0.28182203,0.84187627,-8.500525,7.9336157,-0.002228816,-0.2840764,-4.612779,0.14020036,1
1.6600000000000013,10.29667842877265,-1.106438186914433,-5.999997256921007,-0.07179376774392185,11.293116,-1.0245491,-6.0864625,0.49040884,2.7738798,-2.2181237,1.9244457,0.43321472,-0.15083538,0.27032563,0.8464617,-8.504645,8.002328,-0.010814167,-0.39947885,-4.8291306,0.15738522,1
1.6700000000000013,10.29667842877265,-1.106438186914433,-5.999997256921007,-0.07179376774392185,11.293116,-1.0245491,-6.0864625,0.49040884,2.6888244,-2.137772,1.9243065,0.438697,-0.13070652,0.2578031,0.85088074,-8.5059805,8.067316,-0.016579099,-0.49688607,-5.011742,0.17372678,1
1.6800000000000013,10.493248000549013,-1.3767816097932961,-5.999997062798813,0.023832445944709388,12.198003,-1.1550415,-5.8678575,0.71215785,2.60377,-2.056791,1.9241234,0.44399115,-0.10995627,0.24437809,0.85502076,-8.504491,8.128234,-0.019612404,-0.5791053,-5.1658754,0.18926647,0
1.6900000000000013,10.493248000549013,-1.3767816097932961,-5.999997062798813,0.023832445944709388,12.198003,-1.1550415,-5.8678575,0.71215785,2.5187433,-1.9752427,1.9238886,0.44908682,-0.08875181,0.23003152,0.85879534,-8.500457,8.180752,-0.026970642,-0.70351446,-5.2959676,0.18114856,0
1.7000000000000013,10.493248000549013,-1.3767816097932961,-5.999997062798813,0.023832445944709388,12.198003,-1.1550415,-5.8678575,0.71215785,2.43377,-1.893191,1.9235915,0.45398253,-0.06723632,0.21475734,0.8621242,-8.493791,8.228887,-0.032081574,-0.80852413,-5.405769,0.17342901,0
1.7100000000000013,10.493248000549013,-1.3767816097932961,-5.999997062798813,0.023832445944709388,12.198003,-1.1550415,-5.8678575,0.71215785,2.3488765,-1.810681,1.9232539,0.45864734,-0.045462668,0.1986747,0.86493,-8.484526,8.272359,-0.035142094,-0.8971593,-5.498444,0.16608828,0
1.7200000000000013,10.732602646829836,-1.4079329404218386,-5.999994588984883,0.20048539440020416,12.0945015,-0.74022174,-5.121461,0.8124814,2.2640886,-1.7277607,1.922895,0.46305314,-0.023479229,0.18188827,0.86714876,-8.472701,8.310919,-0.036384296,-0.97197306,-5.5766644,0.15910777,0
1.7300000000000013,10.732602646829836,-1.4079329404218386,-5.999994588984883,0.20048539440020416,12.0945015,-0.74022174,-5.121461,0.8124814,2.1794329,-1.6444764,1.9225428,0.4671555,-0.0013324977,0.16448003,0.86874056,-8.458036,8.345105,-0.033825293,-1.0399466,-5.642691,0.16113818,0
1.7400000000000013,10.732602646829836,-1.4079329404218386,-5.999994588984883,0.20048539440020416,12.0945015,-0.74022174,-5.121461,0.8124814,2.0949364,-1.5608774,1.922223,0.470914,0.020934671,0.14652303,0.86967385,-8.440858,8.373836,-0.029967556,-1.0973209,-5.6984196,0.16306895,0
1.7500000000000013,10.732602646829836,-1.4079329404218386,-5.999994588984883,0.20048539440020416,12.0945015,-0.74022174,-5.121461,0.8124814,2.0106242,-1.4770191,1.9219469,0.47431076,0.04328418,0.12809232,0.8699127,-8.421231,8.396936,-0.025125913,-1.1457486,-5.7454567,0.16490498,0
1.7600000000000013,10.978318637198031,-1.1544683375820814,-4.9696312617776215,0.40341102876618645,11.197119,-0.44765952,-1.6286621,0.64511,1.92652,-1.3929585,1.9217227,0.47732985,0.06568019,0.10925497,0.86942834,-8.399229,8.414263,-0.019633252,-1.1866254,-5.785157,0.16665094,0
1.7700000000000014,10.978318637198031,-1.1544683375820814,-4.9696312617776215,0.40341102876618645,11.197119,-0.44765952,-1.6286621,0.64511,1.8426502,-1.3087525,1.9215671,0.47988972,0.08778224,0.09035557,0.86823726,-8.374379,8.425981,-0.011458569,-1.1815815,-5.6579847,0.17826882,0
1.7800000000000014,10.978318637198031,-1.1544683375820814,-4.9696312617776215,0.40341102876618645,11.197119,-0.44765952,-1.6286621,0.64511,1.7590399,-1.2244593,1.9214933,0.48194382,0.10931939,0.07167629,0.86639595,-8.347316,8.431733,-0.0033335474,-1.1773257,-5.550645,0.18931663,0
1.7900000000000014,10.978318637198031,-1.1544683375820814,-4.9696312617776215,0.40341102876618645,11.197119,-0.44765952,-1.6286621,0.64511,1.6757108,-1.1401379,1.9214991,0.48352492,0.13035405,0.053188123,0.8639344,-8.318177,8.431611,0.0043979427,-1.1737347,-5.460044,0.19982232,0
1.8000000000000014,10.713419582025972,-0.7599452047861117,-0.9674119108438405,0.5617714430351274,11.851253,-0.104362115,0.4645603,0.53625894,1.592683,-1.0558469,1.9215788,0.4846596,0.15093766,0.034867406,0.8608759,-8.287094,8.425709,0.011409373,-1.170705,-5.3835716,0.20981248,0
1.8100000000000014,10.713419582025972,-0.7599452047861117,-0.9674119108438405,0.5617714430351274,11.851253,-0.104362115,0.4645603,0.53625894,1.5099713,-0.97164184,1.921711,0.48529497,0.16981687,0.017605131,0.8575204,-8.255013,8.414469,0.014895722,-1.1066878,-4.6948776,0.2270832,0
1.8200000000000014,10.713419582025972,-0.7599452047861117,-0.9674119108438405,0.5617714430351274,11.851253,-0.104362115,0.4645603,0.53625894,1.4275876,-0.88757443,1.9218727,0.48546582,0.18602456,0.0021074766,0.8542327,-8.221495,8.398297,0.017248379,-1.0526552,-4.113585,0.24350646,0
1.8300000000000014,10.713419582025972,-0.7599452047861117,-0.9674119108438405,0.5617714430351274,11.851253,-0.104362115,0.4645603,0.53625894,1.3455453,-0.8036908,1.922052,0.48529416,0.19998445,-0.011896026,0.8510902,-8.186845,8.377794,0.018422376,-1.0070478,-3.622944,0.2591238,0
1.8400000000000014,10.713419582025972,-0.7599452047861117,-0.9674119108438405,0.5617714430351274,11.776972,-0.056813117,3.065451,0.36673132,1.2638539,-0.7200317,1.922237,0.48486823,0.21205303,-0.024636932,0.84813297,-8.151318,8.353468,0.018417526,-0.9685507,-3.2088184,0.27397484,0
1.8500000000000014,10.713419582025972,-0.7599452047861117,-0.9674119108438405,0.5617714430351274,11.776972,-0.056813117,3.065451,0.36673132,1.1825213,-0.63663304,1.9224163,0.48425168,0.22252977,-0.0363125,0.8453771,-8.115117,8.3257475,0.017260376,-0.93605465,-2.8592753,0.2880971,0
1.8600000000000014,10.713419582025972,-0.7599452047861117,-0.9674119108438405,0.5617714430351274,11.776972,-0.056813117,3.065451,0.36673132,1.1015533,-0.55352706,1.9225785,0.4834903,0.23166607,-0.047090158,0.8428231,-8.078409,8.294993,0.01499209,-0.90862316,-2.564243,0.30152637,0
1.8700000000000014,10.713419582025972,-0.7599452047861117,-0.9674119108438405,0.5617714430351274,11.776972,-0.056813117,3.065451,0.36673132,1.0209544,-0.47074252,1.9227126,0.482617,0.23967288,-0.057111673,0.84046197,-8.041331,8.261508,0.01166051,-0.8854664,-2.3152208,0.31429666,0
1.8800000000000014,10.529635764954891,-0.3581039988242229,2.9362465039600654,0.6188545494499477,11.0122,-0.01745028,5.0875807,0.54416376,0.9407276,-0.3883054,1.9228083,0.48165524,0.24672724,-0.06649682,0.83827937,-8.003995,8.225546,0.00731494,-0.8659176,-2.1050336,0.3264403,0
1.8900000000000015,10.529635764954891,-0.3581039988242229,2.9362465039600654,0.6188545494499477,11.0122,-0.01745028,5.0875807,0.54416376,0.8608718,-0.30623597,1.9228476,0.48068905,0.2517484,-0.07446276,0.83666974,-7.967159,8.188036,0.00044615346,-0.78687876,-1.3188393,0.34078914,0
1.9000000000000015,10.529635764954891,-0.3581039988242229,2.9362465039600654,0.6188545494499477,11.0122,-0.01745028,5.0875807,0.54416376,0.78138405,-0.22455013,1.9228148,0.47980967,0.25389683,-0.080398835,0.83597565,-7.9304132,8.148934,-0.007055682,-0.7201527,-0.6552527,0.35443386,0
1.9100000000000015,10.529635764954891,-0.3581039988242229,2.9362465039600654,0.6188545494499477,11.0122,-0.01745028,5.0875807,0.54416376,0.70226234,-0.14326072,1.9227054,0.47902757,0.253628,-0.08462822,0.8360883,-7.893994,8.108833,-0.014862678,-0.6638196,-0.09515302,0.36740908,0
1.9200000000000015,10.497347497813204,-0.006710895132527221,5.99997729756187,0.577520578066704,11.078417,0.024897981,6.167904,0.54922193,0.6235024,-0.062375188,1.9225177,0.47833675,0.25131974,-0.08742141,0.836893,-7.8580985,8.068226,-0.022686195,-0.6162592,0.37759846,0.3797476,1
1.9300000000000015,10.497347497813204,-0.006710895132527221,5.99997729756187,0.577520578066704,11.078417,0.024897981,6.167904,0.54922193,0.5451072,0.018093,1.9222763,0.47779745,0.24633315,-0.088288076,0.83859104,-7.8210793,8.025454,-0.025532871,-0.5164944,1.2544308,0.38806376,1
1.9400000000000015,10.497347497813204,-0.006710895132527221,5.99997729756187,0.577520578066704,11.078417,0.024897981,6.167904,0.54922193,0.46707729,0.098136134,1.9220093,0.47744176,0.23816729,-0.08684808,0.8412985,-7.7850895,7.983331,-0.027699519,-0.43226168,1.9945186,0.39597183,1
1.9500000000000015,10.497347497813204,-0.006710895132527221,5.99997729756187,0.577520578066704,11.078417,0.024897981,6.167904,0.54922193,0.3894009,0.17776425,1.921726,0.4772046,0.22729333,-0.08345645,0.8447773,-7.750419,7.9425507,-0.028807176,-0.3611417,2.6191878,0.40349185,1
1.9600000000000015,10.515493985358551,0.22789684511676983,5.999996632766395,0.49200820921375665,11.427713,0.54608005,6.344314,0.56144375,0.31206346,0.25699383,1.921438,0.4770163,0.21410476,-0.078410685,0.84880304,-7.7173333,7.9037113,-0.028575122,-0.30109215,3.1464381,0.4106429,1
1.9700000000000015,10.515493985358551,0.22789684511676983,5.999996632766395,0.49200820921375665,11.427713,0.54608005,6.344314,0.56144375,0.23505291,0.33584115,1.9211755,0.4767635,0.19903211,-0.07178422,0.85318816,-7.685083,7.8661933,-0.023668155,-0.16911228,3.5914843,0.41804272,1
1.9800000000000015,10.515493985358551,0.22789684511676983,5.999996632766395,0.49200820921375665,11.427713,0.54608005,6.344314,0.56144375,0.15835471,0.4143282,1.9209704,0.47634998,0.1824351,-0.06364768,0.85776293,-7.654889,7.831727,-0.017086385,-0.0576988,3.967121,0.4250795,1
1.9900000000000015,10.515493985358551,0.22789684511676983,5.999996632766395,0.49200820921375665,11.427713,0.54608005,6.344314,0.56144375,0.08194752,0.4924878,1.9208397,0.47573417,0.1645259,-0.054229636,0.8623616,-7.626906,7.8007674,-0.008809701,0.03635386,4.2841735,0.4317709,1
2.0000000000000013,,,,,11.538045,1.1930124,5.864136,0.86050385,0.00580848,0.570357,1.9208001,0.47487798,0.14548737,-0.04372516,0.8668406,-7.601283,7.7737103,0.0011119742,0.115751505,4.551779,0.43813396,0
2.010000000000001,,,,,11.538045,1.1930124,5.864136,0.86050385,-0.07009808,0.6479879,1.9208146,0.4737796,0.12541209,-0.032421704,0.8710647,-7.5803957,7.753089,0.0020296283,0.12789957,4.777631,0.43852356,0
2.020000000000001,,,,,11.538045,1.1930124,5.864136,0.86050385,-0.14580779,0.7254328,1.9208448,0.47243395,0.10438652,-0.020559061,0.8749212,-7.56194,7.7365427,0.004186739,0.13816322,4.9682603,0.43889406,0
2.0300000000000007,,,,,11.538045,1.1930124,5.864136,0.86050385,-0.22134577,0.8027334,1.920902,0.47080633,0.08255146,-0.008228343,0.8783274,-7.5460753,7.7242703,0.007395219,0.14683463,5.129162,0.4392464,0
2.0400000000000005,,,,,11.538045,1.1930124,5.864136,0.86050385,-0.29673868,0.87993336,1.9209955,0.4688683,0.060030676,0.0044910973,0.8812144,-7.532944,7.716436,0.011431183,0.15416096,5.26497,0.43958145,0
2.0500000000000003,,,,,11.664265,0.73229474,5.244875,0.7943623,-0.3720145,0.9570778,1.9211324,0.4665969,0.036933567,0.017529838,0.8835248,-7.5226727,7.71317,0.016040979,0.16035093,5.3795986,0.4399,1
2.06,,,,,11.664265,0.73229474,5.244875,0.7943623,-0.44719732,1.0342133,1.9213839,0.46393877,0.013725685,0.0308754,0.8852227,-7.51441,7.7147484,0.034266714,0.2494903,5.358617,0.45729357,1
2.07,,,,,11.664265,0.73229474,5.244875,0.7943623,-0.5223142,1.1113911,1.9218178,0.4608664,-0.009213889,0.044515543,0.8863045,-7.5094733,7.721628,0.05248845,0.32473108,5.340905,0.47383362,1
2.0799999999999996,,,,,11.664265,0.73229474,5.244875,0.7943623,-0.5973981,1.1886642,1.9224324,0.45739663,-0.031911526,0.058393456,0.88676953,-7.5078154,7.733808,0.070368424,0.38824022,5.325953,0.4895621,1
2.0899999999999994,,,,,11.693579,0.041884188,5.223291,0.27621695,-0.67248166,1.2660855,1.9232228,0.45354316,-0.054387137,0.072459385,0.88661736,-7.509393,7.751268,0.08757304,0.44184753,5.31333,0.5045187,1
2.099999999999999,,,,,11.693579,0.041884188,5.223291,0.27621695,-0.7475971,1.3437078,1.9241818,0.449358,-0.07677722,0.08641701,0.8858413,-7.514192,7.774014,0.104061514,0.37951684,5.2992654,0.49331588,1
2.109999999999999,,,,,11.693579,0.041884188,5.223291,0.27621695,-0.82277673,1.4215833,1.9252995,0.4448851,-0.09918895,0.10002592,0.8844398,-7.522245,7.8018866,0.119227774,0.32690367,5.2873983,0.48266274,1
2.1199999999999988,,,,,11.693579,0.041884188,5.223291,0.27621695,-0.89805335,1.4997628,1.926561,0.44012496,-0.121595144,0.11332062,0.882419,-7.5335975,7.8347425,0.13276364,0.28249308,5.2773848,0.4725324,1
2.1299999999999986,,,,,12.133277,-0.45103902,2.3994424,0.12469907,-0.9734601,1.578295,1.9279482,0.43507916,-0.14397064,0.12632903,0.8797839,-7.5482783,7.8724346,0.14436676,0.24500598,5.268935,0.46289915,1
2.1399999999999983,,,,,12.133277,-0.45103902,2.3994424,0.12469907,-1.0490335,1.6572353,1.929461,0.4298925,-0.16538973,0.13841052,0.8767448,-7.566952,7.916351,0.15780742,0.13664562,4.821405,0.4463036,1
2.149999999999998,,,,,12.133277,-0.45103902,2.3994424,0.12469907,-1.1248103,1.7366368,1.9310962,0.42472553,-0.18513246,0.14907506,0.87356234,-7.588891,7.964585,0.16884653,0.045152128,4.443674,0.43052238,1
2.159999999999998,,,,,12.133277,-0.45103902,2.3994424,0.12469907,-1.2008218,1.8165399,1.9328295,0.41959408,-0.20345528,0.15854508,0.8702934,-7.6138887,8.01662,0.17745642,-0.032098755,4.1248555,0.41551554,1
2.1699999999999977,,,,,11.208663,-0.684288,0.41523835,0.24205083,-1.277098,1.8969806,1.9346368,0.41450527,-0.22057499,0.16700715,0.86697227,-7.6417685,8.072019,0.18363245,-0.09732346,3.8557618,0.40124506,1
2.1799999999999975,,,,,11.208663,-0.684288,0.41523835,0.24205083,-1.353655,1.9779683,1.936455,0.40956584,-0.23602517,0.17421399,0.86382735,-7.670026,8.125933,0.17964321,-0.188703,3.3191912,0.39343336,1
2.1899999999999973,,,,,11.208663,-0.684288,0.41523835,0.24205083,-1.4305061,2.059507,1.9382226,0.40487382,-0.24945548,0.17998834,0.861077,-7.700544,8.182115,0.17360143,-0.2658592,2.866303,0.38600495,1
2.199999999999997,,,,,11.208663,-0.684288,0.41523835,0.24205083,-1.5076728,2.1416168,1.9399207,0.40041298,-0.26118922,0.18456605,0.8587114,-7.733086,8.240123,0.16571662,-0.33100528,2.484046,0.3789411,1
2.209999999999997,,,,,11.283497,-1.2938894,-4.141696,0.45902926,-1.5851742,2.2243142,1.9415314,0.3961629,-0.27149716,0.18814328,0.85670686,-7.7674556,8.299596,0.15618615,-0.38601068,2.1614046,0.37222382,1
2.2199999999999966,,,,,11.283497,-1.2938894,-4.141696,0.45902926,-1.6630288,2.3076143,1.9430425,0.39236084,-0.27913874,0.18996394,0.85559833,-7.8036895,8.360581,0.145831,-0.52735895,1.1784037,0.37648338,1
