time-since-start [s],throttle_mpc,roll_mpc,pitch_mpc,yaw_mpc,throttle_nw,roll_nw,pitch_nw,yaw_nw,position_x [m],position_y [m],position_z [m],rotation_w [quaternion],rotation_x [quaternion],rotation_y [quaternion],rotation_z [quaternion],velocity_x [m/s],velocity_y [m/s],velocity_z [m/s],omega_x [rad/s],omega_y [rad/s],omega_z [rad/s],network_used
0.0,11.138093256664419,5.9999998865547015,-5.999999939980666,-1.4300361067190799,16.047138,5.049766,-3.8332589,-1.1003764,17.685022,-9.831293,1.6765018,0.10329844,0.4072435,-0.107960835,-0.9010142,-10.9619,-7.5363984,1.2729505,3.444658,-0.5718716,-0.7940781,0
0.01,11.138093256664419,5.9999998865547015,-5.999999939980666,-1.4300361067190799,16.595686,4.8053155,-2.8700168,-0.38293886,17.574947,-9.906587,1.6891289,0.09179592,0.40515044,-0.12300698,-0.90127456,-11.052455,-7.52156,1.2519745,3.7548425,-1.3306953,-0.8173896,0
0.02,11.138093256664419,5.9999998865547015,-5.999999939980666,-1.4300361067190799,16.595686,4.8053155,-2.8700168,-0.38293886,17.463987,-9.981712,1.7015312,0.07907815,0.3997981,-0.13967034,-0.9024413,-11.139223,-7.502763,1.2280588,4.0600953,-2.014622,-0.8434413,0
0.03,11.138093256664419,5.9999998865547015,-5.999999939980666,-1.4300361067190799,16.595686,4.8053155,-2.8700168,-0.38293886,17.352179,-10.056629,1.7136819,0.06513994,0.39143863,-0.15782262,-0.904226,-11.221973,-7.4797273,1.2019044,4.3555465,-2.6296911,-0.87160575,0
0.04,11.138093256664419,5.9999998865547015,-5.999999939980666,-1.4300361067190799,16.416525,5.3446436,-4.78055,0.2028273,17.239555,-10.13129,1.7255695,0.050039306,0.38034788,-0.17725609,-0.9063178,-11.302274,-7.4516025,1.1756649,4.611644,-3.1555166,-0.89900804,0
0.05,11.138093256664419,5.9999998865547015,-5.999999939980666,-1.4300361067190799,16.416525,5.3446436,-4.78055,0.2028273,17.126143,-10.205642,1.737197,0.033902135,0.3668444,-0.19768594,-0.9084031,-11.3799515,-7.417938,1.149921,4.8278365,-3.599321,-0.92506576,0
0.060000000000000005,11.138093256664419,5.9999998865547015,-5.999999939980666,-1.4300361067190799,16.416525,5.3446436,-4.78055,0.2028273,17.01197,-10.279629,1.7485698,0.016850982,0.35120627,-0.21885881,-0.9102039,-11.454343,-7.378528,1.1247231,5.010345,-3.9738963,-0.9498448,0
0.07,11.138093256664419,5.9999998865547015,-5.999999939980666,-1.4300361067190799,16.416525,5.3446436,-4.78055,0.2028273,16.89707,-10.353192,1.7596934,-0.000998578,0.33367488,-0.24055421,-0.91147894,-11.524798,-7.3332725,1.1000367,5.1644197,-4.2900405,-0.97340786,0
0.08,18.157054280245145,5.999999937791692,-5.999999967103137,-0.7371519020450187,19.017479,3.747795,-6.3398223,-0.6657366,16.781488,-10.426274,1.7705721,-0.019537058,0.31446227,-0.26257953,-0.9120219,-11.590685,-7.282172,1.0757537,5.2944927,-4.556867,-0.9958148,0
0.09,18.157054280245145,5.999999937791692,-5.999999967103137,-0.7371519020450187,19.017479,3.747795,-6.3398223,-0.6657366,16.66508,-10.49864,1.7814425,-0.03858238,0.29373428,-0.28479257,-0.9116605,-11.689655,-7.1895003,1.098367,5.40441,-4.7819495,-0.98312217,0
0.09999999999999999,18.157054280245145,5.999999937791692,-5.999999967103137,-0.7371519020450187,19.017479,3.747795,-6.3398223,-0.6657366,16.547728,-10.570034,1.7925395,-0.05796285,0.27163684,-0.30706766,-0.91025454,-11.779254,-7.0877585,1.1209936,5.4972095,-4.9719195,-0.97105235,0
0.10999999999999999,18.157054280245145,5.999999937791692,-5.999999967103137,-0.7371519020450187,19.017479,3.747795,-6.3398223,-0.6657366,16.42953,-10.640367,1.803861,-0.07759254,0.2483226,-0.32926816,-0.90768814,-11.85861,-6.9773784,1.1431948,5.5755563,-5.132256,-0.9595748,0
0.11999999999999998,18.157054280245145,5.999999937791692,-5.999999967103137,-0.7371519020450187,19.017479,3.747795,-6.3398223,-0.6657366,16.310593,-10.709555,1.8154002,-0.09739016,0.2239311,-0.3512726,-0.90386814,-11.9269285,-6.858912,1.1644739,5.641701,-5.267581,-0.9486605,0
0.12999999999999998,20.999999904885005,5.99999981954791,-5.999999881573836,-0.6822314243404863,20.307867,2.8069348,-5.5323787,-0.7575763,16.191032,-10.77752,1.8271455,-0.1172789,0.19859073,-0.3729728,-0.8987206,-11.983498,-6.733022,1.1842889,5.6975436,-5.3817983,-0.9382817,0
0.13999999999999999,20.999999904885005,5.99999981954791,-5.999999881573836,-0.6822314243404863,20.307867,2.8069348,-5.5323787,-0.7575763,16.07093,-10.8440895,1.83917,-0.13718012,0.17241783,-0.39427304,-0.89218974,-12.03462,-6.5797124,1.2202086,5.744697,-5.478188,-0.92571723,0
0.15,20.999999904885005,5.99999981954791,-5.999999881573836,-0.6822314243404863,20.307867,2.8069348,-5.5323787,-0.7575763,15.950391,-10.909092,1.851539,-0.15701967,0.14552058,-0.41508743,-0.8842347,-12.070841,-6.419674,1.2530819,5.784506,-5.559543,-0.9137693,0
0.16,21.0,5.157766498835402,-5.999998832343388,-0.6364243320229498,19.024126,2.7704184,-2.7288165,-0.5352316,15.829565,-10.972464,1.8642186,-0.1767336,0.11800266,-0.43533725,-0.8748269,-12.091677,-6.253972,1.2822076,5.818113,-5.628209,-0.90240765,0
0.17,21.0,5.157766498835402,-5.999998832343388,-0.6364243320229498,19.024126,2.7704184,-2.7288165,-0.5352316,15.708611,-11.034155,1.8771678,-0.19622111,0.09002162,-0.4546613,-0.86410445,-12.0967865,-6.083761,1.306907,5.715147,-5.68608,-0.8893558,0
0.18000000000000002,21.0,5.157766498835402,-5.999998832343388,-0.6364243320229498,19.024126,2.7704184,-2.7288165,-0.5352316,15.587685,-11.094128,1.8903397,-0.21540883,0.06172612,-0.47278202,-0.8522125,-12.086031,-5.910339,1.3266485,5.628242,-5.7349396,-0.8769443,0
0.19000000000000003,21.0,5.157766498835402,-5.999998832343388,-0.6364243320229498,19.024126,2.7704184,-2.7288165,-0.5352316,15.466945,-11.152356,1.9036821,-0.23427431,0.03319544,-0.48974526,-0.83914435,-12.059413,-5.7350307,1.3409593,5.554893,-5.776191,-0.8651419,0
0.20000000000000004,21.0,2.6397541580143975,-3.236052799143225,-0.7785177902449733,18.68928,1.6761159,-0.2573482,-0.72908765,15.34655,-11.208827,1.9171386,-0.25279236,0.0045022005,-0.5055875,-0.82489824,-12.017045,-5.559144,1.3493804,5.4929843,-5.811019,-0.8539187,0
0.21000000000000005,21.0,2.6397541580143975,-3.236052799143225,-0.7785177902449733,18.68928,1.6761159,-0.2573482,-0.72908765,15.226657,-11.263541,1.930648,-0.2704007,-0.023109995,-0.51981807,-0.81002384,-11.959271,-5.3839517,1.3515254,5.048261,-5.4091954,-0.8502187,0
0.22000000000000006,21.0,2.6397541580143975,-3.236052799143225,-0.7785177902449733,18.68928,1.6761159,-0.2573482,-0.72908765,15.107413,-11.316513,1.9441472,-0.2867047,-0.048650723,-0.5321665,-0.79513043,-11.8872385,-5.210549,1.3473669,4.672855,-5.0700765,-0.8467003,0
0.23000000000000007,21.0,2.6397541580143975,-3.236052799143225,-0.7785177902449733,18.68928,1.6761159,-0.2573482,-0.72908765,14.988956,-11.367763,1.957574,-0.30190194,-0.07240748,-0.54294324,-0.78027236,-11.802231,-5.0398026,1.3370379,4.3559623,-4.7838774,-0.8433546,0
0.24000000000000007,21.0,2.6397541580143975,-3.236052799143225,-0.7785177902449733,18.353142,-0.11569741,2.2777278,-0.8017559,14.871409,-11.41732,1.9708674,-0.316155,-0.0946294,-0.55239874,-0.7654717,-11.70538,-4.8724055,1.3206965,4.088463,-4.5423393,-0.84017307,0
0.25000000000000006,21.0,2.6397541580143975,-3.236052799143225,-0.7785177902449733,18.353142,-0.11569741,2.2777278,-0.8017559,14.754887,-11.465224,1.983968,-0.32959726,-0.11553079,-0.56073475,-0.75072956,-11.597685,-4.7089224,1.2985086,3.8626578,-4.3384933,-0.8371476,0
0.26000000000000006,21.0,2.6397541580143975,-3.236052799143225,-0.7785177902449733,18.353142,-0.11569741,2.2777278,-0.8017559,14.63949,-11.511514,1.9968181,-0.3423382,-0.13529497,-0.56811386,-0.7360343,-11.480026,-4.549822,1.27064,3.6720483,-4.1664577,-0.83427066,0
0.2700000000000001,21.0,2.6397541580143975,-3.236052799143225,-0.7785177902449733,18.353142,-0.11569741,2.2777278,-0.8017559,14.525317,-11.556236,2.0093617,-0.35446742,-0.15407799,-0.5746674,-0.7213669,-11.35319,-4.3954997,1.2372484,3.5111487,-4.0212674,-0.83153486,0
0.2800000000000001,20.99999996343361,-0.3893500809495065,0.43939934623461957,-1.0414741927164843,19.039764,-1.0151099,4.0689764,-0.30182934,14.4124565,-11.599442,2.0215445,-0.36605817,-0.1720122,-0.5805013,-0.7067047,-11.217879,-4.246299,1.1984825,3.375328,-3.898734,-0.82893336,0
0.2900000000000001,20.99999996343361,-0.3893500809495065,0.43939934623461957,-1.0414741927164843,19.039764,-1.0151099,4.0689764,-0.30182934,14.300987,-11.641181,2.0333135,-0.3765629,-0.18771538,-0.58541834,-0.69299984,-11.074854,-4.102423,1.154563,2.7885716,-3.2219074,-0.8393628,0
0.3000000000000001,20.99999996343361,-0.3893500809495065,0.43939934623461957,-1.0414741927164843,19.039764,-1.0151099,4.0689764,-0.30182934,14.190981,-11.681506,2.0446203,-0.38560656,-0.20012547,-0.589365,-0.6811067,-10.925477,-3.9634643,1.1061755,2.293271,-2.6506727,-0.8492805,0
0.3100000000000001,20.99999996343361,-0.3893500809495065,0.43939934623461957,-1.0414741927164843,19.039764,-1.0151099,4.0689764,-0.30182934,14.082495,-11.720464,2.0554242,-0.39346313,-0.20977296,-0.592587,-0.6708373,-10.771074,-3.8287854,1.0540929,1.8751708,-2.1685584,-0.8587115,0
0.3200000000000001,20.999999933945933,-3.6307286633222153,4.3912651689319775,-0.7894583923241437,19.282745,-2.7817528,5.3513227,-0.5131167,13.975574,-11.758094,2.0656917,-0.40035033,-0.21710117,-0.5952653,-0.6620014,-10.612696,-3.6977687,0.99898624,1.5222368,-1.7616606,-0.8676797,0
0.3300000000000001,20.999999933945933,-3.6307286633222153,4.3912651689319775,-0.7894583923241437,19.282745,-2.7817528,5.3513227,-0.5131167,13.870251,-11.794429,2.0753958,-0.40576717,-0.22093657,-0.5973159,-0.6555561,-10.451298,-3.5697143,0.94151986,0.7191792,-0.8016597,-0.86384135,0
0.34000000000000014,20.999999933945933,-3.6307286633222153,4.3912651689319775,-0.7894583923241437,19.282745,-2.7817528,5.3513227,-0.5131167,13.766552,-11.829493,2.0845177,-0.4093274,-0.22037683,-0.5986973,-0.65226275,-10.288312,-3.443272,0.88276577,0.041268855,0.008555472,-0.86019135,0
0.35000000000000014,20.999999933945933,-3.6307286633222153,4.3912651689319775,-0.7894583923241437,19.282745,-2.7817528,5.3513227,-0.5131167,13.664484,-11.863295,2.0930502,-0.41132244,-0.21611519,-0.599551,-0.6516492,-10.125138,-3.3170035,0.8237895,-0.5309956,0.6923561,-0.8567205,0
0.36000000000000015,20.99999997232513,-5.79222356481495,5.999998091463095,-0.6304903724707659,20.138632,-5.0402203,6.1113477,-0.31017113,13.564045,-11.895829,2.1009958,-0.41197324,-0.20872264,-0.5999548,-0.65327424,-9.962954,-3.1896722,0.7654643,-1.0140781,1.2694662,-0.85341996,1
0.37000000000000016,20.99999997232513,-5.79222356481495,5.999998091463095,-0.6304903724707659,20.138632,-5.0402203,6.1113477,-0.31017113,13.465184,-11.927107,2.108356,-0.41113806,-0.19805317,-0.5998259,-0.6572286,-9.809399,-3.0655043,0.70684254,-1.641577,2.0075111,-0.82676256,1
0.38000000000000017,20.99999997232513,-5.79222356481495,5.999998091463095,-0.6304903724707659,20.138632,-5.0402203,6.1113477,-0.31017113,13.367846,-11.957128,2.11514,-0.40867648,-0.18400717,-0.5990574,-0.6635173,-9.659039,-2.9381583,0.6503166,-2.1713014,2.6303873,-0.80141324,1
0.3900000000000002,20.99999997232513,-5.79222356481495,5.999998091463095,-0.6304903724707659,20.138632,-5.0402203,6.1113477,-0.31017113,13.271989,-11.985855,2.1213717,-0.40474004,-0.16708246,-0.59763616,-0.67163986,-9.513101,-2.8066688,0.5965407,-2.6184824,3.1560693,-0.7773078,1
0.4000000000000002,21.0,-5.999997538408054,5.9999971261019915,-0.26565605832428846,21.06097,-6.681942,6.441607,-0.0047295913,13.177566,-12.013244,2.1270819,-0.39944795,-0.1476995,-0.5955325,-0.6811515,-9.372748,-2.6703248,0.54600096,-2.9959803,3.5997252,-0.75438523,1
0.4100000000000002,21.0,-5.999997538408054,5.9999971261019915,-0.26565605832428846,21.06097,-6.681942,6.441607,-0.0047295913,13.084542,-12.03921,2.1323156,-0.39292398,-0.12608641,-0.5924398,-0.6919018,-9.23299,-2.5221615,0.5014096,-3.4643664,3.9741943,-0.71759945,1
0.4200000000000002,21.0,-5.999997538408054,5.9999971261019915,-0.26565605832428846,21.06097,-6.681942,6.441607,-0.0047295913,12.992876,-12.063666,2.1371245,-0.38525063,-0.10245298,-0.58809257,-0.7037276,-9.101471,-2.3681545,0.4610207,-3.859747,4.2902145,-0.68261874,1
0.4300000000000002,21.0,-5.999997538408054,5.9999971261019915,-0.26565605832428846,21.06097,-6.681942,6.441607,-0.0047295913,12.902479,-12.086553,2.141552,-0.37646514,-0.07711072,-0.582513,-0.7162448,-8.979393,-2.20826,0.42516753,-4.193498,4.5569124,-0.6493545,1
0.4400000000000002,21.0,-5.999997538408054,5.9999971261019915,-0.26565605832428846,21.458921,-7.598995,6.36259,0.30246633,12.8132515,-12.107812,2.1456442,-0.36660394,-0.050332494,-0.5757201,-0.7291191,-8.867901,-2.0426433,0.39402452,-4.4752245,4.7819886,-0.6177226,0
0.45000000000000023,21.0,-5.999997538408054,5.9999971261019915,-0.26565605832428846,21.458921,-7.598995,6.36259,0.30246633,12.72508,-12.12739,2.1494477,-0.3557279,-0.022340922,-0.56773406,-0.742049,-8.768367,-1.8721541,0.3674172,-4.7129917,4.971979,-0.6004466,0
0.46000000000000024,21.0,-5.999997538408054,5.9999971261019915,-0.26565605832428846,21.458921,-7.598995,6.36259,0.30246633,12.637839,-12.145239,2.1530085,-0.34389842,0.0066661206,-0.55857575,-0.75477326,-8.681468,-1.696836,0.34544584,-4.913692,5.132324,-0.5840183,0
0.47000000000000025,21.0,-5.999997538408054,5.9999971261019915,-0.26565605832428846,21.458921,-7.598995,6.36259,0.30246633,12.551402,-12.161313,2.1563716,-0.33115458,0.036493577,-0.54826635,-0.7670783,-8.608115,-1.517359,0.3279037,-5.0831027,5.26765,-0.56839615,0
0.48000000000000026,21.0,-4.853758966270051,3.8219231346948,-0.7597001985138366,22.581709,-6.92996,6.141938,-0.07662411,12.465627,-12.175575,2.1595805,-0.31753734,0.0669652,-0.5368304,-0.7787805,-8.549117,-1.3345215,0.3144837,-5.226102,5.3818617,-0.5535406,0
0.49000000000000027,21.0,-4.853758966270051,3.8219231346948,-0.7597001985138366,22.581709,-6.92996,6.141938,-0.07662411,12.380367,-12.187996,2.162674,-0.3036442,0.09713002,-0.52438945,-0.7895454,-8.505078,-1.149251,0.30479458,-5.1680884,5.138603,-0.5636569,0
0.5000000000000002,21.0,-4.853758966270051,3.8219231346948,-0.7597001985138366,22.581709,-6.92996,6.141938,-0.07662411,12.295473,-12.198556,2.1656876,-0.28999656,0.12622714,-0.51111287,-0.7992075,-8.475974,-0.9626425,0.29841334,-5.1191134,4.933282,-0.5732768,0
0.5100000000000002,21.0,-4.853758966270051,3.8219231346948,-0.7597001985138366,22.581709,-6.92996,6.141938,-0.07662411,12.210797,-12.207248,2.168652,-0.27652845,0.15436806,-0.4970855,-0.8078421,-8.461559,-0.77576035,0.29491878,-5.077768,4.7599807,-0.5824247,0
0.5200000000000002,20.999999995822552,-2.22564359283383,0.7412718598628261,-1.2732414823919493,23.312002,-5.587694,5.8618765,-0.2600181,12.126193,-12.214072,2.1715944,-0.2631845,0.18164666,-0.4823775,-0.8155064,-8.46157,-0.589586,0.29388928,-5.042863,4.613706,-0.5911237,0
0.5300000000000002,20.999999995822552,-2.22564359283383,0.7412718598628261,-1.2732414823919493,23.312002,-5.587694,5.8618765,-0.2600181,12.041518,-12.219045,2.174537,-0.2507688,0.20689805,-0.46759266,-0.8219888,-8.475574,-0.4050158,0.29490015,-4.603663,4.009734,-0.62459546,0
0.5400000000000003,20.999999995822552,-2.22564359283383,0.7412718598628261,-1.2732414823919493,23.312002,-5.587694,5.8618765,-0.2600181,11.956638,-12.222181,2.177498,-0.2399658,0.22924057,-0.4532931,-0.82727915,-8.502281,-0.22274214,0.2975529,-4.2329464,3.4999566,-0.6564247,0
0.5500000000000003,20.999999995822552,-2.22564359283383,0.7412718598628261,-1.2732414823919493,23.312002,-5.587694,5.8618765,-0.2600181,11.871434,-12.22351,2.1804926,-0.23055984,0.24912871,-0.439456,-0.8316584,-8.5402775,-0.043232292,0.30154544,-3.9200315,3.0696852,-0.68669206,0
0.5600000000000003,20.999999941071458,0.8907488364623691,-2.1980423770638784,-1.3035034131051235,22.65603,-1.6327325,2.864311,-1.1292697,11.785799,-12.223057,2.1835327,-0.2223583,0.2669462,-0.4260429,-0.83533484,-8.588347,0.13319975,0.30665913,-3.6559036,2.7065213,-0.7154742,0
0.5700000000000003,20.999999941071458,0.8907488364623691,-2.1980423770638784,-1.3035034131051235,22.65603,-1.6327325,2.864311,-1.1292697,11.699637,-12.220857,2.1866288,-0.21603552,0.28176564,-0.4138008,-0.83827555,-8.645306,0.30639532,0.3127374,-2.9471748,1.9413836,-0.744329,0
0.5800000000000003,20.999999941071458,0.8907488364623691,-2.1980423770638784,-1.3035034131051235,22.65603,-1.6327325,2.864311,-1.1292697,11.61287,-12.21694,2.1897905,-0.21213324,0.2928952,-0.40335253,-0.8405468,-8.70928,0.47658193,0.31970984,-2.3489418,1.2955953,-0.77176785,0
0.5900000000000003,20.999999941071458,0.8907488364623691,-2.1980423770638784,-1.3035034131051235,22.65603,-1.6327325,2.864311,-1.1292697,11.5254345,-12.211333,2.193026,-0.21030499,0.30093965,-0.3944665,-0.8423797,-8.778421,0.64416015,0.32760453,-1.8439742,0.75054264,-0.79786026,0
0.6000000000000003,20.99999989400506,3.370934594318232,-3.756073512748554,-1.0615233880348032,21.697737,0.7364032,-1.3373814,-0.9742405,11.437287,-12.204063,2.1963456,-0.210247,0.3063983,-0.38692442,-0.843923,-8.8512,0.8095445,0.33651015,-1.4177296,0.29051435,-0.82267237,0
0.6100000000000003,20.99999989400506,3.370934594318232,-3.756073512748554,-1.0615233880348032,21.697737,0.7364032,-1.3373814,-0.9742405,11.348402,-12.195148,2.19976,-0.21221651,0.3089377,-0.38124412,-0.84508866,-8.926248,0.9731782,0.346538,-0.6712805,-0.340943,-0.8343929,0
0.6200000000000003,20.99999989400506,3.370934594318232,-3.756073512748554,-1.0615233880348032,21.697737,0.7364032,-1.3373814,-0.9742405,11.258761,-12.184604,2.2032804,-0.21639489,0.3083047,-0.3778176,-0.84579873,-9.001861,1.1357479,0.35777068,-0.04119496,-0.87387246,-0.84553826,0
0.6300000000000003,20.99999989400506,3.370934594318232,-3.756073512748554,-1.0615233880348032,21.697737,0.7364032,-1.3373814,-0.9742405,11.168368,-12.172436,2.2069197,-0.2224305,0.30497983,-0.3762804,-0.8461236,-9.076416,1.2979326,0.3702928,0.4906683,-1.3236461,-0.8561367,0
0.6400000000000003,20.99999989400506,3.370934594318232,-3.756073512748554,-1.0615233880348032,20.507908,1.9349242,-3.0142748,-1.3001865,11.077242,-12.158645,2.210691,-0.23001912,0.29935893,-0.37631133,-0.84608823,-9.148534,1.460276,0.38418737,0.93962175,-1.703238,-0.86621505,0
0.6500000000000004,20.99999989400506,3.370934594318232,-3.756073512748554,-1.0615233880348032,20.507908,1.9349242,-3.0142748,-1.3001865,10.985411,-12.143228,2.2146082,-0.23889853,0.29177055,-0.3776306,-0.8456906,-9.2170315,1.6231861,0.39951956,1.3185905,-2.0235984,-0.8757989,0
0.6600000000000004,20.99999989400506,3.370934594318232,-3.756073512748554,-1.0615233880348032,20.507908,1.9349242,-3.0142748,-1.3001865,10.892918,-12.126177,2.2186866,-0.24884322,0.2824895,-0.3799963,-0.8449139,-9.280887,1.7869427,0.41632774,1.6384848,-2.2939687,-0.88491243,0
0.6700000000000004,20.99999989400506,3.370934594318232,-3.756073512748554,-1.0615233880348032,20.507908,1.9349242,-3.0142748,-1.3001865,10.799812,-12.107485,2.2229404,-0.25965953,0.2717473,-0.38320065,-0.8437343,-9.339218,1.9517075,0.43461952,1.9085138,-2.5221496,-0.89357877,0
0.6800000000000004,20.99999981383701,4.369656468176878,-3.5319052508415005,-0.9588628983015488,19.170904,2.5311408,-3.5691278,-1.4519417,10.706156,-12.087139,2.227384,-0.27118132,0.25974032,-0.3870659,-0.84212565,-9.391255,2.1175373,0.45437077,2.136451,-2.7147233,-0.9018198,0
0.6900000000000004,20.99999981383701,4.369656468176878,-3.5319052508415005,-0.9588628983015488,19.170904,2.5311408,-3.5691278,-1.4519417,10.612012,-12.065129,2.2320323,-0.28332198,0.24659628,-0.39180383,-0.83988607,-9.436314,2.284418,0.47550187,2.484638,-2.8423712,-0.904619,0
0.7000000000000004,20.99999981383701,4.369656468176878,-3.5319052508415005,-0.9588628983015488,19.170904,2.5311408,-3.5691278,-1.4519417,10.517456,-12.041447,2.236898,-0.29599276,0.23241855,-0.3975699,-0.8368441,-9.473689,2.4523785,0.49776405,2.778537,-2.9500813,-0.90728074,0
0.7100000000000004,20.99999981383701,4.369656468176878,-3.5319052508415005,-0.9588628983015488,19.170904,2.5311408,-3.5691278,-1.4519417,10.422567,-12.016079,2.2419903,-0.3090584,0.21733178,-0.40414655,-0.8330158,-9.502738,2.6213863,0.52085245,3.0266125,-3.0409682,-0.9098119,0
0.7200000000000004,20.999999740572836,4.363564487816616,-1.9992406309987611,-1.0979105641292277,18.539694,2.870524,-2.3468268,-1.2429123,10.327432,-11.989017,2.2473166,-0.32240298,0.20144522,-0.41134784,-0.82841355,-9.522905,2.7913089,0.5444611,3.2360091,-3.1176586,-0.91221887,0
0.7300000000000004,20.999999740572836,4.363564487816616,-1.9992406309987611,-1.0979105641292277,18.539694,2.870524,-2.3468268,-1.2429123,10.2321415,-11.96025,2.25288,-0.33568949,0.18537155,-0.41921297,-0.8229279,-9.533763,2.9619513,0.5682477,3.411937,-2.9433668,-0.9213308,0
0.7400000000000004,20.999999740572836,4.363564487816616,-1.9992406309987611,-1.0979105641292277,18.539694,2.870524,-2.3468268,-1.2429123,10.136789,-11.929774,2.2586803,-0.34864938,0.16960697,-0.42778292,-0.81650406,-9.535188,3.133181,0.5916847,3.5604153,-2.7962396,-0.9299956,0
0.7500000000000004,20.999999740572836,4.363564487816616,-1.9992406309987611,-1.0979105641292277,18.539694,2.870524,-2.3468268,-1.2429123,10.041471,-11.897584,2.2647107,-0.36128435,0.15408473,-0.43691057,-0.8092222,-9.527166,3.3048594,0.6142292,3.6857266,-2.6720438,-0.93823516,0
0.7600000000000005,20.99999952418357,3.2880800070085066,0.17326353236854897,-1.269994767323442,17.06256,2.4950447,0.97299165,-1.3845378,9.94628,-11.863676,2.27096,-0.37359628,0.13875118,-0.44646874,-0.8011489,-9.509697,3.4767995,0.6353945,3.791486,-2.5672042,-0.94607043,0
0.7700000000000005,20.99999952418357,3.2880800070085066,0.17326353236854897,-1.269994767323442,17.06256,2.4950447,0.97299165,-1.3845378,9.85131,-11.828048,2.2774124,-0.38516033,0.12443152,-0.45633516,-0.7924182,-9.482879,3.6488018,0.6547221,3.713221,-2.1398199,-0.9619655,0
0.7800000000000005,20.99999952418357,3.2880800070085066,0.17326353236854897,-1.269994767323442,17.06256,2.4950447,0.97299165,-1.3845378,9.756653,-11.7907,2.2840466,-0.39565805,0.1117836,-0.46644223,-0.78319263,-9.447295,3.8208077,0.671695,3.647129,-1.7790905,-0.9770805,0
0.7900000000000005,20.99999952418357,3.2880800070085066,0.17326353236854897,-1.269994767323442,17.06256,2.4950447,0.97299165,-1.3845378,9.662393,-11.751632,2.2908366,-0.40523323,0.10054124,-0.47675508,-0.7735515,-9.40361,3.9928155,0.68584216,3.591315,-1.4746202,-0.9914539,0
0.8000000000000005,20.999999090254565,1.624409260251503,1.8666283459058528,-1.2939473889729263,16.39119,1.1219075,2.5825613,-1.2342471,9.568607,-11.710844,2.2977524,-0.4140065,0.09047945,-0.4872376,-0.76355183,-9.352385,4.1648154,0.6967691,3.5441806,-1.2176347,-1.005122,0
0.8100000000000005,20.999999090254565,1.624409260251503,1.8666283459058528,-1.2939473889729263,16.39119,1.1219075,2.5825613,-1.2342471,9.47537,-11.668336,2.30476,-0.42169493,0.08220361,-0.4976352,-0.75350845,-9.294184,4.3368096,0.70415056,3.245101,-0.73648,-1.0192947,0
0.8200000000000005,20.999999090254565,1.624409260251503,1.8666283459058528,-1.2939473889729263,16.39119,1.1219075,2.5825613,-1.2342471,9.382744,-11.624107,2.3118227,-0.4280927,0.07618502,-0.507771,-0.74370754,-9.229971,4.508939,0.7077608,2.992621,-0.33038557,-1.032772,0
0.8300000000000005,20.999999090254565,1.624409260251503,1.8666283459058528,-1.2939473889729263,16.39119,1.1219075,2.5825613,-1.2342471,9.290786,-11.578157,2.3189018,-0.4333936,0.07206693,-0.5177076,-0.7341355,-9.160717,4.6813946,0.70743525,2.7794795,0.012357444,-1.0455879,0
0.8400000000000005,20.999999090254565,1.624409260251503,1.8666283459058528,-1.2939473889729263,16.075094,0.03615768,2.4270122,-1.2339578,9.199543,-11.5304785,2.3259573,-0.43775788,0.06954775,-0.5274879,-0.72476715,-9.087228,4.8543572,0.7030399,2.5995462,0.3016315,-1.0577749,0
0.8500000000000005,20.999999090254565,1.624409260251503,1.8666283459058528,-1.2939473889729263,16.075094,0.03615768,2.4270122,-1.2339578,9.109054,-11.481067,2.3329482,-0.4413186,0.06837289,-0.53714067,-0.7155716,-9.010173,5.0279837,0.6944608,2.4476461,0.5457777,-1.0693638,0
0.8600000000000005,20.999999090254565,1.624409260251503,1.8666283459058528,-1.2939473889729263,16.075094,0.03615768,2.4270122,-1.2339578,9.01935,-11.429914,2.3398318,-0.4441868,0.06832778,-0.5466848,-0.70651597,-8.930111,5.202405,0.68159765,2.3194113,0.75183624,-1.0803841,0
0.8700000000000006,20.999999090254565,1.624409260251503,1.8666283459058528,-1.2939473889729263,16.075094,0.03615768,2.4270122,-1.2339578,8.93046,-11.377014,2.346565,-0.44645572,0.069231704,-0.55613184,-0.6975681,-8.84751,5.3777237,0.6643598,2.2111547,0.9257483,-1.0908637,0
0.8800000000000006,20.99999722137165,0.010227349184431307,2.6348297199004853,-1.132391766925669,15.423944,-1.7787844,2.2117696,-0.890798,8.842407,-11.322356,2.3531034,-0.4482036,0.070932515,-0.56548834,-0.6886978,-8.762762,5.5540137,0.64266354,2.1197631,1.072529,-1.1008291,0
0.8900000000000006,20.99999722137165,0.010227349184431307,2.6348297199004853,-1.132391766925669,15.423944,-1.7787844,2.2117696,-0.890798,8.755211,-11.26593,2.3594027,-0.44926307,0.07379194,-0.5744558,-0.68023354,-8.67625,5.731342,0.6164569,1.7909583,1.3164028,-1.1023779,0
0.9000000000000006,20.99999722137165,0.010227349184431307,2.6348297199004853,-1.132391766925669,15.423944,-1.7787844,2.2117696,-0.890798,8.668886,-11.207726,2.3654175,-0.44950256,0.078087,-0.58280843,-0.67244625,-8.588638,5.9098616,0.58583593,1.5134034,1.5222085,-1.1038507,0
0.9100000000000006,20.99999722137165,0.010227349184431307,2.6348297199004853,-1.132391766925669,15.423944,-1.7787844,2.2117696,-0.890798,8.58344,-11.147728,2.3711047,-0.4490301,0.083585426,-0.59064186,-0.66522735,-8.500597,6.0897355,0.550921,1.27911,1.6958884,-1.1052512,0
0.9200000000000006,20.401429348225605,-1.7337471023570323,2.294310300300035,-0.969770735653471,15.094566,-2.7841034,0.89451706,-0.55367625,8.498874,-11.085924,2.3764217,-0.4479361,0.09009137,-0.59803134,-0.6584794,-8.41269,6.271097,0.5118005,1.0813354,1.8424573,-1.1065829,0
0.9300000000000006,20.401429348225605,-1.7337471023570323,2.294310300300035,-0.969770735653471,15.094566,-2.7841034,0.89451706,-0.55367625,8.415172,-11.0223255,2.381319,-0.4463018,0.09765114,-0.6045211,-0.65255886,-8.327917,6.4488344,0.46702507,0.64236724,1.9132428,-1.0998695,0
0.9400000000000006,20.401429348225605,-1.7337471023570323,2.294310300300035,-0.969770735653471,15.094566,-2.7841034,0.89451706,-0.55367625,8.332311,-10.956942,2.38575,-0.44419327,0.10629181,-0.6097608,-0.6477546,-8.24441,6.628203,0.41866156,0.27184805,1.9729366,-1.0934855,0
0.9500000000000006,20.401429348225605,-1.7337471023570323,2.294310300300035,-0.969770735653471,15.094566,-2.7841034,0.89451706,-0.55367625,8.250277,-10.889754,2.3896816,-0.4416589,0.11583467,-0.61394244,-0.64388996,-8.162779,6.809279,0.36712503,-0.04089552,2.023277,-1.0874149,0
0.9600000000000006,18.997732417822203,-2.979027953057597,0.5267445855515961,-0.8791696189087344,14.493388,-3.487537,0.025060128,-0.26950377,8.169046,-10.820749,2.393083,-0.4387387,0.12612852,-0.6172221,-0.6408095,-8.083549,6.9921207,0.31274927,-0.30487254,2.0657303,-1.081642,0
0.9700000000000006,18.997732417822203,-2.979027953057597,0.5267445855515961,-0.8791696189087344,14.493388,-3.487537,0.025060128,-0.26950377,8.088569,-10.749969,2.3959136,-0.4358334,0.13680495,-0.61910236,-0.6387846,-8.012416,7.1640415,0.25303903,-0.7220862,1.8260155,-1.0717067,0
0.9800000000000006,18.997732417822203,-2.979027953057597,0.5267445855515961,-0.8791696189087344,14.493388,-3.487537,0.025060128,-0.26950377,8.008788,-10.677462,2.3981383,-0.43326274,0.14756615,-0.6192044,-0.63803864,-7.944261,7.337524,0.19166677,-1.0742064,1.6236339,-1.0622588,0
0.9900000000000007,18.997732417822203,-2.979027953057597,0.5267445855515961,-0.8791696189087344,14.493388,-3.487537,0.025060128,-0.26950377,7.929673,-10.603213,2.3997436,-0.43094707,0.15838836,-0.6177998,-0.6383737,-7.8793635,7.512453,0.1293227,-1.371389,1.4527721,-1.0532748,0
1.0000000000000007,18.02252068115453,-3.752356416107411,-1.5747955412884325,-0.8607678746449616,14.763099,-4.4220266,-1.4580745,-0.17769252,7.8511896,-10.527208,2.4007232,-0.42881778,0.16925061,-0.6151117,-0.6396147,-7.8179746,7.688724,0.06657784,-1.6222056,1.3085217,-1.0447314,0
1.0100000000000007,18.02252068115453,-3.752356416107411,-1.5747955412884325,-0.8607678746449616,14.763099,-4.4220266,-1.4580745,-0.17769252,7.7732863,-10.449479,2.4010663,-0.4272786,0.17972784,-0.6107672,-0.64194566,-7.763259,7.8571057,0.002149446,-1.9547122,0.85908455,-1.0357041,0
1.0200000000000007,18.02252068115453,-3.752356416107411,-1.5747955412884325,-0.8607678746449616,14.763099,-4.4220266,-1.4580745,-0.17769252,7.695913,-10.370063,2.4007692,-0.42663893,0.1894791,-0.6044787,-0.64550936,-7.71213,8.0264225,-0.061344374,-2.2353125,0.47969896,-1.02712,0
1.0300000000000007,18.02252068115453,-3.752356416107411,-1.5747955412884325,-0.8607678746449616,14.763099,-4.4220266,-1.4580745,-0.17769252,7.619032,-10.288949,2.3998456,-0.42671594,0.19859943,-0.59652525,-0.6500995,-7.6646256,8.196429,-0.1231044,-2.4721098,0.15944704,-1.0189571,0
1.0400000000000007,18.02252068115453,-3.752356416107411,-1.5747955412884325,-0.8607678746449616,14.545347,-4.4837914,-2.6582325,-0.047892243,7.542608,-10.206133,2.3983157,-0.42735344,0.20716752,-0.5871359,-0.6555319,-7.620802,8.366895,-0.1824685,-2.6719422,-0.110888176,-1.0111948,0
1.0500000000000007,18.02252068115453,-3.752356416107411,-1.5747955412884325,-0.8607678746449616,14.545347,-4.4837914,-2.6582325,-0.047892243,7.4666033,-10.121611,2.3962061,-0.42841896,0.21524878,-0.57650065,-0.6616435,-7.5807295,8.537589,-0.23889291,-2.840581,-0.3390862,-1.0038135,0
1.0600000000000007,18.02252068115453,-3.752356416107411,-1.5747955412884325,-0.8607678746449616,14.545347,-4.4837914,-2.6582325,-0.047892243,7.3909802,-10.035381,2.3935492,-0.42980087,0.22289774,-0.564778,-0.6682915,-7.544489,8.7082815,-0.29193616,-2.9828954,-0.53171504,-0.9967942,0
1.0700000000000007,18.02252068115453,-3.752356416107411,-1.5747955412884325,-0.8607678746449616,14.545347,-4.4837914,-2.6582325,-0.047892243,7.3156996,-9.947446,2.39038,-0.43140557,0.23015997,-0.55210125,-0.6753515,-7.51217,8.878733,-0.34124547,-3.1029952,-0.6943185,-0.9901194,0
1.0800000000000007,16.735756594053537,-3.674167495565191,-3.91742855255907,-0.6838323012675802,14.121981,-4.9365196,-4.9341025,0.22132367,7.2407227,-9.857808,2.3867376,-0.43315497,0.2370737,-0.5385835,-0.6827156,-7.4838667,9.048702,-0.38654506,-3.2043476,-0.8315763,-0.9837721,0
1.0900000000000007,16.735756594053537,-3.674167495565191,-3.91742855255907,-0.6838323012675802,14.121981,-4.9365196,-4.9341025,0.22132367,7.1659994,-9.766536,2.3826435,-0.43547577,0.24300301,-0.5239392,-0.6905057,-7.461364,9.205834,-0.43164295,-3.2779117,-1.3127974,-0.9690539,0
1.1000000000000008,16.735756594053537,-3.674167495565191,-3.91742855255907,-0.6838323012675802,14.121981,-4.9365196,-4.9341025,0.22132367,7.0914826,-9.673696,2.3781202,-0.43867928,0.24743246,-0.5079392,-0.69881004,-7.442484,9.361867,-0.472272,-3.3399484,-1.7189797,-0.95505804,0
1.1100000000000008,16.735756594053537,-3.674167495565191,-3.91742855255907,-0.6838323012675802,14.121981,-4.9365196,-4.9341025,0.22132367,7.0171375,-9.579304,2.3732152,-0.44254953,0.2505542,-0.49074677,-0.70748866,-7.427042,9.516361,-0.5079331,-3.392265,-2.0618236,-0.9417489,0
1.1200000000000008,16.185205723117235,-3.342071322955357,-5.154568856834152,-0.43074447224146983,14.0793495,-4.652953,-5.3583603,0.37082982,6.9429307,-9.483376,2.36798,-0.44690403,0.252531,-0.47249863,-0.7164147,-7.4149027,9.668879,-0.53823847,-3.4363856,-2.3512053,-0.9290929,0
1.1300000000000008,16.185205723117235,-3.342071322955357,-5.154568856834152,-0.43074447224146983,14.0793495,-4.652953,-5.3583603,0.37082982,6.8688273,-9.385959,2.3624578,-0.4518302,0.25307015,-0.45319137,-0.7255499,-7.406238,9.814033,-0.565292,-3.4218976,-2.7884517,-0.90463877,0
1.1400000000000008,16.185205723117235,-3.342071322955357,-5.154568856834152,-0.43074447224146983,14.0793495,-4.652953,-5.3583603,0.37082982,6.794796,-9.287104,2.3566942,-0.45736983,0.25193802,-0.43282443,-0.7348491,-7.400419,9.956328,-0.58651596,-3.4096184,-3.157505,-0.8813846,0
1.1500000000000008,16.185205723117235,-3.342071322955357,-5.154568856834152,-0.43074447224146983,14.0793495,-4.652953,-5.3583603,0.37082982,6.7208095,-9.186842,2.3507485,-0.46332023,0.24934314,-0.41150966,-0.7441923,-7.397219,10.095229,-0.60162276,-3.3992133,-3.4690008,-0.8592716,0
1.1600000000000008,15.428117609987337,-2.677201762490161,-5.99973532161975,0.03377524792585723,14.752282,-3.0088017,-5.6517777,0.31032592,6.6468425,-9.085212,2.3446836,-0.4695111,0.24546431,-0.3893439,-0.7534706,-7.3964586,10.230201,-0.6104302,-3.390398,-3.7319155,-0.8382436,1
1.1700000000000008,15.428117609987337,-2.677201762490161,-5.99973532161975,0.03377524792585723,14.752282,-3.0088017,-5.6517777,0.31032592,6.5728726,-8.982312,2.3385203,-0.47583866,0.24020664,-0.36644143,-0.7626264,-7.3978477,10.349156,-0.6213161,-3.3309045,-4.0314717,-0.78188294,1
1.1800000000000008,15.428117609987337,-2.677201762490161,-5.99973532161975,0.03377524792585723,14.752282,-3.0088017,-5.6517777,0.31032592,6.498879,-8.878244,2.3322775,-0.48219568,0.23349991,-0.34290248,-0.7716107,-7.401129,10.463538,-0.62633383,-3.2806523,-4.2842975,-0.72828794,1
1.1900000000000008,15.428117609987337,-2.677201762490161,-5.99973532161975,0.03377524792585723,14.752282,-3.0088017,-5.6517777,0.31032592,6.424844,-8.773058,2.3260138,-0.4884473,0.22552219,-0.3187885,-0.7803415,-7.406117,10.572842,-0.6255103,-3.2382095,-4.4976835,-0.67732286,1
1.2000000000000008,15.211987540136304,-1.95044521683046,-4.779883181072756,0.43706359665505196,15.231482,-2.3108623,-5.0844536,0.722652,6.3507514,-8.666805,2.319787,-0.4944821,0.21642867,-0.2941555,-0.7887449,-7.412659,10.676576,-0.6189485,-3.2023654,-4.6777806,-0.6288587,1
1.2100000000000009,15.211987540136304,-1.95044521683046,-4.779883181072756,0.43706359665505196,15.231482,-2.3108623,-5.0844536,0.722652,6.2765846,-8.55953,2.3136716,-0.50016624,0.20638268,-0.2694018,-0.7966571,-7.420873,10.777459,-0.60325456,-3.063157,-4.7413907,-0.5625397,1
1.2200000000000009,15.211987540136304,-1.95044521683046,-4.779883181072756,0.43706359665505196,15.231482,-2.3108623,-5.0844536,0.722652,6.202329,-8.451279,2.3077402,-0.5054016,0.19553034,-0.2448617,-0.80397743,-7.4303575,10.871776,-0.5821549,-2.9456599,-4.7950554,-0.499475,1
1.2300000000000009,15.211987540136304,-1.95044521683046,-4.779883181072756,0.43706359665505196,15.231482,-2.3108623,-5.0844536,0.722652,6.127973,-8.342118,2.3020456,-0.51015294,0.18397522,-0.220496,-0.8107272,-7.440927,10.959234,-0.55602485,-2.8464892,-4.8403306,-0.4395049,1
1.2400000000000009,15.211987540136304,-1.95044521683046,-4.779883181072756,0.43706359665505196,15.822115,-1.875333,-5.0192776,1.0568291,6.0535073,-8.232119,2.2966359,-0.5143927,0.17180824,-0.19627272,-0.8169205,-7.4524193,11.03957,-0.52525216,-2.7627883,-4.878528,-0.38247752,1
1.2500000000000009,15.211987540136304,-1.95044521683046,-4.779883181072756,0.43706359665505196,15.822115,-1.875333,-5.0192776,1.0568291,5.9789205,-8.121339,2.291581,-0.51809156,0.15903345,-0.17232984,-0.822552,-7.465155,11.115372,-0.48507822,-2.6241698,-4.9006333,-0.31185034,1
1.260000000000001,15.211987540136304,-1.95044521683046,-4.779883181072756,0.43706359665505196,15.822115,-1.875333,-5.0192776,1.0568291,5.9042025,-8.009839,2.2869482,-0.52122486,0.14566213,-0.14877978,-0.82763016,-7.4784875,11.183335,-0.4409422,-2.507177,-4.91927,-0.24468882,1
1.270000000000001,15.211987540136304,-1.95044521683046,-4.779883181072756,0.43706359665505196,15.822115,-1.875333,-5.0192776,1.0568291,5.8293486,-7.8977,2.2827744,-0.52378035,0.13177945,-0.12556435,-0.8321789,-7.4922156,11.243305,-0.39329186,-2.4084384,-4.9349823,-0.18082297,1
1.280000000000001,14.426216895229084,-1.1769087514640169,-3.3386956371020835,0.8133388191851603,15.069678,-1.116016,-4.110404,1.288346,5.754357,-7.7850013,2.2790928,-0.5257505,0.1174602,-0.10263521,-0.83621484,-7.506162,11.295145,-0.3425756,-2.3251064,-4.94823,-0.12009102,1
1.290000000000001,14.426216895229084,-1.1769087514640169,-3.3386956371020835,0.8133388191851603,15.069678,-1.116016,-4.110404,1.288346,5.6792283,-7.671836,2.275896,-0.5271115,0.10291302,-0.080402434,-0.8397009,-7.5194926,11.336693,-0.29645208,-2.1363218,-4.8176827,-0.05097861,1
1.300000000000001,14.426216895229084,-1.1769087514640169,-3.3386956371020835,0.8133388191851603,15.069678,-1.116016,-4.110404,1.288346,5.6039677,-7.558294,2.273171,-0.5278639,0.08831356,-0.059193753,-0.8426483,-7.532681,11.3705225,-0.24831149,-1.9770004,-4.7074733,0.0147424415,1
1.310000000000001,14.426216895229084,-1.1769087514640169,-3.3386956371020835,0.8133388191851603,15.069678,-1.116016,-4.110404,1.288346,5.528577,-7.4444513,2.2709355,-0.52803665,0.073677704,-0.038859613,-0.84512633,-7.545544,11.396797,-0.1985968,-1.8425431,-4.6144342,0.077238545,1
1.320000000000001,13.5024287216637,-0.5936432401893745,-0.5093882321818759,0.9677667077787337,15.100934,-0.90476346,-3.3365064,1.4602611,5.453059,-7.330384,2.2692034,-0.5276545,0.059019454,-0.019272381,-0.84718686,-7.5579214,11.415668,-0.14771366,-1.7290698,-4.535893,0.13666794,0
1.330000000000001,13.5024287216637,-0.5936432401893745,-0.5093882321818759,0.9677667077787337,15.100934,-0.90476346,-3.3365064,1.4602611,5.377427,-7.21617,2.2679062,-0.5267772,0.045464594,-0.0012587076,-0.84878546,-7.568475,11.4261465,-0.11162223,-1.5519516,-3.9079874,0.1774502,0
1.340000000000001,13.5024287216637,-0.5936432401893745,-0.5093882321818759,0.9677667077787337,15.100934,-0.90476346,-3.3365064,1.4602611,5.3016915,-7.101881,2.266972,-0.52552795,0.03391096,0.0145339975,-0.84997576,-7.57856,11.430865,-0.07516628,-1.4024789,-3.377996,0.21623124,0
1.350000000000001,13.5024287216637,-0.5936432401893745,-0.5093882321818759,0.9677667077787337,15.100934,-0.90476346,-3.3365064,1.4602611,5.225857,-6.9875703,2.2664032,-0.5239979,0.024059037,0.028450081,-0.850904,-7.588289,11.430566,-0.038599722,-1.2763333,-2.9306512,0.2531093,0
1.360000000000001,12.786543639755907,-0.20449421314522037,2.0730896894042594,1.0061910570295602,14.985507,-0.20451957,0.027965333,1.1076249,5.149926,-6.873285,2.2661998,-0.5222509,0.015652612,0.040782645,-0.8516721,-7.59776,11.425878,-0.0020946115,-1.1698714,-2.553066,0.28817773,0
1.370000000000001,12.786543639755907,-0.20449421314522037,2.0730896894042594,1.0061910570295602,14.985507,-0.20451957,0.027965333,1.1076249,5.073904,-6.7590637,2.266325,-0.5203796,0.00927291,0.051108956,-0.8523535,-7.6065855,11.417847,0.027109616,-1.0194136,-1.831615,0.32341084,0
1.380000000000001,12.786543639755907,-0.20449421314522037,2.0730896894042594,1.0061910570295602,14.985507,-0.20451957,0.027965333,1.1076249,4.997794,-6.644938,2.2667413,-0.5184766,0.005369129,0.05911093,-0.8530291,-7.6154623,11.407027,0.056105062,-0.89242804,-1.2226713,0.35691506,0
1.390000000000001,12.786543639755907,-0.20449421314522037,2.0730896894042594,1.0061910570295602,14.985507,-0.20451957,0.027965333,1.1076249,4.9215937,-6.5309305,2.2674465,-0.51656973,0.0035610434,0.065157704,-0.8537547,-7.6245985,11.394204,0.08489654,-0.7852492,-0.7086909,0.38877523,0
1.400000000000001,12.449106491745255,-0.1071565177185016,3.637035838487583,0.9603366825068526,13.638018,0.22890711,2.9583533,1.0949559,4.8453,-6.4170585,2.2684388,-0.51466835,0.0035266508,0.06955947,-0.85455555,-7.6341743,11.380038,0.11351311,-0.69478464,-0.27486473,0.41907203,0
1.410000000000001,12.449106491745255,-0.1071565177185016,3.637035838487583,0.9603366825068526,13.638018,0.22890711,2.9583533,1.0949559,4.76891,-6.30333,2.2696996,-0.51281995,0.0055081947,0.07222174,-0.85543495,-7.6440926,11.36551,0.13865487,-0.60331607,0.33520836,0.44563204,0
1.420000000000001,12.449106491745255,-0.1071565177185016,3.637035838487583,0.9603366825068526,13.638018,0.22890711,2.9583533,1.0949559,4.6924157,-6.1897483,2.2712116,-0.5110559,0.009683644,0.07308281,-0.85637987,-7.6548333,11.350906,0.16371869,-0.52610314,0.8501402,0.47088876,0
1.430000000000001,12.449106491745255,-0.1071565177185016,3.637035838487583,0.9603366825068526,13.638018,0.22890711,2.9583533,1.0949559,4.6158094,-6.07631,2.272974,-0.5093467,0.015714565,0.072425626,-0.85736394,-7.6666236,11.336846,0.18874948,-0.46092153,1.2847679,0.4949061,0
1.440000000000001,12.449106491745255,-0.1071565177185016,3.637035838487583,0.9603366825068526,13.244018,0.23761645,3.2745256,1.0924419,4.539079,-5.963008,2.2749867,-0.5076595,0.023314334,0.070487306,-0.85835266,-7.679657,11.323853,0.2137714,-0.4058943,1.6516143,0.5177449,1
1.450000000000001,12.449106491745255,-0.1071565177185016,3.637035838487583,0.9603366825068526,13.244018,0.23761645,3.2745256,1.0924419,4.462207,-5.849832,2.277289,-0.5059413,0.032046534,0.06742153,-0.85933125,-7.695014,11.311624,0.24664693,-0.30565923,1.9047344,0.5459454,1
1.460000000000001,12.449106491745255,-0.1071565177185016,3.637035838487583,0.9603366825068526,13.244018,0.23761645,3.2745256,1.0924419,4.3851733,-5.7367687,2.2799196,-0.5041473,0.041551925,0.06335928,-0.86028713,-7.7119403,11.30136,0.27949727,-0.2210486,2.1183786,0.57276213,1
1.470000000000001,12.449106491745255,-0.1071565177185016,3.637035838487583,0.9603366825068526,13.244018,0.23761645,3.2745256,1.0924419,4.3079624,-5.623797,2.2828789,-0.502258,0.051709663,0.05845363,-0.86118853,-7.7304826,11.293365,0.3122865,-0.14962512,2.2987032,0.59826297,1
1.480000000000001,12.17303536095853,-0.26569119205508035,3.4746303670708696,0.8948877971927627,14.1980295,0.58206385,2.2941341,0.8474821,4.230558,-5.510893,2.286165,-0.500256,0.06241657,0.05283374,-0.8620071,-7.750682,11.287891,0.3449598,-0.089332744,2.450904,0.62251246,0
1.490000000000001,12.17303536095853,-0.26569119205508035,3.4746303670708696,0.8948877971927627,14.1980295,0.58206385,2.2941341,0.8474821,4.1529512,-5.3980284,2.2897243,-0.49813792,0.073752716,0.046744004,-0.86268973,-7.770815,11.285374,0.36688417,-0.11692307,2.610541,0.63587797,0
1.500000000000001,12.17303536095853,-0.26569119205508035,3.4746303670708696,0.8948877971927627,14.1980295,0.58206385,2.2941341,0.8474821,4.0751357,-5.285176,2.2935019,-0.49589875,0.08577521,0.040384684,-0.86318916,-7.7926197,11.28552,0.38854226,-0.14020178,2.7452846,0.64858764,0
1.5100000000000011,12.17303536095853,-0.26569119205508035,3.4746303670708696,0.8948877971927627,14.1980295,0.58206385,2.2941341,0.8474821,3.997093,-5.172308,2.297494,-0.49352324,0.098371156,0.03379704,-0.86349,-7.816204,11.288448,0.40982637,-0.15984215,2.8590162,0.6606737,0
1.5200000000000011,11.55707966832807,-0.6102195396058616,1.6983478825958185,0.8327668445638371,13.832674,0.425098,-0.051564496,0.73396116,3.9188054,-5.0593967,2.3016965,-0.49099934,0.11144413,0.027016116,-0.8635793,-7.841659,11.294255,0.4306197,-0.17641273,2.9550123,0.6721666,0
1.5300000000000011,11.55707966832807,-0.6102195396058616,1.6983478825958185,0.8327668445638371,13.832674,0.425098,-0.051564496,0.73396116,3.8402603,-4.946415,2.3060741,-0.48829404,0.12436582,0.020540023,-0.8635273,-7.86766,11.302536,0.4448188,-0.24399324,2.759005,0.6800473,0
1.5400000000000011,11.55707966832807,-0.6102195396058616,1.6983478825958185,0.8327668445638371,13.832674,0.425098,-0.051564496,0.73396116,3.7614458,-4.8333373,2.3105905,-0.4853987,0.1366363,0.014763684,-0.86342335,-7.8954735,11.313408,0.45836133,-0.30104557,2.5935695,0.6875413,0
1.5500000000000012,11.55707966832807,-0.6102195396058616,1.6983478825958185,0.8327668445638371,13.832674,0.425098,-0.051564496,0.73396116,3.6823444,-4.7201385,2.3152387,-0.48233607,0.14835279,0.009575665,-0.86327916,-7.925056,11.326648,0.4711915,-0.34921005,2.453937,0.6946675,0
1.5600000000000012,11.271419404326956,-1.0498494026009664,-0.2196532734664575,0.6723313009410987,12.855123,-0.31652787,-2.9542403,0.91139996,3.602939,-4.6067967,2.3200116,-0.4791243,0.15959744,0.0048820027,-0.8631013,-7.95637,11.342067,0.4832628,-0.3898716,2.3360834,0.70144403,0
1.5700000000000012,11.271419404326956,-1.0498494026009664,-0.2196532734664575,0.6723313009410987,12.855123,-0.31652787,-2.9542403,0.91139996,3.5232155,-4.493293,2.3248875,-0.47576666,0.16986191,0.0011252875,-0.8630127,-7.9885545,11.359032,0.49184135,-0.49261105,1.9374712,0.7000155,0
1.5800000000000012,11.271419404326956,-1.0498494026009664,-0.2196532734664575,0.6723313009410987,12.855123,-0.31652787,-2.9542403,0.91139996,3.4431624,-4.3796105,2.329846,-0.47227857,0.17874974,-0.0013500049,-0.86313313,-8.022282,11.377545,0.49968418,-0.5793574,1.6010295,0.698657,0
1.5900000000000012,11.271419404326956,-1.0498494026009664,-0.2196532734664575,0.6723313009410987,12.855123,-0.31652787,-2.9542403,0.91139996,3.3627648,-4.2657375,2.334879,-0.46868655,0.18647508,-0.0027485387,-0.86345327,-8.057439,11.397218,0.5068514,-0.6525999,1.3170621,0.6973651,0
1.6000000000000012,10.908644189061592,-1.3187873817139224,-3.5369621023288347,0.5525740272661456,12.796293,-0.5385572,-5.16049,1.0594486,3.282009,-4.1516633,2.3399806,-0.46500942,0.19321816,-0.0032424654,-0.863957,-8.093933,11.417719,0.5134039,-0.71444094,1.0773846,0.69613665,0
1.6100000000000012,10.908644189061592,-1.3187873817139224,-3.5369621023288347,0.5525740272661456,12.796293,-0.5385572,-5.16049,1.0594486,3.2008882,-4.0373845,2.345128,-0.46125844,0.19803368,-0.002265365,-0.86487997,-8.130442,11.438041,0.5160705,-0.8083605,0.35774112,0.68909204,0
1.6200000000000012,10.908644189061592,-1.3187873817139224,-3.5369621023288347,0.5525740272661456,12.796293,-0.5385572,-5.16049,1.0594486,3.1193972,-3.9229026,2.3503008,-0.4574435,0.20017906,0.00061956054,-0.86641365,-8.167888,11.458256,0.5184139,-0.88768965,-0.24966742,0.682393,0
1.6300000000000012,10.908644189061592,-1.3187873817139224,-3.5369621023288347,0.5525740272661456,12.796293,-0.5385572,-5.16049,1.0594486,3.037528,-3.8082216,2.3554962,-0.45356646,0.20006391,0.005105598,-0.8684613,-8.205999,11.477768,0.520646,-0.95469445,-0.7623451,0.6760227,0
1.6400000000000012,10.908644189061592,-1.3187873817139224,-3.5369621023288347,0.5525740272661456,12.651126,-0.8877873,-5.5777216,0.87197304,2.9552758,-3.693351,2.3607137,-0.44962043,0.19803068,0.01093516,-0.8709219,-8.244536,11.496074,0.5229424,-1.0112888,-1.1950659,0.669965,0
1.6500000000000012,10.908644189061592,-1.3187873817139224,-3.5369621023288347,0.5525740272661456,12.651126,-0.8877873,-5.5777216,0.87197304,2.8726368,-3.5783055,2.3659556,-0.44559425,0.19436644,0.01789166,-0.87369704,-8.283285,11.512751,0.52544063,-1.0590894,-1.5603004,0.6642046,0
1.6600000000000013,10.908644189061592,-1.3187873817139224,-3.5369621023288347,0.5525740272661456,12.651126,-0.8877873,-5.5777216,0.87197304,2.7896101,-3.4631028,2.3712237,-0.4414755,0.18931262,0.025792707,-0.8766949,-8.322052,11.52744,0.5282407,-1.0994624,-1.8685732,0.6587268,0
1.6700000000000013,10.908644189061592,-1.3187873817139224,-3.5369621023288347,0.5525740272661456,12.651126,-0.8877873,-5.5777216,0.87197304,2.7061965,-3.3477647,2.3765216,-0.43725207,0.18307287,0.034484457,-0.8798323,-8.36066,11.53984,0.5314078,-1.1335616,-2.1287682,0.6535179,0
1.6800000000000013,10.837217885070382,-1.484241455863757,-3.7666912838823565,0.3458322676731384,12.935281,-0.5407557,-5.6015043,0.44174808,2.6223984,-3.2323148,2.3818533,-0.43291304,0.17581943,0.043836914,-0.88303524,-8.398947,11.549694,0.53497547,-1.1623615,-2.3483837,0.6485645,0
1.6900000000000013,10.837217885070382,-1.484241455863757,-3.7666912838823565,0.3458322676731384,12.935281,-0.5407557,-5.6015043,0.44174808,2.5382206,-3.1167805,2.3872194,-0.4284556,0.16764435,0.05384262,-0.88623995,-8.436512,11.556738,0.5382813,-1.2124898,-2.5695775,0.6337094,0
1.7000000000000013,10.837217885070382,-1.484241455863757,-3.7666912838823565,0.3458322676731384,12.935281,-0.5407557,-5.6015043,0.44174808,2.4536703,-3.0011904,2.3926203,-0.42387846,0.1586272,0.06448943,-0.88938445,-8.473462,11.560822,0.5419737,-1.2548176,-2.7562726,0.6195832,0
1.7100000000000013,10.837217885070382,-1.484241455863757,-3.7666912838823565,0.3458322676731384,12.935281,-0.5407557,-5.6015043,0.44174808,2.368754,-2.885575,2.39806,-0.4191754,0.14888668,0.075669,-0.8924114,-8.509664,11.561756,0.5460118,-1.2905577,-2.91385,0.60615015,0
1.7200000000000013,10.734314082884307,-1.4054946076289692,-5.7606826100812505,0.2891030350396963,12.692074,-0.7291849,-5.5817046,0.7036671,2.28348,-2.7699668,2.4035416,-0.41434145,0.13852431,0.08728902,-0.895272,-8.544989,11.559385,0.55033296,-1.3207355,-3.0468512,0.5933763,0
1.7300000000000013,10.734314082884307,-1.4054946076289692,-5.7606826100812505,0.2891030350396963,12.692074,-0.7291849,-5.5817046,0.7036671,2.197859,-2.6543992,2.4090624,-0.4093074,0.1268971,0.09957166,-0.89802516,-8.578963,11.55361,0.55388826,-1.3338237,-3.4700637,0.57844543,0
1.7400000000000013,10.734314082884307,-1.4054946076289692,-5.7606826100812505,0.2891030350396963,12.692074,-0.7291849,-5.5817046,0.7036671,2.1119049,-2.5389073,2.4146197,-0.40399316,0.11349463,0.11267933,-0.9006725,-8.611641,11.544124,0.55758905,-1.3449016,-3.827276,0.56424737,0
1.7500000000000013,10.734314082884307,-1.4054946076289692,-5.7606826100812505,0.2891030350396963,12.692074,-0.7291849,-5.5817046,0.7036671,2.0256317,-2.4235303,2.4202144,-0.39838168,0.098577894,0.12645747,-0.9030958,-8.64271,11.530643,0.5613417,-1.3542763,-4.1287813,0.55074596,0
1.7600000000000013,10.374466134548088,-1.2681693054770682,-4.374752696136073,0.18764261738815174,14.336867,-0.7433813,-5.9357066,-0.33678097,1.939057,-2.308309,2.4258463,-0.39245972,0.082370676,0.14077303,-0.90519196,-8.6718855,11.512946,0.56500775,-1.3622091,-4.3832674,0.537907,0
1.7700000000000014,10.374466134548088,-1.2681693054770682,-4.374752696136073,0.18764261738815174,14.336867,-0.7433813,-5.9357066,-0.33678097,1.8522059,-2.193283,2.4314969,-0.3863174,0.06554556,0.15524724,-0.9068407,-8.698018,11.491624,0.5650081,-1.3475932,-4.3819194,0.52071935,0
1.7800000000000014,10.374466134548088,-1.2681693054770682,-4.374752696136073,0.18764261738815174,14.336867,-0.7433813,-5.9357066,-0.33678097,1.7651042,-2.0784912,2.437145,-0.3800509,0.048652187,0.16958098,-0.90798444,-8.721961,11.466104,0.56456333,-1.3352543,-4.3807836,0.5043752,0
1.7900000000000014,10.374466134548088,-1.2681693054770682,-4.374752696136073,0.18764261738815174,14.336867,-0.7433813,-5.9357066,-0.33678097,1.6777743,-1.9639752,2.4427857,-0.3736587,0.031702645,0.1837751,-0.90862536,-8.743636,11.436457,0.5634806,-1.3248371,-4.379826,0.488833,0
1.8000000000000014,10.608431144576226,-0.8973369629525115,-5.942809290437136,0.1952565801602139,12.261199,-0.65887666,-3.094852,0.68192023,1.5902394,-1.8497759,2.4484115,-0.3671399,0.014708487,0.19782916,-0.90876555,-8.762973,11.402764,0.5615681,-1.3160423,-4.379019,0.4740535,0
1.8100000000000014,10.608431144576226,-0.8973369629525115,-5.942809290437136,0.1952565801602139,12.261199,-0.65887666,-3.094852,0.68192023,1.5025212,-1.7359376,2.4540243,-0.3603643,-0.0029434445,0.21183382,-0.9084352,-8.780261,11.364247,0.56077987,-1.2507112,-4.6228595,0.46037284,0
1.8200000000000014,10.608431144576226,-0.8973369629525115,-5.942809290437136,0.1952565801602139,12.261199,-0.65887666,-3.094852,0.68192023,1.4146434,-1.6225048,2.4596229,-0.3532031,-0.021734832,0.22584713,-0.9076164,-8.7948265,11.321668,0.55873525,-1.1955818,-4.828678,0.4473635,0
1.8300000000000014,10.608431144576226,-0.8973369629525115,-5.942809290437136,0.1952565801602139,12.261199,-0.65887666,-3.094852,0.68192023,1.3266348,-1.5095181,2.4651937,-0.34566063,-0.04147567,0.23982266,-0.90624654,-8.806411,11.275032,0.5552,-1.1490604,-5.0024033,0.43499255,0
1.8400000000000014,10.608431144576226,-0.8973369629525115,-5.942809290437136,0.1952565801602139,12.781286,-0.44523817,-4.299903,0.4902287,1.2385262,-1.397018,2.4707208,-0.33774367,-0.062001497,0.2537191,-0.9042736,-8.814791,11.224384,0.5499225,-1.1098021,-5.1490397,0.42322862,0
1.8500000000000014,10.608431144576226,-0.8973369629525115,-5.942809290437136,0.1952565801602139,12.781286,-0.44523817,-4.299903,0.4902287,1.1503507,-1.285044,2.4761853,-0.32946104,-0.083169416,0.26749954,-0.90165484,-8.819777,11.169805,0.54263866,-1.0766726,-5.272811,0.41204196,0
1.8600000000000014,10.608431144576226,-0.8973369629525115,-5.942809290437136,0.1952565801602139,12.781286,-0.44523817,-4.299903,0.4902287,1.062143,-1.173635,2.4815657,-0.3208232,-0.10485484,0.28113097,-0.8983555,-8.821211,11.111405,0.5330757,-1.0487144,-5.3772817,0.40140423,0
1.8700000000000014,10.608431144576226,-0.8973369629525115,-5.942809290437136,0.1952565801602139,12.781286,-0.44523817,-4.299903,0.4902287,0.9739392,-1.0628285,2.4868379,-0.31184176,-0.12694867,0.29458374,-0.8943481,-8.818963,11.04933,0.52095675,-1.0251201,-5.465462,0.3912885,0
1.8800000000000014,9.907697503682117,-0.5430534539457451,-4.439440293998531,0.21473328503974143,14.14504,-0.06868252,-3.8431625,-0.11465366,0.8857767,-0.9526605,2.4919748,-0.30252925,-0.149355,0.30783093,-0.8896114,-8.812933,10.983746,0.50600386,-1.0052081,-5.5398927,0.38166913,0
1.8900000000000015,9.907697503682117,-0.5430534539457451,-4.439440293998531,0.21473328503974143,14.14504,-0.06868252,-3.8431625,-0.11465366,0.79769063,-0.84314245,2.4969203,-0.29306573,-0.17149845,0.3205464,-0.88427943,-8.803716,10.919412,0.48267025,-0.9332067,-5.3682547,0.37347755,0
1.9000000000000015,9.907697503682117,-0.5430534539457451,-4.439440293998531,0.21473328503974143,14.14504,-0.06868252,-3.8431625,-0.11465366,0.7097144,-0.73428184,2.5016177,-0.28361487,-0.19292583,0.33249134,-0.8785164,-8.790974,10.852288,0.45630652,-0.8724245,-5.2233872,0.3656879,0
1.9100000000000015,9.907697503682117,-0.5430534539457451,-4.439440293998531,0.21473328503974143,14.14504,-0.06868252,-3.8431625,-0.11465366,0.6218829,-0.6261051,2.5060358,-0.2741649,-0.21372385,0.3437598,-0.87234414,-8.774804,10.782679,0.42681432,-0.8211131,-5.1011147,0.3582805,0
1.9200000000000015,10.573251383638356,0.022285182847076784,-4.598544278213658,0.1199354270634163,13.662345,0.40326807,-2.6361797,0.051241115,0.5342298,-0.5186358,2.510143,-0.26470518,-0.23396505,0.35442966,-0.86577743,-8.755299,10.710859,0.39410356,-0.777797,-4.9979134,0.35123664,0
1.9300000000000015,10.573251383638356,0.022285182847076784,-4.598544278213658,0.1199354270634163,13.662345,0.40326807,-2.6361797,0.051241115,0.4467956,-0.4119193,2.5139275,-0.25515935,-0.25382802,0.3643836,-0.8588883,-8.73101,10.63214,0.36226466,-0.65307534,-4.9355984,0.3398866,0
1.9400000000000015,10.573251383638356,0.022285182847076784,-4.598544278213658,0.1199354270634163,13.662345,0.40326807,-2.6361797,0.051241115,0.35962144,-0.30599913,2.5173757,-0.24546118,-0.27345338,0.37353054,-0.8517315,-8.703284,10.551642,0.32684374,-0.54779935,-4.8830075,0.32909355,0
1.9500000000000015,10.573251383638356,0.022285182847076784,-4.598544278213658,0.1199354270634163,13.662345,0.40326807,-2.6361797,0.051241115,0.27274165,-0.20089157,2.5204518,-0.23561709,-0.29284552,0.38196456,-0.84429187,-8.672146,10.469658,0.28778702,-0.458937,-4.8386235,0.31883004,0
1.9600000000000015,9.918186913287785,0.5940580776821376,-1.9037431364963486,0.05092929215006363,14.2009115,0.901328,-3.5739279,-0.008836888,0.18619011,-0.09661016,2.5231187,-0.22563386,-0.3120071,0.38976404,-0.8365551,-8.637635,10.386457,0.2450403,-0.38392904,-4.8011656,0.30907023,0
1.9700000000000015,9.918186913287785,0.5940580776821376,-1.9037431364963486,0.05092929215006363,14.2009115,0.901328,-3.5739279,-0.008836888,0.09998873,0.00686034,2.5253236,-0.21587975,-0.33009958,0.39656755,-0.8289535,-8.60217,10.307527,0.1953915,-0.23153949,-4.349282,0.2964032,0
1.9800000000000015,9.918186913287785,0.5940580776821376,-1.9037431364963486,0.05092929215006363,14.2009115,0.901328,-3.5739279,-0.008836888,0.014156545,0.10953835,2.5270154,-0.20666611,-0.34648687,0.4021304,-0.82190424,-8.563839,10.2280035,0.14248638,-0.102892816,-3.967876,0.28435776,0
1.9900000000000015,9.918186913287785,0.5940580776821376,-1.9037431364963486,0.05092929215006363,14.2009115,0.901328,-3.5739279,-0.008836888,-0.07127904,0.21141927,2.5281632,-0.19791885,-0.3614404,0.40666354,-0.8153608,-8.522885,10.148148,0.0865981,0.0057093427,-3.6459556,0.27290335,0
2.0000000000000013,,,,,13.097416,1.2987332,-0.65513825,0.97995305,-0.15629286,0.31250086,2.5287383,-0.18957224,-0.37518692,0.4103392,-0.80927026,-8.479514,10.068166,0.027968563,0.09738976,-3.3742428,0.262011,0
2.010000000000001,,,,,13.097416,1.2987332,-0.65513825,0.97995305,-0.2408476,0.41275787,2.5287259,-0.18205835,-0.38689843,0.4128723,-0.8041768,-8.431095,9.983255,-0.030839331,0.25827414,-2.6267507,0.24110368,0
2.020000000000001,,,,,13.097416,1.2987332,-0.65513825,0.97995305,-0.32490796,0.51216674,2.5281146,-0.17572677,-0.39595208,0.4140698,-0.8005547,-8.380696,9.898558,-0.09172854,0.39410722,-1.9958373,0.22122225,0
2.0300000000000007,,,,,13.097416,1.2987332,-0.65513825,0.97995305,-0.408456,0.61073023,2.5268862,-0.17040813,-0.40278974,0.41417357,-0.79823637,-8.328686,9.81419,-0.15411353,0.50878763,-1.4633204,0.20231642,0
2.0400000000000005,,,,,13.097416,1.2987332,-0.65513825,0.97995305,-0.49147713,0.708452,2.525029,-0.16595441,-0.40777484,0.4133752,-0.7970567,-8.27536,9.730229,-0.2174905,0.6056073,-1.013854,0.1843383,0
2.0500000000000003,,,,,11.85645,1.9231001,4.1522307,0.21640106,-0.57395947,0.8053364,2.5225346,-0.16223751,-0.41120714,0.41182736,-0.7968598,-8.220966,9.646725,-0.2814288,0.6873466,-0.63448524,0.16724238,1
2.06,,,,,11.85645,1.9231001,4.1522307,0.21640106,-0.6558589,0.9013361,2.5194213,-0.159429,-0.41249454,0.40924293,-0.7980917,-8.158801,9.553303,-0.34124768,0.87998027,0.11202282,0.16965458,1
2.07,,,,,11.85645,1.9231001,4.1522307,0.21640106,-0.7371335,0.99640465,2.5157118,-0.15764745,-0.41116858,0.405399,-0.801086,-8.096046,9.460503,-0.4005234,1.0425835,0.7421105,0.17194845,1
2.0799999999999996,,,,,11.85645,1.9231001,4.1522307,0.21640106,-0.81777906,1.0905485,2.511415,-0.15671778,-0.4076167,0.40048593,-0.8055424,-8.033061,9.368391,-0.4585535,1.1798383,1.2739339,0.17412972,1
2.0899999999999994,,,,,11.641823,2.622768,5.6767597,0.6528451,-0.897795,1.183775,2.5065467,-0.15649007,-0.40215793,0.39465445,-0.8111887,-7.9701595,9.2770405,-0.5147525,1.2956965,1.7228177,0.17620401,1
2.099999999999999,,,,,11.641823,2.622768,5.6767597,0.6528451,-0.9771893,1.2761004,2.5011241,-0.15691942,-0.39458096,0.3877217,-0.8181402,-7.9087715,9.188179,-0.5694061,1.5025465,2.3394792,0.19959295,1
2.109999999999999,,,,,11.641823,2.622768,5.6767597,0.6528451,-1.055973,1.367542,2.4951687,-0.1579495,-0.3847121,0.3795351,-0.8264387,-7.848094,9.1003,-0.62116176,1.6771357,2.859973,0.22183415,1
2.1199999999999988,,,,,11.641823,2.622768,5.6767597,0.6528451,-1.1341549,1.4581106,2.4887125,-0.15944634,-0.3728448,0.3702439,-0.8357526,-7.788471,9.013588,-0.6694819,1.8244982,3.2992954,0.24298397,1
2.1299999999999986,,,,,10.714342,3.093234,5.9847355,0.98900014,-1.2117473,1.5478185,2.4817924,-0.16129585,-0.3592262,0.35997084,-0.84578985,-7.7302327,8.928247,-0.7139464,1.9488814,3.6701047,0.26309597,1
2.1399999999999983,,,,,10.714342,3.093234,5.9847355,0.98900014,-1.2887882,1.6367143,2.4744256,-0.1633427,-0.34397703,0.34865245,-0.856411,-7.6781993,8.85118,-0.7588369,2.1271875,4.03115,0.29871628,1
2.149999999999998,,,,,10.714342,3.093234,5.9847355,0.98900014,-1.3653177,1.724848,2.46663,-0.16545272,-0.32720053,0.336239,-0.8674721,-7.628013,8.775854,-0.79962176,2.2776873,4.3358903,0.3325887,1
2.159999999999998,,,,,10.714342,3.093234,5.9847355,0.98900014,-1.4413558,1.8122385,2.4584477,-0.16756484,-0.30907083,0.32284537,-0.87873054,-7.5799513,8.702558,-0.83611697,2.4047196,4.5931044,0.36479902,1
2.1699999999999977,,,,,10.378952,3.6178622,6.224472,0.8325233,-1.5169251,1.8989072,2.4499223,-0.16962738,-0.2897408,0.30857125,-0.8899774,-7.5342865,8.631587,-0.86822456,2.5119457,4.810204,0.39542875,1
2.1799999999999975,,,,,10.378952,3.6178622,6.224472,0.8325233,-1.5920576,1.98489,2.4410875,-0.17155626,-0.26938155,0.2933096,-0.90109426,-7.492628,8.565384,-0.8981235,2.6842954,4.995834,0.41687706,1
2.1899999999999973,,,,,10.378952,3.6178622,6.224472,0.8325233,-1.6667874,2.0702248,2.431975,-0.1732891,-0.24814115,0.27697894,-0.9119643,-7.4537687,8.502063,-0.92376775,2.8297741,5.1525097,0.43727297,1
2.199999999999997,,,,,10.378952,3.6178622,6.224472,0.8325233,-1.7411435,2.1549423,2.4226265,-0.17481431,-0.22611703,0.25969788,-0.9224248,-7.417919,8.441964,-0.94523764,2.9525716,5.2847476,0.45666805,1
