time-since-start [s],throttle_mpc,roll_mpc,pitch_mpc,yaw_mpc,throttle_nw,roll_nw,pitch_nw,yaw_nw,position_x [m],position_y [m],position_z [m],rotation_w [quaternion],rotation_x [quaternion],rotation_y [quaternion],rotation_z [quaternion],velocity_x [m/s],velocity_y [m/s],velocity_z [m/s],omega_x [rad/s],omega_y [rad/s],omega_z [rad/s],network_used
0.0,9.295305195797079,5.999999705796655,-5.999999937751995,-5.176177755662671,10.328289,-4.3761916,-4.315566,0.8510288,18.397598,-10.56242,2.2446425,-0.114413664,0.4386944,-0.4379411,-0.7763146,-10.817858,-1.8552611,-1.2804508,0.6459881,0.08202584,0.5372745,0
0.01,9.295305195797079,5.999999705796655,-5.999999937751995,-5.176177755662671,14.470644,-3.7718215,-6.0634613,-0.51166946,18.288853,-10.580208,2.2315733,-0.11392341,0.43757305,-0.4413356,-0.7750963,-10.930986,-1.7027279,-1.3336776,0.5883558,0.026056375,0.3520733,0
0.02,9.295305195797079,5.999999705796655,-5.999999937751995,-5.176177755662671,14.470644,-3.7718215,-6.0634613,-0.51166946,18.17899,-10.596486,2.2179627,-0.11413888,0.43667996,-0.44409028,-0.7739941,-11.040712,-1.553322,-1.3887274,0.53999954,-0.021470949,0.17145896,0
0.03,9.295305195797079,5.999999705796655,-5.999999937751995,-5.176177755662671,14.470644,-3.7718215,-6.0634613,-0.51166946,18.068047,-10.611285,2.2037933,-0.11504418,0.43603492,-0.44625512,-0.77297795,-11.147133,-1.4070219,-1.4454168,0.49942175,-0.061822113,-0.004682198,0
0.04,9.295305195797079,5.999999705796655,-5.999999937751995,-5.176177755662671,15.5376215,-4.563911,-5.7620835,-1.2659292,17.956057,-10.624638,2.1890495,-0.11662291,0.4356527,-0.4478725,-0.7720208,-11.250339,-1.2637974,-1.503591,0.46536762,-0.096074134,-0.17646092,0
0.05,9.295305195797079,5.999999705796655,-5.999999937751995,-5.176177755662671,15.5376215,-4.563911,-5.7620835,-1.2659292,17.843046,-10.63657,2.1737175,-0.11887323,0.4355269,-0.44899088,-0.7710984,-11.350981,-1.122822,-1.5629005,0.447737,-0.13610063,-0.3430528,0
0.060000000000000005,9.295305195797079,5.999999705796655,-5.999999937751995,-5.176177755662671,15.5376215,-4.563911,-5.7620835,-1.2659292,17.729042,-10.647099,2.1577885,-0.12185494,0.4355773,-0.44970492,-0.7701878,-11.449719,-0.9831894,-1.6230018,0.456995,-0.19404127,-0.50362813,0
0.07,9.295305195797079,5.999999705796655,-5.999999937751995,-5.176177755662671,15.5376215,-4.563911,-5.7620835,-1.2659292,17.614061,-10.656238,2.141255,-0.12563737,0.4357094,-0.45011133,-0.76926744,-11.54646,-0.84495527,-1.6838336,0.48978448,-0.26794934,-0.6585574,0
0.08,11.24920973683389,5.999999885294732,-5.999999982633097,-5.443073042573448,17.117712,-4.328404,-5.6346865,-1.2243632,17.498121,-10.664001,2.1241095,-0.13027993,0.43583655,-0.450293,-0.76831627,-11.641076,-0.70813817,-1.7453347,0.54312825,-0.35603642,-0.80818003,0
0.09,11.24920973683389,5.999999885294732,-5.999999982633097,-5.443073042573448,17.117712,-4.328404,-5.6346865,-1.2243632,17.381197,-10.670331,2.1063657,-0.13589494,0.435861,-0.45032886,-0.7673081,-11.743351,-0.5581564,-1.8035698,0.6298853,-0.4721907,-0.9672878,0
0.09999999999999999,11.24920973683389,5.999999885294732,-5.999999982633097,-5.443073042573448,17.117712,-4.328404,-5.6346865,-1.2243632,17.263262,-10.675169,2.088036,-0.14258748,0.43568733,-0.45028773,-0.7662156,-11.842878,-0.40970337,-1.8624073,0.7329899,-0.6001661,-1.121261,0
0.10999999999999999,11.24920973683389,5.999999885294732,-5.999999982633097,-5.443073042573448,17.117712,-4.328404,-5.6346865,-1.2243632,17.144346,-10.678531,2.0691156,-0.15039313,0.43524194,-0.45021972,-0.76501536,-11.939425,-0.2627027,-1.9217653,0.85023755,-0.7384675,-1.2703829,0
0.11999999999999998,11.24920973683389,5.999999885294732,-5.999999982633097,-5.443073042573448,17.117712,-4.328404,-5.6346865,-1.2243632,17.024483,-10.6804285,2.0495992,-0.15933976,0.43445602,-0.4501644,-0.76368237,-12.032747,-0.11706895,-1.9815569,0.979669,-0.8857335,-1.4149135,0
0.12999999999999998,14.153307357402129,5.99999997023664,-6.0,-5.289996047033937,17.636038,-4.117334,-5.212224,-0.032920014,16.903702,-10.680877,2.029483,-0.16944799,0.43326473,-0.45015165,-0.76218927,-12.122592,0.027285475,-2.0416892,1.1195432,-1.040725,-1.5550925,0
0.13999999999999999,14.153307357402129,5.99999997023664,-6.0,-5.289996047033937,17.636038,-4.117334,-5.212224,-0.032920014,16.781992,-10.679806,2.008786,-0.1809568,0.43137082,-0.45034838,-0.7604999,-12.218467,0.18673518,-2.097768,1.3680034,-1.3022308,-1.6925433,0
0.15,14.153307357402129,5.99999997023664,-6.0,-5.289996047033937,17.636038,-4.117334,-5.212224,-0.032920014,16.65935,-10.677148,1.987527,-0.19407465,0.42849803,-0.45088822,-0.75856715,-12.309492,0.34469098,-2.1540434,1.6161942,-1.5615149,-1.826693,0
0.16,17.449122205505393,6.0,-6.0,-4.7707127132602105,18.222107,-4.3372307,-4.636666,0.5385121,16.535822,-10.672916,1.965705,-0.20876701,0.42461455,-0.45173874,-0.7563403,-12.395205,0.5013417,-2.21033,1.8636047,-1.8183659,-1.9576539,0
0.17,17.449122205505393,6.0,-6.0,-4.7707127132602105,18.222107,-4.3372307,-4.636666,0.5385121,16.411427,-10.667049,1.9433416,-0.22533028,0.41927385,-0.45309192,-0.7537527,-12.482895,0.67194664,-2.2623482,2.2710917,-2.2342987,-2.0744772,0
0.18000000000000002,17.449122205505393,6.0,-6.0,-4.7707127132602105,18.222107,-4.3372307,-4.636666,0.5385121,16.286192,-10.659484,1.9204593,-0.24400856,0.41205978,-0.45508382,-0.75070965,-12.563186,0.840878,-2.3140373,2.6625252,-2.6329334,-2.189818,0
0.19000000000000003,17.449122205505393,6.0,-6.0,-4.7707127132602105,18.222107,-4.3372307,-4.636666,0.5385121,16.160192,-10.650237,1.8970631,-0.26468065,0.40297836,-0.45758942,-0.74710387,-12.635363,1.0082965,-2.3650842,3.0389404,-3.0154932,-2.303617,0
0.20000000000000004,20.558981575822887,6.0,-6.0,-4.1445161458600595,19.200394,-2.3726144,-3.6943595,-0.9189414,16.033514,-10.639323,1.8731608,-0.28721964,0.39202785,-0.46047983,-0.7428169,-12.69878,1.1742185,-2.415192,3.4012892,-3.3830886,-2.4158256,0
0.21000000000000005,20.558981575822887,6.0,-6.0,-4.1445161458600595,19.200394,-2.3726144,-3.6943595,-0.9189414,15.90621,-10.626644,1.8487974,-0.3115795,0.379005,-0.463717,-0.737726,-12.760557,1.3620402,-2.457028,3.8057055,-3.79204,-2.5006528,0
0.22000000000000006,20.558981575822887,6.0,-6.0,-4.1445161458600595,19.200394,-2.3726144,-3.6943595,-0.9189414,15.7783375,-10.612075,1.8240308,-0.3375481,0.3638758,-0.46717834,-0.73171014,-12.8121,1.5519924,-2.495812,4.1471267,-4.1371436,-2.5813177,0
0.23000000000000007,20.558981575822887,6.0,-6.0,-4.1445161458600595,19.200394,-2.3726144,-3.6943595,-0.9189414,15.650006,-10.595598,1.7988931,-0.36477172,0.3468678,-0.47063306,-0.7246575,-12.852352,1.7435596,-2.531167,4.4353714,-4.428361,-2.6580243,0
0.24000000000000007,20.558981575822887,6.0,-6.0,-4.1445161458600595,20.42756,-1.8132538,-3.8089669,-1.2867315,15.521333,-10.5772,1.7734203,-0.3929341,0.32818136,-0.47388664,-0.71647114,-12.880428,1.9360272,-2.5627725,4.678728,-4.6741,-2.730967,0
0.25000000000000006,20.558981575822887,6.0,-6.0,-4.1445161458600595,20.42756,-1.8132538,-3.8089669,-1.2867315,15.392442,-10.556876,1.7476513,-0.42175162,0.30799535,-0.47677654,-0.7070702,-12.895617,2.1285117,-2.5903654,4.884191,-4.881459,-2.8003304,0
0.26000000000000006,20.558981575822887,6.0,-6.0,-4.1445161458600595,20.42756,-1.8132538,-3.8089669,-1.2867315,15.263466,-10.534633,1.7216275,-0.4509689,0.2864715,-0.47916797,-0.69638985,-12.897375,2.3199897,-2.613739,5.0576653,-5.056428,-2.8662899,0
0.2700000000000001,20.558981575822887,6.0,-6.0,-4.1445161458600595,20.42756,-1.8132538,-3.8089669,-1.2867315,15.1345415,-10.510484,1.6953917,-0.48035544,0.26375756,-0.48095033,-0.6843807,-12.885335,2.509328,-2.632744,5.2041345,-5.2040634,-2.9290128,0
0.2800000000000001,21.0,5.99999998816015,-6.0,-3.4973564268139485,21.55272,-2.2369215,-4.162966,-2.0077405,15.005808,-10.484458,1.668988,-0.50970244,0.23998965,-0.48203382,-0.6710077,-12.8593,2.6953099,-2.6472878,5.327805,-5.328633,-2.9886577,0
0.2900000000000001,21.0,5.99999998816015,-6.0,-3.4973564268139485,21.55272,-2.2369215,-4.162966,-2.0077405,14.877408,-10.456574,1.6424707,-0.5387675,0.21525583,-0.48236573,-0.65629065,-12.818383,2.880555,-2.6554425,5.432341,-5.4336243,-3.0136197,0
0.3000000000000001,21.0,5.99999998816015,-6.0,-3.4973564268139485,21.55272,-2.2369215,-4.162966,-2.0077405,14.74949,-10.4268675,1.6158948,-0.56733185,0.18963891,-0.4819065,-0.6402635,-12.763285,3.0597436,-2.6590178,5.5206084,-5.5222087,-3.037357,0
0.3100000000000001,21.0,5.99999998816015,-6.0,-3.4973564268139485,21.55272,-2.2369215,-4.162966,-2.0077405,14.622191,-10.395405,1.5893056,-0.59524846,0.1632544,-0.48060942,-0.62292963,-12.694311,3.231541,-2.6580868,5.595139,-5.5969496,-3.0599294,0
0.3200000000000001,21.0,5.999998843820756,-5.99999985456122,-3.0067471958775664,22.240807,-2.9040937,-3.627744,-1.5678146,14.49565,-10.362267,1.5627481,-0.62238395,0.13621123,-0.47843915,-0.6043014,-12.611925,3.3946276,-2.6527767,5.6580725,-5.6600094,-3.081394,0
0.3300000000000001,21.0,5.999998843820756,-5.99999985456122,-3.0067471958775664,22.240807,-2.9040937,-3.627744,-1.5678146,14.369997,-10.327547,1.5362648,-0.64858115,0.10858377,-0.47537842,-0.58443725,-12.516742,3.547721,-2.6432657,5.711303,-5.713124,-3.077731,0
0.34000000000000014,21.0,5.999998843820756,-5.99999985456122,-3.0067471958775664,22.240807,-2.9040937,-3.627744,-1.5678146,14.245357,-10.291351,1.5098965,-0.6736994,0.0804437,-0.47141686,-0.5634036,-12.4095125,3.6895945,-2.6297808,5.756249,-5.757939,-3.0742476,0
0.35000000000000014,21.0,5.999998843820756,-5.99999985456122,-3.0067471958775664,22.240807,-2.9040937,-3.627744,-1.5678146,14.121845,-10.253798,1.4836818,-0.69764674,0.051888134,-0.46654227,-0.54123425,-12.2911215,3.8190942,-2.6125965,5.7941985,-5.795751,-3.0709352,0
0.36000000000000015,21.0,2.6219254142347133,-5.799131865431895,1.9097629331557047,22.0246,-3.3808563,-2.9168918,-1.4255443,13.999568,-10.215015,1.4576561,-0.72034,0.023009954,-0.46074885,-0.51796794,-12.16257,3.935153,-2.5920303,5.8262415,-5.827656,-3.0677855,0
0.37000000000000016,21.0,2.6219254142347133,-5.799131865431895,1.9097629331557047,22.0246,-3.3808563,-2.9168918,-1.4255443,13.878704,-10.175082,1.4319234,-0.7412164,-0.0054150135,-0.453919,-0.49449566,-12.009387,4.048496,-2.5545785,5.4803843,-5.6690035,-2.845785,0
0.38000000000000017,21.0,2.6219254142347133,-5.799131865431895,1.9097629331557047,22.0246,-3.3808563,-2.9168918,-1.4255443,13.759395,-10.13411,1.4065633,-0.7599282,-0.032786828,-0.446024,-0.47169507,-11.8519335,4.1431212,-2.5175233,5.1843834,-5.539262,-2.6292825,0
0.3900000000000002,21.0,2.6219254142347133,-5.799131865431895,1.9097629331557047,22.0246,-3.3808563,-2.9168918,-1.4255443,13.641675,-10.092281,1.3815717,-0.77669793,-0.059260525,-0.4371576,-0.44957903,-11.691603,4.2200966,-2.4807532,4.9221225,-5.4422197,-2.4188852,0
0.4000000000000002,21.0,1.7510529778176018,-3.408001199750282,1.8903751017401424,21.365505,-5.4181457,-0.7112325,0.5776798,13.525571,-10.049764,1.3569499,-0.79175717,-0.08493418,-0.42728466,-0.42817524,-11.528854,4.280633,-2.4435725,4.6696916,-5.391371,-2.2159333,0
0.4100000000000002,21.0,1.7510529778176018,-3.408001199750282,1.8903751017401424,21.365505,-5.4181457,-0.7112325,0.5776798,13.41108,-10.006727,1.3326838,-0.80505127,-0.10912912,-0.4167368,-0.4078152,-11.369372,4.324209,-2.409719,4.2261953,-5.0703325,-2.0158846,0
0.4200000000000002,21.0,1.7510529778176018,-3.408001199750282,1.8903751017401424,21.365505,-5.4181457,-0.7112325,0.5776798,13.298186,-9.963327,1.3087583,-0.8166073,-0.13134491,-0.4058975,-0.38877723,-11.209292,4.3536563,-2.375181,3.841142,-4.810105,-1.8242034,0
0.4300000000000002,21.0,1.7510529778176018,-3.408001199750282,1.8903751017401424,21.365505,-5.4181457,-0.7112325,0.5776798,13.186896,-9.919699,1.2851852,-0.8267016,-0.15189329,-0.3948028,-0.3709759,-11.048531,4.370156,-2.3392246,3.5160012,-4.590641,-1.641928,0
0.4400000000000002,21.0,1.7510529778176018,-3.408001199750282,1.8903751017401424,21.33517,-5.202973,1.7415823,1.8520836,13.077214,-9.875966,1.261978,-0.83554506,-0.17104457,-0.38349375,-0.3543165,-10.887995,4.3744774,-2.302054,3.241455,-4.405547,-1.4685968,0
0.45000000000000023,21.0,1.7510529778176018,-3.408001199750282,1.8903751017401424,21.33517,-5.202973,1.7415823,1.8520836,12.969133,-9.832249,1.2391479,-0.84330624,-0.18902598,-0.37199467,-0.33870795,-10.728434,4.3673196,-2.2638488,3.0096343,-4.249434,-1.3037711,0
0.46000000000000024,21.0,1.7510529778176018,-3.408001199750282,1.8903751017401424,21.33517,-5.202973,1.7415823,1.8520836,12.86264,-9.788657,1.2167041,-0.8501203,-0.20602769,-0.3603186,-0.32406476,-10.570479,4.349311,-2.2247744,2.8138924,-4.1177583,-1.1470335,0
0.47000000000000025,21.0,1.7510529778176018,-3.408001199750282,1.8903751017401424,21.33517,-5.202973,1.7415823,1.8520836,12.757716,-9.745297,1.194655,-0.8560958,-0.22220811,-0.34847116,-0.3103077,-10.414664,4.321016,-2.1849875,2.6486158,-4.0066905,-0.997987,0
0.48000000000000026,20.999999942800578,0.28755650455758464,-1.382053825776484,2.5766661085511933,20.847404,-4.6949925,3.1592743,2.826455,12.654337,-9.70227,1.1730064,-0.86132026,-0.23769867,-0.3364532,-0.29736415,-10.261449,4.2829423,-2.144641,2.5090642,-3.913002,-0.8562542,0
0.49000000000000027,20.999999942800578,0.28755650455758464,-1.382053825776484,2.5766661085511933,20.847404,-4.6949925,3.1592743,2.826455,12.552476,-9.65967,1.1517634,-0.8657251,-0.25189704,-0.32477537,-0.28563672,-10.111201,4.235635,-2.1038847,2.1632302,-3.5178695,-0.6877998,0
0.5000000000000002,20.999999942800578,0.28755650455758464,-1.382053825776484,2.5766661085511933,20.847404,-4.6949925,3.1592743,2.826455,12.452103,-9.617585,1.1309297,-0.8693227,-0.26435453,-0.3138652,-0.27546838,-9.964064,4.1800876,-2.0628455,1.8712037,-3.184462,-0.5276115,0
0.5100000000000002,20.999999942800578,0.28755650455758464,-1.382053825776484,2.5766661085511933,20.847404,-4.6949925,3.1592743,2.826455,12.353185,-9.576093,1.1105074,-0.87227356,-0.2753743,-0.30360094,-0.26670933,-9.82005,4.1173153,-2.0216062,1.6246214,-2.90313,-0.37528372,0
0.5200000000000002,20.999999494530023,-1.1122240163966424,0.7339884097132822,3.530507644707184,19.314363,-3.9828207,4.2129965,3.0308166,12.255692,-9.535261,1.0904981,-0.8746992,-0.2852073,-0.2938722,-0.25922346,-9.6791315,4.04817,-1.9802186,1.4164178,-2.6657336,-0.23043065,0
0.5300000000000002,20.999999494530023,-1.1122240163966424,0.7339884097132822,3.530507644707184,19.314363,-3.9828207,4.2129965,3.0308166,12.159593,-9.49515,1.0709039,-0.8765875,-0.29338738,-0.28514168,-0.25340065,-9.541139,3.973416,-1.9386392,1.0214148,-2.1363666,-0.045974143,0
0.5400000000000003,20.999999494530023,-1.1122240163966424,0.7339884097132822,3.530507644707184,19.314363,-3.9828207,4.2129965,3.0308166,12.064859,-9.455808,1.0517257,-0.877957,-0.29957482,-0.27778482,-0.24956255,-9.405858,3.894282,-1.8969711,0.6888844,-1.6886452,0.12952483,0
0.5500000000000003,20.999999494530023,-1.1122240163966424,0.7339884097132822,3.530507644707184,19.314363,-3.9828207,4.2129965,3.0308166,11.971468,-9.417275,1.0329653,-0.878923,-0.30411717,-0.27157357,-0.24749614,-9.272795,3.8118553,-1.8550744,0.40811574,-1.3108145,0.296412,0
0.5600000000000003,20.999998636590412,-3.42366746345717,3.3286211650668096,5.999993445946,18.633339,-3.7138221,5.340903,2.953247,11.879396,-9.37958,1.0146253,-0.8795631,-0.3072996,-0.26630864,-0.24701165,-9.141559,3.7270648,-1.8128626,0.17106256,-0.9919553,0.45511,0
0.5700000000000003,20.999998636590412,-3.42366746345717,3.3286211650668096,5.999993445946,18.633339,-3.7138221,5.340903,2.953247,11.7887535,-9.342821,0.9968425,-0.87996876,-0.3082531,-0.26227713,-0.24868666,-8.98784,3.624901,-1.7442548,-0.44529182,-0.37404823,0.6911615,0
0.5800000000000003,20.999998636590412,-3.42366746345717,3.3286211650668096,5.999993445946,18.633339,-3.7138221,5.340903,2.953247,11.699623,-9.307074,0.9797293,-0.88019377,-0.30630037,-0.2596708,-0.25300097,-8.838987,3.5252123,-1.678838,-0.9675953,0.1454286,0.9213668,0
0.5900000000000003,20.999998636590412,-3.42366746345717,3.3286211650668096,5.999993445946,18.633339,-3.7138221,5.340903,2.953247,11.6119585,-9.272304,0.96325654,-0.880209,-0.30190432,-0.25819042,-0.25965938,-8.694297,3.4295592,-1.6160991,-1.4117912,0.58054644,1.1458707,0
0.6000000000000003,20.999999206241,-5.634085618729633,5.335912010075305,5.999992674497977,18.41232,-4.2999425,6.136671,2.2930179,11.525723,-9.238464,0.94739956,-0.87996125,-0.29544201,-0.25757036,-0.26840103,-8.553244,3.339148,-1.555624,-1.7911966,0.9433196,1.3648144,0
0.6100000000000003,20.999999206241,-5.634085618729633,5.335912010075305,5.999992674497977,18.41232,-4.2999425,6.136671,2.2930179,11.440884,-9.205498,0.9321374,-0.87940764,-0.28624654,-0.25808498,-0.2794578,-8.415442,3.2550132,-1.4970592,-2.4472225,1.5714664,1.5783355,0
0.6200000000000003,20.999999206241,-5.634085618729633,5.335912010075305,5.999992674497977,18.41232,-4.2999425,6.136671,2.2930179,11.357406,-9.173337,0.9174533,-0.87844837,-0.27376983,-0.25989696,-0.29297012,-8.280502,3.1785705,-1.4399759,-3.0106034,2.0919704,1.7865686,0
0.6300000000000003,20.999999206241,-5.634085618729633,5.335912010075305,5.999992674497977,18.41232,-4.2999425,6.136671,2.2930179,11.275268,-9.141898,0.90333825,-0.8769085,-0.25847128,-0.26266974,-0.30859026,-8.14719,3.1106083,-1.382832,-3.4789708,2.5384777,1.9880844,0
0.6400000000000003,20.999999206241,-5.634085618729633,5.335912010075305,5.999992674497977,18.063772,-4.4604115,5.9066486,1.7451069,11.194459,-9.1110935,0.88980114,-0.87455815,-0.24079868,-0.26624754,-0.32599938,-8.014634,3.0518584,-1.3243989,-3.8508906,2.9388285,2.1818066,0
0.6500000000000004,20.999999206241,-5.634085618729633,5.335912010075305,5.999992674497977,18.063772,-4.4604115,5.9066486,1.7451069,11.114971,-9.080825,0.8768545,-0.8711729,-0.22114758,-0.27053708,-0.34490654,-7.8830886,3.0033834,-1.2647612,-4.1405535,3.3010805,2.3681927,0
0.6600000000000004,20.999999206241,-5.634085618729633,5.335912010075305,5.999992674497977,18.063772,-4.4604115,5.9066486,1.7451069,11.036796,-9.050987,0.8645129,-0.8665672,-0.19984294,-0.27543628,-0.36504546,-7.75208,2.9657967,-1.2031308,-4.374376,3.6175447,2.546406,0
0.6700000000000004,20.999999206241,-5.634085618729633,5.335912010075305,5.999992674497977,18.063772,-4.4604115,5.9066486,1.7451069,10.9599285,-9.021468,0.85280055,-0.86062145,-0.17712235,-0.28076488,-0.3861718,-7.621398,2.9397428,-1.13896,-4.571697,3.884693,2.7158744,0
0.6800000000000004,20.999999259174402,-5.999997662530122,5.880706014445379,5.999981766559713,20.24342,-3.8238046,6.27299,1.8330512,10.884365,-8.99215,0.8417413,-0.85324115,-0.15318742,-0.28635046,-0.40806353,-7.491631,2.925963,-1.0725675,-4.738206,4.110219,2.877027,0
0.6900000000000004,20.999999259174402,-5.999997662530122,5.880706014445379,5.999981766559713,20.24342,-3.8238046,6.27299,1.8330512,10.810091,-8.962905,0.8313555,-0.84430015,-0.12800345,-0.2921707,-0.43059015,-7.363489,2.9250693,-1.0043404,-4.9359345,4.3854637,3.0302713,0
0.7000000000000004,20.999999259174402,-5.999997662530122,5.880706014445379,5.999981766559713,20.24342,-3.8238046,6.27299,1.8330512,10.737087,-8.933602,0.8216592,-0.8336721,-0.10155734,-0.2981881,-0.45360792,-7.2377863,2.9376583,-0.93473643,-5.102771,4.6178336,3.1759956,0
0.7100000000000004,20.999999259174402,-5.999997662530122,5.880706014445379,5.999981766559713,20.24342,-3.8238046,6.27299,1.8330512,10.665324,-8.904104,0.8126637,-0.82128555,-0.074053936,-0.30424896,-0.4769045,-7.1154413,2.9641938,-0.8642815,-5.2435327,4.814014,3.3145692,0
0.7200000000000004,20.999998442690277,-5.9999917981672235,4.929205882604503,5.030960711635711,21.26862,-4.182368,5.9727488,1.7092441,10.594765,-8.87427,0.8043745,-0.8070863,-0.045680966,-0.31022403,-0.5002853,-6.9974604,3.0049493,-0.79355705,-5.362288,4.9796476,3.4463432,0
0.7300000000000004,20.999998442690277,-5.9999917981672235,4.929205882604503,5.030960711635711,21.26862,-4.182368,5.9727488,1.7092441,10.525357,-8.843957,0.7967914,-0.7912216,-0.016768456,-0.3157071,-0.523465,-6.8849196,3.0599804,-0.7231707,-5.4619713,4.9712815,3.524101,0
0.7400000000000004,20.999998442690277,-5.9999917981672235,4.929205882604503,5.030960711635711,21.26862,-4.182368,5.9727488,1.7092441,10.457044,-8.813024,0.7899081,-0.7738547,0.01239511,-0.32038528,-0.54621243,-6.778973,3.1289916,-0.65365857,-5.546099,4.9642596,3.598043,0
0.7500000000000004,20.999998442690277,-5.9999917981672235,4.929205882604503,5.030960711635711,21.26862,-4.182368,5.9727488,1.7092441,10.389752,-8.781331,0.78371346,-0.75497496,0.041703857,-0.32428452,-0.56843,-6.6807575,3.2114878,-0.5855391,-5.6170974,4.9583697,3.6683567,0
0.7600000000000005,19.824068768970193,-5.351112410546507,3.1744812047560615,3.5929861191620045,20.79628,-4.007683,5.2500253,1.8414965,10.323399,-8.74875,0.7781908,-0.7345828,0.0710601,-0.3274282,-0.5900245,-6.591356,3.3068478,-0.5193398,-5.6770144,4.9534316,3.7352202,0
0.7700000000000005,19.824068768970193,-5.351112410546507,3.1744812047560615,3.5929861191620045,20.79628,-4.007683,5.2500253,1.8414965,10.257869,-8.715182,0.7732729,-0.71305907,0.09982425,-0.32947522,-0.6107598,-6.516224,3.4082584,-0.46462187,-5.6254945,4.676156,3.7282407,0
0.7800000000000005,19.824068768970193,-5.351112410546507,3.1744812047560615,3.5929861191620045,20.79628,-4.007683,5.2500253,1.8414965,10.193041,-8.680549,0.76888955,-0.6907967,0.12748463,-0.33019757,-0.6304893,-6.4511056,3.5199053,-0.41246262,-5.5821166,4.4421,3.7216036,0
0.7900000000000005,19.824068768970193,-5.351112410546507,3.1744812047560615,3.5929861191620045,20.79628,-4.007683,5.2500253,1.8414965,10.128811,-8.644753,0.7650142,-0.66781634,0.15413369,-0.32976234,-0.64924616,-6.3965993,3.6405463,-0.363054,-5.545595,4.2445264,3.7152922,0
0.8000000000000005,16.58054191028268,-3.75796084907227,1.230371642515835,2.652678155786751,18.299843,-4.0160413,4.4785204,1.3921957,10.065071,-8.607711,0.7616184,-0.644136,0.17985031,-0.3283077,-0.66705054,-6.3531914,3.768982,-0.3165697,-5.514846,4.0777493,3.7092907,0
0.8100000000000005,16.58054191028268,-3.75796084907227,1.230371642515835,2.652678155786751,18.299843,-4.0160413,4.4785204,1.3921957,10.00168,-8.569459,0.758556,-0.62024015,0.20381454,-0.32587022,-0.6837909,-6.3264413,3.88191,-0.2962908,-5.2396665,3.6345432,3.6574426,0
0.8200000000000005,16.58054191028268,-3.75796084907227,1.230371642515835,2.652678155786751,18.299843,-4.0160413,4.4785204,1.3921957,9.938509,-8.530057,0.7556841,-0.59659785,0.2254072,-0.32253852,-0.6994506,-6.309134,3.999155,-0.27847192,-5.007598,3.2603269,3.6081383,0
0.8300000000000005,16.58054191028268,-3.75796084907227,1.230371642515835,2.652678155786751,18.299843,-4.0160413,4.4785204,1.3921957,9.875466,-8.489466,0.7529787,-0.5731901,0.24496229,-0.31847662,-0.71415615,-6.301005,4.119601,-0.26294634,-4.8118844,2.9443629,3.5612538,0
0.8400000000000005,16.58054191028268,-3.75796084907227,1.230371642515835,2.652678155786751,15.542946,-3.8097548,3.4760132,1.1588193,9.81246,-8.447659,0.7504178,-0.5499892,0.2627638,-0.31381193,-0.7280034,-6.3017764,4.2422857,-0.24954414,-4.646829,2.6775844,3.5166698,0
0.8500000000000005,16.58054191028268,-3.75796084907227,1.230371642515835,2.652678155786751,15.542946,-3.8097548,3.4760132,1.1588193,9.749401,-8.404616,0.7479811,-0.5269642,0.27905247,-0.30864337,-0.74106514,-6.3111644,4.3663726,-0.23810056,-4.5076265,2.4523354,3.4742734,0
0.8600000000000005,16.58054191028268,-3.75796084907227,1.230371642515835,2.652678155786751,15.542946,-3.8097548,3.4760132,1.1588193,9.686208,-8.36033,0.74564964,-0.50408375,0.29403174,-0.3030478,-0.7533968,-6.328888,4.491128,-0.22846024,-4.390227,2.2621517,3.4339576,0
0.8700000000000006,16.58054191028268,-3.75796084907227,1.230371642515835,2.652678155786751,15.542946,-3.8097548,3.4760132,1.1588193,9.622796,-8.314795,0.74340624,-0.48131853,0.30787334,-0.29708493,-0.7650404,-6.3546686,4.615903,-0.22047973,-4.2912135,2.1015744,3.3956196,0
0.8800000000000006,14.405889103462954,-2.163186860766724,-0.5373317643362787,1.8055876081216882,15.259127,-4.0666537,2.801525,0.61799353,9.559089,-8.268014,0.74123484,-0.45864186,0.3207216,-0.29080117,-0.7760282,-6.388234,4.7401166,-0.21402827,-4.2077065,1.9659952,3.359163,0
0.8900000000000006,14.405889103462954,-2.163186860766724,-0.5373317643362787,1.8055876081216882,15.259127,-4.0666537,2.801525,0.61799353,9.495033,-8.220076,0.73905385,-0.43652582,0.3319011,-0.2843812,-0.78639305,-6.423907,4.8471885,-0.22240572,-3.889204,1.5777613,3.2830474,0
0.9000000000000006,14.405889103462954,-2.163186860766724,-0.5373317643362787,1.8055876081216882,15.259127,-4.0666537,2.801525,0.61799353,9.430592,-8.171075,0.7367835,-0.4153882,0.3408986,-0.27800784,-0.7962112,-6.4654493,4.9527903,-0.23177713,-3.6192687,1.2486618,3.2105482,0
0.9100000000000006,14.405889103462954,-2.163186860766724,-0.5373317643362787,1.8055876081216882,15.259127,-4.0666537,2.801525,0.61799353,9.365706,-8.121026,0.7344162,-0.3951156,0.34805974,-0.271698,-0.8055545,-6.512268,5.056675,-0.24174856,-3.391568,0.9707656,3.1416063,0
0.9200000000000006,13.023209513012102,-0.7875368432707844,-2.116879838219811,0.969815534273178,14.581191,-3.4731166,2.0245123,0.09862922,9.300329,-8.069948,0.73194736,-0.37560442,0.35367385,-0.26545647,-0.8144745,-6.563813,5.15858,-0.2520445,-3.1994905,0.73610806,3.0760474,0
0.9300000000000006,13.023209513012102,-0.7875368432707844,-2.116879838219811,0.969815534273178,14.581191,-3.4731166,2.0245123,0.09862922,9.234417,-8.017865,0.7293731,-0.3569661,0.35770148,-0.25931463,-0.8230313,-6.619137,5.2575192,-0.26310503,-2.9544857,0.42364615,2.984503,0
0.9400000000000006,13.023209513012102,-0.7875368432707844,-2.116879838219811,0.969815534273178,14.581191,-3.4731166,2.0245123,0.09862922,9.167938,-7.9648137,0.7266792,-0.33937162,0.35999906,-0.25334927,-0.83128905,-6.676755,5.351944,-0.27593517,-2.7138805,0.12599851,2.8944223,0
0.9500000000000006,13.023209513012102,-0.7875368432707844,-2.116879838219811,0.969815534273178,14.581191,-3.4731166,2.0245123,0.09862922,9.100876,-7.9108405,0.7238495,-0.32281154,0.3606547,-0.24761972,-0.8392885,-6.735994,5.441935,-0.29020625,-2.477965,-0.15816289,2.8058207,0
0.9600000000000006,13.066890986523738,0.20037153852273587,-3.168752546675642,0.1920586561620929,14.031797,-2.4488432,1.8298051,-0.60080945,9.033215,-7.855989,0.7208711,-0.30727157,0.3597492,-0.2421756,-0.8470628,-6.7962384,5.5276194,-0.30562815,-2.2469373,-0.43000567,2.7187095,0
0.9700000000000006,13.066890986523738,0.20037153852273587,-3.168752546675642,0.1920586561620929,14.031797,-2.4488432,1.8298051,-0.60080945,8.964907,-7.8002443,0.7177907,-0.2927383,0.35743892,-0.23698753,-0.85462177,-6.8653846,5.6205144,-0.3105582,-2.0516946,-0.66982806,2.611449,0
0.9800000000000006,13.066890986523738,0.20037153852273587,-3.168752546675642,0.1920586561620929,14.031797,-2.4488432,1.8298051,-0.60080945,8.895906,-7.743593,0.71465796,-0.27920398,0.3538536,-0.23203139,-0.86197096,-6.93464,5.70907,-0.31608,-1.8557057,-0.90351576,2.506659,0
0.9900000000000007,13.066890986523738,0.20037153852273587,-3.168752546675642,0.1920586561620929,14.031797,-2.4488432,1.8298051,-0.60080945,8.826215,-7.6860776,0.7114678,-0.26665688,0.34902674,-0.22735341,-0.86912864,-7.0034995,5.793471,-0.3220091,-1.6596581,-1.1314518,2.4042702,0
1.0000000000000007,13.629930634946872,0.7765437157528366,-3.8123567049987073,-0.46724031687862416,13.338488,-1.0044212,1.8486055,-1.0873389,8.755839,-7.627738,0.70821697,-0.25508168,0.3429894,-0.22299354,-0.876108,-7.071495,5.8739214,-0.32819045,-1.4641273,-1.3539637,2.304215,0
1.0100000000000007,13.629930634946872,0.7765437157528366,-3.8123567049987073,-0.46724031687862416,13.338488,-1.0044212,1.8486055,-1.0873389,8.684748,-7.568563,0.7049619,-0.2444652,0.33585542,-0.21890719,-0.8829028,-7.1466956,5.9604073,-0.32280615,-1.3029193,-1.5486078,2.1850839,0
1.0200000000000007,13.629930634946872,0.7765437157528366,-3.8123567049987073,-0.46724031687862416,13.338488,-1.0044212,1.8486055,-1.0873389,8.612912,-7.5085425,0.70176136,-0.2348006,0.3277175,-0.21505941,-0.889505,-7.220164,6.0430636,-0.31727228,-1.1371094,-1.742688,2.0691373,0
1.0300000000000007,13.629930634946872,0.7765437157528366,-3.8123567049987073,-0.46724031687862416,13.338488,-1.0044212,1.8486055,-1.0873389,8.540352,-7.4477143,0.69861716,-0.22607714,0.3185736,-0.21149607,-0.89591813,-7.291509,6.122098,-0.31152785,-0.96771675,-1.935991,1.9562463,0
1.0400000000000007,13.629930634946872,0.7765437157528366,-3.8123567049987073,-0.46724031687862416,12.788907,-0.18862107,1.4524525,-1.4550953,8.46709,-7.3861127,0.6955316,-0.21828045,0.30842274,-0.2082573,-0.9021407,-7.3603644,6.197726,-0.30553418,-0.7956263,-2.128312,1.8462896,0
1.0500000000000007,13.629930634946872,0.7765437157528366,-3.8123567049987073,-0.46724031687862416,12.788907,-0.18862107,1.4524525,-1.4550953,8.393152,-7.323771,0.6925073,-0.21139303,0.29726487,-0.20537797,-0.9081664,-7.426385,6.270165,-0.2992743,-0.621606,-2.3194566,1.7391546,0
1.0600000000000007,13.629930634946872,0.7765437157528366,-3.8123567049987073,-0.46724031687862416,12.788907,-0.18862107,1.4524525,-1.4550953,8.318571,-7.26072,0.68954694,-0.20539455,0.28510064,-0.2028881,-0.91398406,-7.489249,6.3396325,-0.29275283,-0.44632265,-2.509241,1.6347356,0
1.0700000000000007,13.629930634946872,0.7765437157528366,-3.8123567049987073,-0.46724031687862416,12.788907,-0.18862107,1.4524525,-1.4550953,8.243379,-7.1969876,0.686653,-0.20026219,0.2719313,-0.20081331,-0.9195772,-7.5486565,6.406341,-0.28599557,-0.27035403,-2.6974957,1.5329335,0
1.0800000000000007,13.962118947944905,0.9395801468844608,-3.92615259279684,-0.9504339288272403,13.602152,-0.08617691,0.8736991,-1.3723621,8.167609,-7.1326,0.6838307,-0.19595936,0.25778252,-0.19915998,-0.92492336,-7.6048207,6.471066,-0.27811155,-0.10710068,-2.8711872,1.4347844,0
1.0900000000000007,13.962118947944905,0.9395801468844608,-3.92615259279684,-0.9504339288272403,13.602152,-0.08617691,0.8736991,-1.3723621,8.09128,-7.067555,0.6811245,-0.19243574,0.24283071,-0.19784366,-0.9299782,-7.6604476,6.537544,-0.26307005,0.0260153,-3.0055695,1.3204455,0
1.1000000000000008,13.962118947944905,0.9395801468844608,-3.92615259279684,-0.9504339288272403,13.602152,-0.08617691,0.8736991,-1.3723621,8.014415,-7.001857,0.6785703,-0.18968357,0.22715914,-0.19683558,-0.93470556,-7.7117763,6.6018424,-0.24766797,0.1627117,-3.143362,1.2095355,0
1.1100000000000008,13.962118947944905,0.9395801468844608,-3.92615259279684,-0.9504339288272403,13.602152,-0.08617691,0.8736991,-1.3723621,7.937057,-6.9355226,0.6761773,-0.18766235,0.21079248,-0.19613254,-0.9390853,-7.7592134,6.6648955,-0.23058765,0.28373486,-3.2653615,1.1035452,0
1.1200000000000008,14.548772773607343,0.6086465045213857,-3.3759266017555527,-1.2464055784735566,14.664255,-0.25016537,0.48497716,-1.417319,7.859245,-6.868562,0.6739655,-0.18629803,0.19383277,-0.19567914,-0.94309664,-7.802682,6.7270465,-0.21146922,0.3858665,-3.3683634,1.0027559,0
1.1300000000000008,14.548772773607343,0.6086465045213857,-3.3759266017555527,-1.2464055784735566,14.664255,-0.25016537,0.48497716,-1.417319,7.78101,-6.800972,0.6719795,-0.18549006,0.17661458,-0.19533329,-0.94670236,-7.8435946,6.7909265,-0.185431,0.4203672,-3.3695505,0.89238894,0
1.1400000000000008,14.548772773607343,0.6086465045213857,-3.3759266017555527,-1.2464055784735566,14.664255,-0.25016537,0.48497716,-1.417319,7.702389,-6.732747,0.6702632,-0.18516357,0.15941241,-0.1949813,-0.9498864,-7.8800015,6.8539443,-0.15756257,0.44949922,-3.3705587,0.7874377,0
1.1500000000000008,14.548772773607343,0.6086465045213857,-3.3759266017555527,-1.2464055784735566,14.664255,-0.25016537,0.48497716,-1.417319,7.623426,-6.663896,0.668834,-0.1852891,0.14223224,-0.19461471,-0.9526609,-7.911829,6.9161015,-0.12803696,0.47409916,-3.371414,0.68763644,0
1.1600000000000008,15.169884827770874,-0.10667235447252792,-2.246649215005282,-1.3228126891102212,15.330447,-0.9939335,0.4185721,-1.4365226,7.5441675,-6.5944276,0.66770756,-0.18583922,0.12507914,-0.1942272,-0.95503646,-7.939013,6.977389,-0.097026244,0.49487346,-3.3721387,0.5927325,0
1.1700000000000008,15.169884827770874,-0.10667235447252792,-2.246649215005282,-1.3228126891102212,15.330447,-0.9939335,0.4185721,-1.4365226,7.4646564,-6.524338,0.66692585,-0.18667647,0.10844512,-0.19362454,-0.95702714,-7.9624953,7.0403633,-0.05913595,0.40079862,-3.1966805,0.49873608,0
1.1800000000000008,15.169884827770874,-0.10667235447252792,-2.246649215005282,-1.3228126891102212,15.330447,-0.9939335,0.4185721,-1.4365226,7.3849335,-6.453624,0.66652894,-0.18769923,0.092723995,-0.19265717,-0.95867324,-7.981303,7.1023397,-0.020064648,0.32143262,-3.0485682,0.40935215,0
1.1900000000000008,15.169884827770874,-0.10667235447252792,-2.246649215005282,-1.3228126891102212,15.330447,-0.9939335,0.4185721,-1.4365226,7.3050447,-6.382295,0.66652805,-0.18892957,0.077786155,-0.19138114,-0.9600146,-7.99567,7.1632433,0.020021036,0.25447416,-2.9235418,0.32435432,0
1.2000000000000008,14.986296142910307,-0.9852062326871122,-1.0803890509682816,-1.2312313319511963,16.278301,-2.170442,0.7869012,-0.88189244,7.2250338,-6.3103633,0.6669324,-0.19038239,0.06352086,-0.18984407,-0.96108204,-8.005795,7.2230086,0.060977317,0.19798253,-2.8180034,0.24352735,0
1.2100000000000009,14.986296142910307,-0.9852062326871122,-1.0803890509682816,-1.2312313319511963,16.278301,-2.170442,0.7869012,-0.88189244,7.144943,-6.2378426,0.6677417,-0.19194773,0.05034746,-0.18783894,-0.96194464,-8.011814,7.280859,0.10098861,0.013300937,-2.547054,0.17116053,0
1.2200000000000009,14.986296142910307,-0.9852062326871122,-1.0803890509682816,-1.2312313319511963,16.278301,-2.170442,0.7869012,-0.88189244,7.0648103,-6.16475,0.66895443,-0.1935438,0.03859389,-0.18520732,-0.9626782,-8.014247,7.3374057,0.14164875,-0.1425457,-2.3183398,0.10234477,0
1.2300000000000009,14.986296142910307,-0.9852062326871122,-1.0803890509682816,-1.2312313319511963,16.278301,-2.170442,0.7869012,-0.88189244,6.984669,-6.0910993,0.6705767,-0.1952138,0.02804865,-0.18205109,-0.96330786,-8.013507,7.3925385,0.18289669,-0.27406222,-2.1252794,0.03690581,0
1.2400000000000009,14.986296142910307,-0.9852062326871122,-1.0803890509682816,-1.2312313319511963,17.07812,-3.1325037,0.745725,0.034463454,6.90455,-6.016904,0.67261416,-0.19698977,0.018531747,-0.17845549,-0.96384907,-8.009945,7.4461656,0.22468816,-0.38504872,-1.9623166,-0.025322054,0
1.2500000000000009,14.986296142910307,-0.9852062326871122,-1.0803890509682816,-1.2312313319511963,17.07812,-3.1325037,0.745725,0.034463454,6.8244786,-5.94218,0.6750722,-0.19889498,0.009890148,-0.17449193,-0.9643108,-8.003857,7.4982095,0.2669898,-0.47871143,-1.8247607,-0.084496364,0
1.260000000000001,14.986296142910307,-0.9852062326871122,-1.0803890509682816,-1.2312313319511963,17.07812,-3.1325037,0.745725,0.034463454,6.7444806,-5.866945,0.6779557,-0.20094581,0.001993815,-0.17022029,-0.9646977,-7.9954963,7.5486054,0.30977523,-0.5577556,-1.7086518,-0.14076698,0
1.270000000000001,14.986296142910307,-0.9852062326871122,-1.0803890509682816,-1.2312313319511963,17.07812,-3.1325037,0.745725,0.034463454,6.6645765,-5.791214,0.68126935,-0.20315318,-0.005267719,-0.16569078,-0.96501166,-7.9850802,7.597297,0.3530223,-0.62446374,-1.6106466,-0.19427639,0
1.280000000000001,14.932258350506078,-1.726619709800923,0.1010925616310998,-0.9917499740985853,17.520882,-3.497957,0.39692178,0.7014142,6.5847855,-5.715005,0.68501765,-0.20552377,-0.011988278,-0.16094553,-0.96525264,-7.972792,7.644237,0.39671105,-0.68076164,-1.5279236,-0.24516006,0
1.290000000000001,14.932258350506078,-1.726619709800923,0.1010925616310998,-0.9917499740985853,17.520882,-3.497957,0.39692178,0.7014142,6.5051255,-5.638336,0.6892024,-0.20796147,-0.017734641,-0.15583102,-0.9654812,-7.9588757,7.6892166,0.4403149,-0.843853,-1.2738334,-0.28179544,0
1.300000000000001,14.932258350506078,-1.726619709800923,0.1010925616310998,-0.9917499740985853,17.520882,-3.497957,0.39692178,0.7014142,6.425612,-5.561227,0.6938255,-0.21038987,-0.022167725,-0.15022887,-0.9657514,-7.9436636,7.7323413,0.48436168,-0.981505,-1.059367,-0.31663314,0
1.310000000000001,14.932258350506078,-1.726619709800923,0.1010925616310998,-0.9917499740985853,17.520882,-3.497957,0.39692178,0.7014142,6.346256,-5.483696,0.6988913,-0.21283634,-0.025488194,-0.1442182,-0.9660496,-7.927548,7.77355,0.5288764,-1.0976871,-0.8783464,-0.3497613,0
1.320000000000001,14.790060040036021,-2.31496016511196,1.1280372575864563,-0.6673779063593154,17.155943,-4.0445075,0.67893416,1.6186194,6.267063,-5.4057627,0.70440465,-0.21532102,-0.027865935,-0.13786496,-0.96636087,-7.910861,7.812794,0.573879,-1.195749,-0.7255568,-0.38126388,0
1.330000000000001,14.790060040036021,-2.31496016511196,1.1280372575864563,-0.6673779063593154,17.155943,-4.0445075,0.67893416,1.6186194,6.188038,-5.327449,0.71036375,-0.21777043,-0.02900214,-0.13108435,-0.966722,-7.8940783,7.849675,0.6180195,-1.3702219,-0.43643412,-0.3953036,0
1.340000000000001,14.790060040036021,-2.31496016511196,1.1280372575864563,-0.6673779063593154,17.155943,-4.0445075,0.67893416,1.6186194,6.1091805,-5.2487764,0.7167669,-0.22012247,-0.028667405,-0.12381206,-0.96715796,-7.8774858,7.884521,0.6626943,-1.5174923,-0.1924046,-0.40865436,0
1.350000000000001,14.790060040036021,-2.31496016511196,1.1280372575864563,-0.6673779063593154,17.155943,-4.0445075,0.67893416,1.6186194,6.030486,-5.169766,0.7236195,-0.22240384,-0.027088145,-0.11612567,-0.9676349,-7.8615203,7.917291,0.70793086,-1.6418023,0.013564039,-0.42135,0
1.360000000000001,14.212940742800747,-2.67431082304208,1.7033392995566767,-0.322226986218928,16.6317,-4.243895,0.80375093,2.439536,5.9519467,-5.090438,0.73092747,-0.22463436,-0.024455892,-0.108089976,-0.9681207,-7.8465557,7.947952,0.75374085,-1.746732,0.18740804,-0.43342265,0
1.370000000000001,14.212940742800747,-2.67431082304208,1.7033392995566767,-0.322226986218928,16.6317,-4.243895,0.80375093,2.439536,5.8735476,-5.01082,0.7386682,-0.22676624,-0.020681912,-0.09967076,-0.96861494,-7.8334594,7.9753613,0.79448414,-1.8913221,0.42385092,-0.42796624,0
1.380000000000001,14.212940742800747,-2.67431082304208,1.7033392995566767,-0.322226986218928,16.6317,-4.243895,0.80375093,2.439536,5.795272,-4.930938,0.746819,-0.22875516,-0.015704367,-0.09084352,-0.9691087,-7.8220205,8.000684,0.83576864,-2.0133753,0.6234136,-0.4227776,0
1.390000000000001,14.212940742800747,-2.67431082304208,1.7033392995566767,-0.322226986218928,16.6317,-4.243895,0.80375093,2.439536,5.7171006,-4.8508134,0.75538534,-0.23061842,-0.009709372,-0.08167125,-0.96956205,-7.8125906,8.0238905,0.8775706,-2.116404,0.791849,-0.41784355,0
1.400000000000001,13.592914575400107,-2.7491587082440643,1.7048015523086497,-0.02607920817953048,15.605489,-4.0979047,0.6992528,2.6284409,5.6390123,-4.7704673,0.7643721,-0.23236911,-0.0028546588,-0.07220714,-0.9699394,-7.805469,8.044957,0.91984653,-2.2033732,0.9340123,-0.41315162,0
1.410000000000001,13.592914575400107,-2.7491587082440643,1.7048015523086497,-0.02607920817953048,15.605489,-4.0979047,0.6992528,2.6284409,5.5609813,-4.689926,0.77375305,-0.2339816,0.0047309585,-0.06246725,-0.9702206,-7.80111,8.063038,0.9563939,-2.2884686,1.054211,-0.39415783,0
1.420000000000001,13.592914575400107,-2.7491587082440643,1.7048015523086497,-0.02607920817953048,15.605489,-4.0979047,0.6992528,2.6284409,5.482981,-4.6092143,0.78350115,-0.23542975,0.012937963,-0.052467234,-0.9703878,-7.799413,8.079027,0.9932653,-2.3603005,1.1556609,-0.37609613,0
1.430000000000001,13.592914575400107,-2.7491587082440643,1.7048015523086497,-0.02607920817953048,15.605489,-4.0979047,0.6992528,2.6284409,5.404984,-4.5283527,0.7936192,-0.23672217,0.02166863,-0.04224835,-0.9704164,-7.8005605,8.092898,1.0303761,-2.4209356,1.2412869,-0.35892066,0
1.440000000000001,13.592914575400107,-2.7491587082440643,1.7048015523086497,-0.02607920817953048,15.360987,-3.7301989,0.31286266,2.6004214,5.32696,-4.447364,0.80410916,-0.23786606,0.030839866,-0.0318459,-0.9702857,-7.8047028,8.104635,1.0676302,-2.472119,1.3135571,-0.342588,0
1.450000000000001,13.592914575400107,-2.7491587082440643,1.7048015523086497,-0.02607920817953048,15.360987,-3.7301989,0.31286266,2.6004214,5.248879,-4.366268,0.81497186,-0.23886752,0.040380947,-0.021290207,-0.9699785,-7.8119664,8.114222,1.1049218,-2.5153239,1.3745555,-0.32705685,0
1.460000000000001,13.592914575400107,-2.7491587082440643,1.7048015523086497,-0.02607920817953048,15.360987,-3.7301989,0.31286266,2.6004214,5.170709,-4.2850876,0.8262073,-0.23973179,0.050231613,-0.010607397,-0.9694807,-7.8224564,8.121645,1.1421375,-2.5517929,1.4260405,-0.3122878,0
1.470000000000001,13.592914575400107,-2.7491587082440643,1.7048015523086497,-0.02607920817953048,15.360987,-3.7301989,0.31286266,2.6004214,5.092418,-4.2038436,0.8378139,-0.24046353,0.060340445,0.00017994572,-0.96878076,-7.8362575,8.1269,1.1791575,-2.5825765,1.4694955,-0.29824346,0
1.480000000000001,13.537984775833495,-2.5209943593806448,1.4578866775442638,0.14369370845283333,15.351206,-3.3825305,0.0060003223,2.3051667,5.0139723,-4.122557,0.84978926,-0.24106678,0.07066351,0.011052229,-0.9678694,-7.8534374,8.129982,1.2158567,-2.6085608,1.5061737,-0.28488827,0
1.490000000000001,13.537984775833495,-2.5209943593806448,1.4578866775442638,0.14369370845283333,15.351206,-3.3825305,0.0060003223,2.3051667,4.935338,-4.0412507,0.86212677,-0.24153058,0.081045955,0.021926403,-0.9667542,-7.8739576,8.130889,1.2515645,-2.5949268,1.4986053,-0.26385766,0
1.500000000000001,13.537984775833495,-2.5209943593806448,1.4578866775442638,0.14369370845283333,15.351206,-3.3825305,0.0060003223,2.3051667,4.8564816,-3.9599464,0.87481856,-0.2418449,0.091363505,0.032735094,-0.96544915,-7.8978753,8.129647,1.2867043,-2.5834177,1.4922194,-0.24385901,0
1.5100000000000011,13.537984775833495,-2.5209943593806448,1.4578866775442638,0.14369370845283333,15.351206,-3.3825305,0.0060003223,2.3051667,4.777369,-3.878665,0.88785845,-0.24201477,0.10162262,0.04348354,-0.9639558,-7.9251595,8.126278,1.3211588,-2.5737019,1.486832,-0.22484168,0
1.5200000000000011,13.262715295536562,-2.003160903673679,0.8703966260586133,0.1975218556974023,14.627886,-2.5651033,-0.08800216,1.4623086,4.697967,-3.797428,0.90123904,-0.24204494,0.11182848,0.054175828,-0.9622752,-7.955778,8.120801,1.3548123,-2.5655003,1.4822865,-0.20675755,0
1.5300000000000011,13.262715295536562,-2.003160903673679,0.8703966260586133,0.1975218556974023,14.627886,-2.5651033,-0.08800216,1.4623086,4.6182456,-3.7162552,0.9149383,-0.24194457,0.12170965,0.064672135,-0.9604514,-7.988991,8.113392,1.3848951,-2.4778347,1.3868186,-0.18691944,0
1.5400000000000011,13.262715295536562,-2.003160903673679,0.8703966260586133,0.1975218556974023,14.627886,-2.5651033,-0.08800216,1.4623086,4.538177,-3.6351666,0.92893356,-0.2417229,0.13105309,0.07486252,-0.9585356,-8.025272,8.103985,1.4140116,-2.4038358,1.3062443,-0.16805479,0
1.5500000000000012,13.262715295536562,-2.003160903673679,0.8703966260586133,0.1975218556974023,14.627886,-2.5651033,-0.08800216,1.4623086,4.4577303,-3.554182,0.94321495,-0.24138448,0.13994125,0.08479009,-0.9565356,-8.06446,8.092629,1.4421033,-2.3413727,1.2382398,-0.15011583,0
1.5600000000000012,12.742105722530049,-1.2550245012364063,0.03829998950354984,0.13934237871943664,13.441643,-1.4748231,-0.12644036,0.8126274,4.376878,-3.4733205,0.9577719,-0.24093355,0.14844361,0.09449117,-0.95445615,-8.106412,8.079367,1.4691159,-2.2886474,1.1808442,-0.13305716,1
1.5700000000000012,12.742105722530049,-1.2550245012364063,0.03829998950354984,0.13934237871943664,13.441643,-1.4748231,-0.12644036,0.8126274,4.2955894,-3.392602,0.9726018,-0.24029543,0.15619512,0.10387961,-0.9524021,-8.151582,8.064031,1.4966795,-2.1617794,0.9768972,-0.08665215,1
1.5800000000000012,12.742105722530049,-1.2550245012364063,0.03829998950354984,0.13934237871943664,13.441643,-1.4748231,-0.12644036,0.8126274,4.213838,-3.312046,0.9877016,-0.23940161,0.16291432,0.112887636,-0.9504745,-8.199127,8.046827,1.5231208,-2.054682,0.804767,-0.042524233,1
1.5900000000000012,12.742105722530049,-1.2550245012364063,0.03829998950354984,0.13934237871943664,13.441643,-1.4748231,-0.12644036,0.8126274,4.1316,-3.2316718,1.0030603,-0.238265,0.1687674,0.121568136,-0.94866645,-8.248764,8.027778,1.5484728,-1.9642755,0.65948933,-0.0005616974,1
1.6000000000000012,11.75934340088785,-0.30995281527398877,-0.8525587297914317,-0.05247986481961928,13.254002,-0.62816924,-1.1395404,0.7972321,4.048856,-3.151497,1.0186675,-0.23689765,0.1738941,0.12996574,-0.9469682,-8.300252,8.006902,1.5727669,-1.88796,0.5368747,0.03934173,0
1.6100000000000012,11.75934340088785,-0.30995281527398877,-0.8525587297914317,-0.05247986481961928,13.254002,-0.62816924,-1.1395404,0.7972321,3.9656222,-3.071526,1.0344362,-0.23545623,0.17801328,0.13776478,-0.9454586,-8.346715,7.987066,1.5808537,-1.6418641,0.3202044,0.034835998,0
1.6200000000000012,11.75934340088785,-0.30995281527398877,-0.8525587297914317,-0.05247986481961928,13.254002,-0.62816924,-1.1395404,0.7972321,3.8819177,-2.991761,1.0502819,-0.23408319,0.18090793,0.14472243,-0.9442098,-8.394297,7.965756,1.5881565,-1.4341488,0.13732156,0.030551368,0
1.6300000000000012,11.75934340088785,-0.30995281527398877,-0.8525587297914317,-0.05247986481961928,13.254002,-0.62816924,-1.1395404,0.7972321,3.7977333,-2.9122157,1.066197,-0.23276877,0.18277207,0.15097104,-0.9431968,-8.442707,7.9430814,1.5947958,-1.258828,-0.017042771,0.026476994,0
1.6400000000000012,11.75934340088785,-0.30995281527398877,-0.8525587297914317,-0.05247986481961928,14.402728,-0.13106695,-3.0029604,1.0702326,3.7130618,-2.8329039,1.0821757,-0.23150405,0.18376842,0.1566219,-0.9423926,-8.491699,7.919133,1.6008795,-1.1108495,-0.14733559,0.022602554,0
1.6500000000000012,11.75934340088785,-0.30995281527398877,-0.8525587297914317,-0.05247986481961928,14.402728,-0.13106695,-3.0029604,1.0702326,3.6278982,-2.753837,1.098213,-0.2302811,0.18403357,0.16176859,-0.94177085,-8.54107,7.893987,1.6065018,-0.9859491,-0.25731066,0.018918233,0
1.6600000000000013,11.75934340088785,-0.30995281527398877,-0.8525587297914317,-0.05247986481961928,14.402728,-0.13106695,-3.0029604,1.0702326,3.54224,-2.6750278,1.1143044,-0.22909297,0.18368225,0.16648978,-0.9413063,-8.590646,7.867708,1.6117446,-0.88052756,-0.35013592,0.015414712,0
1.6700000000000013,11.75934340088785,-0.30995281527398877,-0.8525587297914317,-0.05247986481961928,14.402728,-0.13106695,-3.0029604,1.0702326,3.456085,-2.5964866,1.1304468,-0.22793381,0.1828109,0.17085172,-0.9409756,-8.640283,7.8403506,1.6166778,-0.7915469,-0.42848584,0.01208311,0
1.6800000000000013,10.696657932265722,0.5767216150225016,-1.5818271254031833,-0.33985122714819094,14.276955,0.025071943,-3.4671707,0.8565031,3.369434,-2.5182242,1.1466372,-0.22679861,0.18150064,0.17491017,-0.9407579,-8.689858,7.811959,1.6213607,-0.716443,-0.49461764,0.008914996,0
1.6900000000000013,10.696657932265722,0.5767216150225016,-1.5818271254031833,-0.33985122714819094,14.276955,0.025071943,-3.4671707,0.8565031,3.2823105,-2.4402375,1.162827,-0.22572945,0.17945859,0.17845085,-0.94074184,-8.734786,7.785236,1.6165835,-0.51478106,-0.66416025,-0.00819906,0
1.7000000000000013,10.696657932265722,0.5767216150225016,-1.5818271254031833,-0.33985122714819094,14.276955,0.025071943,-3.4671707,0.8565031,3.1947393,-2.3625221,1.1789687,-0.22476216,0.17645535,0.18130675,-0.94099545,-8.77935,7.7576942,1.6117423,-0.34457108,-0.807267,-0.024473324,0
1.7100000000000013,10.696657932265722,0.5767216150225016,-1.5818271254031833,-0.33985122714819094,14.276955,0.025071943,-3.4671707,0.8565031,3.1067255,-2.285086,1.1950622,-0.22388408,0.17263885,0.18358436,-0.94147104,-8.82335,7.729415,1.6069485,-0.20090711,-0.9280594,-0.03994901,0
1.7200000000000013,9.461030768093133,1.3628472223232455,-2.205568483723668,-0.7159687393798768,14.645454,0.7543786,-3.6088462,-0.10340883,3.0182748,-2.2079358,1.2111083,-0.22308415,0.16813353,0.18537311,-0.9421256,-8.866613,7.7004666,1.6022934,-0.07964882,-1.0300163,-0.05466531,0
1.7300000000000013,9.461030768093133,1.3628472223232455,-2.205568483723668,-0.7159687393798768,14.645454,0.7543786,-3.6088462,-0.10340883,2.9294205,-2.1310613,1.2270547,-0.22240238,0.16272998,0.18651485,-0.9430099,-8.904087,7.6743283,1.5870398,0.14527561,-1.2133538,-0.08711566,0
1.7400000000000013,9.461030768093133,1.3628472223232455,-2.205568483723668,-0.7159687393798768,14.645454,0.7543786,-3.6088462,-0.10340883,2.8401966,-2.0544508,1.2428501,-0.22187269,0.15626542,0.18688728,-0.94415367,-8.940567,7.6477413,1.5720861,0.33511907,-1.3681064,-0.117973655,0
1.7500000000000013,9.461030768093133,1.3628472223232455,-2.205568483723668,-0.7159687393798768,14.645454,0.7543786,-3.6088462,-0.10340883,2.7506135,-1.9781079,1.2584977,-0.22147754,0.14889912,0.18660739,-0.9454913,-8.975855,7.620789,1.5575284,0.49535424,-1.4987297,-0.14731742,0
1.7600000000000013,8.797554120748682,2.0339777500714025,-2.465337874219823,-1.049904660609611,14.411914,0.7338913,-3.9392626,0.16284467,2.6606839,-1.9020361,1.2740022,-0.22120151,0.14076546,0.18577333,-0.9469649,-9.009778,7.5935445,1.5434396,0.63059944,-1.6089851,-0.1752213,0
1.7700000000000014,8.797554120748682,2.0339777500714025,-2.465337874219823,-1.049904660609611,14.411914,0.7338913,-3.9392626,0.16284467,2.5704339,-1.8262281,1.2893388,-0.22108775,0.13181232,0.18424158,-0.948578,-9.039908,7.5680056,1.5239491,0.84939164,-1.7425812,-0.21814227,0
1.7800000000000014,8.797554120748682,2.0339777500714025,-2.465337874219823,-1.049904660609611,14.411914,0.7338913,-3.9392626,0.16284467,2.4798908,-1.7506763,1.304483,-0.22117116,0.12200271,0.18190116,-0.950321,-9.068455,7.5423584,1.5050122,1.034062,-1.8553481,-0.2589571,0
1.7900000000000014,8.797554120748682,2.0339777500714025,-2.465337874219823,-1.049904660609611,14.411914,0.7338913,-3.9392626,0.16284467,2.389071,-1.6753811,1.3194411,-0.22142786,0.11146219,0.17887178,-0.95212924,-9.095255,7.5167007,1.4866793,1.189933,-1.9505317,-0.29776913,0
1.8000000000000014,8.457771744441665,2.384322148669082,-2.3860456691851493,-1.3142679754671145,13.4873,0.9755241,-3.677885,0.091397926,2.2979925,-1.6003422,1.3342187,-0.22183715,0.100297466,0.17525414,-0.95394653,-9.120169,7.491117,1.4689794,1.3214968,-2.0308723,-0.33467662,0
1.8100000000000014,8.457771744441665,2.384322148669082,-2.3860456691851493,-1.3142679754671145,13.4873,0.9755241,-3.677885,0.091397926,2.206679,-1.5255535,1.3488072,-0.2224312,0.08859287,0.17099531,-0.95573825,-9.142187,7.466669,1.4487932,1.4871665,-2.0863438,-0.38274547,0
1.8200000000000014,8.457771744441665,2.384322148669082,-2.3860456691851493,-1.3142679754671145,13.4873,0.9755241,-3.677885,0.091397926,2.1151557,-1.4510081,1.363197,-0.22323607,0.07642005,0.16605711,-0.95747066,-9.16216,7.442464,1.4292309,1.6270022,-2.133165,-0.42845556,0
1.8300000000000014,8.457771744441665,2.384322148669082,-2.3860456691851493,-1.3142679754671145,13.4873,0.9755241,-3.677885,0.091397926,2.023443,-1.3767031,1.3773941,-0.22422676,0.06384637,0.16053762,-0.9591001,-9.179989,7.418593,1.4102845,1.7450333,-2.172684,-0.47192264,0
1.8400000000000014,8.457771744441665,2.384322148669082,-2.3860456691851493,-1.3142679754671145,12.572042,1.1850878,-2.8749652,0.10062386,1.9315633,-1.3026348,1.3914046,-0.22538163,0.050929904,0.1545197,-0.9605896,-9.195587,7.3951354,1.3919305,1.8446604,-2.2060378,-0.5132568,0
1.8500000000000014,8.457771744441665,2.384322148669082,-2.3860456691851493,-1.3142679754671145,12.572042,1.1850878,-2.8749652,0.10062386,1.839539,-1.2287987,1.4052346,-0.22668183,0.037720826,0.14807355,-0.96190757,-9.208878,7.37216,1.3741324,1.9287539,-2.2341871,-0.5525626,0
1.8600000000000014,8.457771744441665,2.384322148669082,-2.3860456691851493,-1.3142679754671145,12.572042,1.1850878,-2.8749652,0.10062386,1.7473938,-1.1551898,1.4188892,-0.22811085,0.024262683,0.14125857,-0.96302766,-9.219792,7.3497233,1.3568431,1.999736,-2.2579434,-0.58993965,0
1.8700000000000014,8.457771744441665,2.384322148669082,-2.3860456691851493,-1.3142679754671145,12.572042,1.1850878,-2.8749652,0.10062386,1.6551516,-1.0818022,1.4323732,-0.22965413,0.010593398,0.13412522,-0.9639277,-9.228274,7.327876,1.3400058,2.0596514,-2.2779918,-0.6254827,0
1.8800000000000014,8.303644325882265,2.4188474722489466,-1.9254122538649394,-1.4629690566024205,11.997341,1.0565289,-2.3147626,0.34563932,1.5628369,-1.0086302,1.4456908,-0.23129873,-0.0032538802,0.12671633,-0.9645894,-9.234274,7.306661,1.3235562,2.1102262,-2.2949097,-0.65928155,0
1.8900000000000015,8.303644325882265,2.4188474722489466,-1.9254122538649394,-1.4629690566024205,11.997341,1.0565289,-2.3147626,0.34563932,1.4704752,-0.9356649,1.458838,-0.2330739,-0.017077757,0.11901228,-0.96499765,-9.23769,7.286491,1.3059299,2.1583226,-2.237363,-0.6987187,0
1.9000000000000015,8.303644325882265,2.4188474722489466,-1.9254122538649394,-1.4629690566024205,11.997341,1.0565289,-2.3147626,0.34563932,1.3780918,-0.8628979,1.4718102,-0.23500334,-0.030716313,0.11099959,-0.96514684,-9.238636,7.267032,1.2885454,2.1989195,-2.188787,-0.73622066,0
1.9100000000000015,8.303644325882265,2.4188474722489466,-1.9254122538649394,-1.4629690566024205,11.997341,1.0565289,-2.3147626,0.34563932,1.285711,-0.7903216,1.4846095,-0.2370687,-0.04419559,0.10272037,-0.9650353,-9.237125,7.248334,1.2713319,2.2331867,-2.1477823,-0.7718824,0
1.9200000000000015,8.21923614336914,2.168972047051225,-1.1693795912236338,-1.4813059714606902,11.054332,0.83737475,-1.2951902,0.55273694,1.1933577,-0.71792835,1.4972372,-0.23925395,-0.057536807,0.09421049,-0.96466106,-9.233171,7.2304378,1.2542173,2.2621107,-2.1131682,-0.80579424,0
1.9300000000000015,8.21923614336914,2.168972047051225,-1.1693795912236338,-1.4813059714606902,11.054332,0.83737475,-1.2951902,0.55273694,1.1010559,-0.6457091,1.5096898,-0.24158168,-0.0704417,0.08552439,-0.9640339,-9.226864,7.213552,1.2363054,2.2476203,-1.966026,-0.8389418,0
1.9400000000000015,8.21923614336914,2.168972047051225,-1.1693795912236338,-1.4813059714606902,11.054332,0.83737475,-1.2951902,0.55273694,1.0088285,-0.57365435,1.5219631,-0.24406977,-0.08267492,0.0767071,-0.9631772,-9.218247,7.1975317,1.2183566,2.235385,-1.8418287,-0.87046283,0
1.9500000000000015,8.21923614336914,2.168972047051225,-1.1693795912236338,-1.4813059714606902,11.054332,0.83737475,-1.2951902,0.55273694,0.9166985,-0.50175536,1.5340567,-0.24669862,-0.094337046,0.06777437,-0.9621052,-9.207419,7.182411,1.2003145,2.225053,-1.7369983,-0.9004371,0
1.9600000000000015,8.201984542444578,1.677496390253919,-0.4269471244659759,-1.4069123303746294,10.491897,0.4266176,-0.22599454,0.49341094,0.8246875,-0.43000293,1.545969,-0.24945118,-0.10551273,0.058739796,-0.9608279,-9.194461,7.1682177,1.1821257,2.2163281,-1.6485145,-0.92894053,0
1.9700000000000015,8.201984542444578,1.677496390253919,-0.4269471244659759,-1.4069123303746294,10.491897,0.4266176,-0.22599454,0.49341094,0.7328162,-0.3583876,1.5576978,-0.25234246,-0.11593827,0.049730614,-0.9593789,-9.179486,7.154998,1.1635735,2.1323903,-1.4579936,-0.9523948,0
1.9800000000000015,8.201984542444578,1.677496390253919,-0.4269471244659759,-1.4069123303746294,10.491897,0.4266176,-0.22599454,0.49341094,0.6411042,-0.28689972,1.5692399,-0.255384,-0.12540935,0.040848095,-0.9578008,-9.162611,7.1427298,1.1447935,2.0615304,-1.2971885,-0.97469807,0
1.9900000000000015,8.201984542444578,1.677496390253919,-0.4269471244659759,-1.4069123303746294,10.491897,0.4266176,-0.22599454,0.49341094,0.54956996,-0.21552974,1.5805928,-0.25855687,-0.1340716,0.032068267,-0.9561089,-9.143981,7.1314163,1.1257622,2.0017104,-1.1614647,-0.99590695,0
2.0000000000000013,,,,,10.352832,0.178974,0.58217376,0.39232367,0.45823023,-0.14426811,1.5917542,-0.26184452,-0.14204782,0.023371221,-0.9543129,-9.123718,7.121059,1.1064603,1.9512099,-1.0469102,-1.016075,0
2.010000000000001,,,,,10.352832,0.178974,0.58217376,0.39232367,0.36710313,-0.073106326,1.6027296,-0.2652534,-0.14908558,0.014895247,-0.95246613,-9.10147,7.1114516,1.0885702,1.8137983,-0.83091277,-1.0264279,0
2.020000000000001,,,,,10.352832,0.178974,0.58217376,0.39232367,0.27620554,-0.0020357892,1.6135247,-0.26878598,-0.15499133,0.006748496,-0.95062387,-9.077851,7.102804,1.0703975,1.6977962,-0.6486121,-1.0362726,0
2.0300000000000007,,,,,10.352832,0.178974,0.58217376,0.39232367,0.1855502,0.068953,1.6241367,-0.27242318,-0.15993987,-0.0011244506,-0.9487904,-9.053042,7.095099,1.0519601,1.5998677,-0.49475136,-1.0456344,0
2.0400000000000005,,,,,10.352832,0.178974,0.58217376,0.39232367,0.09514827,0.13986939,1.6345631,-0.27614838,-0.16407858,-0.008769887,-0.94696516,-9.02719,7.088322,1.0332752,1.5171968,-0.36489388,-1.0545368,0
2.0500000000000003,,,,,10.695326,-0.20879117,1.1404837,0.3723709,0.0050095525,0.21072261,1.6448014,-0.27994737,-0.16753167,-0.016226405,-0.94514495,-9.000419,7.0824637,1.0143585,1.4474057,-0.25529522,-1.0630023,1
2.06,,,,,10.695326,-0.20879117,1.1404837,0.3723709,-0.08481939,0.28151473,1.6549586,-0.28370228,-0.16996051,-0.023100467,-0.9434472,-8.965229,7.0761333,1.0170575,1.1892757,-0.037390355,-0.99256814,1
2.07,,,,,10.695326,-0.20879117,1.1404837,0.3723709,-0.17429247,0.3522489,1.6651417,-0.28729466,-0.17110461,-0.029078657,-0.94198686,-8.929295,7.0708623,1.0195551,0.9713607,0.1464822,-0.9255902,1
2.0799999999999996,,,,,10.695326,-0.20879117,1.1404837,0.3723709,-0.26340368,0.42293528,1.6753492,-0.2907132,-0.17116573,-0.03429819,-0.9407506,-8.892896,7.0665545,1.0219312,0.7873978,0.30164012,-0.86189884,1
2.0899999999999994,,,,,11.189916,-0.5610147,1.4446062,0.49789882,-0.3521496,0.49358302,1.6855803,-0.29394934,-0.17031392,-0.03887456,-0.9397211,-8.856266,7.0631347,1.0242574,0.63209933,0.43256974,-0.8013329,1
2.099999999999999,,,,,11.189916,-0.5610147,1.4446062,0.49789882,-0.44052044,0.5642001,1.6958578,-0.29700166,-0.16853715,-0.042805955,-0.9389105,-8.817915,7.060419,1.0312439,0.44609195,0.59051234,-0.7375792,1
2.109999999999999,,,,,11.189916,-0.5610147,1.4446062,0.49789882,-0.52850866,0.6347942,1.7062055,-0.29986712,-0.1658329,-0.046096064,-0.9383253,-8.779769,7.058501,1.0383221,0.28906992,0.72379506,-0.676954,1
2.1199999999999988,,,,,11.189916,-0.5610147,1.4446062,0.49789882,-0.61611724,0.7053727,1.7166249,-0.30253878,-0.16234607,-0.04884191,-0.9379385,-8.742038,7.0573206,1.045561,0.15651801,0.8362698,-0.6193036,1
2.1299999999999986,,,,,11.342061,-0.78343743,1.6203952,0.5278539,-0.7033514,0.775943,1.7271175,-0.30501214,-0.15819879,-0.05112531,-0.93772435,-8.704903,7.0568347,1.0530168,0.044624373,0.9311863,-0.5644821,1
2.1399999999999983,,,,,11.342061,-0.78343743,1.6203952,0.5278539,-0.7902153,0.8465117,1.7376933,-0.30729172,-0.15340108,-0.052952837,-0.93767583,-8.668026,7.057008,1.0621746,-0.08450801,1.0387129,-0.5108809,1
2.149999999999998,,,,,11.342061,-0.78343743,1.6203952,0.5278539,-0.876715,0.9170853,1.7483622,-0.30938086,-0.14796579,-0.054333426,-0.9377833,-8.632081,7.057807,1.071645,-0.19351292,1.1294559,-0.4599099,1
2.159999999999998,,,,,11.342061,-0.78343743,1.6203952,0.5278539,-0.96286064,0.9876699,1.7591274,-0.31127673,-0.14199185,-0.05533404,-0.93802094,-8.597219,7.059198,1.0814656,-0.2855264,1.2060362,-0.41144,1
2.1699999999999977,,,,,10.674816,-1.0620359,1.97503,0.5004336,-1.0486636,1.058271,1.7699927,-0.31297833,-0.13556282,-0.056011323,-0.9383657,-8.563574,7.061154,1.0916624,-0.36319616,1.2706652,-0.36534858,1
2.1799999999999975,,,,,10.674816,-1.0620359,1.97503,0.5004336,-1.1341463,1.128894,1.7809299,-0.31449595,-0.12858082,-0.056353565,-0.9388204,-8.533165,7.063505,1.0958598,-0.4721918,1.3805234,-0.3228644,1
2.1899999999999973,,,,,10.674816,-1.0620359,1.97503,0.5004336,-1.2193319,1.1995429,1.7919111,-0.31583765,-0.120971285,-0.056354217,-0.9393811,-8.504159,7.0663495,1.1004511,-0.5641968,1.4732409,-0.28246495,1
2.199999999999997,,,,,10.674816,-1.0620359,1.97503,0.5004336,-1.3042349,1.2702227,1.8029404,-0.31700128,-0.11283084,-0.056064535,-0.9400193,-8.476697,7.0696716,1.1054516,-0.6418589,1.5514929,-0.24404787,1
2.209999999999997,,,,,9.720273,-1.3862845,1.940953,0.53580254,-1.3888714,1.340938,1.8140217,-0.31798622,-0.10424123,-0.055527955,-0.94071,-8.4509,7.0734606,1.1108654,-0.70741314,1.6175369,-0.20751594,1
2.2199999999999966,,,,,9.720273,-1.3862845,1.940953,0.53580254,-1.4732697,1.4116917,1.8251126,-0.3188028,-0.09524339,-0.05465445,-0.9414386,-8.429025,7.0773215,1.1073946,-0.81331563,1.6679686,-0.17104107,1
2.2299999999999964,,,,,9.720273,-1.3862845,1.940953,0.53580254,-1.5574578,1.4824859,1.8361706,-0.31945813,-0.08587335,-0.053374603,-0.9421909,-8.408864,7.081554,1.104288,-0.9027038,1.7105302,-0.13635606,1
