time-since-start [s],throttle_mpc,roll_mpc,pitch_mpc,yaw_mpc,throttle_nw,roll_nw,pitch_nw,yaw_nw,position_x [m],position_y [m],position_z [m],rotation_w [quaternion],rotation_x [quaternion],rotation_y [quaternion],rotation_z [quaternion],velocity_x [m/s],velocity_y [m/s],velocity_z [m/s],omega_x [rad/s],omega_y [rad/s],omega_z [rad/s],network_used
0.0,12.678176933944322,5.999999609672593,-5.999999884291411,-3.8941501797855924,9.222712,-0.494952,-0.80156666,-0.5059579,16.658035,-10.491577,1.3071088,-0.123516634,0.39882177,-0.23792987,-0.87696874,-8.7808275,-3.484091,-0.582589,1.3861026,-0.16205937,-0.108736776,0
0.01,12.678176933944322,5.999999609672593,-5.999999884291411,-3.8941501797855924,11.965316,-1.0986979,-2.4375002,-0.47463885,16.569641,-10.525943,1.3013128,-0.12757328,0.39668754,-0.24374254,-0.8757588,-8.897382,-3.3890178,-0.5769678,1.5232842,-0.49033582,-0.24240862,0
0.02,12.678176933944322,5.999999609672593,-5.999999884291411,-3.8941501797855924,11.965316,-1.0986979,-2.4375002,-0.47463885,16.4801,-10.559356,1.2955616,-0.13287774,0.39319074,-0.24970719,-0.87486607,-9.010057,-3.2934961,-0.5736018,1.6754732,-0.803895,-0.37278,0
0.03,12.678176933944322,5.999999609672593,-5.999999884291411,-3.8941501797855924,11.965316,-1.0986979,-2.4375002,-0.47463885,16.389454,-10.591809,1.2898341,-0.13942811,0.38837096,-0.25588536,-0.87421405,-9.118438,-3.197414,-0.5721425,1.839833,-1.1045325,-0.49996802,0
0.04,12.678176933944322,5.999999609672593,-5.999999884291411,-3.8941501797855924,11.592505,-1.2488531,-3.4619167,-0.32873932,16.297749,-10.623301,1.2841132,-0.14721665,0.38225767,-0.2623233,-0.8737234,-9.222127,-3.1006663,-0.5722916,2.0139594,-1.3937529,-0.6240832,0
0.05,12.678176933944322,5.999999609672593,-5.999999884291411,-3.8941501797855924,11.592505,-1.2488531,-3.4619167,-0.32873932,16.20503,-10.653821,1.2783836,-0.1562301,0.37487182,-0.26905385,-0.8733116,-9.320742,-3.0031667,-0.5737977,2.1958132,-1.6728184,-0.7452299,0
0.060000000000000005,12.678176933944322,5.999999609672593,-5.999999884291411,-3.8941501797855924,11.592505,-1.2488531,-3.4619167,-0.32873932,16.111355,-10.683362,1.2726332,-0.1664499,0.3662273,-0.2760982,-0.8728927,-9.413911,-2.9048524,-0.57645226,2.3836656,-1.9427862,-0.86350685,0
0.07,12.678176933944322,5.999999609672593,-5.999999884291411,-3.8941501797855924,11.592505,-1.2488531,-3.4619167,-0.32873932,16.016773,-10.711917,1.2668511,-0.17785229,0.35633215,-0.28346688,-0.87237734,-9.501276,-2.8056924,-0.58008707,2.5760527,-2.2045424,-0.9790072,0
0.08,14.2013495530609,5.999999592363002,-5.999999900053605,-4.081209450217656,11.89437,-0.37607887,-3.1844654,-0.970426,15.92135,-10.739474,1.2610284,-0.19040832,0.34518987,-0.29116103,-0.87167287,-9.582488,-2.7056913,-0.5845719,2.7717338,-2.4588306,-1.0918193,0
0.09,14.2013495530609,5.999999592363002,-5.999999900053605,-4.081209450217656,11.89437,-0.37607887,-3.1844654,-0.970426,15.825113,-10.765983,1.2551981,-0.20413049,0.332768,-0.2991892,-0.8706789,-9.663813,-2.5959868,-0.58160657,2.9846532,-2.7213333,-1.2125468,0
0.09999999999999999,14.2013495530609,5.999999592363002,-5.999999900053605,-4.081209450217656,11.89437,-0.37607887,-3.1844654,-0.970426,15.7281,-10.79139,1.2493937,-0.21902469,0.3190289,-0.30755147,-0.8692874,-9.737706,-2.4854853,-0.57937765,3.1991954,-2.9777853,-1.3304664,0
0.10999999999999999,14.2013495530609,5.999999592363002,-5.999999900053605,-4.081209450217656,11.89437,-0.37607887,-3.1844654,-0.970426,15.630387,-10.81569,1.243608,-0.2350436,0.30396497,-0.3162238,-0.867388,-9.803799,-2.3743248,-0.5778501,3.4145463,-3.2285666,-1.4456657,0
0.11999999999999998,14.2013495530609,5.999999592363002,-5.999999900053605,-4.081209450217656,11.89437,-0.37607887,-3.1844654,-0.970426,15.532054,-10.838876,1.2378341,-0.25213352,0.2875684,-0.32517448,-0.8648666,-9.86174,-2.2627008,-0.57702523,3.6300173,-3.4739952,-1.5582277,0
0.12999999999999998,16.05392222372616,5.255113075968408,-5.999999850124327,-3.6231436756528996,13.551994,-0.5479433,-2.746835,-0.863352,15.433184,-10.860944,1.2320648,-0.27023405,0.26983234,-0.33436465,-0.86160547,-9.911205,-2.1508665,-0.57693934,3.845025,-3.714338,-1.6682311,0
0.13999999999999999,16.05392222372616,5.255113075968408,-5.999999850124327,-3.6231436756528996,13.551994,-0.5479433,-2.746835,-0.863352,15.333852,-10.88187,1.2263125,-0.28936931,0.25045395,-0.34368783,-0.8575643,-9.953673,-2.0341754,-0.57332236,4.0642867,-4.0712776,-1.7641592,0
0.15,16.05392222372616,5.255113075968408,-5.999999850124327,-3.6231436756528996,13.551994,-0.5479433,-2.746835,-0.863352,15.234139,-10.901621,1.2206025,-0.30946052,0.22931096,-0.35297367,-0.85267806,-9.987259,-1.9156625,-0.56850207,4.2493906,-4.372526,-1.8553802,0
0.16,16.98682584816241,3.107596555963921,-5.563864375335059,-1.300264777086689,14.492267,-0.70128727,-2.9173117,-0.8177268,15.13414,-10.920179,1.2149464,-0.33030105,0.20664816,-0.36209726,-0.8468075,-10.01129,-1.795839,-0.56253487,4.4056644,-4.6267676,-1.9421247,0
0.17,16.98682584816241,3.107596555963921,-5.563864375335059,-1.300264777086689,14.492267,-0.70128727,-2.9173117,-0.8177268,15.033945,-10.9375,1.2093856,-0.35123172,0.18301824,-0.37035125,-0.84022623,-10.026068,-1.6683309,-0.5494171,4.2031446,-4.772565,-1.9106284,0
0.18000000000000002,16.98682584816241,3.107596555963921,-5.563864375335059,-1.300264777086689,14.492267,-0.70128727,-2.9173117,-0.8177268,14.933657,-10.953547,1.2039615,-0.37172323,0.15889256,-0.37720716,-0.8332403,-10.030097,-1.540971,-0.53522575,4.0322366,-4.895676,-1.8806778,0
0.19000000000000003,16.98682584816241,3.107596555963921,-5.563864375335059,-1.300264777086689,14.492267,-0.70128727,-2.9173117,-0.8177268,14.833382,-10.968324,1.1986846,-0.39177442,0.13435763,-0.3828083,-0.8257834,-10.023455,-1.4146469,-0.5199932,3.8880048,-4.9996305,-1.8521967,0
0.20000000000000004,16.867324419942346,1.9712917260103275,-4.35015343462853,-1.0878095451521974,14.888145,-1.1234325,-1.7247248,-0.16872421,14.733224,-10.981846,1.1935649,-0.4113778,0.10948778,-0.3872764,-0.8178002,-10.006266,-1.2901976,-0.50379944,3.7662845,-5.087409,-1.8251133,0
0.21000000000000005,16.867324419942346,1.9712917260103275,-4.35015343462853,-1.0878095451521974,14.888145,-1.1234325,-1.7247248,-0.16872421,14.63329,-10.99414,1.1886073,-0.43027106,0.08492477,-0.3905562,-0.8093948,-9.978941,-1.169263,-0.48757443,3.486611,-4.9720187,-1.7889335,0
0.22000000000000006,16.867324419942346,1.9712917260103275,-4.35015343462853,-1.0878095451521974,14.888145,-1.1234325,-1.7247248,-0.16872421,14.53368,-11.00524,1.1838157,-0.44827273,0.061189674,-0.3926456,-0.8007098,-9.941889,-1.0516237,-0.47064924,3.2505205,-4.874691,-1.7545291,0
0.23000000000000007,16.867324419942346,1.9712917260103275,-4.35015343462853,-1.0878095451521974,14.888145,-1.1234325,-1.7247248,-0.16872421,14.434485,-11.015184,1.1791962,-0.4654777,0.03817583,-0.39370835,-0.7917488,-9.895705,-0.9378337,-0.4531545,3.0512216,-4.792597,-1.7218128,0
0.24000000000000007,16.867324419942346,1.9712917260103275,-4.35015343462853,-1.0878095451521974,15.336598,-1.266133,-0.45575362,0.37902173,14.335795,-11.024013,1.174754,-0.48196176,0.015790524,-0.3938795,-0.7825099,-9.840946,-0.82837766,-0.435218,2.8829803,-4.7233505,-1.6907022,0
0.25000000000000006,16.867324419942346,1.9712917260103275,-4.35015343462853,-1.0878095451521974,15.336598,-1.266133,-0.45575362,0.37902173,14.237694,-11.03177,1.1704928,-0.4977854,-0.0060460847,-0.3932707,-0.77298814,-9.7781315,-0.72368336,-0.4169675,2.740957,-4.664942,-1.661118,0
0.26000000000000006,16.867324419942346,1.9712917260103275,-4.35015343462853,-1.0878095451521974,15.336598,-1.266133,-0.45575362,0.37902173,14.140258,-11.038505,1.1664152,-0.5129966,-0.027402148,-0.3919743,-0.763177,-9.707752,-0.6241321,-0.39853248,2.6210659,-4.6156726,-1.6329857,0
0.2700000000000001,16.867324419942346,1.9712917260103275,-4.35015343462853,-1.0878095451521974,15.336598,-1.266133,-0.45575362,0.37902173,14.043563,-11.044271,1.1625224,-0.5276334,-0.048335332,-0.39006692,-0.75306964,-9.630271,-0.5300656,-0.38004503,2.519858,-4.5741134,-1.6062337,0
0.2800000000000001,16.43312888963027,0.09852768440013607,-2.350434173713888,0.05814892078448244,16.016787,-1.5933883,0.4229175,0.70258194,13.947677,-11.049126,1.1588141,-0.54172575,-0.068894,-0.38761204,-0.7426595,-9.546132,-0.44179225,-0.36164045,2.434421,-4.5390573,-1.5807945,0
0.2900000000000001,16.43312888963027,0.09852768440013607,-2.350434173713888,0.05814892078448244,16.016787,-1.5933883,0.4229175,0.70258194,13.852651,-11.053139,1.1552739,-0.55494916,-0.08817364,-0.38454336,-0.7323815,-9.458157,-0.36166117,-0.34643242,2.0707123,-4.1972585,-1.5003711,0
0.3000000000000001,16.43312888963027,0.09852768440013607,-2.350434173713888,0.05814892078448244,16.016787,-1.5933883,0.4229175,0.70258194,13.758531,-11.056379,1.1518847,-0.5670909,-0.10547145,-0.38085273,-0.72265786,-9.364981,-0.28732634,-0.33142552,1.7636286,-3.9088588,-1.4238939,0
0.3100000000000001,16.43312888963027,0.09852768440013607,-2.350434173713888,0.05814892078448244,16.016787,-1.5933883,0.4229175,0.70258194,13.665366,-11.058905,1.1486448,-0.57831573,-0.121098034,-0.37665802,-0.7134525,-9.267412,-0.2186028,-0.3165715,1.5043571,-3.665511,-1.3511697,0
0.3200000000000001,16.144618345903837,-2.0637030547699977,0.06092797362227733,1.8956239765934446,17.028841,-2.4380248,1.7830312,0.83373076,13.573196,-11.06077,1.145553,-0.58875555,-0.135317,-0.37205037,-0.7047228,-9.166126,-0.15530606,-0.30181617,1.2854557,-3.460174,-1.282014,0
0.3300000000000001,16.144618345903837,-2.0637030547699977,0.06092797362227733,1.8956239765934446,17.028841,-2.4380248,1.7830312,0.83373076,13.482053,-11.06203,1.142607,-0.59816474,-0.14725289,-0.36695793,-0.6970344,-9.062268,-0.097476244,-0.28762203,0.7428772,-2.9315474,-1.1280222,0
0.34000000000000014,16.144618345903837,-2.0637030547699977,0.06092797362227733,1.8956239765934446,17.028841,-2.4380248,1.7830312,0.83373076,13.391953,-11.062737,1.1397965,-0.60633504,-0.15623482,-0.36144093,-0.6908752,-8.957461,-0.04485248,-0.27448574,0.30383244,-2.466461,-0.97983205,0
0.35000000000000014,16.144618345903837,-2.0637030547699977,0.06092797362227733,1.8956239765934446,17.028841,-2.4380248,1.7830312,0.83373076,13.302908,-11.06294,1.1371186,-0.61343265,-0.1627469,-0.35565728,-0.68609136,-8.851463,0.0038360944,-0.26097152,-0.06493914,-2.072085,-0.83873254,0
0.36000000000000015,17.724148259160035,-4.0039080966595515,3.0491624912143966,2.2201579827399818,18.000711,-3.8157687,3.8174088,1.7170237,13.214926,-11.062672,1.1345795,-0.6196106,-0.16719808,-0.3496645,-0.6825408,-8.744809,0.049246974,-0.24670321,-0.3763096,-1.7393042,-0.7045569,1
0.37000000000000016,17.724148259160035,-4.0039080966595515,3.0491624912143966,2.2201579827399818,18.000711,-3.8157687,3.8174088,1.7170237,13.128073,-11.061938,1.1322529,-0.6246015,-0.16846335,-0.3439624,-0.6805752,-8.62582,0.096916914,-0.21842629,-0.91222227,-0.8725606,-0.5857293,1
0.38000000000000017,17.724148259160035,-4.0039080966595515,3.0491624912143966,2.2201579827399818,18.000711,-3.8157687,3.8174088,1.7170237,13.042406,-11.060738,1.1302159,-0.62820774,-0.1656659,-0.33895558,-0.6804547,-8.50765,0.14290074,-0.18876271,-1.3647361,-0.14108859,-0.47273254,1
0.3900000000000002,17.724148259160035,-4.0039080966595515,3.0491624912143966,2.2201579827399818,18.000711,-3.8157687,3.8174088,1.7170237,12.957913,-11.059081,1.1284835,-0.630608,-0.15944904,-0.3345351,-0.68190575,-8.391158,0.18851827,-0.15743917,-1.746814,0.47623348,-0.3652806,1
0.4000000000000002,18.641079146739898,-4.906806214163545,4.491035550116535,2.268972851595053,18.611086,-3.8662963,5.2062993,1.6338018,12.874575,-11.056966,1.1270735,-0.63192624,-0.15034924,-0.33059368,-0.6846691,-8.277074,0.23488344,-0.124250636,-2.069407,0.997228,-0.26310134,0
0.4100000000000002,18.641079146739898,-4.906806214163545,4.491035550116535,2.268972851595053,18.611086,-3.8662963,5.2062993,1.6338018,12.792381,-11.054369,1.126029,-0.63217485,-0.1383767,-0.32689053,-0.68873,-8.162125,0.2846577,-0.084306076,-2.5119267,1.5419594,-0.13885175,0
0.4200000000000002,18.641079146739898,-4.906806214163545,4.491035550116535,2.268972851595053,18.611086,-3.8662963,5.2062993,1.6338018,12.711319,-11.051263,1.1253952,-0.6313309,-0.12356,-0.32321402,-0.69403636,-8.051185,0.33712992,-0.042102538,-2.8855174,2.0016794,-0.020699084,0
0.4300000000000002,18.641079146739898,-4.906806214163545,4.491035550116535,2.268972851595053,18.611086,-3.8662963,5.2062993,1.6338018,12.631342,-11.047614,1.1251951,-0.6294217,-0.10633947,-0.31950906,-0.7003098,-7.9450684,0.3931009,0.002457358,-3.2009041,2.3896642,0.09165578,0
0.4400000000000002,18.641079146739898,-4.906806214163545,4.491035550116535,2.268972851595053,18.720552,-3.6891253,4.8353395,1.526883,12.552399,-11.0433855,1.1254524,-0.6264623,-0.08708928,-0.31572592,-0.70730275,-7.8445354,0.4532005,0.049358957,-3.4671462,2.7171156,0.19849735,0
0.45000000000000023,18.641079146739898,-4.906806214163545,4.491035550116535,2.268972851595053,18.720552,-3.6891253,4.8353395,1.526883,12.47443,-11.038533,1.1261901,-0.62246186,-0.06612933,-0.31182164,-0.7147972,-7.750297,0.5179047,0.09848658,-3.6918933,2.9934845,0.3000962,0
0.46000000000000024,18.641079146739898,-4.906806214163545,4.491035550116535,2.268972851595053,18.720552,-3.6891253,4.8353395,1.526883,12.397369,-11.03301,1.1274292,-0.6174273,-0.043734778,-0.3077606,-0.72260225,-7.663022,0.5875505,0.1496351,-3.881606,3.2267456,0.39670956,0
0.47000000000000025,18.641079146739898,-4.906806214163545,4.491035550116535,2.268972851595053,18.720552,-3.6891253,4.8353395,1.526883,12.321144,-11.026765,1.1291888,-0.6113654,-0.020143608,-0.3035141,-0.73055154,-7.583336,0.6623497,0.20252189,-4.0417404,3.423628,0.48858207,0
0.48000000000000026,19.293122778418187,-4.905383256599203,4.694044705274881,2.1377180663242683,19.174112,-3.3322277,4.707599,1.3687807,12.245674,-11.019746,1.1314844,-0.6042845,0.004437307,-0.29905984,-0.7385008,-7.5118203,0.74240047,0.25679812,-4.1769037,3.5898094,0.5759464,0
0.49000000000000027,19.293122778418187,-4.905383256599203,4.694044705274881,2.1377180663242683,19.174112,-3.3322277,4.707599,1.3687807,12.170888,-11.011886,1.1343548,-0.5961826,0.029891938,-0.29443023,-0.7463131,-7.446816,0.83068854,0.31742138,-4.290762,3.7617576,0.65258294,0
0.5000000000000002,19.293122778418187,-4.905383256599203,4.694044705274881,2.1377180663242683,19.174112,-3.3322277,4.707599,1.3687807,12.0967045,-11.003114,1.1378347,-0.5870624,0.05611402,-0.28965014,-0.7538643,-7.3913436,0.9243538,0.3785771,-4.386858,3.906898,0.7254589,0
0.5100000000000002,19.293122778418187,-4.905383256599203,4.694044705274881,2.1377180663242683,19.174112,-3.3322277,4.707599,1.3687807,12.023026,-10.99338,1.1419265,-0.5769427,0.08294651,-0.28469542,-0.7610553,-7.345873,1.0232533,0.43973634,-4.467962,4.029413,0.79475886,0
0.5200000000000002,19.009373144027414,-4.073861054803379,3.9573849183327283,1.9153892191360538,19.28212,-2.9952888,4.1202292,0.9658697,11.949752,-10.982632,1.1466275,-0.5658438,0.1102503,-0.27954814,-0.7678008,-7.3108177,1.1271565,0.5003405,-4.5364084,4.132832,0.8606582,0
0.5300000000000002,19.009373144027414,-4.073861054803379,3.9573849183327283,1.9153892191360538,19.28212,-2.9952888,4.1202292,0.9658697,11.876771,-10.970828,1.1519178,-0.5539358,0.13749655,-0.2742858,-0.77396166,-7.286857,1.2341441,0.55749714,-4.464398,4.105361,0.9124142,0
0.5400000000000003,19.009373144027414,-4.073861054803379,3.9573849183327283,1.9153892191360538,19.28212,-2.9952888,4.1202292,0.9658697,11.803978,-10.957934,1.1577717,-0.5413914,0.16426297,-0.26898634,-0.7794607,-7.273536,1.345294,0.6129991,-4.4036117,4.082179,0.9616304,0
0.5500000000000003,19.009373144027414,-4.073861054803379,3.9573849183327283,1.9153892191360538,19.28212,-2.9952888,4.1202292,0.9658697,11.731264,-10.94391,1.1641703,-0.52823365,0.19057845,-0.26363763,-0.7843111,-7.270817,1.4601163,0.6663387,-4.352299,4.062617,1.0084317,0
0.5600000000000003,17.89034486799722,-2.6768661880625264,2.6293094809233093,1.6310353765956545,18.832033,-2.537192,3.1165588,0.6708725,11.6585245,-10.92872,1.1710893,-0.5144838,0.21646476,-0.25822946,-0.7885219,-7.2786427,1.5781169,0.7170347,-4.308984,4.046109,1.0529363,1
0.5700000000000003,17.89034486799722,-2.6768661880625264,2.6293094809233093,1.6310353765956545,18.832033,-2.537192,3.1165588,0.6708725,11.585656,-10.912343,1.1784934,-0.5005147,0.24140121,-0.25303733,-0.79194844,-7.29671,1.6976715,0.76327974,-4.032527,3.9013853,1.0341883,1
0.5800000000000003,17.89034486799722,-2.6768661880625264,2.6293094809233093,1.6310353765956545,18.832033,-2.537192,3.1165588,0.6708725,11.512556,-10.89476,1.1863432,-0.48668423,0.26500025,-0.24829009,-0.79452187,-7.3246126,1.8193982,0.806106,-3.799204,3.7791934,1.0163603,1
0.5900000000000003,17.89034486799722,-2.6768661880625264,2.6293094809233093,1.6310353765956545,18.832033,-2.537192,3.1165588,0.6708725,11.439132,-10.875951,1.194603,-0.47298345,0.28745452,-0.24391353,-0.79634315,-7.3618045,1.9428633,0.8452282,-3.6022851,3.676026,0.9994071,1
0.6000000000000003,16.749552714159684,-1.0596837222013797,1.0308986709845867,1.296956529233424,17.586163,-1.936152,2.420522,0.44842038,11.365291,-10.8559,1.2032343,-0.45939845,0.30892473,-0.23984188,-0.7974924,-7.407801,2.0676796,0.88040453,-3.4360902,3.5889215,0.9832858,0
0.6100000000000003,16.749552714159684,-1.0596837222013797,1.0308986709845867,1.296956529233424,17.586163,-1.936152,2.420522,0.44842038,11.290977,-10.834664,1.2121252,-0.4462441,0.32859638,-0.23613773,-0.7982038,-7.456094,2.1795685,0.8971892,-3.065268,3.1902056,0.9986777,0
0.6200000000000003,16.749552714159684,-1.0596837222013797,1.0308986709845867,1.296956529233424,17.586163,-1.936152,2.420522,0.44842038,11.2161455,-10.812307,1.2211661,-0.43379146,0.34585512,-0.23287822,-0.7987345,-7.511017,2.2919688,0.9104466,-2.752307,2.8536398,1.0133144,0
0.6300000000000003,16.749552714159684,-1.0596837222013797,1.0308986709845867,1.296956529233424,17.586163,-1.936152,2.420522,0.44842038,11.140736,-10.788824,1.2303228,-0.42195684,0.36109045,-0.2300229,-0.7991592,-7.57181,2.4045744,0.9204006,-2.4881794,2.5695357,1.0272328,0
0.6400000000000003,16.749552714159684,-1.0596837222013797,1.0308986709845867,1.296956529233424,15.680992,-1.2847677,1.4361627,0.43482336,11.064691,-10.764215,1.2395635,-0.4106599,0.37462735,-0.22753099,-0.79952633,-7.6378355,2.5171545,0.9272695,-2.2652662,2.3297155,1.0404682,0
0.6500000000000004,16.749552714159684,-1.0596837222013797,1.0308986709845867,1.296956529233424,15.680992,-1.2847677,1.4361627,0.43482336,10.987962,-10.738482,1.2488582,-0.39982602,0.38673684,-0.22536306,-0.7998657,-7.7085576,2.6295319,0.9312585,-2.0771365,2.127276,1.0530543,0
0.6600000000000004,16.749552714159684,-1.0596837222013797,1.0308986709845867,1.296956529233424,15.680992,-1.2847677,1.4361627,0.43482336,10.910504,-10.711627,1.2581793,-0.38938743,0.397645,-0.22348209,-0.8001946,-7.7835274,2.741571,0.9325555,-1.9183636,1.9563905,1.0650227,0
0.6700000000000004,16.749552714159684,-1.0596837222013797,1.0308986709845867,1.296956529233424,15.680992,-1.2847677,1.4361627,0.43482336,10.832279,-10.683653,1.2675006,-0.37928355,0.4075404,-0.22185393,-0.80052197,-7.862365,2.853165,0.9313294,-1.7843665,1.8121402,1.0764037,0
0.6800000000000004,15.892890821034628,0.49064782182070754,-0.5699675760677855,0.973015941197962,14.969957,-0.76597804,0.4822663,0.11746225,10.753246,-10.654565,1.2767977,-0.3694609,0.41658053,-0.22044745,-0.80085075,-7.9447517,2.964229,0.9277307,-1.6712793,1.6903735,1.0872264,0
0.6900000000000004,15.892890821034628,0.49064782182070754,-0.5699675760677855,0.973015941197962,14.969957,-0.76597804,0.4822663,0.11746225,10.673394,-10.624398,1.2860239,-0.3603085,0.4241682,-0.21948211,-0.80130297,-8.025986,3.0690546,0.91720873,-1.3338737,1.3381182,1.0816221,0
0.7000000000000004,15.892890821034628,0.49064782182070754,-0.5699675760677855,0.973015941197962,14.969957,-0.76597804,0.4822663,0.11746225,10.592718,-10.593185,1.2951359,-0.3521482,0.42985293,-0.21913801,-0.80199516,-8.109734,3.1733418,0.9049475,-1.0491273,1.0407575,1.0762929,0
0.7100000000000004,15.892890821034628,0.49064782182070754,-0.5699675760677855,0.973015941197962,14.969957,-0.76597804,0.4822663,0.11746225,10.511193,-10.560932,1.3041182,-0.34484133,0.43394843,-0.21933249,-0.802911,-8.195439,3.27715,0.891324,-0.8088215,0.78973687,1.0712252,0
0.7200000000000004,15.461873926657445,1.9021286102393031,-2.0126872965252884,0.6261787022392588,14.584297,0.31058624,-0.6053036,0.036691993,10.428804,-10.527643,1.3129587,-0.33826587,0.43671423,-0.21999173,-0.8040275,-8.282644,3.3805494,0.87666285,-0.6060203,0.57783496,1.066406,0
0.7300000000000004,15.461873926657445,1.9021286102393031,-2.0126872965252884,0.6261787022392588,14.584297,0.31058624,-0.6053036,0.036691993,10.34555,-10.493336,1.3216375,-0.3327246,0.43772137,-0.22129281,-0.8054338,-8.3685255,3.4808307,0.8590305,-0.21459267,0.1741194,1.044804,0
0.7400000000000004,15.461873926657445,1.9021286102393031,-2.0126872965252884,0.6261787022392588,14.584297,0.31058624,-0.6053036,0.036691993,10.261433,-10.458027,1.3301384,-0.32845682,0.43664333,-0.22337273,-0.80719465,-8.454844,3.5809546,0.8411255,0.11573877,-0.16668865,1.0242621,0
0.7500000000000004,15.461873926657445,1.9021286102393031,-2.0126872965252884,0.6261787022392588,14.584297,0.31058624,-0.6053036,0.036691993,10.176453,-10.421717,1.3384607,-0.3252741,0.43381065,-0.2261138,-0.809245,-8.541004,3.6810925,0.8233728,0.39451152,-0.45439005,1.0047281,0
0.7600000000000005,15.738562971169781,2.9252317468653493,-3.0852577375417876,0.2816957482806972,14.731968,1.5181953,-1.803828,-0.24182549,10.090614,-10.384404,1.3466077,-0.32301262,0.42949623,-0.22941259,-0.81152046,-8.626498,3.7813976,0.80612135,0.6297741,-0.6972591,0.9861525,0
0.7700000000000005,15.738562971169781,2.9252317468653493,-3.0852577375417876,0.2816957482806972,14.731968,1.5181953,-1.803828,-0.24182549,10.003919,-10.346079,1.3545932,-0.32183868,0.42345464,-0.23335452,-0.81403404,-8.712367,3.8838112,0.79113626,0.98796475,-1.0694581,0.95158464,0
0.7800000000000005,15.738562971169781,2.9252317468653493,-3.0852577375417876,0.2816957482806972,14.731968,1.5181953,-1.803828,-0.24182549,9.916373,-10.306726,1.3624345,-0.32187456,0.41549617,-0.23799711,-0.8167722,-8.796468,3.9867134,0.7773433,1.2902459,-1.3836608,0.918713,0
0.7900000000000005,15.738562971169781,2.9252317468653493,-3.0852577375417876,0.2816957482806972,14.731968,1.5181953,-1.803828,-0.24182549,9.827997,-10.266342,1.3701452,-0.32292747,0.40590185,-0.24321689,-0.8196383,-8.878202,4.090261,0.7650735,1.5453463,-1.6489025,0.8874544,0
0.8000000000000005,16.37188880809587,3.439242657015104,-3.540916365894073,0.019849724666673972,15.719306,1.9798769,-2.8388934,-0.36681214,9.738818,-10.224918,1.3777419,-0.3248308,0.39490598,-0.2489065,-0.8225446,-8.957037,4.1945696,0.75457436,1.7606319,-1.8728107,0.8577296,0
0.8100000000000005,16.37188880809587,3.439242657015104,-3.540916365894073,0.019849724666673972,15.719306,1.9798769,-2.8388934,-0.36681214,9.648851,-10.1824255,1.3852614,-0.32759327,0.38249516,-0.25506982,-0.8254206,-9.03552,4.303952,0.7496323,2.0224988,-2.1328585,0.81661457,0
0.8200000000000005,16.37188880809587,3.439242657015104,-3.540916365894073,0.019849724666673972,15.719306,1.9798769,-2.8388934,-0.36681214,9.558122,-10.138834,1.3927423,-0.331211,0.36866486,-0.26169935,-0.82818997,-9.1099205,4.414286,0.74689007,2.2434962,-2.3523836,0.777517,0
0.8300000000000005,16.37188880809587,3.439242657015104,-3.540916365894073,0.019849724666673972,15.719306,1.9798769,-2.8388934,-0.36681214,9.466669,-10.094135,1.4002072,-0.33553335,0.3536089,-0.26869288,-0.8307719,-9.179705,4.5256085,0.7464577,2.4300046,-2.537699,0.7403381,0
0.8400000000000005,16.37188880809587,3.439242657015104,-3.540916365894073,0.019849724666673972,16.0941,2.3633957,-3.2817318,-0.67631644,9.374544,-10.048319,1.4076794,-0.3404308,0.33749205,-0.27596235,-0.8330969,-9.244394,4.6379128,0.7483777,2.587408,-2.6941338,0.7049835,0
0.8500000000000005,16.37188880809587,3.439242657015104,-3.540916365894073,0.019849724666673972,16.0941,2.3633957,-3.2817318,-0.67631644,9.2818,-10.001374,1.4151826,-0.34579206,0.32045528,-0.2834322,-0.8351061,-9.303562,4.7511516,0.7526339,2.7202501,-2.8261878,0.6713638,0
0.8600000000000005,16.37188880809587,3.439242657015104,-3.540916365894073,0.019849724666673972,16.0941,2.3633957,-3.2817318,-0.67631644,9.188493,-9.953293,1.4227397,-0.3515215,0.30261987,-0.29103756,-0.8367501,-9.356828,4.865242,0.75916034,2.8323643,-2.9376595,0.6393938,0
0.8700000000000006,16.37188880809587,3.439242657015104,-3.540916365894073,0.019849724666673972,16.0941,2.3633957,-3.2817318,-0.67631644,9.094685,-9.904067,1.4303731,-0.3575369,0.2840908,-0.29872292,-0.83798814,-9.403852,4.9800696,0.76784796,2.9269857,-3.0317557,0.6089926,0
0.8800000000000006,16.8976506434708,3.4588087541444406,-3.509771702061972,-0.23024036165851264,16.588434,2.3756108,-3.601633,-0.6510827,9.000439,-9.853689,1.4381036,-0.36376765,0.26495913,-0.30644086,-0.83878696,-9.444337,5.0954947,0.77855146,3.0068448,-3.111184,0.58008313,0
0.8900000000000006,16.8976506434708,3.4588087541444406,-3.509771702061972,-0.23024036165851264,16.588434,2.3756108,-3.601633,-0.6510827,8.905816,-9.802136,1.4459682,-0.37017697,0.24532175,-0.31415382,-0.8391028,-9.4791,5.2150755,0.79464704,3.0772696,-3.1733968,0.54032034,0
0.9000000000000006,16.8976506434708,3.4588087541444406,-3.509771702061972,-0.23024036165851264,16.588434,2.3756108,-3.601633,-0.6510827,8.810882,-9.749387,1.4540023,-0.376735,0.2252638,-0.3218294,-0.8388997,-9.506614,5.3349233,0.8124272,3.1367097,-3.225911,0.50250876,0
0.9100000000000006,16.8976506434708,3.4588087541444406,-3.509771702061972,-0.23024036165851264,16.588434,2.3756108,-3.601633,-0.6510827,8.715709,-9.695438,1.4622216,-0.38339412,0.20484428,-0.3294369,-0.8381641,-9.526684,5.4548383,0.83165646,3.1868787,-3.270237,0.46655256,0
0.9200000000000006,17.0319165663644,2.9682388135792417,-3.028393333825421,-0.4141640359195239,16.800844,2.1057944,-3.6802871,-0.63598055,8.620374,-9.640291,1.4706395,-0.39011288,0.18411538,-0.3369503,-0.83688587,-9.539148,5.574607,0.8520826,3.2292237,-3.3076513,0.4323607,1
0.9300000000000006,17.0319165663644,2.9682388135792417,-3.028393333825421,-0.4141640359195239,16.800844,2.1057944,-3.6802871,-0.63598055,8.524953,-9.583952,1.4792631,-0.396826,0.16329661,-0.34386042,-0.83523846,-9.543882,5.693299,0.8727763,3.053927,-3.3659177,0.37993684,1
0.9400000000000006,17.0319165663644,2.9682388135792417,-3.028393333825421,-0.4141640359195239,16.800844,2.1057944,-3.6802871,-0.63598055,8.4295225,-9.526429,1.4880978,-0.4035061,0.14257668,-0.3497701,-0.83337593,-9.541047,5.811232,0.89428425,2.9059675,-3.415075,0.3300855,1
0.9500000000000006,17.0319165663644,2.9682388135792417,-3.028393333825421,-0.4141640359195239,16.800844,2.1057944,-3.6802871,-0.63598055,8.334157,-9.467731,1.4971513,-0.41016635,0.12195567,-0.35480985,-0.83126426,-9.530786,5.928025,0.9165033,2.781083,-3.4565477,0.28268036,1
0.9600000000000006,16.72834715477403,2.143610124530187,-2.2192411950437525,-0.529207614984922,16.472286,1.3630477,-3.7958472,-0.23060647,8.238931,-9.407873,1.50643,-0.41681328,0.1014333,-0.3590903,-0.828874,-9.513237,6.043328,0.93931586,2.6756763,-3.4915383,0.23760141,0
0.9700000000000006,16.72834715477403,2.143610124530187,-2.2192411950437525,-0.529207614984922,16.472286,1.3630477,-3.7958472,-0.23060647,8.143916,-9.346873,1.5159366,-0.423231,0.08148287,-0.36296633,-0.8261304,-9.488665,6.156358,0.9620471,2.5925894,-3.2932007,0.19997387,0
0.9800000000000006,16.72834715477403,2.143610124530187,-2.2192411950437525,-0.529207614984922,16.472286,1.3630477,-3.7958472,-0.23060647,8.049181,-9.284753,1.5256717,-0.4292513,0.06247835,-0.36673754,-0.82300866,-9.457294,6.2675066,0.98495084,2.5224762,-3.125785,0.1641927,0
0.9900000000000007,16.72834715477403,2.143610124530187,-2.2192411950437525,-0.529207614984922,16.472286,1.3630477,-3.7958472,-0.23060647,7.954793,-9.22153,1.5356355,-0.4349389,0.044284604,-0.3704145,-0.81954867,-9.419448,6.376735,1.0077522,2.463311,-2.984471,0.13016738,0
1.0000000000000007,16.620078496889196,1.328922133130296,-1.2278190756308232,-0.5910539441664256,16.512218,0.76917785,-2.9690454,0.445124,7.860814,-9.157224,1.5458257,-0.44034642,0.026786681,-0.37400463,-0.8157806,-9.375408,6.4840035,1.0302116,2.4133828,-2.8651893,0.097811684,0
1.0100000000000007,16.620078496889196,1.328922133130296,-1.2278190756308232,-0.5910539441664256,16.512218,0.76917785,-2.9690454,0.445124,7.7673035,-9.091859,1.5562341,-0.44536972,0.010357251,-0.37742522,-0.81184274,-9.325787,6.5886035,1.0513445,2.2441876,-2.6099026,0.06400884,0
1.0200000000000007,16.620078496889196,1.328922133130296,-1.2278190756308232,-0.5910539441664256,16.512218,0.76917785,-2.9690454,0.445124,7.6743164,-9.025458,1.5668504,-0.44994286,-0.00471328,-0.38062277,-0.8078709,-9.270754,6.6912775,1.0717762,2.101393,-2.3944173,0.031864703,0
1.0300000000000007,16.620078496889196,1.328922133130296,-1.2278190756308232,-0.5910539441664256,16.512218,0.76917785,-2.9690454,0.445124,7.5819054,-8.958041,1.577667,-0.4541537,-0.018626772,-0.3836393,-0.80387694,-9.21077,6.792102,1.091392,1.9808785,-2.2125292,0.0012978851,0
1.0400000000000007,16.620078496889196,1.328922133130296,-1.2278190756308232,-0.5910539441664256,16.652735,-0.26640615,-2.6624157,1.2106253,7.4901166,-8.889624,1.5886751,-0.45807317,-0.031554714,-0.38650796,-0.7998653,-9.146221,6.8911443,1.1101038,1.8791668,-2.059,-0.027769001,0
1.0500000000000007,16.620078496889196,1.328922133130296,-1.2278190756308232,-0.5910539441664256,16.652735,-0.26640615,-2.6624157,1.2106253,7.3989954,-8.820224,1.5998656,-0.46175852,-0.04364259,-0.389255,-0.79583573,-9.077439,6.9884667,1.1278418,1.793324,-1.9294087,-0.055409547,0
1.0600000000000007,16.620078496889196,1.328922133130296,-1.2278190756308232,-0.5910539441664256,16.652735,-0.26640615,-2.6624157,1.2106253,7.308582,-8.749861,1.6112282,-0.46525592,-0.055013716,-0.39190108,-0.791785,-9.004705,7.0841227,1.1445502,1.7208736,-1.8200232,-0.08169378,0
1.0700000000000007,16.620078496889196,1.328922133130296,-1.2278190756308232,-0.5910539441664256,16.652735,-0.26640615,-2.6624157,1.2106253,7.2189145,-8.678548,1.6227527,-0.46860272,-0.06577253,-0.39446267,-0.7877081,-8.928261,7.178158,1.1601824,1.6597255,-1.7276933,-0.10668824,0
1.0800000000000007,16.03410345056564,0.49869321852296944,-0.605658147035511,-0.5446736778169528,17.398642,-1.03678,-2.5459142,1.8521978,7.1300287,-8.606303,1.634428,-0.47182897,-0.07600747,-0.3969529,-0.7835995,-8.848312,7.2706075,1.1746993,1.6081169,-1.6497595,-0.1304562,0
1.0900000000000007,16.03410345056564,0.49869321852296944,-0.605658147035511,-0.5446736778169528,17.398642,-1.03678,-2.5459142,1.8521978,7.041945,-8.533157,1.6462232,-0.47488305,-0.085444,-0.39924067,-0.77961,-8.767998,7.358306,1.1841488,1.4350969,-1.4869369,-0.15078199,0
1.1000000000000008,16.03410345056564,0.49869321852296944,-0.605658147035511,-0.5446736778169528,17.398642,-1.03678,-2.5459142,1.8521978,6.954678,-8.459142,1.6581075,-0.477732,-0.09386995,-0.4012289,-0.7758707,-8.684814,7.4445925,1.1925552,1.2890614,-1.3495041,-0.17011037,0
1.1100000000000008,16.03410345056564,0.49869321852296944,-0.605658147035511,-0.5446736778169528,17.398642,-1.03678,-2.5459142,1.8521978,6.8682566,-8.38427,1.6700709,-0.4804212,-0.10143842,-0.4029713,-0.77234656,-8.599076,7.5295587,1.1999941,1.1658019,-1.2335021,-0.18849033,0
1.1200000000000008,15.369932726054271,-0.3390612281074043,-0.046850839124034156,-0.41620866042329374,17.853724,-1.7570783,-2.588898,2.471776,6.782704,-8.308555,1.6821042,-0.48298684,-0.108278856,-0.4045116,-0.76900524,-8.511047,7.613284,1.2065343,1.0617657,-1.1355896,-0.20596834,0
1.1300000000000008,15.369932726054271,-0.3390612281074043,-0.046850839124034156,-0.41620866042329374,17.853724,-1.7570783,-2.588898,2.471776,6.698024,-8.232025,1.6941773,-0.48539293,-0.11417335,-0.4057354,-0.7659871,-8.424701,7.6924286,1.2079512,0.8433239,-0.9657778,-0.21628487,0
1.1400000000000008,15.369932726054271,-0.3390612281074043,-0.046850839124034156,-0.41620866042329374,17.853724,-1.7570783,-2.588898,2.471776,6.614216,-8.154709,1.706261,-0.48761436,-0.118956536,-0.4065569,-0.7634084,-8.336718,7.7705736,1.208722,0.6589463,-0.82245,-0.22609518,0
1.1500000000000008,15.369932726054271,-0.3390612281074043,-0.046850839124034156,-0.41620866042329374,17.853724,-1.7570783,-2.588898,2.471776,6.5312943,-8.076616,1.7183499,-0.48969072,-0.12279994,-0.40704602,-0.7612069,-8.24741,7.847836,1.2089989,0.5033211,-0.701476,-0.23542409,0
1.1600000000000008,14.73007760159327,-1.1210298552844329,0.3288253889807588,-0.23416982873812262,17.331505,-2.289895,-2.0514634,3.1203492,6.449271,-7.997755,1.7304398,-0.4916531,-0.12584823,-0.4072599,-0.75932735,-8.157042,7.92432,1.2089146,0.37196422,-0.5993697,-0.24429522,0
1.1700000000000008,14.73007760159327,-1.1210298552844329,0.3288253889807588,-0.23416982873812262,17.331505,-2.289895,-2.0514634,3.1203492,6.3681374,-7.918148,1.7425071,-0.49348766,-0.12796451,-0.40707955,-0.7578789,-8.069646,7.996966,1.2045274,0.13915586,-0.4545811,-0.24379838,0
1.1800000000000008,14.73007760159327,-1.1210298552844329,0.3288253889807588,-0.23416982873812262,17.331505,-2.289895,-2.0514634,3.1203492,6.28788,-7.837817,1.7545302,-0.4951825,-0.12904765,-0.40641275,-0.7569471,-7.9817543,8.069063,1.2001,-0.057350073,-0.3323782,-0.2433259,0
1.1900000000000008,14.73007760159327,-1.1210298552844329,0.3288253889807588,-0.23416982873812262,17.331505,-2.289895,-2.0514634,3.1203492,6.208503,-7.756768,1.7665095,-0.4967615,-0.12925807,-0.40533787,-0.7564528,-7.893648,8.140714,1.1958135,-0.2232138,-0.2292377,-0.24287662,0
1.2000000000000008,13.260911245932864,-1.5485057751095335,0.23855463828916465,-0.03486404818429529,16.968666,-2.9594421,-2.172688,3.794429,6.130007,-7.675004,1.7784474,-0.49824303,-0.128731,-0.40391952,-0.756327,-7.805565,8.212007,1.1918216,-0.3632138,-0.1421861,-0.24244936,0
1.2100000000000009,13.260911245932864,-1.5485057751095335,0.23855463828916465,-0.03486404818429529,16.968666,-2.9594421,-2.172688,3.794429,6.0523467,-7.592564,1.7903003,-0.49965924,-0.12753229,-0.40206048,-0.75658625,-7.7264743,8.2759285,1.1788318,-0.54804945,-0.08278428,-0.23226309,0
1.2200000000000009,13.260911245932864,-1.5485057751095335,0.23855463828916465,-0.03486404818429529,16.968666,-2.9594421,-2.172688,3.794429,5.975476,-7.509486,1.8020259,-0.5010318,-0.12572089,-0.39968467,-0.75724024,-7.6477814,8.339623,1.1663787,-0.7040623,-0.032652475,-0.22257666,0
1.2300000000000009,13.260911245932864,-1.5485057751095335,0.23855463828916465,-0.03486404818429529,16.968666,-2.9594421,-2.172688,3.794429,5.8993893,-7.425772,1.8136302,-0.50235987,-0.12339252,-0.39686954,-0.75822335,-7.569661,8.403113,1.1546,-0.8357465,0.009656257,-0.21336557,0
1.2400000000000009,13.260911245932864,-1.5485057751095335,0.23855463828916465,-0.03486404818429529,16.372824,-3.1335087,-2.5149658,4.0386305,5.82408,-7.3414245,1.8251206,-0.50364214,-0.12062787,-0.39368,-0.75947934,-7.4922633,8.466412,1.1436086,-0.94689626,0.045362983,-0.20460644,0
1.2500000000000009,13.260911245932864,-1.5485057751095335,0.23855463828916465,-0.03486404818429529,16.372824,-3.1335087,-2.5149658,4.0386305,5.7495403,-7.2564445,1.8365055,-0.5048771,-0.117495,-0.39017048,-0.76096016,-7.4157186,8.5295315,1.1334962,-1.0407133,0.07549802,-0.19627714,0
1.260000000000001,13.260911245932864,-1.5485057751095335,0.23855463828916465,-0.03486404818429529,16.372824,-3.1335087,-2.5149658,4.0386305,5.6757617,-7.170834,1.8477939,-0.5060635,-0.114051335,-0.3863868,-0.76262474,-7.340139,8.59248,1.1243361,-1.1199006,0.10093105,-0.18835656,0
1.270000000000001,13.260911245932864,-1.5485057751095335,0.23855463828916465,-0.03486404818429529,16.372824,-3.1335087,-2.5149658,4.0386305,5.602734,-7.084595,1.8589958,-0.5072005,-0.11034536,-0.38236764,-0.7644382,-7.2656245,8.655261,1.1161863,-1.1867394,0.122395664,-0.18082465,0
1.280000000000001,11.420831082409045,-1.5697678815520482,-0.3555420822618124,0.1759813775370963,14.704637,-2.8604465,-2.3618274,3.9167473,5.5304456,-6.997729,1.8701214,-0.5082871,-0.10641804,-0.37814558,-0.7663711,-7.192261,8.717878,1.1090913,-1.2431552,0.1405114,-0.17366229,0
1.290000000000001,11.420831082409045,-1.5697678815520482,-0.3555420822618124,0.1759813775370963,14.704637,-2.8604465,-2.3618274,3.9167473,5.4588346,-6.9102807,1.8811176,-0.50939333,-0.10249181,-0.373618,-0.7683897,-7.13013,8.771655,1.0903089,-1.2940998,0.06314357,-0.15650515,0
1.300000000000001,11.420831082409045,-1.5697678815520482,-0.3555420822618124,0.1759813775370963,14.704637,-2.8604465,-2.3618274,3.9167473,5.3878393,-6.8222966,1.8919309,-0.51057065,-0.098746546,-0.36870465,-0.7704693,-7.069074,8.825207,1.0725071,-1.3370967,-0.0021600993,-0.14018995,0
1.310000000000001,11.420831082409045,-1.5697678815520482,-0.3555420822618124,0.1759813775370963,14.704637,-2.8604465,-2.3618274,3.9167473,5.317449,-6.7337785,1.9025713,-0.5117939,-0.09515661,-0.36346102,-0.7725979,-7.0091066,8.878451,1.055723,-1.373386,-0.057280455,-0.124675326,0
1.320000000000001,9.793976923164827,-1.5226060807040132,-0.8894238933939699,0.4069571762324564,14.003112,-2.6062698,-2.9319918,3.55007,5.247653,-6.6447296,1.913049,-0.5130425,-0.09170009,-0.35793424,-0.77476496,-6.950239,8.931315,1.0399836,-1.4040146,-0.10380513,-0.109922014,0
1.330000000000001,9.793976923164827,-1.5226060807040132,-0.8894238933939699,0.4069571762324564,14.003112,-2.6062698,-2.9319918,3.55007,5.178399,-6.555192,1.9233154,-0.5143516,-0.08854383,-0.3520664,-0.7769497,-6.9007072,8.976262,1.0134268,-1.422514,-0.22634418,-0.08455859,0
1.340000000000001,9.793976923164827,-1.5226060807040132,-0.8894238933939699,0.4069571762324564,14.003112,-2.6062698,-2.9319918,3.55007,5.109636,-6.4652066,1.9333208,-0.51574385,-0.085820645,-0.34581324,-0.77913755,-6.852105,9.020722,0.98780555,-1.438124,-0.32977295,-0.060439773,0
1.350000000000001,9.793976923164827,-1.5226060807040132,-0.8894238933939699,0.4069571762324564,14.003112,-2.6062698,-2.9319918,3.55007,5.041354,-6.3747797,1.9430747,-0.5171871,-0.083467074,-0.33922988,-0.7813276,-6.8044086,9.064594,0.96313775,-1.4512962,-0.41707143,-0.037504464,0
1.360000000000001,8.842510026429512,-1.6100856174373146,-1.1981810677071651,0.6472669749747224,14.40869,-3.475964,-3.3595622,3.9085095,4.9735446,-6.283917,1.9525869,-0.5186548,-0.08142907,-0.33236283,-0.78351796,-6.757598,9.107791,0.93943465,-1.4624118,-0.49075502,-0.0156946,0
1.370000000000001,8.842510026429512,-1.6100856174373146,-1.1981810677071651,0.6472669749747224,14.40869,-3.475964,-3.3595622,3.9085095,4.9061766,-6.192647,1.9618303,-0.52014536,-0.07974913,-0.32515737,-0.785723,-6.7161217,9.146107,0.90938216,-1.4854299,-0.60110885,0.016837116,0
1.380000000000001,8.842510026429512,-1.6100856174373146,-1.1981810677071651,0.6472669749747224,14.40869,-3.475964,-3.3595622,3.9085095,4.8392196,-6.100998,1.9707776,-0.52165145,-0.0784594,-0.31757122,-0.7879539,-6.675416,9.183648,0.8802208,-1.5048549,-0.6942525,0.047772508,0
1.390000000000001,8.842510026429512,-1.6100856174373146,-1.1981810677071651,0.6472669749747224,14.40869,-3.475964,-3.3595622,3.9085095,4.772666,-6.008978,1.9794378,-0.52314603,-0.07750315,-0.30965754,-0.7902042,-6.6354675,9.220326,0.8519604,-1.5212485,-0.77286947,0.07718989,0
1.400000000000001,8.042928681255376,-1.5686925283470334,-1.1306663275010282,0.851288083098657,14.906243,-3.190898,-4.215964,3.3343773,4.706508,-5.916595,1.9878199,-0.524607,-0.07683197,-0.30146143,-0.7924673,-6.5962667,9.256067,0.8246047,-1.535084,-0.8392252,0.10516374,0
1.410000000000001,8.042928681255376,-1.5686925283470334,-1.1306663275010282,0.851288083098657,14.906243,-3.190898,-4.215964,3.3343773,4.6407213,-5.8238754,1.9959006,-0.5259873,-0.076399334,-0.29304662,-0.7947473,-6.5612855,9.287661,0.7916724,-1.5403011,-0.88471246,0.14177628,0
1.420000000000001,8.042928681255376,-1.5686925283470334,-1.1306663275010282,0.851288083098657,14.906243,-3.190898,-4.215964,3.3343773,4.575281,-5.730845,2.0036561,-0.5272472,-0.07616661,-0.2844658,-0.7970491,-6.526975,9.318293,0.75955105,-1.5447044,-0.92310435,0.17659222,0
1.430000000000001,8.042928681255376,-1.5686925283470334,-1.1306663275010282,0.851288083098657,14.906243,-3.190898,-4.215964,3.3343773,4.5101795,-5.637513,2.0110943,-0.5283805,-0.07610603,-0.27573955,-0.79936767,-6.4933343,9.347922,0.728227,-1.548421,-0.95550734,0.20969974,0
1.440000000000001,8.042928681255376,-1.5686925283470334,-1.1306663275010282,0.851288083098657,14.064047,-2.998723,-3.9682302,3.3058171,4.4454117,-5.5438905,2.0182233,-0.5293828,-0.07619369,-0.2668855,-0.8016978,-6.460363,9.376515,0.6976845,-1.5515584,-0.98285556,0.24118267,0
1.450000000000001,8.042928681255376,-1.5686925283470334,-1.1306663275010282,0.851288083098657,14.064047,-2.998723,-3.9682302,3.3058171,4.3809695,-5.449987,2.0250506,-0.53025144,-0.07640899,-0.25791872,-0.8040347,-6.428062,9.404038,0.66790575,-1.5542071,-1.0059372,0.27112073,0
1.460000000000001,8.042928681255376,-1.5686925283470334,-1.1306663275010282,0.851288083098657,14.064047,-2.998723,-3.9682302,3.3058171,4.3168473,-5.3558135,2.0315838,-0.53098464,-0.07673416,-0.24885207,-0.8063737,-6.3964324,9.430463,0.6388711,-1.5564438,-1.0254179,0.29958972,0
1.470000000000001,8.042928681255376,-1.5686925283470334,-1.1306663275010282,0.851288083098657,14.064047,-2.998723,-3.9682302,3.3058171,4.2530384,-5.2613816,2.0378306,-0.5315817,-0.07715384,-0.23969677,-0.80871034,-6.365477,9.455762,0.61055934,-1.5583324,-1.041859,0.32666174,0
1.480000000000001,7.527697491015458,-1.5038165162884203,-0.9545716201456459,1.0042264147722035,11.704246,-2.3142786,-3.4769614,2.91986,4.1895356,-5.1667023,2.0437977,-0.5320427,-0.07765472,-0.23046237,-0.8110402,-6.335198,9.479912,0.582948,-1.5599273,-1.0557351,0.35240528,0
1.490000000000001,7.527697491015458,-1.5038165162884203,-0.9545716201456459,1.0042264147722035,11.704246,-2.3142786,-3.4769614,2.91986,4.1263227,-5.071795,2.0494692,-0.5323351,-0.078186214,-0.22121434,-0.8133691,-6.3074946,9.501419,0.5514542,-1.5511588,-1.0399891,0.38439032,0
1.500000000000001,7.527697491015458,-1.5038165162884203,-0.9545716201456459,1.0042264147722035,11.704246,-2.3142786,-3.4769614,2.91986,4.0633836,-4.976678,2.054829,-0.53243303,-0.07870767,-0.21200536,-0.81570375,-6.2804317,9.5218315,0.5205661,-1.5437587,-1.0266973,0.41480583,0
1.5100000000000011,7.527697491015458,-1.5038165162884203,-0.9545716201456459,1.0042264147722035,11.704246,-2.3142786,-3.4769614,2.91986,4.000712,-4.881362,2.0598826,-0.53234637,-0.07922173,-0.20282589,-0.8180414,-6.254014,9.541147,0.49025604,-1.5375136,-1.0154766,0.4437289,0
1.5200000000000011,7.224207328011807,-1.4753363270500222,-0.4847032750440126,1.13051355465565,11.382047,-2.2380013,-3.0180836,2.9326146,3.9383013,-4.7858586,2.0646358,-0.5320837,-0.07973037,-0.193668,-0.82037884,-6.2282453,9.559366,0.46049708,-1.5322433,-1.0060045,0.47123268,0
1.5300000000000011,7.224207328011807,-1.4753363270500222,-0.4847032750440126,1.13051355465565,11.382047,-2.2380013,-3.0180836,2.9326146,3.87614,-4.6901817,2.06908,-0.53160375,-0.08008967,-0.18463336,-0.8227347,-6.2041435,9.575802,0.42848584,-1.5233741,-0.9247372,0.5035837,0
1.5400000000000011,7.224207328011807,-1.4753363270500222,-0.4847032750440126,1.13051355465565,11.382047,-2.2380013,-3.0180836,2.9326146,3.8142164,-4.5943456,2.0732067,-0.53087604,-0.080185406,-0.17580251,-0.82512623,-6.180687,9.591225,0.3969494,-1.5158879,-0.85614216,0.53434736,0
1.5500000000000012,7.224207328011807,-1.4753363270500222,-0.4847032750440126,1.13051355465565,11.382047,-2.2380013,-3.0180836,2.9326146,3.752524,-4.49836,2.0770204,-0.5299221,-0.08005883,-0.16714096,-0.8275481,-6.1578946,9.605674,0.36586097,-1.5095687,-0.79824305,0.5636014,0
1.5600000000000012,7.5459252269643935,-1.5981980279451584,0.10585255337794167,1.292315731095757,9.915867,-1.9028717,-1.971866,2.690283,3.691056,-4.4022355,2.0805254,-0.52876043,-0.07974465,-0.15861967,-0.82999504,-6.1357822,9.61918,0.33519554,-1.5042346,-0.749372,0.5914199,0
1.5700000000000012,7.5459252269643935,-1.5981980279451584,0.10585255337794167,1.292315731095757,9.915867,-1.9028717,-1.971866,2.690283,3.6298103,-4.305977,2.083741,-0.5273571,-0.07905289,-0.15029658,-0.83249915,-6.113414,9.632337,0.30795118,-1.5189254,-0.61604005,0.625813,0
1.5800000000000012,7.5459252269643935,-1.5981980279451584,0.10585255337794167,1.292315731095757,9.915867,-1.9028717,-1.971866,2.690283,3.568785,-4.2095914,2.0866861,-0.52568656,-0.077834085,-0.14221586,-0.83508617,-6.0918164,9.644607,0.28110418,-1.5313228,-0.50349903,0.6585185,0
1.5900000000000012,7.5459252269643935,-1.5981980279451584,0.10585255337794167,1.292315731095757,9.915867,-1.9028717,-1.971866,2.690283,3.5079713,-4.113088,2.0893648,-0.5237736,-0.07616983,-0.13433646,-0.8377421,-6.0710373,9.656056,0.25463596,-1.5417843,-0.40850654,0.6896191,0
1.6000000000000012,8.61562419263601,-1.9014684576244651,0.7977998867495193,1.52960543637406,12.261003,-2.8513932,-1.6250528,3.1405697,3.4473612,-4.0164733,2.0917804,-0.52163893,-0.07412899,-0.12662394,-0.840454,-6.051115,9.66674,0.22852868,-1.5506116,-0.3283264,0.7191937,0
1.6100000000000012,8.61562419263601,-1.9014684576244651,0.7977998867495193,1.52960543637406,12.261003,-2.8513932,-1.6250528,3.1405697,3.3869593,-3.9197483,2.093988,-0.5192494,-0.071477085,-0.11908921,-0.84326017,-6.0293927,9.67812,0.21302052,-1.6054056,-0.1527748,0.75896084,0
1.6200000000000012,8.61562419263601,-1.9014684576244651,0.7977998867495193,1.52960543637406,12.261003,-2.8513932,-1.6250528,3.1405697,3.3267696,-3.8229132,2.0960424,-0.5165767,-0.06803086,-0.11173799,-0.84618783,-6.008785,9.688771,0.19789428,-1.6516494,-0.0045967065,0.79677665,0
1.6300000000000012,8.61562419263601,-1.9014684576244651,0.7977998867495193,1.52960543637406,12.261003,-2.8513932,-1.6250528,3.1405697,3.2667797,-3.725975,2.0979476,-0.51364267,-0.063912936,-0.10453701,-0.8492097,-5.989386,9.69878,0.1831385,-1.6906762,0.12047688,0.83273673,0
1.6400000000000012,8.61562419263601,-1.9014684576244651,0.7977998867495193,1.52960543637406,12.972339,-3.0645018,-0.9270357,3.2902389,3.2069774,-3.6289394,2.0997066,-0.51046515,-0.05922693,-0.09745863,-0.85230166,-5.9712763,9.708215,0.16873889,-1.7236112,0.22604889,0.8669323,0
1.6500000000000012,8.61562419263601,-1.9014684576244651,0.7977998867495193,1.52960543637406,12.972339,-3.0645018,-0.9270357,3.2902389,3.1473494,-3.5318122,2.1013236,-0.5070589,-0.05406042,-0.090480015,-0.8554419,-5.954525,9.717131,0.15467815,-1.7514048,0.3151604,0.8994498,0
1.6600000000000013,8.61562419263601,-1.9014684576244651,0.7977998867495193,1.52960543637406,12.972339,-3.0645018,-0.9270357,3.2902389,3.0878818,-3.4345984,2.1028018,-0.5034364,-0.04848746,-0.08358239,-0.85861135,-5.9391904,9.725572,0.14093642,-1.7748591,0.39037815,0.9303717,0
1.6700000000000013,8.61562419263601,-1.9014684576244651,0.7977998867495193,1.52960543637406,12.972339,-3.0645018,-0.9270357,3.2902389,3.0285604,-3.3373022,2.1041436,-0.49960828,-0.042570703,-0.07675034,-0.86179316,-5.925323,9.733568,0.12749128,-1.7946508,0.45386896,0.9597762,0
1.6800000000000013,9.838130468285783,-2.1998622808385067,1.2365631939564,1.7448119761573464,13.441225,-3.0493288,-0.6766449,3.3734684,2.9693701,-3.2399282,2.1053524,-0.4955837,-0.036363192,-0.06997135,-0.8649724,-5.9129663,9.741146,0.11431822,-1.8113518,0.5074615,0.9877379,0
1.6900000000000013,9.838130468285783,-2.1998622808385067,1.2365631939564,1.7448119761573464,13.441225,-3.0493288,-0.6766449,3.3734684,2.9103036,-3.1424754,2.106491,-0.49133942,-0.029700566,-0.063217506,-0.8681623,-5.900631,9.749343,0.11347696,-1.8720278,0.6210802,1.0248878,0
1.7000000000000013,9.838130468285783,-2.1998622808385067,1.2365631939564,1.7448119761573464,13.441225,-3.0493288,-0.6766449,3.3734684,2.851351,-3.0449426,2.1076226,-0.48685238,-0.022454916,-0.056465067,-0.87136734,-5.8901615,9.757118,0.112888426,-1.9232339,0.7169862,1.0602148,0
1.7100000000000013,9.838130468285783,-2.1998622808385067,1.2365631939564,1.7448119761573464,13.441225,-3.0493288,-0.6766449,3.3734684,2.7924933,-2.947334,2.1087494,-0.48213068,-0.014716961,-0.049710862,-0.87456334,-5.8816504,9.764507,0.11252026,-1.9664472,0.7979411,1.0938082,0
1.7200000000000013,11.103342851559287,-2.2983368517805767,1.6281839115042513,1.831958995311443,14.089248,-3.0224285,-0.44256425,3.2601995,2.7337108,-2.8496535,2.1098735,-0.47718143,-0.006563586,-0.04295295,-0.87772924,-5.8751774,9.77153,0.11233502,-2.0029147,0.86627656,1.1257532,0
1.7300000000000013,11.103342851559287,-2.2983368517805767,1.6281839115042513,1.831958995311443,14.089248,-3.0224285,-0.44256425,3.2601995,2.6749854,-2.7519002,2.1110594,-0.4719951,0.0020960388,-0.036230084,-0.88085324,-5.870254,9.779063,0.12490093,-2.0490947,0.9850156,1.1604068,0
1.7400000000000013,11.103342851559287,-2.2983368517805767,1.6281839115042513,1.831958995311443,14.089248,-3.0224285,-0.44256425,3.2601995,2.616297,-2.6540735,2.1123717,-0.46656275,0.011330504,-0.029572476,-0.8839203,-5.8678145,9.786243,0.13757274,-2.0880628,1.0852429,1.1933601,0
1.7500000000000013,11.103342851559287,-2.2983368517805767,1.6281839115042513,1.831958995311443,14.089248,-3.0224285,-0.44256425,3.2601995,2.5576203,-2.5561764,2.113811,-0.46089154,0.021049337,-0.022968316,-0.88690877,-5.8679566,9.793107,0.1502912,-2.1209445,1.1698456,1.2246963,0
1.7600000000000013,12.118966845796928,-2.3336307026485175,1.5133438396564693,1.8559174902144797,15.331901,-2.9261212,-0.61323416,3.1930463,2.498929,-2.4582121,2.1153774,-0.45498782,0.031175597,-0.016408455,-0.88979983,-5.8707614,9.799678,0.16299196,-2.14869,1.2412595,1.2544948,0
1.7700000000000014,12.118966845796928,-2.3336307026485175,1.5133438396564693,1.8559174902144797,15.331901,-2.9261212,-0.61323416,3.1930463,2.4401934,-2.360181,2.1171212,-0.4488551,0.041609164,-0.00985266,-0.89258033,-5.8768024,9.806538,0.18573347,-2.1775908,1.2836252,1.2840067,0
1.7800000000000014,12.118966845796928,-2.3336307026485175,1.5133438396564693,1.8559174902144797,15.331901,-2.9261212,-0.61323416,3.1930463,2.3813825,-2.2620828,2.1190917,-0.44249633,0.05226655,-0.003269744,-0.8952393,-5.885877,9.813069,0.20830318,-2.2019792,1.319389,1.3120705,0
1.7900000000000014,12.118966845796928,-2.3336307026485175,1.5133438396564693,1.8559174902144797,15.331901,-2.9261212,-0.61323416,3.1930463,2.3224654,-2.163921,2.1212866,-0.43591672,0.06310953,0.0033342852,-0.89776474,-5.8980255,9.819247,0.23062085,-2.2225595,1.3495799,1.3387574,0
1.8000000000000014,12.700648042676155,-2.3532304712133336,0.901135099980774,1.794372972975148,15.615232,-2.61966,-0.84998655,3.1171942,2.263411,-2.065699,2.123703,-0.4291216,0.07410538,0.0099538,-0.900146,-5.9132786,9.825041,0.25260392,-2.2399263,1.3750666,1.3641346,0
1.8100000000000014,12.700648042676155,-2.3532304712133336,0.901135099980774,1.794372972975148,15.615232,-2.61966,-0.84998655,3.1171942,2.2041845,-1.96742,2.1263661,-0.4221201,0.08500856,0.016695589,-0.9023903,-5.93253,9.830661,0.27991354,-2.2575483,1.3011105,1.3852465,0
1.8200000000000014,12.700648042676155,-2.3532304712133336,0.901135099980774,1.794372972975148,15.615232,-2.61966,-0.84998655,3.1171942,2.1447492,-1.8690876,2.1292994,-0.41492125,0.09562225,0.023641815,-0.904509,-5.955005,9.835717,0.30670986,-2.27243,1.2386914,1.4053224,0
1.8300000000000014,12.700648042676155,-2.3532304712133336,0.901135099980774,1.794372972975148,15.615232,-2.61966,-0.84998655,3.1171942,2.0850735,-1.770708,2.1324983,-0.40753064,0.10598627,0.030754669,-0.90649796,-5.9806437,9.840088,0.33292136,-2.2849977,1.1860098,1.4244132,0
1.8400000000000014,12.700648042676155,-2.3532304712133336,0.901135099980774,1.794372972975148,15.842713,-2.4218788,-1.3974593,3.0012712,2.0251257,-1.6722885,2.1359558,-0.39995393,0.11613414,0.038002215,-0.9083525,-6.009387,9.843663,0.3584775,-2.2956111,1.1415467,1.4425671,0
1.8500000000000014,12.700648042676155,-2.3532304712133336,0.901135099980774,1.794372972975148,15.842713,-2.4218788,-1.3974593,3.0012712,1.9648753,-1.5738376,2.1396654,-0.39219692,0.12609401,0.04535746,-0.9100678,-6.0411773,9.846342,0.3833084,-2.304574,1.1040202,1.4598303,0
1.8600000000000014,12.700648042676155,-2.3532304712133336,0.901135099980774,1.794372972975148,15.842713,-2.4218788,-1.3974593,3.0012712,1.904292,-1.475365,2.1436193,-0.3842654,0.13588952,0.052797526,-0.91163886,-6.075958,9.848035,0.4073449,-2.3121433,1.0723486,1.4762464,0
1.8700000000000014,12.700648042676155,-2.3532304712133336,0.901135099980774,1.794372972975148,15.842713,-2.4218788,-1.3974593,3.0012712,1.8433461,-1.3768806,2.147809,-0.37616512,0.14554037,0.060303025,-0.9130609,-6.1136694,9.8486595,0.43051845,-2.3185358,1.0456183,1.4918569,0
1.8800000000000014,12.531172734369193,-2.13900885427734,-0.012252580068950128,1.5693288436670443,14.63428,-2.0588713,-0.87572443,2.2693927,1.7820086,-1.2783958,2.1522262,-0.36790192,0.15506297,0.067857474,-0.9143292,-6.154255,9.84814,0.45276105,-2.3239343,1.0230587,1.5067015,0
1.8900000000000015,12.531172734369193,-2.13900885427734,-0.012252580068950128,1.5693288436670443,14.63428,-2.0588713,-0.87572443,2.2693927,1.7202541,-1.179922,2.156853,-0.3594956,0.16410367,0.07550607,-0.9154947,-6.1970606,9.846416,0.4724191,-2.2949386,0.8616262,1.5097747,0
1.9000000000000015,12.531172734369193,-2.13900885427734,-0.012252580068950128,1.5693288436670443,14.63428,-2.0588713,-0.87572443,2.2693927,1.6580585,-1.0814722,2.1616712,-0.3509669,0.17238373,0.08328163,-0.9166074,-6.242457,9.843351,0.49107558,-2.270489,0.725365,1.5126971,0
1.9100000000000015,12.531172734369193,-2.13900885427734,-0.012252580068950128,1.5693288436670443,14.63428,-2.0588713,-0.87572443,2.2693927,1.5953968,-0.9830601,2.166671,-0.3423224,0.18001664,0.09115522,-0.9176595,-6.290257,9.83881,0.50872046,-2.249873,0.6103501,1.515476,0
1.9200000000000015,12.071248901172204,-1.7072450958019125,-0.7114540235170587,1.2121183979293755,14.290807,-1.6533537,-1.5361395,1.8753384,1.5322458,-0.8847014,2.171842,-0.33356822,0.18709804,0.09910301,-0.9186425,-6.340293,9.832677,0.5253425,-2.2324889,0.51326877,1.5181186,0
1.9300000000000015,12.071248901172204,-1.7072450958019125,-0.7114540235170587,1.2121183979293755,14.290807,-1.6533537,-1.5361395,1.8753384,1.4685934,-0.78641105,2.1771536,-0.32475546,0.19339019,0.1070473,-0.91960526,-6.390485,9.825139,0.53676355,-2.1503854,0.32237595,1.5031031,0
1.9400000000000015,12.071248901172204,-1.7072450958019125,-0.7114540235170587,1.2121183979293755,14.290807,-1.6533537,-1.5361395,1.8753384,1.40443,-0.6882046,2.1825745,-0.31593233,0.19871047,0.1149252,-0.92059326,-6.442432,9.815874,0.54722965,-2.0811183,0.16123778,1.4888244,0
1.9500000000000015,12.071248901172204,-1.7072450958019125,-0.7114540235170587,1.2121183979293755,14.290807,-1.6533537,-1.5361395,1.8753384,1.3397396,-0.59009975,2.1880953,-0.30709952,0.20320702,0.12273914,-0.92159146,-6.4958963,9.804796,0.5567858,-2.0226808,0.02521661,1.4752463,0
1.9600000000000015,10.982712575646634,-1.3707237767031546,-1.6887759159328657,0.8001486385856998,15.008615,-2.000146,-3.044265,2.3362114,1.2745076,-0.49211508,2.193707,-0.29825747,0.20700435,0.13049193,-0.92258465,-6.5506687,9.791839,0.5654709,-1.9733793,-0.08960284,1.4623346,0
1.9700000000000015,10.982712575646634,-1.3707237767031546,-1.6887759159328657,0.8001486385856998,15.008615,-2.000146,-3.044265,2.3362114,1.2087474,-0.39426306,2.199354,-0.28942984,0.20979998,0.1381881,-0.92364347,-6.6015096,9.778282,0.5637715,-1.8791652,-0.33886355,1.429841,0
1.9800000000000015,10.982712575646634,-1.3707237767031546,-1.6887759159328657,0.8001486385856998,15.008615,-2.000146,-3.044265,2.3362114,1.1424749,-0.29655576,2.2049804,-0.28063992,0.21135929,0.1458298,-0.92482495,-6.6530952,9.762878,0.5613965,-1.7996889,-0.54927135,1.3989418,0
1.9900000000000015,10.982712575646634,-1.3707237767031546,-1.6887759159328657,0.8001486385856998,15.008615,-2.000146,-3.044265,2.3362114,1.0756838,-0.19901207,2.21058,-0.271887,0.2118698,0.15341711,-0.9260944,-6.705164,9.745554,0.5584297,-1.7326441,-0.7268821,1.3695588,0
2.0000000000000013,10.283656275420148,-1.075357018031224,-2.5142827994219172,0.3619665590683592,14.657093,-1.3725742,-3.8505032,1.4479126,1.0083706,-0.10165148,2.2161472,-0.2631701,0.2114892,0.16095084,-0.9274199,-6.757488,9.726249,0.5549407,-1.6760849,-0.8768079,1.3416176,0
2.010000000000001,10.283656275420148,-1.075357018031224,-2.5142827994219172,0.3619665590683592,14.657093,-1.3725742,-3.8505032,1.4479126,0.94055057,-0.0044873506,2.221647,-0.2545096,0.21000403,0.16841966,-0.9288472,-6.806518,9.706277,0.5450007,-1.5822138,-1.1320395,1.2935457,0
2.020000000000001,10.283656275420148,-1.075357018031224,-2.5142827994219172,0.3619665590683592,14.657093,-1.3725742,-3.8505032,1.4479126,0.8722411,0.09246737,2.227046,-0.24592517,0.20725025,0.17581283,-0.930407,-6.8553286,9.684356,0.5347189,-1.5030282,-1.3474879,1.2478329,0
2.0300000000000007,10.283656275420148,-1.075357018031224,-2.5142827994219172,0.3619665590683592,14.657093,-1.3725742,-3.8505032,1.4479126,0.80344564,0.18919294,2.2323406,-0.23741497,0.2034164,0.18313256,-0.93205017,-6.9036665,9.660442,0.52417773,-1.4362283,-1.5293537,1.2043631,0
2.0400000000000005,10.283656275420148,-1.075357018031224,-2.5142827994219172,0.3619665590683592,14.657093,-1.3725742,-3.8505032,1.4479126,0.73417014,0.28566927,2.2375286,-0.22897707,0.1986613,0.19038114,-0.93373305,-6.951311,9.634508,0.5134412,-1.3798754,-1.6828713,1.1630265,0
2.0500000000000003,10.283656275420148,-1.075357018031224,-2.5142827994219172,0.3619665590683592,14.403533,-0.87500995,-4.1611853,0.9089921,0.6644225,0.38187608,2.2426088,-0.22060975,0.19311886,0.19756068,-0.93541723,-6.998067,9.606538,0.50255626,-1.3323342,-1.8124591,1.1237183,1
2.06,10.283656275420148,-1.075357018031224,-2.5142827994219172,0.3619665590683592,14.403533,-0.87500995,-4.1611853,0.9089921,0.5941207,0.4777335,2.2477539,-0.21213093,0.18628044,0.20472743,-0.9372225,-7.0620317,9.5644865,0.5264625,-1.2607615,-2.178681,1.1131816,1
2.07,10.283656275420148,-1.075357018031224,-2.5142827994219172,0.3619665590683592,14.403533,-0.87500995,-4.1611853,0.9089921,0.52318877,0.5731556,2.2531378,-0.20337693,0.17774765,0.21191421,-0.9392205,-7.124011,9.519465,0.5503326,-1.2003957,-2.4878,1.1031619,1
2.0799999999999996,10.283656275420148,-1.075357018031224,-2.5142827994219172,0.3619665590683592,14.403533,-0.87500995,-4.1611853,0.9089921,0.451649,0.6681122,2.2587607,-0.19437227,0.16777338,0.21909161,-0.9413127,-7.1835213,9.471387,0.57426435,-1.1494815,-2.74872,1.093634,1
2.0899999999999994,9.980920093157867,-0.6950138495590162,-2.944493130692631,-0.11698234167374855,14.476295,-0.51915914,-4.4686847,0.66795737,0.3795283,0.7625726,2.2646234,-0.18513909,0.15657154,0.22623482,-0.9434118,-7.2401333,9.420203,0.5983114,-1.1065384,-2.968956,1.0845736,1
2.099999999999999,9.980920093157867,-0.6950138495590162,-2.944493130692631,-0.11698234167374855,14.476295,-0.51915914,-4.4686847,0.66795737,0.3068563,0.8565042,2.2707303,-0.17571943,0.14417471,0.2332154,-0.9454872,-7.293724,9.365632,0.6231125,-1.0148143,-3.2027595,1.0641302,1
2.109999999999999,9.980920093157867,-0.6950138495590162,-2.944493130692631,-0.11698234167374855,14.476295,-0.51915914,-4.4686847,0.66795737,0.23366661,0.94987464,2.277086,-0.1661499,0.13061899,0.23992841,-0.94750535,-7.3436007,9.307982,0.64807063,-0.9374233,-3.400114,1.0446899,1
2.1199999999999988,9.980920093157867,-0.6950138495590162,-2.944493130692631,-0.11698234167374855,14.476295,-0.51915914,-4.4686847,0.66795737,0.15999836,1.0426536,2.2836921,-0.15644306,0.11607713,0.24638651,-0.94939166,-7.389385,9.247338,0.67317927,-0.87212473,-3.5667021,1.0262035,1
2.1299999999999986,8.097008162918494,-0.41041718363684604,-2.663028229507919,-0.4779011454645194,13.768558,-0.21181163,-4.3706193,0.16980204,0.08589414,1.1348116,2.29055,-0.14661135,0.10069649,0.2526006,-0.9510823,-7.430743,9.183805,0.69839644,-0.8170283,-3.7073193,1.0086242,1
2.1399999999999983,8.097008162918494,-0.41041718363684604,-2.663028229507919,-0.4779011454645194,13.768558,-0.21181163,-4.3706193,0.16980204,0.01140886,1.2263365,2.29763,-0.13674754,0.08460733,0.2584636,-0.95254266,-7.46559,9.120754,0.71762264,-0.72267926,-3.8106792,0.9674629,1
