time-since-start [s],throttle_mpc,roll_mpc,pitch_mpc,yaw_mpc,throttle_nw,roll_nw,pitch_nw,yaw_nw,position_x [m],position_y [m],position_z [m],rotation_w [quaternion],rotation_x [quaternion],rotation_y [quaternion],rotation_z [quaternion],velocity_x [m/s],velocity_y [m/s],velocity_z [m/s],omega_x [rad/s],omega_y [rad/s],omega_z [rad/s],network_used
0.0,10.268194143669117,5.999999549813319,-5.999999817882816,-2.4552501119794856,14.091732,-0.17014125,-0.97790384,-0.47388747,14.639783,-11.364639,2.5943658,-0.2731518,0.32165623,-0.36064142,-0.8317831,-9.3537445,-1.5256376,1.1111474,1.1815052,-0.4159298,-0.28763238,0
0.01,10.268194143669117,5.999999549813319,-5.999999817882816,-2.4552501119794856,9.924168,-0.62719357,-2.2027798,-0.22890916,14.546005,-11.379337,2.6053693,-0.2778144,0.3177077,-0.36483994,-0.8299234,-9.401432,-1.4143804,1.0891844,1.5132151,-0.8672824,-0.35645702,0
0.02,10.268194143669117,5.999999549813319,-5.999999817882816,-2.4552501119794856,9.924168,-0.62719357,-2.2027798,-0.22890916,14.451767,-11.392934,2.6161425,-0.28405192,0.3115997,-0.36964518,-0.8279992,-9.445717,-1.3051307,1.0651554,1.8324863,-1.2875968,-0.42542085,0
0.03,10.268194143669117,5.999999549813319,-5.999999817882816,-2.4552501119794856,9.924168,-0.62719357,-2.2027798,-0.22890916,14.357105,-11.405447,2.6266663,-0.29177612,0.30345204,-0.37501422,-0.8259224,-9.486072,-1.197744,1.0393603,2.1396217,-1.6800714,-0.49437028,0
0.04,10.268194143669117,5.999999549813319,-5.999999817882816,-2.4552501119794856,10.539515,-0.7446084,-2.7383118,-0.12006858,14.262061,-11.416894,2.6369245,-0.30089757,0.29336774,-0.38089663,-0.823598,-9.5220375,-1.0921252,1.0120398,2.4349906,-2.0475202,-0.5631696,0
0.05,10.268194143669117,5.999999549813319,-5.999999817882816,-2.4552501119794856,10.539515,-0.7446084,-2.7383118,-0.12006858,14.16668,-11.427294,2.6469028,-0.3113257,0.28143585,-0.38723585,-0.8209253,-9.553211,-0.98823035,0.9833806,2.7190092,-2.3924224,-0.63169885,0
0.060000000000000005,10.268194143669117,5.999999549813319,-5.999999817882816,-2.4552501119794856,10.539515,-0.7446084,-2.7383118,-0.12006858,14.071014,-11.436665,2.656588,-0.3229684,0.26773447,-0.39397028,-0.8178,-9.5792465,-0.8860677,0.9535203,2.9921231,-2.716966,-0.69985276,0
0.07,10.268194143669117,5.999999549813319,-5.999999817882816,-2.4552501119794856,10.539515,-0.7446084,-2.7383118,-0.12006858,13.975115,-11.445023,2.6659694,-0.33573195,0.2523331,-0.40103418,-0.81411505,-9.599844,-0.78569674,0.92255104,3.2547941,-3.0230825,-0.7675387,0
0.08,12.116800660847234,5.999999660844059,-5.999999848858742,-2.603464877332101,9.794382,-0.79313517,-3.1698403,0.3049583,13.879037,-11.452386,2.6750355,-0.3495208,0.23529495,-0.40835822,-0.8097622,-9.614754,-0.68722653,0.8905242,3.5074914,-3.3124838,-0.83467585,0
0.09,12.116800660847234,5.999999660844059,-5.999999848858742,-2.603464877332101,9.794382,-0.79313517,-3.1698403,0.3049583,13.782833,-11.458709,2.6838202,-0.36430353,0.21660317,-0.415897,-0.8046089,-9.624977,-0.5778499,0.866198,3.7798796,-3.6159635,-0.91107684,0
0.09999999999999999,12.116800660847234,5.999999660844059,-5.999999848858742,-2.603464877332101,9.794382,-0.79313517,-3.1698403,0.3049583,13.686561,-11.46395,2.6923556,-0.38003963,0.1962395,-0.42359665,-0.79851466,-9.628292,-0.47101304,0.840685,4.042264,-3.904628,-0.9866343,0
0.10999999999999999,12.116800660847234,5.999999660844059,-5.999999848858742,-2.603464877332101,9.794382,-0.79313517,-3.1698403,0.3049583,13.590291,-11.468138,2.7006295,-0.3966153,0.17426117,-0.4313706,-0.7913587,-9.624523,-0.367,0.81392825,4.295147,-4.1797266,-1.0612948,0
0.11999999999999998,12.116800660847234,5.999999660844059,-5.999999848858742,-2.603464877332101,9.794382,-0.79313517,-3.1698403,0.3049583,13.494096,-11.471301,2.7086296,-0.4139128,0.15072607,-0.43912983,-0.7830215,-9.613559,-0.26614293,0.78583616,4.539013,-4.4423733,-1.1350129,0
0.12999999999999998,15.144165619092243,5.422724846688927,-5.999999618736733,-2.551179349734892,11.79298,-0.64036715,-3.0872579,0.21337673,13.398046,-11.473472,2.7163427,-0.43180272,0.12570786,-0.44677925,-0.77339,-9.595221,-0.16817066,0.75674284,4.7656517,-4.6848726,-1.2069951,0
0.13999999999999999,15.144165619092243,5.422724846688927,-5.999999618736733,-2.551179349734892,11.79298,-0.64036715,-3.0872579,0.21337673,13.302248,-11.47455,2.7238503,-0.45006815,0.0994841,-0.45402107,-0.7625,-9.562521,-0.048018157,0.7447851,4.867751,-4.8902555,-1.2729546,0
0.15,15.144165619092243,5.422724846688927,-5.999999618736733,-2.551179349734892,11.79298,-0.64036715,-3.0872579,0.21337673,13.206827,-11.4744425,2.7312374,-0.46850073,0.0723527,-0.46060598,-0.75040925,-9.519856,0.06916262,0.73255855,4.9539485,-5.063593,-1.3356775,0
0.16,14.974447964781305,3.2741870780945437,-4.964172341661224,-1.008805450744353,12.343116,-0.5251204,-1.8095301,0.16554996,13.111884,-11.473181,2.7384999,-0.48695037,0.04448452,-0.46649525,-0.7370769,-9.467199,0.18258673,0.71982616,5.0267243,-5.209884,-1.3953226,0
0.17,14.974447964781305,3.2741870780945437,-4.964172341661224,-1.008805450744353,12.343116,-0.5251204,-1.8095301,0.16554996,13.017513,-11.470813,2.7456264,-0.50492823,0.016672112,-0.47125074,-0.72297436,-9.405393,0.29025885,0.70539904,4.7535157,-5.171258,-1.3763561,0
0.18000000000000002,14.974447964781305,3.2741870780945437,-4.964172341661224,-1.008805450744353,12.343116,-0.5251204,-1.8095301,0.16554996,12.923807,-11.467394,2.752605,-0.5220865,-0.01044335,-0.4745843,-0.7085802,-9.334399,0.39280403,0.690121,4.522905,-5.138703,-1.3583204,0
0.19000000000000003,14.974447964781305,3.2741870780945437,-4.964172341661224,-1.008805450744353,12.343116,-0.5251204,-1.8095301,0.16554996,12.830853,-11.462976,2.7594259,-0.53848565,-0.03692878,-0.47666472,-0.69387305,-9.254881,0.48967767,0.67392176,4.3282495,-5.111264,-1.3411696,0
0.20000000000000004,13.722961368567772,1.831357604888636,-3.274066957048395,-0.7432940402031956,11.525087,-1.1317514,-0.6795126,0.40701202,12.738736,-11.457621,2.76608,-0.55417067,-0.06284195,-0.47763202,-0.6788321,-9.167474,0.5803999,0.65672386,4.1639433,-5.0881376,-1.3248605,0
0.21000000000000005,13.722961368567772,1.831357604888636,-3.274066957048395,-0.7432940402031956,11.525087,-1.1317514,-0.6795126,0.40701202,12.64749,-11.451426,2.7725232,-0.56888086,-0.08747052,-0.47759917,-0.66379386,-9.080745,0.65755117,0.6317792,3.8005114,-4.8048496,-1.2963228,0
0.22000000000000006,13.722961368567772,1.831357604888636,-3.274066957048395,-0.7432940402031956,11.525087,-1.1317514,-0.6795126,0.40701202,12.55714,-11.4444895,2.778712,-0.5824625,-0.110264525,-0.47671488,-0.64909315,-8.988176,0.72863185,0.6058268,3.4937057,-4.5658035,-1.2691855,0
0.23000000000000007,13.722961368567772,1.831357604888636,-3.274066957048395,-0.7432940402031956,11.525087,-1.1317514,-0.6795126,0.40701202,12.467743,-11.436873,2.7846365,-0.59508306,-0.13149078,-0.47512513,-0.6346986,-8.890529,0.79367375,0.5788731,3.2347038,-4.3640885,-1.2433798,0
0.24000000000000007,13.722961368567772,1.831357604888636,-3.274066957048395,-0.7432940402031956,11.542095,-1.5563589,1.2208493,0.5088492,12.379345,-11.428637,2.7902863,-0.606876,-0.15137714,-0.4729443,-0.6205724,-8.788461,0.85272753,0.55093235,3.0160577,-4.1938744,-1.2188405,0
0.25000000000000006,13.722961368567772,1.831357604888636,-3.274066957048395,-0.7432940402031956,11.542095,-1.5563589,1.2208493,0.5088492,12.291987,-11.419839,2.795652,-0.61794806,-0.17011741,-0.47026193,-0.60667443,-8.682544,0.9058531,0.5220217,2.83148,-4.050241,-1.1955053,0
0.26000000000000006,13.722961368567772,1.831357604888636,-3.274066957048395,-0.7432940402031956,11.542095,-1.5563589,1.2208493,0.5088492,12.205706,-11.410539,2.8007233,-0.6283845,-0.18787585,-0.46714836,-0.59296536,-8.573278,0.9531133,0.49215788,2.6756628,-3.9290369,-1.173315,0
0.2700000000000001,13.722961368567772,1.831357604888636,-3.274066957048395,-0.7432940402031956,11.542095,-1.5563589,1.2208493,0.5088492,12.120532,-11.400796,2.8054917,-0.63825357,-0.20479132,-0.46365893,-0.5794076,-8.461113,0.9945705,0.46135506,2.5441246,-3.826759,-1.1522138,0
0.2800000000000001,12.622763388832578,0.28085434695139433,-1.3138382693267812,-0.34829378182129084,12.027597,-2.073389,2.2414567,0.5759602,12.036492,-11.390667,2.8099475,-0.64760995,-0.22098085,-0.45983726,-0.56596667,-8.346446,1.0302844,0.42962414,2.4330828,-3.7404516,-1.1321481,0
0.2900000000000001,12.622763388832578,0.28085434695139433,-1.3138382693267812,-0.34829378182129084,12.027597,-2.073389,2.2414567,0.5759602,11.953563,-11.380221,2.8140552,-0.65625983,-0.23572446,-0.4558759,-0.55311286,-8.239023,1.0579549,0.3917382,2.097808,-3.3617222,-1.0936842,0
0.3000000000000001,12.622763388832578,0.28085434695139433,-1.3138382693267812,-0.34829378182129084,12.027597,-2.073389,2.2414567,0.5759602,11.8717165,-11.369525,2.81778,-0.66409576,-0.24847779,-0.45196557,-0.54125994,-8.13007,1.080835,0.35311416,1.8147556,-3.0421104,-1.0571077,0
0.3100000000000001,12.622763388832578,0.28085434695139433,-1.3138382693267812,-0.34829378182129084,12.027597,-2.073389,2.2414567,0.5759602,11.790965,-11.358621,2.8211155,-0.6712656,-0.25956595,-0.4481263,-0.5302927,-8.0199585,1.0993699,0.31387055,1.5757933,-2.7723868,-1.022326,0
0.3200000000000001,12.102952896176884,-1.838890903513448,0.9746420568292835,0.3656974102362702,12.92454,-2.334494,3.2031484,0.22274157,11.71132,-11.347551,2.8240557,-0.67788535,-0.2692612,-0.44436592,-0.52010405,-7.9089837,1.1139476,0.2741165,1.3740548,-2.5447626,-0.9892511,0
0.3300000000000001,12.102952896176884,-1.838890903513448,0.9746420568292835,0.3656974102362702,12.92454,-2.334494,3.2031484,0.22274157,11.632764,-11.336357,2.8265843,-0.68383265,-0.27678326,-0.44085,-0.5112872,-7.8019905,1.1245145,0.23158696,0.87343925,-1.9955518,-0.9227634,0
0.34000000000000014,12.102952896176884,-1.838890903513448,0.9746420568292835,0.3656974102362702,12.92454,-2.334494,3.2031484,0.22274157,11.555281,-11.325071,2.828687,-0.689039,-0.28154197,-0.43772984,-0.5043326,-7.6946893,1.1323558,0.18891734,0.45079544,-1.5320784,-0.85953826,0
0.35000000000000014,12.102952896176884,-1.838890903513448,0.9746420568292835,0.3656974102362702,12.92454,-2.334494,3.2031484,0.22274157,11.47887,-11.313717,2.830363,-0.6936452,-0.28399688,-0.43497333,-0.49899858,-7.5873137,1.1381799,0.14635558,0.093984544,-1.1409525,-0.7994155,0
0.36000000000000015,13.139695166050082,-4.05038979039183,3.2568418860171144,0.5839960456967502,13.14353,-2.833575,3.7361088,-0.4870442,11.403533,-11.302313,2.831615,-0.6977535,-0.2845287,-0.43253988,-0.49506766,-7.4800367,1.1425916,0.10411449,-0.2072437,-0.81087697,-0.7422431,0
0.37000000000000016,13.139695166050082,-4.05038979039183,3.2568418860171144,0.5839960456967502,13.14353,-2.833575,3.7361088,-0.4870442,11.329314,-11.290867,2.8324711,-0.70128226,-0.2823953,-0.43058,-0.49300724,-7.363834,1.1464752,0.067226656,-0.8062643,-0.1762618,-0.67716414,0
0.38000000000000017,13.139695166050082,-4.05038979039183,3.2568418860171144,0.5839960456967502,13.14353,-2.833575,3.7361088,-0.4870442,11.256255,-11.279383,2.8329625,-0.7041534,-0.27701813,-0.42920467,-0.4931647,-7.2481084,1.15038,0.031234216,-1.311961,0.35930002,-0.61527866,0
0.3900000000000002,13.139695166050082,-4.05038979039183,3.2568418860171144,0.5839960456967502,13.14353,-2.833575,3.7361088,-0.4870442,11.184349,-11.267856,2.8330998,-0.70642245,-0.26890185,-0.42830804,-0.49518734,-7.133075,1.155229,-0.0035519619,-1.7388668,0.8112755,-0.5564299,0
0.4000000000000002,16.267570756887967,-5.781848897105706,5.075381239861841,1.0092064200228856,15.022049,-3.472184,4.490716,-1.3018886,11.11359,-11.256272,2.8328962,-0.7081161,-0.25846496,-0.4277871,-0.49876332,-7.018937,1.1618042,-0.036892675,-2.0992522,1.1927148,-0.50046885,0
0.4100000000000002,16.267570756887967,-5.781848897105706,5.075381239861841,1.0092064200228856,15.022049,-3.472184,4.490716,-1.3018886,11.044101,-11.2446,2.8324459,-0.7090763,-0.24522203,-0.42769775,-0.5041338,-6.8790073,1.1729674,-0.052792367,-2.6734393,1.798274,-0.42638862,0
0.4200000000000002,16.267570756887967,-5.781848897105706,5.075381239861841,1.0092064200228856,15.022049,-3.472184,4.490716,-1.3018886,10.976003,-11.232798,2.8318477,-0.7091233,-0.22879227,-0.42804983,-0.51144,-6.740853,1.1882874,-0.066396825,-3.1581569,2.3093276,-0.35594356,0
0.4300000000000002,16.267570756887967,-5.781848897105706,5.075381239861841,1.0092064200228856,15.022049,-3.472184,4.490716,-1.3018886,10.909276,-11.220817,2.8311262,-0.7082257,-0.20963879,-0.42868477,-0.52028507,-6.604945,1.2088429,-0.077511676,-3.567339,2.7406323,-0.28895524,0
0.4400000000000002,16.267570756887967,-5.781848897105706,5.075381239861841,1.0092064200228856,16.949453,-3.4647653,4.4315066,-0.88003427,10.843895,-11.2086,2.8303065,-0.70634377,-0.18815465,-0.4294596,-0.5303208,-6.471801,1.2355236,-0.086059816,-3.9127502,3.1046383,-0.22525412,0
0.45000000000000023,16.267570756887967,-5.781848897105706,5.075381239861841,1.0092064200228856,16.949453,-3.4647653,4.4315066,-0.88003427,10.779829,-11.196082,2.8294137,-0.7034369,-0.16467717,-0.43024823,-0.54124284,-6.3419795,1.2690469,-0.09207013,-4.204324,3.411852,-0.16467878,0
0.46000000000000024,16.267570756887967,-5.781848897105706,5.075381239861841,1.0092064200228856,16.949453,-3.4647653,4.4315066,-0.88003427,10.717042,-11.183192,2.828473,-0.6994686,-0.13949873,-0.43094137,-0.5527863,-6.2160788,1.3099726,-0.09566591,-4.4504476,3.6711383,-0.107075885,0
0.47000000000000025,16.267570756887967,-5.781848897105706,5.075381239861841,1.0092064200228856,16.949453,-3.4647653,4.4315066,-0.88003427,10.655492,-11.169854,2.8275077,-0.69440836,-0.112874985,-0.43144578,-0.5647213,-6.0947237,1.3587148,-0.09705351,-4.658202,3.8899777,-0.052299596,0
0.48000000000000026,18.743418064010225,-5.99999589926052,5.713772238374522,1.5901725238572977,17.656513,-3.1962304,4.0474944,-0.32482633,10.59513,-11.15599,2.8265383,-0.68823296,-0.08503133,-0.4316828,-0.57684875,-5.978557,1.4155515,-0.09651123,-4.833566,4.074683,-0.0002111923,0
0.49000000000000027,18.743418064010225,-5.99999589926052,5.713772238374522,1.5901725238572977,17.656513,-3.1962304,4.0474944,-0.32482633,10.535986,-11.141466,2.825659,-0.6807777,-0.055990208,-0.43170366,-0.5890994,-5.8514423,1.49056,-0.07913038,-5.01569,4.3300433,0.077829406,0
0.5000000000000002,18.743418064010225,-5.99999589926052,5.713772238374522,1.5901725238572977,17.656513,-3.1962304,4.0474944,-0.32482633,10.478076,-11.126145,2.8249605,-0.67189246,-0.025790548,-0.43153626,-0.6013911,-5.731855,1.5752586,-0.06042247,-5.169422,4.5455775,0.15204051,0
0.5100000000000002,18.743418064010225,-5.99999589926052,5.713772238374522,1.5901725238572977,17.656513,-3.1962304,4.0474944,-0.32482633,10.421321,-11.109929,2.8244534,-0.66158515,0.0053540943,-0.43108967,-0.61354506,-5.620597,1.6696926,-0.040955096,-5.299185,4.7275004,0.22261007,0
0.5200000000000002,19.456359793675535,-5.566875438537997,4.747596707332397,1.224389045275663,18.03526,-3.1189053,3.6847599,0.20111766,10.365633,-11.092718,2.824142,-0.64986926,0.037251316,-0.43028906,-0.6254064,-5.5184526,1.7737461,-0.021339998,-5.408711,4.881057,0.28971675,0
0.5300000000000002,19.456359793675535,-5.566875438537997,4.747596707332397,1.224389045275663,18.03526,-3.1189053,3.6847599,0.20111766,10.310936,-11.074399,2.8240473,-0.6369726,0.06939166,-0.42893496,-0.63676137,-5.422646,1.8914394,0.002250827,-5.433518,4.860077,0.33558142,0
0.5400000000000003,19.456359793675535,-5.566875438537997,4.747596707332397,1.224389045275663,18.03526,-3.1189053,3.6847599,0.20111766,10.257143,-11.054857,2.8241837,-0.62311924,0.101355,-0.42689124,-0.64746654,-5.3376656,2.0182204,0.024749653,-5.454449,4.842376,0.37919545,0
0.5500000000000003,19.456359793675535,-5.566875438537997,4.747596707332397,1.224389045275663,18.03526,-3.1189053,3.6847599,0.20111766,10.204144,-11.034005,2.824537,-0.60832244,0.13309973,-0.42418674,-0.65749025,-5.2640142,2.153374,0.04559584,-5.472109,4.8274436,0.42066935,0
0.5600000000000003,18.022473459652236,-4.128828535528783,3.1172775337943075,1.014936177377364,18.159481,-3.2135293,2.7646627,0.46460995,10.151822,-11.011763,2.825088,-0.5925987,0.16458525,-0.42084748,-0.6668024,-5.2021337,2.2961397,0.06423495,-5.487008,4.8148465,0.4601081,1
0.5700000000000003,18.022473459652236,-4.128828535528783,3.1172775337943075,1.014936177377364,18.159481,-3.2135293,2.7646627,0.46460995,10.100042,-10.988108,2.825774,-0.576545,0.19473222,-0.41705826,-0.67508304,-5.155629,2.4357026,0.07254542,-5.132365,4.495227,0.460329,1
0.5800000000000003,18.022473459652236,-4.128828535528783,3.1172775337943075,1.014936177377364,18.159481,-3.2135293,2.7646627,0.46460995,10.048673,-10.96303,2.8265288,-0.5607437,0.22271813,-0.41303274,-0.6821778,-5.120074,2.580556,0.07797629,-4.833043,4.2254357,0.46053907,1
0.5900000000000003,18.022473459652236,-4.128828535528783,3.1172775337943075,1.014936177377364,18.159481,-3.2135293,2.7646627,0.46460995,9.997606,-10.936482,2.8273227,-0.54517746,0.2488542,-0.40882102,-0.6882717,-5.0949945,2.7297273,0.08030273,-4.580413,3.997704,0.46073884,1
0.6000000000000003,15.424268354855354,-2.431734469396468,1.1850748521571979,0.736470109045761,17.971895,-2.952052,2.0102904,-0.030664477,9.946738,-10.908424,2.8281236,-0.52981925,0.27340388,-0.40445673,-0.69351,-5.0799513,2.8823814,0.0793517,-4.367191,3.8054755,0.46092883,0
0.6100000000000003,15.424268354855354,-2.431734469396468,1.1850748521571979,0.736470109045761,17.971895,-2.952052,2.0102904,-0.030664477,9.895968,-10.8789425,2.828827,-0.5149629,0.2959756,-0.3998618,-0.6980843,-5.0753202,3.014366,0.06089821,-4.0652647,3.3968801,0.4744497,0
0.6200000000000003,15.424268354855354,-2.431734469396468,1.1850748521571979,0.736470109045761,17.971895,-2.952052,2.0102904,-0.030664477,9.845206,-10.848131,2.8293319,-0.5008563,0.31628382,-0.3950029,-0.70219636,-5.078303,3.1480255,0.03968797,-3.810436,3.051997,0.4873071,0
0.6300000000000003,15.424268354855354,-2.431734469396468,1.1850748521571979,0.736470109045761,17.971895,-2.952052,2.0102904,-0.030664477,9.794378,-10.815978,2.8296115,-0.48739964,0.3346753,-0.38995284,-0.7059534,-5.08836,3.2827969,0.01589948,-3.5953581,2.760891,0.49953356,0
0.6400000000000003,15.424268354855354,-2.431734469396468,1.1850748521571979,0.736470109045761,16.746153,-2.8381307,1.2955582,0.18530461,9.743417,-10.782474,2.8296413,-0.4744994,0.35144162,-0.3847644,-0.70943284,-5.1050215,3.4182203,-0.010297658,-3.413831,2.5151763,0.51116014,0
0.6500000000000004,15.424268354855354,-2.431734469396468,1.1850748521571979,0.736470109045761,16.746153,-2.8381307,1.2955582,0.18530461,9.692258,-10.747613,2.829398,-0.46206984,0.36682737,-0.37947538,-0.71269,-5.127878,3.5539184,-0.03874733,-3.2606215,2.307775,0.52221614,0
0.6600000000000004,15.424268354855354,-2.431734469396468,1.1850748521571979,0.736470109045761,16.746153,-2.8381307,1.2955582,0.18530461,9.64084,-10.711394,2.8288593,-0.45003417,0.3810379,-0.37411276,-0.7157642,-5.1565742,3.6895761,-0.06930901,-3.1313121,2.1327128,0.5327296,0
0.6700000000000004,15.424268354855354,-2.431734469396468,1.1850748521571979,0.736470109045761,16.746153,-2.8381307,1.2955582,0.18530461,9.5891075,-10.673821,2.828005,-0.43832442,0.39424548,-0.36869544,-0.718683,-5.190799,3.8249273,-0.10185837,-3.022175,1.9849476,0.54272723,0
0.6800000000000004,13.609097496249015,-0.9095798825542551,-0.5752429372375611,0.4737441764222354,16.503658,-2.456799,0.3807002,0.44784245,9.537005,-10.634897,2.8268158,-0.42688125,0.40659454,-0.36323646,-0.7214651,-5.230284,3.959743,-0.13628681,-2.9300637,1.8602225,0.55223423,0
0.6900000000000004,13.609097496249015,-0.9095798825542551,-0.5752429372375611,0.4737441764222354,16.503658,-2.456799,0.3807002,0.44784245,9.48451,-10.5947075,2.825237,-0.41618547,0.41745546,-0.3578769,-0.7241851,-5.269508,4.0780463,-0.1797513,-2.6148298,1.480533,0.54838264,0
0.7000000000000004,13.609097496249015,-0.9095798825542551,-0.5752429372375611,0.4737441764222354,16.503658,-2.456799,0.3807002,0.44784245,9.431603,-10.553339,2.8232167,-0.4066353,0.4263564,-0.3527477,-0.72693634,-5.3126307,4.195565,-0.22447196,-2.3487797,1.1600362,0.5447201,0
0.7100000000000004,13.609097496249015,-0.9095798825542551,-0.5752429372375611,0.4737441764222354,16.503658,-2.456799,0.3807002,0.44784245,9.378246,-10.510799,2.8207445,-0.3980663,0.43361723,-0.3478368,-0.7297454,-5.359151,4.31221,-0.27013317,-2.1242392,0.88950485,0.5412373,0
0.7200000000000004,12.474384946081287,0.6772246635385061,-1.989762688555315,0.23474962085142506,15.22317,-1.6486273,-0.19983996,0.27039263,9.324409,-10.467098,2.817812,-0.39033416,0.43950352,-0.34312734,-0.7326247,-5.408647,4.427924,-0.31646085,-1.9347317,0.6611493,0.5379254,0
0.7300000000000004,12.474384946081287,0.6772246635385061,-1.989762688555315,0.23474962085142506,15.22317,-1.6486273,-0.19983996,0.27039263,9.270084,-10.422293,2.8143926,-0.3838104,0.44358662,-0.33883542,-0.7356021,-5.45638,4.5331154,-0.36747628,-1.5272511,0.24789885,0.52304846,0
0.7400000000000004,12.474384946081287,0.6772246635385061,-1.989762688555315,0.23474962085142506,15.22317,-1.6486273,-0.19983996,0.27039263,9.215274,-10.376439,2.8104625,-0.37878904,0.44554588,-0.33513656,-0.7387087,-5.5059376,4.637474,-0.4185229,-1.1833462,-0.1009352,0.5089015,0
0.7500000000000004,12.474384946081287,0.6772246635385061,-1.989762688555315,0.23474962085142506,15.22317,-1.6486273,-0.19983996,0.27039263,9.159961,-10.329545,2.8060231,-0.37504488,0.44572443,-0.33195284,-0.74194175,-5.55679,4.74107,-0.46926463,-0.8930972,-0.39539272,0.49544877,0
0.7600000000000005,11.83753362549367,1.843783195902636,-3.189358166696723,-0.00025062323379597607,14.696846,-1.0162748,-1.0672309,0.30599388,9.1041355,-10.281619,2.801079,-0.37238258,0.44440532,-0.32921183,-0.7452877,-5.60849,4.8439727,-0.5194171,-0.64813143,-0.6439493,0.48265618,0
0.7700000000000005,11.83753362549367,1.843783195902636,-3.189358166696723,-0.00025062323379597607,14.696846,-1.0162748,-1.0672309,0.30599388,9.047803,-10.232694,2.7956252,-0.3710201,0.44130036,-0.32700497,-0.7487756,-5.6579676,4.941032,-0.57121277,-0.2594098,-1.0407778,0.4589598,0
0.7800000000000005,11.83753362549367,1.843783195902636,-3.189358166696723,-0.00025062323379597607,14.696846,-1.0162748,-1.0672309,0.30599388,8.990976,-10.1828,2.7896588,-0.37111726,0.43618757,-0.3253968,-0.752415,-5.7073627,5.037592,-0.62189084,0.06866215,-1.3757503,0.4364262,0
0.7900000000000005,11.83753362549367,1.843783195902636,-3.189358166696723,-0.00025062323379597607,14.696846,-1.0162748,-1.0672309,0.30599388,8.933657,-10.131945,2.7831924,-0.37243733,0.42936823,-0.3242869,-0.7561551,-5.7561903,5.1337357,-0.6711574,0.34554866,-1.6585073,0.41499835,0
0.8000000000000005,11.887275268936932,2.4028809059126317,-3.7155847596239715,-0.17700768101406297,14.417892,-0.514498,-1.3214359,-0.18223992,8.875855,-10.080128,2.7762413,-0.3747768,0.42109233,-0.32358584,-0.759944,-5.8040314,5.2295218,-0.718775,0.5792369,-1.897187,0.39462197,0
0.8100000000000005,11.887275268936932,2.4028809059126317,-3.7155847596239715,-0.17700768101406297,14.417892,-0.514498,-1.3214359,-0.18223992,8.817581,-10.027353,2.768824,-0.3781391,0.4113304,-0.32329658,-0.7637385,-5.850704,5.32539,-0.7643277,0.8636664,-2.1807075,0.36657193,0
0.8200000000000005,11.887275268936932,2.4028809059126317,-3.7155847596239715,-0.17700768101406297,14.417892,-0.514498,-1.3214359,-0.18223992,8.758849,-9.973621,2.7609615,-0.3825126,0.40006426,-0.3234114,-0.76748735,-5.895594,5.420964,-0.80783266,1.1037213,-2.4200325,0.3398983,0
0.8300000000000005,11.887275268936932,2.4028809059126317,-3.7155847596239715,-0.17700768101406297,14.417892,-0.514498,-1.3214359,-0.18223992,8.699677,-9.918936,2.7526748,-0.38771525,0.38750136,-0.3238424,-0.7711321,-5.9383087,5.516246,-0.8491296,1.306326,-2.6220498,0.31453356,0
0.8400000000000005,11.887275268936932,2.4028809059126317,-3.7155847596239715,-0.17700768101406297,13.812569,-0.7014663,-1.2303467,-0.31912246,8.640092,-9.863298,2.7439866,-0.3935915,0.37381694,-0.32451358,-0.77462035,-5.978505,5.6112103,-0.8881046,1.4773242,-2.792574,0.29041353,0
0.8500000000000005,11.887275268936932,2.4028809059126317,-3.7155847596239715,-0.17700768101406297,13.812569,-0.7014663,-1.2303467,-0.31912246,8.580118,-9.806713,2.7349207,-0.40000868,0.35915983,-0.32535976,-0.7779058,-6.0158796,5.7058043,-0.92468476,1.6216476,-2.936514,0.26747704,0
0.8600000000000005,11.887275268936932,2.4028809059126317,-3.7155847596239715,-0.17700768101406297,13.812569,-0.7014663,-1.2303467,-0.31912246,8.519786,-9.749185,2.725501,-0.40685377,0.3436572,-0.32632533,-0.7809486,-6.050165,5.799954,-0.9588326,1.7434582,-3.0580132,0.24566603,0
0.8700000000000006,11.887275268936932,2.4028809059126317,-3.7155847596239715,-0.17700768101406297,13.812569,-0.7014663,-1.2303467,-0.31912246,8.4591255,-9.690717,2.7157521,-0.4140305,0.3274182,-0.32736304,-0.78371465,-6.0811253,5.8935647,-0.99054176,1.8462685,-3.1605697,0.2249253,0
0.8800000000000006,11.991695996866552,2.1806478760112356,-3.5830428732665593,-0.25959238353016845,13.25457,-0.65503705,-0.8504758,-0.081056535,8.398174,-9.631316,2.7056983,-0.42145678,0.31053704,-0.32843304,-0.78617543,-6.108553,5.986529,-1.0198331,1.9330429,-3.247136,0.20520233,0
0.8900000000000006,11.991695996866552,2.1806478760112356,-3.5830428732665593,-0.25959238353016845,13.25457,-0.65503705,-0.8504758,-0.081056535,8.336965,-9.570985,2.6953666,-0.42902675,0.2931784,-0.32945135,-0.7883168,-6.132482,6.079532,-1.0461265,1.9716148,-3.2995448,0.18239471,0
0.9000000000000006,11.991695996866552,2.1806478760112356,-3.5830428732665593,-0.25959238353016845,13.25457,-0.65503705,-0.8504758,-0.081056535,8.275537,-9.509729,2.684784,-0.4366571,0.2754819,-0.33035165,-0.79013115,-6.152549,6.1716213,-1.0700967,2.0041716,-3.3437805,0.16070627,0
0.9100000000000006,11.991695996866552,2.1806478760112356,-3.5830428732665593,-0.25959238353016845,13.25457,-0.65503705,-0.8504758,-0.081056535,8.213927,-9.447557,2.6739726,-0.4443134,0.2574894,-0.33112663,-0.79160535,-6.1686597,6.2626543,-1.0918303,2.0316515,-3.3811178,0.14008209,0
0.9200000000000006,12.177650347487319,1.4501054292509243,-2.9432166534965516,-0.24596494099339583,13.081417,-0.9009826,-0.49350336,0.002627518,8.152177,-9.38448,2.662955,-0.45196578,0.23923792,-0.33177057,-0.7927292,-6.180735,6.3524847,-1.1114255,2.0548465,-3.412632,0.12046994,0
0.9300000000000006,12.177650347487319,1.4501054292509243,-2.9432166534965516,-0.24596494099339583,13.081417,-0.9009826,-0.49350336,0.002627518,8.090324,-9.320506,2.6517575,-0.4594359,0.22109658,-0.3321655,-0.7935364,-6.1888547,6.4423394,-1.1277463,1.9604928,-3.3394573,0.10248889,0
0.9400000000000006,12.177650347487319,1.4501054292509243,-2.9432166534965516,-0.24596494099339583,13.081417,-0.9009826,-0.49350336,0.002627518,8.028411,-9.25564,2.6404066,-0.46659517,0.20336765,-0.33222654,-0.794075,-6.1929135,6.5306954,-1.142153,1.8808576,-3.2776902,0.085390165,0
0.9500000000000006,12.177650347487319,1.4501054292509243,-2.9432166534965516,-0.24596494099339583,13.081417,-0.9009826,-0.49350336,0.002627518,7.9664783,-9.1898985,2.6289206,-0.4734848,0.18599011,-0.33199352,-0.79435456,-6.193028,6.617435,-1.1547891,1.813645,-3.225552,0.06913047,0
0.9600000000000006,11.910774220474533,0.36711118270759174,-2.1322421314339817,-0.11794468056966201,11.768532,-1.4396656,0.10286723,0.0471532,7.904564,-9.123299,2.6173162,-0.48013788,0.16891192,-0.33149987,-0.7943823,-6.1893,6.70245,-1.1657885,1.7569171,-3.1815422,0.053668644,0
0.9700000000000006,11.910774220474533,0.36711118270759174,-2.1322421314339817,-0.11794468056966201,11.768532,-1.4396656,0.10286723,0.0471532,7.842705,-9.055865,2.6055999,-0.48639283,0.1525514,-0.3305906,-0.79426634,-6.182015,6.7838197,-1.177222,1.5401553,-3.0179207,0.045247525,0
0.9800000000000006,11.910774220474533,0.36711118270759174,-2.1322421314339817,-0.11794468056966201,11.768532,-1.4396656,0.10286723,0.0471532,7.7809362,-8.987628,2.5937762,-0.49213895,0.13724294,-0.3291539,-0.7941161,-6.1713576,6.863347,-1.1873035,1.3572006,-2.8798122,0.03723963,0
0.9900000000000007,11.910774220474533,0.36711118270759174,-2.1322421314339817,-0.11794468056966201,11.768532,-1.4396656,0.10286723,0.0471532,7.71929,-8.918604,2.5818582,-0.49746603,0.12283087,-0.32727242,-0.7939344,-6.1576157,6.9409914,-1.1961395,1.2027801,-2.763239,0.029624686,0
1.0000000000000007,11.676459324353479,-0.7828302413864576,-1.1308687626477005,0.10492554724244368,10.950056,-1.9383187,0.72472,0.44490644,7.6577945,-8.848815,2.5698576,-0.5024464,0.10918187,-0.32501465,-0.79371995,-6.1410327,7.0167212,-1.20382,1.0724435,-2.664843,0.022383414,0
1.0100000000000007,11.676459324353479,-0.7828302413864576,-1.1308687626477005,0.10492554724244368,10.950056,-1.9383187,0.72472,0.44490644,7.5964766,-8.778284,2.5577767,-0.5069406,0.096723646,-0.3222786,-0.7935939,-6.1222267,7.089068,-1.2122233,0.78311753,-2.4256227,0.026433788,0
1.0200000000000007,11.676459324353479,-0.7828302413864576,-1.1308687626477005,0.10492554724244368,10.950056,-1.9383187,0.72472,0.44490644,7.535358,-8.70704,2.5456166,-0.5108522,0.08579086,-0.31899318,-0.7936702,-6.101248,7.1595592,-1.219636,0.5389111,-2.223709,0.03028539,0
1.0300000000000007,11.676459324353479,-0.7828302413864576,-1.1308687626477005,0.10492554724244368,10.950056,-1.9383187,0.72472,0.44490644,7.474458,-8.6351,2.5333872,-0.51428854,0.07615154,-0.31525016,-0.7939298,-6.0784736,7.2282524,-1.2261062,0.3327877,-2.0532846,0.033948004,0
1.0400000000000007,11.676459324353479,-0.7828302413864576,-1.1308687626477005,0.10492554724244368,10.93442,-2.59182,1.457457,0.8592456,7.4137936,-8.562481,2.5210977,-0.51733506,0.06760815,-0.31112453,-0.79435134,-6.0542216,7.2952013,-1.2316688,0.15880886,-1.909438,0.037430905,0
1.0500000000000007,11.676459324353479,-0.7828302413864576,-1.1308687626477005,0.10492554724244368,10.93442,-2.59182,1.457457,0.8592456,7.353378,-8.489201,2.5087569,-0.5200601,0.059992727,-0.30667788,-0.7949126,-6.02876,7.360456,-1.2363498,0.011961684,-1.788024,0.040742893,0
1.0600000000000007,11.676459324353479,-0.7828302413864576,-1.1308687626477005,0.10492554724244368,10.93442,-2.59182,1.457457,0.8592456,7.2932215,-8.415277,2.4963737,-0.5225186,0.053162675,-0.30196106,-0.795592,-6.0023136,7.4240594,-1.240169,-0.11198476,-1.6855446,0.04389236,0
1.0700000000000007,11.676459324353479,-0.7828302413864576,-1.1308687626477005,0.10492554724244368,10.93442,-2.59182,1.457457,0.8592456,7.2333336,-8.340725,2.4839563,-0.5247545,0.046997044,-0.2970161,-0.7963695,-5.975074,7.486049,-1.2431432,-0.21660213,-1.5990466,0.046887275,0
1.0800000000000007,11.70054951852779,-1.776590892271876,-0.1482043415356353,0.4129033759378603,11.097147,-2.813368,1.8862984,0.94860846,7.173722,-8.265561,2.4715135,-0.5268037,0.041393332,-0.29187799,-0.7972269,-5.9472013,7.546458,-1.2452866,-0.30490452,-1.5260377,0.049735233,0
1.0900000000000007,11.70054951852779,-1.776590892271876,-0.1482043415356353,0.4129033759378603,11.097147,-2.813368,1.8862984,0.94860846,7.1143913,-8.1898,2.4590542,-0.5285353,0.036777083,-0.28646794,-0.7982688,-5.9188013,7.605444,-1.2464119,-0.53440475,-1.3111788,0.067556,0
1.1000000000000008,11.70054951852779,-1.776590892271876,-0.1482043415356353,0.4129033759378603,11.097147,-2.813368,1.8862984,0.94860846,7.0553465,-8.113458,2.4465878,-0.5298484,0.033480853,-0.28072616,-0.7995821,-5.8902245,7.662979,-1.2467209,-0.7281183,-1.1298302,0.084502295,0
1.1100000000000008,11.70054951852779,-1.776590892271876,-0.1482043415356353,0.4129033759378603,11.097147,-2.813368,1.8862984,0.94860846,6.996587,-8.036546,2.4341223,-0.530807,0.031298924,-0.27470383,-0.80112493,-5.8617706,7.7191668,-1.2462136,-0.891625,-0.9767647,0.10061702,0
1.1200000000000008,12.052026402183987,-2.681092770338242,0.7373073127046939,0.7187945514480066,11.792593,-3.3966897,2.6589873,1.3022624,6.93811,-7.9590793,2.4216661,-0.53146213,0.030057231,-0.26844302,-0.80285865,-5.833693,7.774093,-1.244891,-1.029635,-0.8475704,0.115940996,0
1.1300000000000008,12.052026402183987,-2.681092770338242,0.7373073127046939,0.7187945514480066,11.792593,-3.3966897,2.6589873,1.3022624,6.879915,-7.8810606,2.4092424,-0.5317187,0.030075604,-0.2618771,-0.80485415,-5.805406,7.829454,-1.2397441,-1.2871855,-0.60045356,0.14552319,0
1.1400000000000008,12.052026402183987,-2.681092770338242,0.7373073127046939,0.7187945514480066,11.792593,-3.3966897,2.6589873,1.3022624,6.821998,-7.802494,2.3968744,-0.53149825,0.031599347,-0.25495297,-0.8071613,-5.7781057,7.8837256,-1.2337573,-1.5045767,-0.39187855,0.17365378,0
1.1500000000000008,12.052026402183987,-2.681092770338242,0.7373073127046939,0.7187945514480066,11.792593,-3.3966897,2.6589873,1.3022624,6.764348,-7.723389,2.3845704,-0.53085804,0.034391962,-0.24772035,-0.8097164,-5.7521424,7.9370317,-1.2269326,-1.6880697,-0.21583275,0.20040399,0
1.1600000000000008,12.84053539984278,-3.342411825906613,1.2722857597297597,1.0158758740741411,12.840937,-3.477865,3.9637446,1.62314,6.7069497,-7.6437564,2.3723385,-0.52984345,0.038253415,-0.24022056,-0.81246275,-5.7278113,7.989468,-1.2192819,-1.8429492,-0.06724164,0.22584155,0
1.1700000000000008,12.84053539984278,-3.342411825906613,1.2722857597297597,1.0158758740741411,12.840937,-3.477865,3.9637446,1.62314,6.6497927,-7.563586,2.3602223,-0.5283987,0.043319896,-0.23238721,-0.8154223,-5.7039165,8.044493,-1.2038534,-2.0768237,0.14157039,0.26460877,0
1.1800000000000008,12.84053539984278,-3.342411825906613,1.2722857597297597,1.0158758740741411,12.840937,-3.477865,3.9637446,1.62314,6.592863,-7.4828696,2.3482645,-0.5264717,0.049689226,-0.22416691,-0.8186006,-5.682403,8.098767,-1.1875912,-2.2742293,0.31781644,0.30147365,0
1.1900000000000008,12.84053539984278,-3.342411825906613,1.2722857597297597,1.0158758740741411,12.840937,-3.477865,3.9637446,1.62314,6.536135,-7.401613,2.336473,-0.5241,0.0571532,-0.21560912,-0.82192737,-5.6636086,8.152368,-1.1705348,-2.4408514,0.46657705,0.33652955,0
1.2000000000000008,13.777244382187599,-3.641982311399102,1.4959710389755199,1.2388233613869857,13.65259,-3.780352,3.637463,1.8466147,6.4795804,-7.319824,2.324856,-0.52131414,0.06553537,-0.20675606,-0.825341,-5.6478214,8.205342,-1.1527401,-2.5814893,0.5921401,0.3698653,0
1.2100000000000009,13.777244382187599,-3.641982311399102,1.4959710389755199,1.2388233613869857,13.65259,-3.780352,3.637463,1.8466147,6.4231725,-7.237489,2.3134632,-0.51808935,0.07481668,-0.19759306,-0.82881963,-5.634381,8.261539,-1.1257746,-2.7469265,0.7329761,0.41250536,0
1.2200000000000009,13.777244382187599,-3.641982311399102,1.4959710389755199,1.2388233613869857,13.65259,-3.780352,3.637463,1.8466147,6.3668804,-7.1545954,2.302343,-0.51440054,0.08497259,-0.18810996,-0.83233744,-5.6247196,8.317114,-1.0981839,-2.8865643,0.8518511,0.45305303,0
1.2300000000000009,13.777244382187599,-3.641982311399102,1.4959710389755199,1.2388233613869857,13.65259,-3.780352,3.637463,1.8466147,6.3106647,-7.071149,2.291501,-0.5102707,0.095857106,-0.17834696,-0.835839,-5.619094,8.372066,-1.0700752,-3.0044246,0.9521912,0.491611,0
1.2400000000000009,13.777244382187599,-3.641982311399102,1.4959710389755199,1.2388233613869857,14.339497,-3.7682886,3.2038608,1.8294177,6.254484,-6.9871564,2.2809427,-0.50571984,0.10734608,-0.16833918,-0.83927673,-5.6177187,8.426373,-1.041571,-3.1039033,1.0368874,0.528277,0
1.2500000000000009,13.777244382187599,-3.641982311399102,1.4959710389755199,1.2388233613869857,14.339497,-3.7682886,3.2038608,1.8294177,6.1982956,-6.9026237,2.2706707,-0.50076544,0.11933382,-0.1581175,-0.84261,-5.6207705,8.479999,-1.0128068,-3.1878662,1.1083801,0.5631437,0
1.260000000000001,13.777244382187599,-3.641982311399102,1.4959710389755199,1.2388233613869857,14.339497,-3.7682886,3.2038608,1.8294177,6.1420536,-6.8175592,2.2606869,-0.4954233,0.13173023,-0.1477092,-0.8458039,-5.628394,8.532891,-0.9839278,-3.2587328,1.1687282,0.59629947,0
1.270000000000001,13.777244382187599,-3.641982311399102,1.4959710389755199,1.2388233613869857,14.339497,-3.7682886,3.2038608,1.8294177,6.085712,-6.7319694,2.2509918,-0.4897077,0.14445838,-0.13713858,-0.8488289,-5.6407037,8.58499,-0.9550882,-3.3185453,1.21967,0.6278283,0
1.280000000000001,14.184545562167886,-3.515011342611924,1.4058595273104872,1.287293502023819,15.47402,-3.0387487,2.4436774,1.570781,6.029223,-6.645863,2.2415843,-0.483632,0.15745252,-0.12642728,-0.8516597,-5.6577883,8.63622,-0.92644876,-3.3690276,1.2626727,0.65781003,0
1.290000000000001,14.184545562167886,-3.515011342611924,1.4058595273104872,1.287293502023819,15.47402,-3.0387487,2.4436774,1.570781,5.972536,-6.5592413,2.2324803,-0.47721648,0.17060044,-0.115621716,-0.85427797,-5.6803575,8.687988,-0.8944383,-3.391829,1.2849244,0.68869895,0
1.300000000000001,14.184545562167886,-3.515011342611924,1.4058595273104872,1.287293502023819,15.47402,-3.0387487,2.4436774,1.570781,5.9155984,-6.472107,2.2236938,-0.47048002,0.18381031,-0.10476174,-0.8566718,-5.7079234,8.738691,-0.86297244,-3.4110727,1.3037103,0.7180721,0
1.310000000000001,14.184545562167886,-3.515011342611924,1.4058595273104872,1.287293502023819,15.47402,-3.0387487,2.4436774,1.570781,5.8583603,-6.3844714,2.2152188,-0.4634327,0.1970572,-0.09385667,-0.8588299,-5.7404823,8.788236,-0.8322186,-3.4273133,1.3195705,0.746004,0
1.320000000000001,14.691922490592805,-3.101117653308368,0.825205431554466,1.2718643957784364,15.818071,-2.6855912,1.8959479,1.5456562,5.800771,-6.296346,2.2070465,-0.45608413,0.2103194,-0.082915165,-0.8607424,-5.7780156,8.836525,-0.80234426,-3.4410193,1.3329608,0.77256525,0
1.330000000000001,14.691922490592805,-3.101117653308368,0.825205431554466,1.2718643957784364,15.818071,-2.6855912,1.8959479,1.5456562,5.742775,-6.207737,2.1991909,-0.44850063,0.22330342,-0.07198249,-0.86243874,-5.821995,8.885135,-0.76896876,-3.3879921,1.2537491,0.79706603,0
1.340000000000001,14.691922490592805,-3.101117653308368,0.825205431554466,1.2718643957784364,15.818071,-2.6855912,1.8959479,1.5456562,5.6843143,-6.118649,2.1916633,-0.44074127,0.23577876,-0.06109866,-0.86395705,-5.870926,8.932205,-0.7367879,-3.3432379,1.1868902,0.82036453,0
1.350000000000001,14.691922490592805,-3.101117653308368,0.825205431554466,1.2718643957784364,15.818071,-2.6855912,1.8959479,1.5456562,5.62534,-6.0290985,2.1844506,-0.43280494,0.24781254,-0.050263546,-0.8652987,-5.9246345,8.977604,-0.7059013,-3.3054655,1.1304581,0.84251976,0
1.360000000000001,14.466351046091084,-2.381476423088315,-0.14454402863845356,1.098583082362255,16.246351,-2.3966982,0.63600624,1.4801725,5.5658054,-5.939103,2.17754,-0.4246914,0.25946105,-0.039476868,-0.86646295,-5.982956,9.021209,-0.67640644,-3.2735863,1.0828266,0.86358786,0
1.370000000000001,14.466351046091084,-2.381476423088315,-0.14454402863845356,1.098583082362255,16.246351,-2.3966982,0.63600624,1.4801725,5.5056705,-5.8486843,2.1709075,-0.41651165,0.27031547,-0.028818931,-0.8675346,-6.044748,9.06226,-0.6503199,-3.1343615,0.89147335,0.87511915,0
1.380000000000001,14.466351046091084,-2.381476423088315,-0.14454402863845356,1.098583082362255,16.246351,-2.3966982,0.63600624,1.4801725,5.444897,-5.7578654,2.1645286,-0.40836278,0.28006077,-0.018356621,-0.86860114,-6.1105886,9.10129,-0.62566954,-3.0168626,0.7299524,0.88608456,0
1.390000000000001,14.466351046091084,-2.381476423088315,-0.14454402863845356,1.098583082362255,16.246351,-2.3966982,0.63600624,1.4801725,5.383446,-5.666666,2.158389,-0.40022594,0.28886592,-0.008070281,-0.8696607,-6.1801496,9.138166,-0.60241336,-2.9177,0.5936123,0.8965119,0
1.400000000000001,14.143982219217838,-1.5719315428885987,-1.1346352178129524,0.809965866884174,15.987968,-1.8139937,0.2406876,1.2035458,5.3212824,-5.575109,2.1524756,-0.3920848,0.29687274,0.002057872,-0.8707072,-6.2531447,9.172784,-0.5805156,-2.8340123,0.4785277,0.90642756,0
1.410000000000001,14.143982219217838,-1.5719315428885987,-1.1346352178129524,0.809965866884174,15.987968,-1.8139937,0.2406876,1.2035458,5.258381,-5.4832215,2.1467612,-0.38405308,0.30372995,0.011926301,-0.8718419,-6.3275986,9.204325,-0.5625739,-2.6370423,0.22708021,0.9016942,0
1.420000000000001,14.143982219217838,-1.5719315428885987,-1.1346352178129524,0.809965866884174,15.987968,-1.8139937,0.2406876,1.2035458,5.194721,-5.391031,2.1412203,-0.37622753,0.3091708,0.021454101,-0.87315816,-6.4047484,9.233467,-0.5457705,-2.4708142,0.014826283,0.8971931,0
1.430000000000001,14.143982219217838,-1.5719315428885987,-1.1346352178129524,0.809965866884174,15.987968,-1.8139937,0.2406876,1.2035458,5.1302786,-5.2985606,2.1358423,-0.3685715,0.31341735,0.030684996,-0.8746326,-6.4842076,9.260132,-0.52994275,-2.33053,-0.1643432,0.89291286,0
1.440000000000001,14.143982219217838,-1.5719315428885987,-1.1346352178129524,0.809965866884174,15.843615,-1.2987304,-0.21406557,0.90461034,5.0650306,-5.205837,2.1306183,-0.36105293,0.3166553,0.039657272,-0.8762401,-6.5656466,9.284256,-0.5149493,-2.2121398,-0.3155851,0.88884264,0
1.450000000000001,14.143982219217838,-1.5719315428885987,-1.1346352178129524,0.809965866884174,15.843615,-1.2987304,-0.21406557,0.90461034,4.99896,-5.1128845,2.1255407,-0.35364437,0.31904033,0.048404317,-0.8779551,-6.6487823,9.30579,-0.50066924,-2.112227,-0.44325233,0.8849721,0
1.460000000000001,14.143982219217838,-1.5719315428885987,-1.1346352178129524,0.809965866884174,15.843615,-1.2987304,-0.21406557,0.90461034,4.9320507,-5.0197296,2.1206028,-0.3463225,0.32070276,0.05695517,-0.87975323,-6.7333694,9.324693,-0.48700047,-2.0279076,-0.5510196,0.88129157,0
1.470000000000001,14.143982219217838,-1.5719315428885987,-1.1346352178129524,0.809965866884174,15.843615,-1.2987304,-0.21406557,0.90461034,4.864289,-4.926399,2.115799,-0.33906764,0.32175204,0.065335,-0.8816117,-6.819194,9.340936,-0.47385803,-1.9567475,-0.6419889,0.87779164,0
1.480000000000001,14.167617483906945,-0.7610634051706507,-1.6843028922926964,0.4877278280246547,16.805609,-1.1088219,-0.9712024,0.7403327,4.7956634,-4.83292,2.1111243,-0.33186334,0.32227996,0.073565565,-0.8835098,-6.9060683,9.354493,-0.46117228,-1.8966933,-0.7187785,0.87446344,0
1.490000000000001,14.167617483906945,-0.7610634051706507,-1.6843028922926964,0.4877278280246547,16.805609,-1.1088219,-0.9712024,0.7403327,4.726164,-4.739319,2.1065753,-0.3248196,0.32205972,0.08146405,-0.8855126,-6.9939566,9.365371,-0.44868815,-1.7195175,-0.8692294,0.8554863,0
1.500000000000001,14.167617483906945,-0.7610634051706507,-1.6843028922926964,0.4877278280246547,16.805609,-1.1088219,-0.9712024,0.7403327,4.6557827,-4.645622,2.1021497,-0.3180278,0.32091838,0.08888663,-0.8876756,-7.0824423,9.373579,-0.43645,-1.5699879,-0.9962378,0.8374403,0
1.5100000000000011,14.167617483906945,-0.7610634051706507,-1.6843028922926964,0.4877278280246547,16.805609,-1.1088219,-0.9712024,0.7403327,4.584514,-4.551856,2.0978458,-0.3114499,0.31899834,0.09590364,-0.8899666,-7.1712556,9.379165,-0.42431116,-1.4437903,-1.1034561,0.82027984,0
1.5200000000000011,13.213909989417242,-1.6091086551697953e-05,-2.2683912833957995,0.13337488882452272,16.056694,-0.6740242,-1.4968932,0.4103475,4.512357,-4.458048,2.0936635,-0.3050534,0.3164187,0.10257496,-0.89235586,-7.260165,9.382172,-0.41214922,-1.3372837,-1.1939678,0.80396146,0
1.5300000000000011,13.213909989417242,-1.6091086551697953e-05,-2.2683912833957995,0.13337488882452272,16.056694,-0.6740242,-1.4968932,0.4103475,4.439341,-4.3642225,2.0895662,-0.29892176,0.3129739,0.108764045,-0.8949092,-7.3429756,9.382615,-0.40728042,-1.1286789,-1.3613901,0.77105564,0
1.5400000000000011,13.213909989417242,-1.6091086551697953e-05,-2.2683912833957995,0.13337488882452272,16.056694,-0.6740242,-1.4968932,0.4103475,4.3654985,-4.270404,2.085519,-0.29312256,0.30850625,0.11436496,-0.8976763,-7.4253974,9.380773,-0.40211552,-0.9526241,-1.5027286,0.73976445,0
1.5500000000000012,13.213909989417242,-1.6091086551697953e-05,-2.2683912833957995,0.13337488882452272,16.056694,-0.6740242,-1.4968932,0.4103475,4.290835,-4.1766148,2.0815258,-0.2876087,0.3031714,0.119466156,-0.90060824,-7.50716,9.376725,-0.39649087,-0.8040392,-1.6220461,0.71000874,0
1.5600000000000012,12.359969435839961,0.6194030352060668,-2.688327879386591,-0.22439173899362302,15.736784,0.40774748,-2.432943,-0.19191816,4.2153583,-4.0828767,2.0775912,-0.28234014,0.2970996,0.12414254,-0.9036612,-7.5880303,9.370546,-0.3902738,-0.6786373,-1.7227727,0.6817131,0
1.5700000000000012,12.359969435839961,0.6194030352060668,-2.688327879386591,-0.22439173899362302,15.736784,0.40774748,-2.432943,-0.19191816,4.1391044,-3.9892082,2.0736887,-0.27737466,0.29017287,0.1282934,-0.9068643,-7.662638,9.362842,-0.3901359,-0.47619593,-1.8732466,0.63725024,0
1.5800000000000012,12.359969435839961,0.6194030352060668,-2.688327879386591,-0.22439173899362302,15.736784,0.40774748,-2.432943,-0.19191816,4.0621104,-3.895626,2.0697913,-0.2727587,0.28230217,0.13184163,-0.9102335,-7.7359643,9.353308,-0.38919663,-0.30534002,-2.0002785,0.5949692,0
1.5900000000000012,12.359969435839961,0.6194030352060668,-2.688327879386591,-0.22439173899362302,15.736784,0.40774748,-2.432943,-0.19191816,3.9843905,-3.8021479,2.065908,-0.26844504,0.2736266,0.1348776,-0.91371375,-7.80777,9.342042,-0.3873294,-0.16114049,-2.107519,0.5547629,0
1.6000000000000012,11.832503013735579,0.9317548342683103,-2.912795423310957,-0.5646272806088329,14.665142,0.5173307,-2.226441,-0.5341137,3.905961,-3.7087908,2.0620484,-0.26439363,0.2642631,0.13747767,-0.9172568,-7.8778453,9.329131,-0.38443878,-0.03943706,-2.1980505,0.51652956,0
1.6100000000000012,11.832503013735579,0.9317548342683103,-2.912795423310957,-0.5646272806088329,14.665142,0.5173307,-2.226441,-0.5341137,3.8268547,-3.6155674,2.0582013,-0.2606291,0.25418895,0.13962595,-0.92084974,-7.9430914,9.315277,-0.3848084,0.11197768,-2.309467,0.46347687,0
1.6200000000000012,11.832503013735579,0.9317548342683103,-2.912795423310957,-0.5646272806088329,14.665142,0.5173307,-2.226441,-0.5341137,3.7471063,-3.5224903,2.054356,-0.2571722,0.24338987,0.14131299,-0.9244748,-8.006302,9.300014,-0.38405657,0.23977102,-2.4035249,0.4130275,0
1.6300000000000012,11.832503013735579,0.9317548342683103,-2.912795423310957,-0.5646272806088329,14.665142,0.5173307,-2.226441,-0.5341137,3.6667364,-3.429572,2.0505242,-0.25398624,0.23196836,0.14260669,-0.92808634,-8.067289,9.283426,-0.38212898,0.34762937,-2.482927,0.3650537,0
1.6400000000000012,11.832503013735579,0.9317548342683103,-2.912795423310957,-0.5646272806088329,14.333612,0.7763804,-2.2805529,-0.7156215,3.5857682,-3.336826,2.0467176,-0.25103986,0.22001131,0.14356424,-0.9316451,-8.125889,9.265591,-0.37899578,0.4386637,-2.5499558,0.31943402,0
1.6500000000000012,11.832503013735579,0.9317548342683103,-2.912795423310957,-0.5646272806088329,14.333612,0.7763804,-2.2805529,-0.7156215,3.5042267,-3.2442646,2.0429485,-0.24830608,0.20759258,0.1442337,-0.9351178,-8.1819515,9.246578,-0.37464827,0.51549906,-2.606539,0.2760529,0
1.6600000000000013,11.832503013735579,0.9317548342683103,-2.912795423310957,-0.5646272806088329,14.333612,0.7763804,-2.2805529,-0.7156215,3.4221382,-3.1518984,2.039229,-0.24576177,0.1947752,0.14465559,-0.93847626,-8.235347,9.226449,-0.36909577,0.58035123,-2.6543036,0.23480046,0
1.6700000000000013,11.832503013735579,0.9317548342683103,-2.912795423310957,-0.5646272806088329,14.333612,0.7763804,-2.2805529,-0.7156215,3.3395293,-3.059739,2.0355709,-0.24338698,0.18161303,0.14486389,-0.9416969,-8.285956,9.205262,-0.3623632,0.63508976,-2.6946232,0.19557232,0
1.6800000000000013,11.446665763939176,1.1345290122280431,-2.395775397312522,-0.7876312852311883,13.010239,0.63688487,-2.006496,-0.54250205,3.2564285,-2.9677966,2.0319858,-0.24116443,0.16815227,0.14488713,-0.9447599,-8.3336735,9.18307,-0.3544887,0.6812926,-2.7286577,0.15826908,0
1.6900000000000013,11.446665763939176,1.1345290122280431,-2.395775397312522,-0.7876312852311883,13.010239,0.63688487,-2.006496,-0.54250205,3.1728733,-2.876077,2.0284677,-0.2391488,0.15460514,0.14462757,-0.94762176,-8.376952,9.160686,-0.3490141,0.75188816,-2.6767602,0.11185347,0
1.7000000000000013,11.446665763939176,1.1345290122280431,-2.395775397312522,-0.7876312852311883,13.010239,0.63688487,-2.006496,-0.54250205,3.0888996,-2.7845855,2.0250092,-0.23738615,0.1411438,0.14401023,-0.9502559,-8.417315,9.137486,-0.34254596,0.8114818,-2.6329598,0.067715496,0
1.7100000000000013,11.446665763939176,1.1345290122280431,-2.395775397312522,-0.7876312852311883,13.010239,0.63688487,-2.006496,-0.54250205,3.004537,-2.6933298,2.02162,-0.23585074,0.127751,0.14308763,-0.9526693,-8.454743,9.113577,-0.3351507,0.8617881,-2.5959926,0.025743376,0
1.7200000000000013,11.04599808786271,1.1047160378828185,-1.766281257158534,-0.946202970213753,12.720772,0.6489635,-1.737545,-0.6140633,2.919815,-2.6023161,2.018309,-0.23452015,0.114412375,0.14190386,-0.9548676,-8.4892235,9.089047,-0.32689586,0.90425456,-2.5647917,-0.014169142,0
1.7300000000000013,11.04599808786271,1.1047160378828185,-1.766281257158534,-0.946202970213753,12.720772,0.6489635,-1.737545,-0.6140633,2.8347685,-2.5115461,2.015066,-0.23342837,0.10135715,0.14045087,-0.956823,-8.519647,9.064861,-0.3216026,0.9354446,-2.4402926,-0.059904315,0
1.7400000000000013,11.04599808786271,1.1047160378828185,-1.766281257158534,-0.946202970213753,12.720772,0.6489635,-1.737545,-0.6140633,2.7494316,-2.4210203,2.0118792,-0.23260507,0.08876762,0.13872549,-0.95852447,-8.54728,9.040259,-0.3156262,0.96178013,-2.3352094,-0.10339526,0
1.7500000000000013,11.04599808786271,1.1047160378828185,-1.766281257158534,-0.946202970213753,12.720772,0.6489635,-1.737545,-0.6140633,2.663832,-2.3307424,2.0087557,-0.23202571,0.07656956,0.13676824,-0.95999706,-8.572198,9.015339,-0.3090416,0.9840161,-2.2465134,-0.14475207,0
1.7600000000000013,10.76914994478078,0.918646376360901,-1.0484824535783481,-1.0134063497113466,12.008862,0.29925165,-1.7567964,-0.7519836,2.5779965,-2.2407146,2.0057008,-0.2316686,0.06470022,0.1346129,-0.96126044,-8.594461,8.990179,-0.30191705,1.0027903,-2.171649,-0.1840795,0
1.7700000000000014,10.76914994478078,0.918646376360901,-1.0484824535783481,-1.0134063497113466,12.008862,0.29925165,-1.7567964,-0.7519836,2.4919538,-2.1509361,2.0027058,-0.23155689,0.053399235,0.13229367,-0.962303,-8.613643,8.965488,-0.29696682,0.98963594,-1.9965167,-0.22477481,0
1.7800000000000014,10.76914994478078,0.918646376360901,-1.0484824535783481,-1.0134063497113466,12.008862,0.29925165,-1.7567964,-0.7519836,2.4057317,-2.0614047,1.9997628,-0.23171037,0.04285442,0.12984008,-0.96312726,-8.630436,8.940712,-0.2916206,0.9785398,-1.8486944,-0.2634732,0
1.7900000000000014,10.76914994478078,0.918646376360901,-1.0484824535783481,-1.0134063497113466,12.008862,0.29925165,-1.7567964,-0.7519836,2.3193529,-1.9721215,1.9968747,-0.23210591,0.032946985,0.12727171,-0.96376455,-8.644983,8.91592,-0.2859379,0.96917933,-1.7239233,-0.30027264,0
1.8000000000000014,10.602225151108378,0.642085006864267,-0.49693607909196996,-1.003055014621621,11.473294,0.38534322,-0.84997314,-0.7616989,2.2328393,-1.8830861,1.994045,-0.23272277,0.023576489,0.124604784,-0.9642389,-8.657405,8.891173,-0.2799687,0.9612824,-1.6186091,-0.33526632,1
1.8100000000000014,10.602225151108378,0.642085006864267,-0.49693607909196996,-1.003055014621621,11.473294,0.38534322,-0.84997314,-0.7616989,2.1462083,-1.7943058,1.9913105,-0.2335181,0.014788353,0.12203953,-0.9645495,-8.668491,8.864899,-0.26693797,0.8714705,-1.498733,-0.3561915,1
1.8200000000000014,10.602225151108378,0.642085006864267,-0.49693607909196996,-1.003055014621621,11.473294,0.38534322,-0.84997314,-0.7616989,2.0594764,-1.7057878,1.9887072,-0.23445459,0.006614886,0.119735904,-0.9647017,-8.677578,8.838708,-0.253706,0.7956644,-1.397552,-0.37608987,1
1.8300000000000014,10.602225151108378,0.642085006864267,-0.49693607909196996,-1.003055014621621,11.473294,0.38534322,-0.84997314,-0.7616989,1.9726633,-1.6175312,1.9862369,-0.23552202,-0.0010399446,0.11765201,-0.96472025,-8.684809,8.812578,-0.24032353,0.7316798,-1.3121508,-0.39501184,1
1.8400000000000014,10.602225151108378,0.642085006864267,-0.49693607909196996,-1.003055014621621,11.662023,0.16822985,-0.50706244,-0.6839922,1.8857863,-1.5295359,1.9839011,-0.2367107,-0.008257305,0.115752324,-0.96462435,-8.690303,8.7864895,-0.2268321,0.6776727,-1.2400686,-0.41300526,0
1.8500000000000014,10.602225151108378,0.642085006864267,-0.49693607909196996,-1.003055014621621,11.662023,0.16822985,-0.50706244,-0.6839922,1.7988642,-1.4417914,1.9816582,-0.23805559,-0.014997318,0.11387391,-0.9644357,-8.693875,8.762413,-0.22174266,0.6721327,-1.1241887,-0.44195917,0
1.8600000000000014,10.602225151108378,0.642085006864267,-0.49693607909196996,-1.003055014621621,11.662023,0.16822985,-0.50706244,-0.6839922,1.7119136,-1.3542875,1.9794664,-0.23958635,-0.021232566,0.11188562,-0.9641722,-8.696048,8.7383995,-0.21659929,0.6674565,-1.0263797,-0.46949232,0
1.8700000000000014,10.602225151108378,0.642085006864267,-0.49693607909196996,-1.003055014621621,11.662023,0.16822985,-0.50706244,-0.6839922,1.6249478,-1.2670231,1.9773263,-0.24128705,-0.027042989,0.10980264,-0.96384203,-8.696915,8.714492,-0.21141206,0.66350913,-0.94382346,-0.4956744,0
1.8800000000000014,10.226898329987705,0.40260392705743037,0.4160116601199123,-0.8929421172080826,11.704195,0.13097802,-0.53983736,-0.60344356,1.5379795,-1.1799971,1.9752382,-0.24314348,-0.03249597,0.10763776,-0.96345127,-8.696558,8.690723,-0.20618927,0.6601763,-0.8741412,-0.5205717,0
1.8900000000000015,10.226898329987705,0.40260392705743037,0.4160116601199123,-0.8929421172080826,11.704195,0.13097802,-0.53983736,-0.60344356,1.4510204,-1.0932038,1.9731842,-0.24517246,-0.037271556,0.10540558,-0.9630109,-8.695115,8.667965,-0.20459558,0.6200681,-0.67293644,-0.5388441,0
1.9000000000000015,10.226898329987705,0.40260392705743037,0.4160116601199123,-0.8929421172080826,11.704195,0.13097802,-0.53983736,-0.60344356,1.3640804,-1.006637,1.9711465,-0.24738471,-0.041118976,0.10311789,-0.9625361,-8.692738,8.645423,-0.20297037,0.58620834,-0.50311047,-0.5562199,0
1.9100000000000015,10.226898329987705,0.40260392705743037,0.4160116601199123,-0.8929421172080826,11.704195,0.13097802,-0.53983736,-0.60344356,1.2771683,-0.92029434,1.969125,-0.24975987,-0.044183765,0.10078108,-0.9620343,-8.689598,8.623148,-0.20130631,0.55762327,-0.3597696,-0.57274294,0
1.9200000000000015,10.183801050635413,0.15945832814165603,1.0926537006517094,-0.7460970158760284,11.822826,0.036469378,-0.11620046,-0.44779083,1.1902906,-0.83417296,1.9671206,-0.25228,-0.046588674,0.09840064,-0.96150947,-8.685842,8.601182,-0.19959514,0.5334906,-0.23878336,-0.5884552,0
1.9300000000000015,10.183801050635413,0.15945832814165603,1.0926537006517094,-0.7460970158760284,11.822826,0.036469378,-0.11620046,-0.44779083,1.1034529,-0.7482691,1.9651315,-0.25494304,-0.048150502,0.0960071,-0.96097195,-8.681619,8.579654,-0.19824845,0.47523987,-0.031126525,-0.5961908,0
1.9400000000000015,10.183801050635413,0.15945832814165603,1.0926537006517094,-0.7460970158760284,11.822826,0.036469378,-0.11620046,-0.44779083,1.0166591,-0.6625786,1.963156,-0.25774324,-0.048729036,0.0936244,-0.96043074,-8.677098,8.5585165,-0.19683096,0.42606255,0.14414354,-0.6035468,0
1.9500000000000015,10.183801050635413,0.15945832814165603,1.0926537006517094,-0.7460970158760284,11.822826,0.036469378,-0.11620046,-0.44779083,0.92991126,-0.5770973,1.9611952,-0.26066077,-0.048477627,0.09124815,-0.95988464,-8.672464,8.537813,-0.1953275,0.38454506,0.2920776,-0.61054176,0
1.9600000000000015,10.213894427398383,-0.07152694106415144,1.4599005815970976,-0.5709812861253581,11.223116,0.05428288,0.69748807,-0.32594097,0.8432097,-0.49182072,1.9592499,-0.26367846,-0.047525648,0.08887488,-0.95933056,-8.667866,8.517583,-0.19372517,0.3494942,0.41693962,-0.6171935,0
1.9700000000000015,10.213894427398383,-0.07152694106415144,1.4599005815970976,-0.5709812861253581,11.223116,0.05428288,0.69748807,-0.32594097,0.7565534,-0.40674418,1.9573225,-0.26677802,-0.045814894,0.086552575,-0.958769,-8.663426,8.497802,-0.1917185,0.28390065,0.5796156,-0.6149259,0
1.9800000000000015,10.213894427398383,-0.07152694106415144,1.4599005815970976,-0.5709812861253581,11.223116,0.05428288,0.69748807,-0.32594097,0.66994,-0.32186282,1.9554158,-0.26994032,-0.043304373,0.0843188,-0.95819944,-8.65932,8.4785595,-0.18959278,0.22852595,0.71691805,-0.6127695,0
1.9900000000000015,10.213894427398383,-0.07152694106415144,1.4599005815970976,-0.5709812861253581,11.223116,0.05428288,0.69748807,-0.32594097,0.5833653,-0.23717105,1.953531,-0.27315047,-0.040118042,0.08215716,-0.9576161,-8.655696,8.459883,-0.18734156,0.18177786,0.83280474,-0.6107189,0
2.0000000000000013,,,,,11.3585415,-0.10409739,0.6499878,-0.07841048,0.49682397,-0.15266313,1.9516695,-0.27639604,-0.0363606,0.080054045,-0.9570128,-8.652678,8.441798,-0.184962,0.14231278,0.93061584,-0.608769,0
2.010000000000001,,,,,11.3585415,-0.10409739,0.6499878,-0.07841048,0.41030928,-0.068332754,1.9498309,-0.27964824,-0.032101855,0.07805209,-0.95638543,-8.650378,8.424373,-0.18272026,0.08717718,1.0137632,-0.5984877,0
2.020000000000001,,,,,11.3585415,-0.10409739,0.6499878,-0.07841048,0.32381362,0.015826466,1.9480153,-0.28288078,-0.027401399,0.07618468,-0.95573133,-8.648888,8.407568,-0.18035752,0.04063419,1.0839398,-0.5887109,0
2.0300000000000007,,,,,11.3585415,-0.10409739,0.6499878,-0.07841048,0.23732848,0.09982076,1.9462241,-0.28608748,-0.02232722,0.07442903,-0.95504695,-8.648289,8.39139,-0.17788284,0.0013448521,1.143169,-0.5794139,0
2.0400000000000005,,,,,11.3585415,-0.10409739,0.6499878,-0.07841048,0.15084454,0.18365642,1.9444581,-0.28926355,-0.016936872,0.07276603,-0.95432895,-8.648654,8.375844,-0.17530736,-0.03182121,1.1931587,-0.5705731,0
2.0500000000000003,,,,,11.321768,-0.2120898,0.4950979,0.1222132,0.064351894,0.26733986,1.9427181,-0.29240516,-0.011279089,0.07117969,-0.95357454,-8.650041,8.360939,-0.172644,-0.059818003,1.2353504,-0.56216604,1
2.06,,,,,11.321768,-0.2120898,0.4950979,0.1222132,-0.02216119,0.35086942,1.9410615,-0.29542112,-0.005760003,0.0697715,-0.952798,-8.652757,8.345084,-0.15867558,-0.08363161,1.1199152,-0.5285833,1
2.07,,,,,11.321768,-0.2120898,0.4950979,0.1222132,-0.10870707,0.43424374,1.9395449,-0.2982332,-0.00070284726,0.06862272,-0.9520222,-8.656585,8.329876,-0.1446499,-0.10371957,1.02248,-0.49664852,1
2.0799999999999996,,,,,11.321768,-0.2120898,0.4950979,0.1222132,-0.19529642,0.51746887,1.9381686,-0.30085665,0.003965875,0.0676934,-0.95125496,-8.661441,8.315239,-0.13058792,-0.12066515,0.9402382,-0.4662808,1
2.0899999999999994,,,,,10.764179,-0.3748397,-0.015147109,0.25493377,-0.2819392,0.60055023,1.9369332,-0.30330485,0.008308088,0.0669495,-0.9505018,-8.667256,8.30111,-0.11650645,-0.13496038,0.8708206,-0.43740323,1
2.099999999999999,,,,,10.764179,-0.3748397,-0.015147109,0.25493377,-0.36864302,0.683496,1.9358109,-0.30556023,0.012202852,0.06648605,-0.9497697,-8.673635,8.2881,-0.10794478,-0.17242527,0.73266125,-0.40343007,1
2.109999999999999,,,,,10.764179,-0.3748397,-0.015147109,0.25493377,-0.4554145,0.7663133,1.9347743,-0.30760828,0.015557446,0.066377155,-0.94906694,-8.680775,8.2754135,-0.099392176,-0.20403548,0.61604506,-0.37112394,1
2.1199999999999988,,,,,10.764179,-0.3748397,-0.015147109,0.25493377,-0.5422609,0.849005,1.933823,-0.3094646,0.018457884,0.06656782,-0.9483979,-8.688591,8.262952,-0.09086039,-0.23070654,0.51761276,-0.3404031,1
2.1299999999999986,,,,,10.386015,-0.33078745,-0.22838928,0.40651533,-0.6291885,0.93157285,1.9329569,-0.3111431,0.02097663,0.06701144,-0.9477649,-8.697012,8.25063,-0.08235824,-0.25321087,0.43452922,-0.3111898,1
2.1399999999999983,,,,,10.386015,-0.33078745,-0.22838928,0.40651533,-0.7162014,1.01402,1.932157,-0.31263298,0.023089627,0.06767796,-0.9471779,-8.705658,8.238807,-0.07763625,-0.26533753,0.33114386,-0.2759718,1
2.149999999999998,,,,,10.386015,-0.33078745,-0.22838928,0.40651533,-0.8033032,1.0963488,1.9314041,-0.31392473,0.024781084,0.068541564,-0.9466456,-8.714752,8.226977,-0.07295355,-0.2755655,0.24388085,-0.24248198,1
2.159999999999998,,,,,10.386015,-0.33078745,-0.22838928,0.40651533,-0.8904978,1.1785591,1.9306978,-0.31503165,0.026118392,0.069571294,-0.9461667,-8.724228,8.215081,-0.06831306,-0.28419265,0.17022613,-0.21063548,1
2.1699999999999977,,,,,10.5880165,-0.2352288,-0.26781467,0.66977364,-0.9777888,1.2606499,1.9300377,-0.31596583,0.027158335,0.07074097,-0.94573903,-8.734027,8.203064,-0.063717,-0.29146984,0.10805744,-0.1803517,1
2.1799999999999975,,,,,10.5880165,-0.2352288,-0.26781467,0.66977364,-1.0651803,1.3426185,1.9294333,-0.31670734,0.027924053,0.07199634,-0.9453739,-8.744296,8.190645,-0.057170413,-0.2827074,0.049431585,-0.13863581,1
