time-since-start [s],throttle_mpc,roll_mpc,pitch_mpc,yaw_mpc,throttle_nw,roll_nw,pitch_nw,yaw_nw,position_x [m],position_y [m],position_z [m],rotation_w [quaternion],rotation_x [quaternion],rotation_y [quaternion],rotation_z [quaternion],velocity_x [m/s],velocity_y [m/s],velocity_z [m/s],omega_x [rad/s],omega_y [rad/s],omega_z [rad/s],network_used
0.0,10.26819414366912,5.999999549813319,-5.999999817882816,-2.455250111979488,13.929211,-0.12180831,-1.1107123,-0.53506476,14.639783,-11.364639,2.5943658,-0.2731518,0.32165623,-0.36064142,-0.8317831,-9.3537445,-1.5256376,1.1111474,1.1815052,-0.4159298,-0.28763238,0
0.01,10.26819414366912,5.999999549813319,-5.999999817882816,-2.455250111979488,9.742882,-0.6020409,-2.2672431,-0.2481586,14.546005,-11.379337,2.6053693,-0.2778144,0.3177077,-0.36483994,-0.8299234,-9.401432,-1.4143804,1.0891844,1.5132151,-0.8672824,-0.35645702,0
0.02,10.26819414366912,5.999999549813319,-5.999999817882816,-2.455250111979488,9.742882,-0.6020409,-2.2672431,-0.2481586,14.451767,-11.392934,2.6161425,-0.28405192,0.3115997,-0.36964518,-0.8279992,-9.445717,-1.3051307,1.0651554,1.8324863,-1.2875968,-0.42542085,0
0.03,10.26819414366912,5.999999549813319,-5.999999817882816,-2.455250111979488,9.742882,-0.6020409,-2.2672431,-0.2481586,14.357105,-11.405447,2.6266663,-0.29177612,0.30345204,-0.37501422,-0.8259224,-9.486072,-1.197744,1.0393603,2.1396217,-1.6800714,-0.49437028,0
0.04,10.26819414366912,5.999999549813319,-5.999999817882816,-2.455250111979488,10.29434,-0.73542905,-2.8624609,-0.102273494,14.262061,-11.416894,2.6369245,-0.30089757,0.29336774,-0.38089663,-0.823598,-9.5220375,-1.0921252,1.0120398,2.4349906,-2.0475202,-0.5631696,0
0.05,10.26819414366912,5.999999549813319,-5.999999817882816,-2.455250111979488,10.29434,-0.73542905,-2.8624609,-0.102273494,14.16668,-11.427294,2.6469028,-0.3113257,0.28143585,-0.38723585,-0.8209253,-9.553211,-0.98823035,0.9833806,2.7190092,-2.3924224,-0.63169885,0
0.060000000000000005,10.26819414366912,5.999999549813319,-5.999999817882816,-2.455250111979488,10.29434,-0.73542905,-2.8624609,-0.102273494,14.071014,-11.436665,2.656588,-0.3229684,0.26773447,-0.39397028,-0.8178,-9.5792465,-0.8860677,0.9535203,2.9921231,-2.716966,-0.69985276,0
0.07,10.26819414366912,5.999999549813319,-5.999999817882816,-2.455250111979488,10.29434,-0.73542905,-2.8624609,-0.102273494,13.975115,-11.445023,2.6659694,-0.33573195,0.2523331,-0.40103418,-0.81411505,-9.599844,-0.78569674,0.92255104,3.2547941,-3.0230825,-0.7675387,0
0.08,12.116800660847236,5.999999660844059,-5.999999848858742,-2.6034648773321,9.652554,-0.700323,-3.1212673,0.25500748,13.879037,-11.452386,2.6750355,-0.3495208,0.23529495,-0.40835822,-0.8097622,-9.614754,-0.68722653,0.8905242,3.5074914,-3.3124838,-0.83467585,0
0.09,12.116800660847236,5.999999660844059,-5.999999848858742,-2.6034648773321,9.652554,-0.700323,-3.1212673,0.25500748,13.782833,-11.458709,2.6838202,-0.36430353,0.21660317,-0.415897,-0.8046089,-9.624977,-0.5778499,0.866198,3.7798796,-3.6159635,-0.91107684,0
0.09999999999999999,12.116800660847236,5.999999660844059,-5.999999848858742,-2.6034648773321,9.652554,-0.700323,-3.1212673,0.25500748,13.686561,-11.46395,2.6923556,-0.38003963,0.1962395,-0.42359665,-0.79851466,-9.628292,-0.47101304,0.840685,4.042264,-3.904628,-0.9866343,0
0.10999999999999999,12.116800660847236,5.999999660844059,-5.999999848858742,-2.6034648773321,9.652554,-0.700323,-3.1212673,0.25500748,13.590291,-11.468138,2.7006295,-0.3966153,0.17426117,-0.4313706,-0.7913587,-9.624523,-0.367,0.81392825,4.295147,-4.1797266,-1.0612948,0
0.11999999999999998,12.116800660847236,5.999999660844059,-5.999999848858742,-2.6034648773321,9.652554,-0.700323,-3.1212673,0.25500748,13.494096,-11.471301,2.7086296,-0.4139128,0.15072607,-0.43912983,-0.7830215,-9.613559,-0.26614293,0.78583616,4.539013,-4.4423733,-1.1350129,0
0.12999999999999998,15.144165619092236,5.422724846688924,-5.999999618736733,-2.5511793497348867,11.640103,-0.46977177,-3.0096872,0.25535902,13.398046,-11.473472,2.7163427,-0.43180272,0.12570786,-0.44677925,-0.77339,-9.595221,-0.16817066,0.75674284,4.7656517,-4.6848726,-1.2069951,0
0.13999999999999999,15.144165619092236,5.422724846688924,-5.999999618736733,-2.5511793497348867,11.640103,-0.46977177,-3.0096872,0.25535902,13.302248,-11.47455,2.7238503,-0.45006815,0.0994841,-0.45402107,-0.7625,-9.562521,-0.048018157,0.7447851,4.867751,-4.8902555,-1.2729546,0
0.15,15.144165619092236,5.422724846688924,-5.999999618736733,-2.5511793497348867,11.640103,-0.46977177,-3.0096872,0.25535902,13.206827,-11.4744425,2.7312374,-0.46850073,0.0723527,-0.46060598,-0.75040925,-9.519856,0.06916262,0.73255855,4.9539485,-5.063593,-1.3356775,0
0.16,14.97444796478131,3.274187078094545,-4.964172341661226,-1.0088054507443514,12.245026,-0.46423164,-2.175588,0.3268883,13.111884,-11.473181,2.7384999,-0.48695037,0.04448452,-0.46649525,-0.7370769,-9.467199,0.18258673,0.71982616,5.0267243,-5.209884,-1.3953226,0
0.17,14.97444796478131,3.274187078094545,-4.964172341661226,-1.0088054507443514,12.245026,-0.46423164,-2.175588,0.3268883,13.017513,-11.470813,2.7456264,-0.50492823,0.016672112,-0.47125074,-0.72297436,-9.405393,0.29025885,0.70539904,4.7535157,-5.171258,-1.3763561,0
0.18000000000000002,14.97444796478131,3.274187078094545,-4.964172341661226,-1.0088054507443514,12.245026,-0.46423164,-2.175588,0.3268883,12.923807,-11.467394,2.752605,-0.5220865,-0.01044335,-0.4745843,-0.7085802,-9.334399,0.39280403,0.690121,4.522905,-5.138703,-1.3583204,0
0.19000000000000003,14.97444796478131,3.274187078094545,-4.964172341661226,-1.0088054507443514,12.245026,-0.46423164,-2.175588,0.3268883,12.830853,-11.462976,2.7594259,-0.53848565,-0.03692878,-0.47666472,-0.69387305,-9.254881,0.48967767,0.67392176,4.3282495,-5.111264,-1.3411696,0
0.20000000000000004,13.722961368567768,1.8313576048886366,-3.2740669570483947,-0.7432940402031942,11.668791,-0.97512054,-0.8976023,0.446269,12.738736,-11.457621,2.76608,-0.55417067,-0.06284195,-0.47763202,-0.6788321,-9.167474,0.5803999,0.65672386,4.1639433,-5.0881376,-1.3248605,0
0.21000000000000005,13.722961368567768,1.8313576048886366,-3.2740669570483947,-0.7432940402031942,11.668791,-0.97512054,-0.8976023,0.446269,12.64749,-11.451426,2.7725232,-0.56888086,-0.08747052,-0.47759917,-0.66379386,-9.080745,0.65755117,0.6317792,3.8005114,-4.8048496,-1.2963228,0
0.22000000000000006,13.722961368567768,1.8313576048886366,-3.2740669570483947,-0.7432940402031942,11.668791,-0.97512054,-0.8976023,0.446269,12.55714,-11.4444895,2.778712,-0.5824625,-0.110264525,-0.47671488,-0.64909315,-8.988176,0.72863185,0.6058268,3.4937057,-4.5658035,-1.2691855,0
0.23000000000000007,13.722961368567768,1.8313576048886366,-3.2740669570483947,-0.7432940402031942,11.668791,-0.97512054,-0.8976023,0.446269,12.467743,-11.436873,2.7846365,-0.59508306,-0.13149078,-0.47512513,-0.6346986,-8.890529,0.79367375,0.5788731,3.2347038,-4.3640885,-1.2433798,0
0.24000000000000007,13.722961368567768,1.8313576048886366,-3.2740669570483947,-0.7432940402031942,11.450744,-1.4055139,1.0724838,0.5155706,12.379345,-11.428637,2.7902863,-0.606876,-0.15137714,-0.4729443,-0.6205724,-8.788461,0.85272753,0.55093235,3.0160577,-4.1938744,-1.2188405,0
0.25000000000000006,13.722961368567768,1.8313576048886366,-3.2740669570483947,-0.7432940402031942,11.450744,-1.4055139,1.0724838,0.5155706,12.291987,-11.419839,2.795652,-0.61794806,-0.17011741,-0.47026193,-0.60667443,-8.682544,0.9058531,0.5220217,2.83148,-4.050241,-1.1955053,0
0.26000000000000006,13.722961368567768,1.8313576048886366,-3.2740669570483947,-0.7432940402031942,11.450744,-1.4055139,1.0724838,0.5155706,12.205706,-11.410539,2.8007233,-0.6283845,-0.18787585,-0.46714836,-0.59296536,-8.573278,0.9531133,0.49215788,2.6756628,-3.9290369,-1.173315,0
0.2700000000000001,13.722961368567768,1.8313576048886366,-3.2740669570483947,-0.7432940402031942,11.450744,-1.4055139,1.0724838,0.5155706,12.120532,-11.400796,2.8054917,-0.63825357,-0.20479132,-0.46365893,-0.5794076,-8.461113,0.9945705,0.46135506,2.5441246,-3.826759,-1.1522138,0
0.2800000000000001,12.622763388832574,0.2808543469513936,-1.3138382693267798,-0.34829378182128856,12.335906,-2.1512191,2.2762938,0.6903796,12.036492,-11.390667,2.8099475,-0.64760995,-0.22098085,-0.45983726,-0.56596667,-8.346446,1.0302844,0.42962414,2.4330828,-3.7404516,-1.1321481,0
0.2900000000000001,12.622763388832574,0.2808543469513936,-1.3138382693267798,-0.34829378182128856,12.335906,-2.1512191,2.2762938,0.6903796,11.953563,-11.380221,2.8140552,-0.65625983,-0.23572446,-0.4558759,-0.55311286,-8.239023,1.0579549,0.3917382,2.097808,-3.3617222,-1.0936842,0
0.3000000000000001,12.622763388832574,0.2808543469513936,-1.3138382693267798,-0.34829378182128856,12.335906,-2.1512191,2.2762938,0.6903796,11.8717165,-11.369525,2.81778,-0.66409576,-0.24847779,-0.45196557,-0.54125994,-8.13007,1.080835,0.35311416,1.8147556,-3.0421104,-1.0571077,0
0.3100000000000001,12.622763388832574,0.2808543469513936,-1.3138382693267798,-0.34829378182128856,12.335906,-2.1512191,2.2762938,0.6903796,11.790965,-11.358621,2.8211155,-0.6712656,-0.25956595,-0.4481263,-0.5302927,-8.0199585,1.0993699,0.31387055,1.5757933,-2.7723868,-1.022326,0
0.3200000000000001,12.102952896176895,-1.8388909035134477,0.9746420568292833,0.3656974102362734,13.4845705,-2.6241534,3.31009,0.50666404,11.71132,-11.347551,2.8240557,-0.67788535,-0.2692612,-0.44436592,-0.52010405,-7.9089837,1.1139476,0.2741165,1.3740548,-2.5447626,-0.9892511,0
0.3300000000000001,12.102952896176895,-1.8388909035134477,0.9746420568292833,0.3656974102362734,13.4845705,-2.6241534,3.31009,0.50666404,11.632764,-11.336357,2.8265843,-0.68383265,-0.27678326,-0.44085,-0.5112872,-7.8019905,1.1245145,0.23158696,0.87343925,-1.9955518,-0.9227634,0
0.34000000000000014,12.102952896176895,-1.8388909035134477,0.9746420568292833,0.3656974102362734,13.4845705,-2.6241534,3.31009,0.50666404,11.555281,-11.325071,2.828687,-0.689039,-0.28154197,-0.43772984,-0.5043326,-7.6946893,1.1323558,0.18891734,0.45079544,-1.5320784,-0.85953826,0
0.35000000000000014,12.102952896176895,-1.8388909035134477,0.9746420568292833,0.3656974102362734,13.4845705,-2.6241534,3.31009,0.50666404,11.47887,-11.313717,2.830363,-0.6936452,-0.28399688,-0.43497333,-0.49899858,-7.5873137,1.1381799,0.14635558,0.093984544,-1.1409525,-0.7994155,0
0.36000000000000015,13.139695166050073,-4.050389790391834,3.256841886017112,0.5839960456967526,13.711612,-2.8045213,3.9021623,-0.45796654,11.403533,-11.302313,2.831615,-0.6977535,-0.2845287,-0.43253988,-0.49506766,-7.4800367,1.1425916,0.10411449,-0.2072437,-0.81087697,-0.7422431,0
0.37000000000000016,13.139695166050073,-4.050389790391834,3.256841886017112,0.5839960456967526,13.711612,-2.8045213,3.9021623,-0.45796654,11.329314,-11.290867,2.8324711,-0.70128226,-0.2823953,-0.43058,-0.49300724,-7.363834,1.1464752,0.067226656,-0.8062643,-0.1762618,-0.67716414,0
0.38000000000000017,13.139695166050073,-4.050389790391834,3.256841886017112,0.5839960456967526,13.711612,-2.8045213,3.9021623,-0.45796654,11.256255,-11.279383,2.8329625,-0.7041534,-0.27701813,-0.42920467,-0.4931647,-7.2481084,1.15038,0.031234216,-1.311961,0.35930002,-0.61527866,0
0.3900000000000002,13.139695166050073,-4.050389790391834,3.256841886017112,0.5839960456967526,13.711612,-2.8045213,3.9021623,-0.45796654,11.184349,-11.267856,2.8330998,-0.70642245,-0.26890185,-0.42830804,-0.49518734,-7.133075,1.155229,-0.0035519619,-1.7388668,0.8112755,-0.5564299,0
0.4000000000000002,16.26757075688796,-5.781848897105703,5.075381239861837,1.0092064200228847,15.536158,-3.398942,4.360063,-1.5118867,11.11359,-11.256272,2.8328962,-0.7081161,-0.25846496,-0.4277871,-0.49876332,-7.018937,1.1618042,-0.036892675,-2.0992522,1.1927148,-0.50046885,0
0.4100000000000002,16.26757075688796,-5.781848897105703,5.075381239861837,1.0092064200228847,15.536158,-3.398942,4.360063,-1.5118867,11.044101,-11.2446,2.8324459,-0.7090763,-0.24522203,-0.42769775,-0.5041338,-6.8790073,1.1729674,-0.052792367,-2.6734393,1.798274,-0.42638862,0
0.4200000000000002,16.26757075688796,-5.781848897105703,5.075381239861837,1.0092064200228847,15.536158,-3.398942,4.360063,-1.5118867,10.976003,-11.232798,2.8318477,-0.7091233,-0.22879227,-0.42804983,-0.51144,-6.740853,1.1882874,-0.066396825,-3.1581569,2.3093276,-0.35594356,0
0.4300000000000002,16.26757075688796,-5.781848897105703,5.075381239861837,1.0092064200228847,15.536158,-3.398942,4.360063,-1.5118867,10.909276,-11.220817,2.8311262,-0.7082257,-0.20963879,-0.42868477,-0.52028507,-6.604945,1.2088429,-0.077511676,-3.567339,2.7406323,-0.28895524,0
0.4400000000000002,16.26757075688796,-5.781848897105703,5.075381239861837,1.0092064200228847,17.43674,-3.4410222,4.3446536,-1.0645303,10.843895,-11.2086,2.8303065,-0.70634377,-0.18815465,-0.4294596,-0.5303208,-6.471801,1.2355236,-0.086059816,-3.9127502,3.1046383,-0.22525412,0
0.45000000000000023,16.26757075688796,-5.781848897105703,5.075381239861837,1.0092064200228847,17.43674,-3.4410222,4.3446536,-1.0645303,10.779829,-11.196082,2.8294137,-0.7034369,-0.16467717,-0.43024823,-0.54124284,-6.3419795,1.2690469,-0.09207013,-4.204324,3.411852,-0.16467878,0
0.46000000000000024,16.26757075688796,-5.781848897105703,5.075381239861837,1.0092064200228847,17.43674,-3.4410222,4.3446536,-1.0645303,10.717042,-11.183192,2.828473,-0.6994686,-0.13949873,-0.43094137,-0.5527863,-6.2160788,1.3099726,-0.09566591,-4.4504476,3.6711383,-0.107075885,0
0.47000000000000025,16.26757075688796,-5.781848897105703,5.075381239861837,1.0092064200228847,17.43674,-3.4410222,4.3446536,-1.0645303,10.655492,-11.169854,2.8275077,-0.69440836,-0.112874985,-0.43144578,-0.5647213,-6.0947237,1.3587148,-0.09705351,-4.658202,3.8899777,-0.052299596,0
0.48000000000000026,18.74341806401023,-5.99999589926052,5.713772238374521,1.5901725238572961,17.644022,-3.1245825,4.076536,-0.16611448,10.59513,-11.15599,2.8265383,-0.68823296,-0.08503133,-0.4316828,-0.57684875,-5.978557,1.4155515,-0.09651123,-4.833566,4.074683,-0.0002111923,0
0.49000000000000027,18.74341806401023,-5.99999589926052,5.713772238374521,1.5901725238572961,17.644022,-3.1245825,4.076536,-0.16611448,10.535986,-11.141466,2.825659,-0.6807777,-0.055990208,-0.43170366,-0.5890994,-5.8514423,1.49056,-0.07913038,-5.01569,4.3300433,0.077829406,0
0.5000000000000002,18.74341806401023,-5.99999589926052,5.713772238374521,1.5901725238572961,17.644022,-3.1245825,4.076536,-0.16611448,10.478076,-11.126145,2.8249605,-0.67189246,-0.025790548,-0.43153626,-0.6013911,-5.731855,1.5752586,-0.06042247,-5.169422,4.5455775,0.15204051,0
0.5100000000000002,18.74341806401023,-5.99999589926052,5.713772238374521,1.5901725238572961,17.644022,-3.1245825,4.076536,-0.16611448,10.421321,-11.109929,2.8244534,-0.66158515,0.0053540943,-0.43108967,-0.61354506,-5.620597,1.6696926,-0.040955096,-5.299185,4.7275004,0.22261007,0
0.5200000000000002,19.456359793675535,-5.566875438537996,4.747596707332397,1.2243890452756638,17.979866,-3.0935514,3.698155,0.34041235,10.365633,-11.092718,2.824142,-0.64986926,0.037251316,-0.43028906,-0.6254064,-5.5184526,1.7737461,-0.021339998,-5.408711,4.881057,0.28971675,0
0.5300000000000002,19.456359793675535,-5.566875438537996,4.747596707332397,1.2243890452756638,17.979866,-3.0935514,3.698155,0.34041235,10.310936,-11.074399,2.8240473,-0.6369726,0.06939166,-0.42893496,-0.63676137,-5.422646,1.8914394,0.002250827,-5.433518,4.860077,0.33558142,0
0.5400000000000003,19.456359793675535,-5.566875438537996,4.747596707332397,1.2243890452756638,17.979866,-3.0935514,3.698155,0.34041235,10.257143,-11.054857,2.8241837,-0.62311924,0.101355,-0.42689124,-0.64746654,-5.3376656,2.0182204,0.024749653,-5.454449,4.842376,0.37919545,0
0.5500000000000003,19.456359793675535,-5.566875438537996,4.747596707332397,1.2243890452756638,17.979866,-3.0935514,3.698155,0.34041235,10.204144,-11.034005,2.824537,-0.60832244,0.13309973,-0.42418674,-0.65749025,-5.2640142,2.153374,0.04559584,-5.472109,4.8274436,0.42066935,0
0.5600000000000003,18.022473459652232,-4.128828535528783,3.117277533794306,1.014936177377363,18.345285,-3.458057,2.965269,0.15269253,10.151822,-11.011763,2.825088,-0.5925987,0.16458525,-0.42084748,-0.6668024,-5.2021337,2.2961397,0.06423495,-5.487008,4.8148465,0.4601081,1
0.5700000000000003,18.022473459652232,-4.128828535528783,3.117277533794306,1.014936177377363,18.345285,-3.458057,2.965269,0.15269253,10.100044,-10.9881,2.8257794,-0.57651836,0.1948591,-0.41703203,-0.6750855,-5.1551623,2.4371347,0.07363209,-5.1704636,4.5265517,0.4450231,1
0.5800000000000003,18.022473459652232,-4.128828535528783,3.117277533794306,1.014936177377363,18.345285,-3.458057,2.965269,0.15269253,10.04868,-10.963001,2.8265505,-0.5606377,0.22319803,-0.41292396,-0.682174,-5.1193233,2.5835037,0.08010109,-4.903304,4.283194,0.43067834,1
0.5900000000000003,18.022473459652232,-4.128828535528783,3.117277533794306,1.014936177377363,18.345285,-3.458057,2.965269,0.15269253,9.997622,-10.936416,2.8273706,-0.544942,0.2498756,-0.40856975,-0.68823737,-5.09421,2.734283,0.08338731,-4.6778245,4.0777698,0.4170375,1
0.6000000000000003,15.378363310575471,-2.4147991014682564,1.164310164945203,0.7402336833732224,18.41347,-3.157324,2.08048,-0.23227015,9.946761,-10.908303,2.8282068,-0.52940845,0.275123,-0.4040013,-0.6934093,-5.0794377,2.888632,0.083284155,-4.4875226,3.9043655,0.404066,0
0.6100000000000003,15.378363310575471,-2.4147991014682564,1.164310164945203,0.7402336833732224,18.41347,-3.157324,2.08048,-0.23227015,9.895994,-10.87876,2.8289473,-0.5143755,0.29839003,-0.39917874,-0.69788045,-5.075382,3.0203698,0.06438036,-4.164208,3.4770956,0.42056182,0
0.6200000000000003,15.378363310575471,-2.4147991014682564,1.164310164945203,0.7402336833732224,18.41347,-3.157324,2.08048,-0.23227015,9.845228,-10.847891,2.8294847,-0.5001311,0.3192669,-0.39410916,-0.70186543,-5.0790977,3.1537898,0.04263263,-3.891322,3.1164527,0.4362482,0
0.6300000000000003,15.378363310575471,-2.4147991014682564,1.164310164945203,0.7402336833732224,18.41347,-3.157324,2.08048,-0.23227015,9.794389,-10.815681,2.8297908,-0.48657224,0.338121,-0.38886666,-0.70548135,-5.0900106,3.2883096,0.018223759,-3.661,2.812047,0.45116487,0
0.6400000000000003,15.378363310575471,-2.4147991014682564,1.164310164945203,0.7402336833732224,17.172337,-2.938605,1.3210087,0.017687406,9.743405,-10.782124,2.8298407,-0.47360158,0.3552611,-0.38350424,-0.7088125,-5.1076207,3.4234586,-0.008670613,-3.466604,2.5551083,0.46534956,0
0.6500000000000004,15.378363310575471,-2.4147991014682564,1.164310164945203,0.7402336833732224,17.172337,-2.938605,1.3210087,0.017687406,9.692215,-10.747212,2.8296096,-0.4611296,0.37094635,-0.37805942,-0.7119192,-5.131493,3.558852,-0.037887685,-3.3025308,2.338235,0.4788382,0
0.6600000000000004,15.378363310575471,-2.4147991014682564,1.164310164945203,0.7402336833732224,17.172337,-2.938605,1.3210087,0.017687406,9.640756,-10.710947,2.8290756,-0.44907567,0.38539416,-0.37255844,-0.71484417,-5.1612487,3.6941707,-0.06928012,-3.1640508,2.1551788,0.49166498,0
0.6700000000000004,15.378363310575471,-2.4147991014682564,1.164310164945203,0.7402336833732224,17.172337,-2.938605,1.3210087,0.017687406,9.588971,-10.67333,2.8282173,-0.4373683,0.39878687,-0.36701933,-0.7176172,-5.1965604,3.8291466,-0.10271695,-3.0471718,2.0006666,0.5038623,0
0.6800000000000004,13.56871507023628,-0.8537084405120359,-0.6369712884688291,0.48563030066420426,16.52035,-2.2713356,0.19415091,0.45298406,9.536807,-10.634367,2.8270147,-0.425945,0.4112773,-0.36145407,-0.7202586,-5.2371426,3.9635513,-0.13808337,-2.9485252,1.8702474,0.51546115,0
0.6900000000000004,13.56871507023628,-0.8537084405120359,-0.6369712884688291,0.48563030066420426,16.52035,-2.2713356,0.19415091,0.45298406,9.484237,-10.594141,2.8254132,-0.415297,0.42222556,-0.35600728,-0.7228502,-5.2773323,4.0814624,-0.18241344,-2.621707,1.4793602,0.5139973,0
0.7000000000000004,13.56871507023628,-0.8537084405120359,-0.6369712884688291,0.48563030066420426,16.52035,-2.2713356,0.19415091,0.45298406,9.431247,-10.55274,2.8233619,-0.40583086,0.43115282,-0.35081282,-0.72549194,-5.3214035,4.198563,-0.2280265,-2.3458772,1.149414,0.5126053,0
0.7100000000000004,13.56871507023628,-0.8537084405120359,-0.6369712884688291,0.48563030066420426,16.52035,-2.2713356,0.19415091,0.45298406,9.377798,-10.510173,2.8208494,-0.39737636,0.43838927,-0.34585667,-0.7282099,-5.3688436,4.3147697,-0.2745946,-2.1130805,0.87090755,0.51128167,0
0.7200000000000004,12.458054910565238,0.7554003085322198,-2.0724699193987717,0.2529363253777348,15.334916,-1.5791494,-0.3902345,0.24691108,9.32386,-10.466449,2.817868,-0.38978398,0.4442088,-0.34112012,-0.7310155,-5.4192214,4.430032,-0.3218329,-1.9166033,0.63582164,0.510023,0
0.7300000000000004,12.458054910565238,0.7554003085322198,-2.0724699193987717,0.2529363253777348,15.334916,-1.5791494,-0.3902345,0.24691108,9.269427,-10.421623,2.814391,-0.38342878,0.44818097,-0.33682004,-0.73394006,-5.4678,4.534976,-0.3736003,-1.4997637,0.21361607,0.49740764,0
0.7400000000000004,12.458054910565238,0.7554003085322198,-2.0724699193987717,0.2529363253777348,15.334916,-1.5791494,-0.3902345,0.24691108,9.214498,-10.375752,2.810396,-0.37860695,0.4499837,-0.33313224,-0.737017,-5.5181565,4.6390862,-0.42538154,-1.1479577,-0.14277467,0.4854114,0
0.7500000000000004,12.458054910565238,0.7554003085322198,-2.0724699193987717,0.2529363253777348,15.334916,-1.5791494,-0.3902345,0.24691108,9.159059,-10.328844,2.8058846,-0.3750871,0.4499665,-0.32997605,-0.74024004,-5.5697527,4.742438,-0.47682908,-0.8510382,-0.44360933,0.4740038,0
0.7600000000000005,11.853232882617323,1.9279062445191502,-3.2731686532336255,0.02206611674470204,14.132461,-0.9747956,-1.1039948,0.3847662,9.1031,-10.280906,2.8008614,-0.37266862,0.4484177,-0.3272767,-0.74359214,-5.6221366,4.8451056,-0.5276488,-0.60044146,-0.69754755,0.46315593,0
0.7700000000000005,11.853232882617323,1.9279062445191502,-3.2731686532336255,0.02206611674470204,14.132461,-0.9747956,-1.1039948,0.3847662,9.046628,-10.231969,2.795323,-0.37156656,0.4450525,-0.32512408,-0.7471014,-5.672333,4.94221,-0.57991284,-0.20604113,-1.099092,0.44151154,0
0.7800000000000005,11.853232882617323,1.9279062445191502,-3.2731686532336255,0.02206611674470204,14.132461,-0.9747956,-1.1039948,0.3847662,8.989654,-10.182064,2.7892675,-0.37193757,0.4396511,-0.32358107,-0.75077575,-5.72238,5.038829,-0.63100445,0.12682523,-1.4380437,0.42092925,0
0.7900000000000005,11.853232882617323,1.9279062445191502,-3.2731686532336255,0.02206611674470204,14.132461,-0.9747956,-1.1039948,0.3847662,8.932182,-10.131193,2.7827082,-0.37354058,0.43251717,-0.3225448,-0.75456,-5.771789,5.135047,-0.68062264,0.4077595,-1.7241584,0.40135694,0
0.8000000000000005,11.927080986577925,2.4782654677537974,-3.783468387907503,-0.15185921695249768,14.450418,-0.4151639,-1.5063269,-0.22100279,8.874223,-10.079363,2.775661,-0.3761683,0.42390263,-0.32192388,-0.7583987,-5.8201356,5.2309227,-0.7285244,0.6448651,-1.9656714,0.382745,0
0.8100000000000005,11.927080986577925,2.4782654677537974,-3.783468387907503,-0.15185921695249768,14.450418,-0.4151639,-1.5063269,-0.22100279,8.8157835,-10.026573,2.7681458,-0.37981737,0.4137857,-0.3217186,-0.7622447,-5.8673296,5.327089,-0.7741855,0.9308152,-2.2491002,0.3565118,0
0.8200000000000005,11.927080986577925,2.4782654677537974,-3.783468387907503,-0.15185921695249768,14.450418,-0.4151639,-1.5063269,-0.22100279,8.756882,-9.972822,2.7601845,-0.38447037,0.40215424,-0.32191896,-0.76604325,-5.912652,5.4229712,-0.8177218,1.1721547,-2.4883466,0.3315659,0
0.8300000000000005,11.927080986577925,2.4782654677537974,-3.783468387907503,-0.15185921695249768,14.450418,-0.4151639,-1.5063269,-0.22100279,8.697537,-9.918115,2.7517993,-0.3899438,0.38921535,-0.3224359,-0.76973367,-5.955708,5.518569,-0.85897255,1.375844,-2.6902974,0.30784407,0
0.8400000000000005,11.927080986577925,2.4782654677537974,-3.783468387907503,-0.15185921695249768,13.99065,-0.502859,-1.397498,-0.3545767,8.637775,-9.8624525,2.7430134,-0.39608085,0.37514403,-0.32319242,-0.7732613,-5.9961505,5.6138506,-0.8978248,1.5477585,-2.860765,0.28528634,0
0.8500000000000005,11.927080986577925,2.4782654677537974,-3.783468387907503,-0.15185921695249768,13.99065,-0.502859,-1.397498,-0.3545767,8.577624,-9.805839,2.7338514,-0.40274778,0.36008915,-0.32412258,-0.7765784,-6.0336723,5.708758,-0.93420726,1.6928554,-3.0046566,0.2638355,0
0.8600000000000005,11.927080986577925,2.4782654677537974,-3.783468387907503,-0.15185921695249768,13.99065,-0.502859,-1.397498,-0.3545767,8.517113,-9.748279,2.7243378,-0.40983066,0.34417808,-0.32516992,-0.7796436,-6.068002,5.80321,-0.9680852,1.8153191,-3.1261146,0.24343722,0
0.8700000000000006,11.927080986577925,2.4782654677537974,-3.783468387907503,-0.15185921695249768,13.99065,-0.502859,-1.397498,-0.3545767,8.456276,-9.689776,2.7144983,-0.41723245,0.32752028,-0.32628667,-0.7824218,-6.098901,5.8971057,-0.999456,1.9186808,-3.2286363,0.2240399,0
0.8800000000000006,12.038878390178786,2.2377866877248467,-3.6270044895363123,-0.23266295965914513,13.131535,-0.5725032,-0.9222661,-0.1262826,8.395147,-9.630338,2.7043576,-0.42487043,0.3102104,-0.3274323,-0.78488344,-6.126159,5.9903297,-1.0283448,2.0059204,-3.3151734,0.20559442,0
0.8900000000000006,12.038878390178786,2.2377866877248467,-3.6270044895363123,-0.23266295965914513,13.131535,-0.5725032,-0.9222661,-0.1262826,8.333764,-9.569968,2.6939433,-0.43263277,0.2924246,-0.32852128,-0.78701323,-6.1498194,6.083617,-1.0541306,2.0420394,-3.363827,0.18408902,0
0.9000000000000006,12.038878390178786,2.2377866877248467,-3.6270044895363123,-0.23266295965914513,13.131535,-0.5725032,-0.9222661,-0.1262826,8.272164,-9.50867,2.6832833,-0.440432,0.27431193,-0.32948616,-0.78880346,-6.169505,6.175951,-1.0775404,2.0725255,-3.4048932,0.16363889,0
0.9100000000000006,12.038878390178786,2.2377866877248467,-3.6270044895363123,-0.23266295965914513,13.131535,-0.5725032,-0.9222661,-0.1262826,8.210387,-9.446453,2.6724005,-0.44823545,0.2559123,-0.33032006,-0.79024166,-6.185126,6.2671814,-1.0986688,2.0982578,-3.4395552,0.14419223,0
0.9200000000000006,12.219456392183377,1.4817358765880073,-2.9564642221432194,-0.21701909130288755,12.99231,-0.8620055,-0.5104002,-0.03572518,8.148476,-9.383329,2.6613176,-0.45601475,0.23726104,-0.33101758,-0.7913182,-6.196605,6.357157,-1.1176223,2.1199782,-3.4688113,0.12569982,0
0.9300000000000006,12.219456392183377,1.4817358765880073,-2.9564642221432194,-0.21701909130288755,12.99231,-0.8620055,-0.5104002,-0.03572518,8.086469,-9.319306,2.6500614,-0.46358722,0.21874127,-0.3314603,-0.7920685,-6.204011,6.447057,-1.1333036,2.020401,-3.3889413,0.108882494,0
0.9400000000000006,12.219456392183377,1.4817358765880073,-2.9564642221432194,-0.21701909130288755,12.99231,-0.8620055,-0.5104002,-0.03572518,8.024409,-9.254393,2.638658,-0.47082177,0.2006665,-0.33156326,-0.7925433,-6.207263,6.5353966,-1.1470524,1.936357,-3.321523,0.09289042,0
0.9500000000000006,12.219456392183377,1.4817358765880073,-2.9564642221432194,-0.21701909130288755,12.99231,-0.8620055,-0.5104002,-0.03572518,7.9623375,-9.188603,2.6271265,-0.4777633,0.18297097,-0.3313675,-0.7927539,-6.206486,6.62206,-1.1590204,1.8654231,-3.2646148,0.07768307,0
0.9600000000000006,11.941979100301891,0.37322042160271607,-2.1158658717027197,-0.08685986931341201,11.511599,-1.441463,0.21523486,0.11677942,7.900293,-9.121958,2.615483,-0.48444796,0.16559854,-0.33090723,-0.79270864,-6.2017913,6.706937,-1.1693494,1.8055547,-3.2165787,0.06322194,0
0.9700000000000006,11.941979100301891,0.37322042160271607,-2.1158658717027197,-0.08685986931341201,11.511599,-1.441463,0.21523486,0.11677942,7.8383136,-9.0544815,2.6037343,-0.49071273,0.14897963,-0.330028,-0.7925194,-6.1935,6.788046,-1.1802016,1.5821612,-3.0449398,0.05585739,0
0.9800000000000006,11.941979100301891,0.37322042160271607,-2.1158658717027197,-0.08685986931341201,11.511599,-1.441463,0.21523486,0.11677942,7.7764344,-8.986203,2.591884,-0.4964469,0.1334582,-0.32861885,-0.79229945,-6.181786,6.867258,-1.1897128,1.3936092,-2.9000645,0.0488542,0
0.9900000000000007,11.941979100301891,0.37322042160271607,-2.1158658717027197,-0.08685986931341201,11.511599,-1.441463,0.21523486,0.11677942,7.714689,-8.917142,2.5799444,-0.50174415,0.118871614,-0.32676336,-0.7920527,-6.166947,6.9445386,-1.1979938,1.2344639,-2.7777796,0.042194664,0
1.0000000000000007,11.698612713231698,-0.7976067301751252,-1.09167398901915,0.13769431520817135,11.104315,-1.8468784,0.8121093,0.28079373,7.6531057,-8.847318,2.5679278,-0.5066798,0.10508074,-0.32453066,-0.79177827,-6.1492357,7.0198607,-1.2051378,1.1001395,-2.674563,0.035861924,0
1.0100000000000007,11.698612713231698,-0.7976067301751252,-1.09167398901915,0.13769431520817135,11.104315,-1.8468784,0.8121093,0.28079373,7.591711,-8.776759,2.555836,-0.5111151,0.0925208,-0.32181978,-0.7916013,-6.129316,7.0917177,-1.2131006,0.80418915,-2.4277165,0.040858872,0
1.0200000000000007,11.698612713231698,-0.7976067301751252,-1.09167398901915,0.13769431520817135,11.104315,-1.8468784,0.8121093,0.28079373,7.530527,-8.70549,2.5436692,-0.514955,0.08153209,-0.31856072,-0.79163903,-6.107213,7.161691,-1.2200948,0.5543914,-2.2193663,0.045610614,0
1.0300000000000007,11.698612713231698,-0.7976067301751252,-1.09167398901915,0.13769431520817135,11.104315,-1.8468784,0.8121093,0.28079373,7.4695735,-8.633533,2.5314372,-0.5183093,0.07187542,-0.31484532,-0.79187196,-6.0833135,7.229847,-1.2261689,0.34354886,-2.0435083,0.050129183,0
1.0400000000000007,11.698612713231698,-0.7976067301751252,-1.09167398901915,0.13769431520817135,11.154945,-2.586817,1.6230214,0.75620776,7.408866,-8.560901,2.5191488,-0.5212654,0.063347146,-0.31074873,-0.7922779,-6.057944,7.296247,-1.2313566,0.16558659,-1.8950757,0.05442601,0
1.0500000000000007,11.698612713231698,-0.7976067301751252,-1.09167398901915,0.13769431520817135,11.154945,-2.586817,1.6230214,0.75620776,7.3484187,-8.487614,2.5068128,-0.5238931,0.05577412,-0.30633247,-0.79283357,-6.031377,7.3609476,-1.2356832,0.015377358,-1.7697909,0.058512006,0
1.0600000000000007,11.698612713231698,-0.7976067301751252,-1.09167398901915,0.13769431520817135,11.154945,-2.586817,1.6230214,0.75620776,7.288242,-8.413688,2.494438,-0.5262485,0.049009386,-0.30164725,-0.79351676,-6.0038443,7.4239974,-1.2391675,-0.11140683,-1.6640438,0.062397502,0
1.0700000000000007,11.698612713231698,-0.7976067301751252,-1.09167398901915,0.13769431520817135,11.154945,-2.586817,1.6230214,0.75620776,7.2283444,-8.339139,2.4820325,-0.5283766,0.042928327,-0.29673505,-0.7943065,-5.9755406,7.485439,-1.2418249,-0.21841924,-1.5747879,0.06609233,0
1.0800000000000007,11.718289346040198,-1.8040087269669003,-0.09687698693625917,0.44571507515022524,10.995784,-2.528557,2.2089472,0.88339335,7.1687326,-8.263985,2.4696045,-0.5303138,0.037425343,-0.29163074,-0.79518384,-5.9466305,7.545308,-1.2436684,-0.3087431,-1.4994509,0.06960586,0
1.0900000000000007,11.718289346040198,-1.8040087269669003,-0.09687698693625917,0.44571507515022524,10.995784,-2.528557,2.2089472,0.88339335,7.109413,-8.188238,2.457163,-0.5319299,0.032930505,-0.286256,-0.79625547,-5.91723,7.6037455,-1.2445457,-0.5419233,-1.2807372,0.088061646,0
1.1000000000000008,11.718289346040198,-1.8040087269669003,-0.09687698693625917,0.44571507515022524,10.995784,-2.528557,2.2089472,0.88339335,7.0503883,-8.111914,2.4447167,-0.5331248,0.02977979,-0.2805512,-0.79760975,-5.8876863,7.6607523,-1.2446201,-0.73874265,-1.0961345,0.1056118,0
1.1100000000000008,11.718289346040198,-1.8040087269669003,-0.09687698693625917,0.44571507515022524,10.995784,-2.528557,2.2089472,0.88339335,6.9916587,-8.035027,2.4322736,-0.5339623,0.027763601,-0.2745671,-0.79920304,-5.8583026,7.7164373,-1.2438896,-0.90487087,-0.94032204,0.12230077,0
1.1200000000000008,12.069514844906665,-2.7146753246808153,0.7913685176275127,0.7492206267555219,11.389643,-3.0334156,3.0883374,1.2662889,6.9332213,-7.9575896,2.4198418,-0.5344935,0.026704635,-0.2683454,-0.80099523,-5.829335,7.7708907,-1.2423534,-1.0450929,-0.8088091,0.13817081,0
1.1300000000000008,12.069514844906665,-2.7146753246808153,0.7913685176275127,0.7492206267555219,11.389643,-3.0334156,3.0883374,1.2662889,6.8750744,-7.879606,2.4074445,-0.53462464,0.0269227,-0.26181924,-0.80305755,-5.800178,7.8257957,-1.2370012,-1.3054746,-0.5593109,0.16815521,0
1.1400000000000008,12.069514844906665,-2.7146753246808153,0.7913685176275127,0.7492206267555219,11.389643,-3.0334156,3.0883374,1.2662889,6.817214,-7.801078,2.3951046,-0.5342778,0.028662946,-0.25493532,-0.8054394,-5.772055,7.879652,-1.2308147,-1.5252551,-0.34872532,0.19666825,0
1.1500000000000008,12.069514844906665,-2.7146753246808153,0.7913685176275127,0.7492206267555219,11.389643,-3.0334156,3.0883374,1.2662889,6.7596283,-7.722016,2.382831,-0.53350955,0.03168619,-0.24774285,-0.8080754,-5.745319,7.9325857,-1.2237948,-1.710764,-0.17098214,0.22378215,0
1.1600000000000008,12.860557192118597,-3.376365100604988,1.3211346442766956,1.0415937432275042,13.341055,-3.5002415,3.839062,1.8163003,6.7023015,-7.6424284,2.3706315,-0.5323647,0.03579014,-0.24028265,-0.81090695,-5.720269,7.9846964,-1.2159517,-1.8673449,-0.02095801,0.24956557,0
1.1700000000000008,12.860557192118597,-3.376365100604988,1.3211346442766956,1.0415937432275042,13.341055,-3.5002415,3.839062,1.8163003,6.6452236,-7.562307,2.3585494,-0.53078836,0.041107927,-0.23248768,-0.8139548,-5.6956654,8.039431,-1.2003081,-2.1027143,0.18824953,0.28843063,0
1.1800000000000008,12.860557192118597,-3.376365100604988,1.3211346442766956,1.0415937432275042,13.341055,-3.5002415,3.839062,1.8163003,6.5883794,-7.4816422,2.3466282,-0.52872914,0.047734823,-0.22430378,-0.81722313,-5.6735044,8.093469,-1.1838326,-2.3013813,0.36482993,0.32538858,0
1.1900000000000008,12.860557192118597,-3.376365100604988,1.3211346442766956,1.0415937432275042,13.341055,-3.5002415,3.839062,1.8163003,6.5317435,-7.4004407,2.3348758,-0.52622366,0.055461552,-0.21578026,-0.8206402,-5.654126,8.146885,-1.1665646,-2.4690676,0.5138733,0.36053297,0
1.2000000000000008,13.798011433695855,-3.671750007643847,1.532650472809207,1.2580662336265165,13.886751,-3.7922738,3.8635223,1.8737673,6.4752865,-7.318707,2.3233,-0.52330154,0.064110726,-0.20695919,-0.82414323,-5.6378202,8.199729,-1.1485605,-2.6106036,0.63967526,0.39395285,0
1.2100000000000009,13.798011433695855,-3.671750007643847,1.532650472809207,1.2580662336265165,13.886751,-3.7922738,3.8635223,1.8737673,6.4189806,-7.2364287,2.31195,-0.5199392,0.07365788,-0.19782494,-0.82770884,-5.6238956,8.25584,-1.1213808,-2.7761457,0.7788152,0.4363551,0
1.2200000000000009,13.798011433695855,-3.671750007643847,1.532650472809207,1.2580662336265165,13.886751,-3.7922738,3.8635223,1.8737673,6.3627954,-7.153592,2.3008747,-0.5161126,0.084074065,-0.18836658,-0.8313099,-5.613823,8.311383,-1.0935808,-2.9158716,0.8962593,0.47667673,0
1.2300000000000009,13.798011433695855,-3.671750007643847,1.532650472809207,1.2580662336265165,13.886751,-3.7922738,3.8635223,1.8737673,6.30669,-7.070203,2.2900803,-0.511844,0.09521393,-0.17862456,-0.8348905,-5.607858,8.366353,-1.06527,-3.0338058,0.99539196,0.5150198,0
1.2400000000000009,13.798011433695855,-3.671750007643847,1.532650472809207,1.2580662336265165,14.536613,-3.8137364,3.4739277,1.8642273,6.250623,-6.986267,2.2795708,-0.50715244,0.10695383,-0.1686343,-0.8384024,-5.606215,8.420727,-1.0365723,-3.1333466,1.0790695,0.55148125,0
1.2500000000000009,13.798011433695855,-3.671750007643847,1.532650472809207,1.2580662336265165,14.536613,-3.8137364,3.4739277,1.8642273,6.1945505,-6.9017906,2.2693496,-0.50205505,0.11918844,-0.15842697,-0.8418043,-5.6090713,8.474465,-1.0076258,-3.2173617,1.1497024,0.58615357,0
1.260000000000001,13.798011433695855,-3.671750007643847,1.532650472809207,1.2580662336265165,14.536613,-3.8137364,3.4739277,1.8642273,6.138426,-6.81678,2.2594185,-0.49656713,0.13182797,-0.14803015,-0.8450611,-5.616571,8.5275135,-0.97857857,-3.2882721,1.2093254,0.61912453,0
1.270000000000001,13.798011433695855,-3.671750007643847,1.532650472809207,1.2580662336265165,14.536613,-3.8137364,3.4739277,1.8642273,6.082203,-6.7312427,2.2497778,-0.49070275,0.1447957,-0.13746835,-0.8481428,-5.6288285,8.579803,-0.9495877,-3.3481214,1.2596552,0.6504776,0
1.280000000000001,14.202190942639717,-3.5375806510664947,1.4271983201606757,1.299480894492615,16.263603,-3.1721015,2.6306987,1.6280259,6.0258327,-6.6451864,2.240426,-0.48447496,0.158026,-0.12676346,-0.8510238,-5.6459317,8.631261,-0.92081696,-3.3986342,1.3021413,0.6802922,0
1.290000000000001,14.202190942639717,-3.5375806510664947,1.4271983201606757,1.299480894492615,16.263603,-3.1721015,2.6306987,1.6280259,5.9692636,-6.5586123,2.2313786,-0.477906,0.17140025,-0.115961485,-0.8536858,-5.668586,8.683281,-0.88872933,-3.4203374,1.3215665,0.7106759,0
1.300000000000001,14.202190942639717,-3.5375806510664947,1.4271983201606757,1.299480894492615,16.263603,-3.1721015,2.6306987,1.6280259,5.9124427,-6.471524,2.2226493,-0.47101647,0.18482155,-0.10510197,-0.8561173,-5.696305,8.7342615,-0.857212,-3.4386542,1.3379664,0.7395687,0
1.310000000000001,14.202190942639717,-3.5375806510664947,1.4271983201606757,1.299480894492615,16.263603,-3.1721015,2.6306987,1.6280259,5.8553195,-6.3839307,2.2142315,-0.46381614,0.19826683,-0.09419471,-0.858307,-5.7290807,8.784104,-0.8264343,-3.4541125,1.3518128,0.7670437,0
1.320000000000001,14.703155018748072,-3.1145517822703592,0.8296941824381795,1.2765648907398883,16.678225,-2.8163517,2.1781464,1.5977184,5.797844,-6.295846,2.2061174,-0.4563144,0.21171606,-0.08324876,-0.8602452,-5.766891,8.832708,-0.7965656,-3.4671586,1.3635036,0.7931705,0
1.330000000000001,14.703155018748072,-3.1145517822703592,0.8296941824381795,1.2765648907398883,16.678225,-2.8163517,2.1781464,1.5977184,5.739958,-6.207273,2.1983192,-0.4485799,0.22486977,-0.07230951,-0.8619627,-5.811195,8.881635,-0.76329076,-3.4121468,1.280232,0.81689084,0
1.340000000000001,14.703155018748072,-3.1145517822703592,0.8296941824381795,1.2765648907398883,16.678225,-2.8163517,2.1781464,1.5977184,5.6816034,-6.1182184,2.1908476,-0.44067377,0.237493,-0.06141719,-0.86349887,-5.8605013,8.929029,-0.73124176,-3.3657176,1.2099462,0.83944726,0
1.350000000000001,14.703155018748072,-3.1145517822703592,0.8296941824381795,1.2765648907398883,16.678225,-2.8163517,2.1781464,1.5977184,5.622731,-6.028698,2.1836898,-0.43259445,0.24965599,-0.05057207,-0.86485547,-5.914628,8.974754,-0.7005174,-3.3265324,1.1506209,0.8608967,0
1.360000000000001,14.470779599442102,-2.3858189762880935,-0.15497166899699777,1.0960745815724946,15.724042,-2.4561338,0.71404266,1.5295664,5.5632944,-5.938729,2.1768322,-0.42434138,0.26141775,-0.039774194,-0.8660321,-5.973407,9.0186825,-0.6712142,-3.2934608,1.1005472,0.88129365,0
1.370000000000001,14.470779599442102,-2.3858189762880935,-0.15497166899699777,1.0960745815724946,15.724042,-2.4561338,0.71404266,1.5295664,5.5032525,-5.8483343,2.1702502,-0.41602787,0.27236536,-0.029104507,-0.8671155,-6.0356526,9.060027,-0.6454011,-3.1518083,0.90480936,0.89183307,0
1.380000000000001,14.470779599442102,-2.3858189762880935,-0.15497166899699777,1.0960745815724946,15.724042,-2.4561338,0.71404266,1.5295664,5.442568,-5.7575355,2.1639192,-0.40775305,0.28218082,-0.018630475,-0.8681952,-6.101972,9.09934,-0.6210482,-3.0322616,0.7395866,0.90185523,0
1.390000000000001,14.470779599442102,-2.3858189762880935,-0.15497166899699777,1.0960745815724946,15.724042,-2.4561338,0.71404266,1.5295664,5.381201,-5.666354,2.1578248,-0.39949736,0.29103667,-0.0083325505,-0.869269,-6.172031,9.136493,-0.5981098,-2.9313712,0.60012174,0.91138566,0
1.400000000000001,14.145827086001516,-1.5692098871461257,-1.155209771618196,0.8011335052405584,15.635779,-1.954104,0.17933057,1.2048132,5.319115,-5.5748134,2.1519525,-0.39124385,0.29907775,0.0018069989,-0.870331,-6.2455378,9.1713705,-0.5765465,-2.8462257,0.4823991,0.9204484,0
1.410000000000001,14.145827086001516,-1.5692098871461257,-1.155209771618196,0.8011335052405584,15.635779,-1.954104,0.17933057,1.2048132,5.256287,-5.482939,2.1462758,-0.38310784,0.30595115,0.011685828,-0.87148386,-6.320487,9.203146,-0.5589652,-2.6469219,0.22714445,0.91459364,0
1.420000000000001,14.145827086001516,-1.5692098871461257,-1.155209771618196,0.8011335052405584,15.635779,-1.954104,0.17933057,1.2048132,5.1926956,-5.3907585,2.1407692,-0.37518764,0.31138897,0.021222373,-0.87282246,-6.398134,9.232507,-0.5425306,-2.4787247,0.011675969,0.90902615,0
1.430000000000001,14.145827086001516,-1.5692098871461257,-1.155209771618196,0.8011335052405584,15.635779,-1.954104,0.17933057,1.2048132,5.128316,-5.2982974,2.1354218,-0.36744547,0.3156163,0.030460583,-0.87432295,-6.4780903,9.259373,-0.5270753,-2.336779,-0.17020714,0.90373176,0
1.440000000000001,14.145827086001516,-1.5692098871461257,-1.155209771618196,0.8011335052405584,15.596999,-1.4382629,-0.2927852,0.9291082,5.063127,-5.20558,2.130225,-0.3598485,0.3188215,0.03943896,-0.87595934,-6.5600204,9.283681,-0.51245373,-2.2169876,-0.32373995,0.89869726,0
1.450000000000001,14.145827086001516,-1.5692098871461257,-1.155209771618196,0.8011335052405584,15.596999,-1.4382629,-0.2927852,0.9291082,4.9971094,-5.112633,2.1251702,-0.35236835,0.32116216,0.048191104,-0.8777057,-6.6436386,9.305382,-0.49854153,-2.1158924,-0.45334148,0.89390975,0
1.460000000000001,14.145827086001516,-1.5692098871461257,-1.155209771618196,0.8011335052405584,15.596999,-1.4382629,-0.2927852,0.9291082,4.9302487,-5.019482,2.1202517,-0.34498107,0.32277048,0.05674624,-0.87953705,-6.728698,9.324433,-0.48523355,-2.0305755,-0.5627417,0.8893572,0
1.470000000000001,14.145827086001516,-1.5692098871461257,-1.155209771618196,0.8011335052405584,15.596999,-1.4382629,-0.2927852,0.9291082,4.862531,-4.9261537,2.1154637,-0.3376663,0.3237572,0.06512971,-0.88143015,-6.814981,9.340807,-0.47244233,-1.9585742,-0.6550896,0.885028,0
1.480000000000001,14.17070991726344,-0.7541752048542789,-1.7092787758005028,0.4743905796520881,16.382998,-1.1752143,-0.9534564,0.6597039,4.793946,-4.8326755,2.1108012,-0.33040714,0.32421538,0.07336344,-0.88336384,-6.9023,9.354478,-0.46009597,-1.8978101,-0.7330431,0.8809113,0
1.490000000000001,14.17070991726344,-0.7541752048542789,-1.7092787758005028,0.4743905796520881,16.382998,-1.1752143,-0.9534564,0.6597039,4.7244816,-4.7390738,2.1062615,-0.32331464,0.3239176,0.0812638,-0.88540363,-6.990622,9.365453,-0.44792834,-1.719385,-0.88516176,0.8609632,0
1.500000000000001,14.17070991726344,-0.7541752048542789,-1.7092787758005028,0.4743905796520881,16.382998,-1.1752143,-0.9534564,0.6597039,4.654131,-4.6453753,2.1018422,-0.31648105,0.32269052,0.08868636,-0.8876056,-7.079522,9.373743,-0.43599054,-1.5688014,-1.0135784,0.841994,0
1.5100000000000011,14.17070991726344,-0.7541752048542789,-1.7092787758005028,0.4743905796520881,16.382998,-1.1752143,-0.9534564,0.6597039,4.5828905,-4.5516076,2.0975416,-0.3098675,0.32067767,0.0957018,-0.8899368,-7.168729,9.3793955,-0.42413357,-1.4417148,-1.1219858,0.8239556,0
1.5200000000000011,13.218944084904708,0.007459993385998728,-2.2926364118503084,0.11722167502451793,15.636077,-0.7735503,-1.5312759,0.33851227,4.5107574,-4.4577956,2.0933597,-0.3034409,0.31799915,0.10237026,-0.892367,-7.2580094,9.382454,-0.41223323,-1.3344578,-1.2135015,0.80680233,0
1.5300000000000011,13.218944084904708,0.007459993385998728,-2.2926364118503084,0.11722167502451793,15.636077,-0.7735503,-1.5312759,0.33851227,4.4377623,-4.363967,2.0892606,-0.29728502,0.3144508,0.108554974,-0.8949617,-7.3411565,9.382932,-0.40757138,-1.1251284,-1.381657,0.77296436,0
1.5400000000000011,13.218944084904708,0.007459993385998728,-2.2926364118503084,0.11722167502451793,15.636077,-0.7735503,-1.5312759,0.33851227,4.363937,-4.270145,2.0852094,-0.2914677,0.30987617,0.11414979,-0.8977703,-7.42389,9.381113,-0.4025919,-0.9484623,-1.5236148,0.74078685,0
1.5500000000000012,13.218944084904708,0.007459993385998728,-2.2926364118503084,0.11722167502451793,15.636077,-0.7735503,-1.5312759,0.33851227,4.289287,-4.1763525,2.0812101,-0.28594112,0.30443117,0.119243436,-0.9007434,-7.505941,9.377079,-0.39713025,-0.79936165,-1.6434553,0.7101884,0
1.5600000000000012,12.367050993819655,0.6247620970815785,-2.7086059493344523,-0.2417277096821907,13.927708,0.024750449,-1.9755621,-0.21690068,4.2138214,-4.082611,2.0772686,-0.28066468,0.29824638,0.123911075,-0.9038367,-7.587074,9.370905,-0.39105317,-0.6735245,-1.7446237,0.6810913,0
1.5700000000000012,12.367050993819655,0.6247620970815785,-2.7086059493344523,-0.2417277096821907,13.927708,0.024750449,-1.9755621,-0.21690068,4.1375756,-3.9889395,2.0733578,-0.2756961,0.29120615,0.1280523,-0.9070786,-7.6619177,9.363196,-0.39100564,-0.47104642,-1.8948522,0.63580835,0
1.5800000000000012,12.367050993819655,0.6247620970815785,-2.7086059493344523,-0.2417277096821907,13.927708,0.024750449,-1.9755621,-0.21690068,4.060588,-3.8953536,2.0694516,-0.2710817,0.28322324,0.13159023,-0.9104843,-7.735454,9.353652,-0.39013502,-0.3001597,-2.0216773,0.5927474,0
1.5900000000000012,12.367050993819655,0.6247620970815785,-2.7086059493344523,-0.2417277096821907,13.927708,0.024750449,-1.9755621,-0.21690068,3.9828718,-3.8018723,2.0655584,-0.2667738,0.27443632,0.1346154,-0.91399866,-7.807445,9.342371,-0.38831532,-0.15593395,-2.1287434,0.5517995,0
1.6000000000000012,11.840403453525123,0.933056471494676,-2.926959402502214,-0.5817203687521271,13.499599,0.38527313,-2.0848675,-0.2933164,3.904445,-3.7085118,2.0616887,-0.26273194,0.26496208,0.13720421,-0.91757315,-7.877681,9.329442,-0.3854518,-0.034208484,-2.2191281,0.5128609,0
1.6100000000000012,11.840403453525123,0.933056471494676,-2.926959402502214,-0.5817203687521271,13.499599,0.38527313,-2.0848675,-0.2933164,3.8253398,-3.6152856,2.0578315,-0.25898045,0.2547803,0.1393416,-0.9211941,-7.943063,9.315565,-0.3858193,0.11659135,-2.3294675,0.45914945,0
1.6200000000000012,11.840403453525123,0.933056471494676,-2.926959402502214,-0.5817203687521271,13.499599,0.38527313,-2.0848675,-0.2933164,3.7455907,-3.5222056,2.0539763,-0.25553983,0.24387883,0.14101863,-0.92484313,-8.006385,9.300279,-0.38504794,0.24386606,-2.4226162,0.40807366,0
1.6300000000000012,11.840403453525123,0.933056471494676,-2.926959402502214,-0.5817203687521271,13.499599,0.38527313,-2.0848675,-0.2933164,3.6652195,-3.4292848,2.0501347,-0.2523732,0.23235922,0.14230312,-0.9284747,-8.067462,9.2836685,-0.3830849,0.35128674,-2.5012503,0.35950416,0
1.6400000000000012,11.840403453525123,0.933056471494676,-2.926959402502214,-0.5817203687521271,13.151851,0.64703596,-2.1268508,-0.4986513,3.5842495,-3.3365364,2.046319,-0.24944888,0.22030759,0.14325215,-0.93205,-8.126126,9.26581,-0.37990174,0.44195163,-2.5676315,0.31331804,0
1.6500000000000012,11.840403453525123,0.933056471494676,-2.926959402502214,-0.5817203687521271,13.151851,0.64703596,-2.1268508,-0.4986513,3.5027058,-3.2439723,2.042541,-0.24673982,0.20779717,0.14391373,-0.9355358,-8.182233,9.246775,-0.37549114,0.51847553,-2.6236677,0.26939824,0
1.6600000000000013,11.840403453525123,0.933056471494676,-2.926959402502214,-0.5817203687521271,13.151851,0.64703596,-2.1268508,-0.4986513,3.4206145,-3.1516044,2.038813,-0.24422275,0.19489045,0.14432819,-0.9389041,-8.235649,9.226625,-0.36986387,0.5830649,-2.6709702,0.22763363,0
1.6700000000000013,11.840403453525123,0.933056471494676,-2.926959402502214,-0.5817203687521271,13.151851,0.64703596,-2.1268508,-0.4986513,3.3380027,-3.0594435,2.0351477,-0.24187756,0.18164086,0.14452948,-0.94213146,-8.286257,9.20542,-0.36304617,0.6375817,-2.7109,0.18791841,0
1.6800000000000013,11.453627156929281,1.13251623241311,-2.4039414395701986,-0.8034123678022562,12.379363,0.4759049,-1.986194,-0.5393886,3.254899,-2.9674995,2.0315561,-0.23968682,0.16809423,0.14454603,-0.9451982,-8.333952,9.183211,-0.3550775,0.6835973,-2.7446053,0.150152,1
1.6900000000000013,11.453627156929281,1.13251623241311,-2.4039414395701986,-0.8034123678022562,12.379363,0.4759049,-1.986194,-0.5393886,3.1713233,-2.8757877,2.028074,-0.23765577,0.15469132,0.14448455,-0.9480048,-8.380695,9.158996,-0.34113887,0.6511382,-2.626349,0.11631604,1
1.7000000000000013,11.453627156929281,1.13251623241311,-2.4039414395701986,-0.8034123678022562,12.379363,0.4759049,-1.986194,-0.5393886,3.0872955,-2.7843227,2.024737,-0.23579293,0.14178725,0.14443427,-0.95049214,-8.42437,9.133843,-0.32617277,0.62374985,-2.5265322,0.084140435,1
1.7100000000000013,11.453627156929281,1.13251623241311,-2.4039414395701986,-0.8034123678022562,12.379363,0.4759049,-1.986194,-0.5393886,3.002846,-2.6931136,2.0215538,-0.2340876,0.12930247,0.14439318,-0.9526977,-8.465063,9.107808,-0.31029812,0.60064,-2.4422798,0.053543687,1
1.7200000000000013,10.946688926321569,1.1237522861188536,-1.786662514873169,-0.9655741512933942,12.191324,0.46247503,-1.7096213,-0.6247991,2.9180038,-2.6021693,2.0185337,-0.23252949,0.11716973,0.14435901,-0.95465183,-8.502853,9.080936,-0.29362017,0.5811401,-2.3711653,0.02444833,0
1.7300000000000013,10.946688926321569,1.1237522861188536,-1.786662514873169,-0.9655741512933942,12.191324,0.46247503,-1.7096213,-0.6247991,2.8328187,-2.5114818,2.0156171,-0.23120007,0.10534064,0.14406936,-0.95639545,-8.533755,9.056483,-0.28959513,0.66568637,-2.2800322,-0.02413236,0
1.7400000000000013,10.946688926321569,1.1237522861188536,-1.786662514873169,-0.9655741512933942,12.191324,0.46247503,-1.7096213,-0.6247991,2.747337,-2.4210415,2.0127437,-0.23016603,0.09377347,0.14331546,-0.95796096,-8.56218,9.031453,-0.28499168,0.7370562,-2.2031147,-0.070329174,0
1.7500000000000013,10.946688926321569,1.1237522861188536,-1.786662514873169,-0.9655741512933942,12.191324,0.46247503,-1.7096213,-0.6247991,2.6615837,-2.3308542,2.0099192,-0.22939827,0.08242466,0.14216743,-0.9593589,-8.588154,9.005966,-0.27985242,0.79730284,-2.1381948,-0.11425911,0
1.7600000000000013,10.578171515103064,1.067579700000785,-1.1437328988425315,-1.0590536376734951,11.212675,0.54596215,-1.6249244,-0.78454757,2.5755825,-2.2409236,2.0071485,-0.22887143,0.07125751,0.14068414,-0.960597,-8.611698,8.980127,-0.2742193,0.8481598,-2.0834002,-0.15603338,1
1.7700000000000014,10.578171515103064,1.067579700000785,-1.1437328988425315,-1.0590536376734951,11.212675,0.54596215,-1.6249244,-0.78454757,2.4893553,-2.1512558,2.0044491,-0.22853555,0.060359508,0.13912109,-0.9616506,-8.633353,8.953381,-0.26560652,0.800999,-2.0119126,-0.18687478,1
1.7800000000000014,10.578171515103064,1.067579700000785,-1.1437328988425315,-1.0590536376734951,11.212675,0.54596215,-1.6249244,-0.78454757,2.4029236,-2.061857,2.001838,-0.22834986,0.049799204,0.13768409,-0.96250606,-8.652614,8.926374,-0.2566008,0.76119596,-1.9515717,-0.21620275,1
1.7900000000000014,10.578171515103064,1.067579700000785,-1.1437328988425315,-1.0590536376734951,11.212675,0.54596215,-1.6249244,-0.78454757,2.316311,-1.9727293,1.9993184,-0.22830555,0.039522618,0.13635178,-0.9631828,-8.669553,8.899109,-0.24726887,0.72760296,-1.9006399,-0.2440916,1
1.8000000000000014,10.314078523047398,0.9143391986644858,-0.5869448007299422,-1.0832758645174632,10.512228,0.629347,-1.3736084,-0.8310664,2.22954,-1.8838756,1.9968934,-0.22839402,0.029484248,0.13510585,-0.9636969,-8.684232,8.871584,-0.23767078,0.69925076,-1.8576498,-0.2706119,1
1.8100000000000014,10.314078523047398,0.9143391986644858,-0.5869448007299422,-1.0832758645174632,10.512228,0.629347,-1.3736084,-0.8310664,2.1426377,-1.7952898,1.994532,-0.2286271,0.019734325,0.13387577,-0.96406215,-8.695929,8.845537,-0.23460183,0.6883306,-1.7821742,-0.29811358,1
1.8200000000000014,10.314078523047398,0.9143391986644858,-0.5869448007299422,-1.0832758645174632,10.512228,0.629347,-1.3736084,-0.8310664,2.0556285,-1.7069654,1.9922019,-0.22901356,0.010310761,0.13260488,-0.9642929,-8.705625,8.819273,-0.23137763,0.6791151,-1.7184683,-0.32426575,1
1.8300000000000014,10.314078523047398,0.9143391986644858,-0.5869448007299422,-1.0832758645174632,10.512228,0.629347,-1.3736084,-0.8310664,1.9685321,-1.618905,1.9899048,-0.22954126,0.0011616428,0.13129738,-0.9644007,-8.713383,8.792817,-0.2280365,0.67133814,-1.6646967,-0.34913462,1
1.8400000000000014,10.314078523047398,0.9143391986644858,-0.5869448007299422,-1.0832758645174632,10.681362,0.5220842,-0.91383076,-0.75148135,1.8813676,-1.5311098,1.9876413,-0.2301991,-0.0077567594,0.12995678,-0.96439505,-8.719255,8.76619,-0.22461343,0.6647749,-1.6193104,-0.37278315,1
1.8500000000000014,10.314078523047398,0.9143391986644858,-0.5869448007299422,-1.0832758645174632,10.681362,0.5220842,-0.91383076,-0.75148135,1.794153,-1.4435838,1.9854207,-0.23099212,-0.016292654,0.12858513,-0.9642829,-8.723362,8.73898,-0.21950647,0.64253056,-1.5092937,-0.39136598,1
1.8600000000000014,10.314078523047398,0.9143391986644858,-0.5869448007299422,-1.0832758645174632,10.681362,0.5220842,-0.91383076,-0.75148135,1.7069062,-1.3563306,1.9832513,-0.2319228,-0.024327438,0.12718463,-0.9640759,-8.725707,8.711647,-0.21437739,0.6237544,-1.4164338,-0.40903693,1
1.8700000000000014,10.314078523047398,0.9143391986644858,-0.5869448007299422,-1.0832758645174632,10.681362,0.5220842,-0.91383076,-0.75148135,1.6196445,-1.2693512,1.9811332,-0.23297808,-0.03193981,0.12575808,-0.9637864,-8.726388,8.684215,-0.20924972,0.6079051,-1.3380555,-0.4258408,1
1.8800000000000014,10.165113990170575,0.7517265272253696,0.4648097326941526,-1.0052679774291577,11.340637,0.29491588,-0.5023023,-0.56403595,1.5323839,-1.1826466,1.9790663,-0.23414634,-0.039196167,0.12430781,-0.9634236,-8.725492,8.656708,-0.20414354,0.59452635,-1.2719004,-0.44182006,0
1.8900000000000015,10.165113990170575,0.7517265272253696,0.4648097326941526,-1.0052679774291577,11.340637,0.29491588,-0.5023023,-0.56403595,1.4451394,-1.0962106,1.9770253,-0.23551238,-0.04564663,0.1226167,-0.96302325,-8.723224,8.63049,-0.2040582,0.6191011,-1.0010796,-0.4694686,0
1.9000000000000015,10.165113990170575,0.7517265272253696,0.4648097326941526,-1.0052679774291577,11.340637,0.29491588,-0.5023023,-0.56403595,1.3579239,-1.0100363,1.974985,-0.23714633,-0.050938725,0.12051226,-0.96262246,-8.719733,8.604346,-0.20398934,0.63984036,-0.7724923,-0.49576044,0
1.9100000000000015,10.165113990170575,0.7517265272253696,0.4648097326941526,-1.0052679774291577,11.340637,0.29491588,-0.5023023,-0.56403595,1.2707484,-0.9241228,1.9729455,-0.23901813,-0.05525512,0.11805636,-0.9622256,-8.7152195,8.578397,-0.20391059,0.65734154,-0.5795522,-0.5207621,0
1.9200000000000015,10.147042430903245,0.5649294834543978,1.3317917933922039,-0.8917000341020064,11.310461,0.24340263,0.16120552,-0.47842553,1.1836224,-0.83846736,1.9709069,-0.24110137,-0.05874972,0.115301095,-0.9618328,-8.70985,8.552744,-0.20379676,0.67210937,-0.4166999,-0.5445369,0
1.9300000000000015,10.147042430903245,0.5649294834543978,1.3317917933922039,-0.8917000341020064,11.310461,0.24340263,0.16120552,-0.47842553,1.0965536,-0.75306636,1.9688689,-0.24340373,-0.061198868,0.11227922,-0.96145767,-8.703792,8.527523,-0.20379779,0.6554896,-0.14402486,-0.56157225,0
1.9400000000000015,10.147042430903245,0.5649294834543978,1.3317917933922039,-0.8917000341020064,11.310461,0.24340263,0.16120552,-0.47842553,1.0095481,-0.6679152,1.9668313,-0.24592681,-0.062431622,0.109018385,-0.9611116,-8.697252,8.502792,-0.20370512,0.6414518,0.08612637,-0.5777718,0
1.9500000000000015,10.147042430903245,0.5649294834543978,1.3317917933922039,-0.8917000341020064,11.310461,0.24340263,0.16120552,-0.47842553,0.9226094,-0.5830085,1.9647952,-0.24864066,-0.062638424,0.10555235,-0.9607867,-8.690446,8.478645,-0.20348519,0.62959385,0.28038538,-0.59317636,0
1.9600000000000015,10.225492630190086,0.31466157801384975,1.8178329364849366,-0.7367977667804041,10.6540575,0.3504595,0.94431704,-0.4864389,0.8357394,-0.49834,1.962762,-0.2515193,-0.061979778,0.101909734,-0.9604733,-8.683551,8.455166,-0.20310998,0.6195769,0.44434944,-0.607825,1
1.9700000000000015,10.225492630190086,0.31466157801384975,1.8178329364849366,-0.7367977667804041,10.6540575,0.3504595,0.94431704,-0.4864389,0.7489398,-0.4139084,1.9607582,-0.25448206,-0.06071312,0.09823968,-0.9601561,-8.67637,8.431282,-0.19762988,0.5776371,0.52233785,-0.60186857,1
1.9800000000000015,10.225492630190086,0.31466157801384975,1.8178329364849366,-0.7367977667804041,10.6540575,0.3504595,0.94431704,-0.4864389,0.6622114,-0.32971168,1.9588101,-0.25745776,-0.059048627,0.094662994,-0.9598258,-8.669348,8.408188,-0.1919601,0.54223245,0.5881612,-0.5962044,1
1.9900000000000015,10.225492630190086,0.31466157801384975,1.8178329364849366,-0.7367977667804041,10.6540575,0.3504595,0.94431704,-0.4864389,0.57555205,-0.2457419,1.9569197,-0.26043886,-0.057047524,0.09116397,-0.95948124,-8.662564,8.385887,-0.18610126,0.5123449,0.6437169,-0.5908181,1
2.0000000000000013,,,,,10.807608,0.38750842,0.7958125,-0.25728852,0.488959,-0.16199118,1.9550887,-0.26341924,-0.054761577,0.0877295,-0.9591209,-8.656083,8.364384,-0.18005529,0.48711467,0.69060653,-0.5856962,0
2.010000000000001,,,,,10.807608,0.38750842,0.7958125,-0.25728852,0.40242758,-0.07844642,1.9532939,-0.26644436,-0.05182405,0.084345646,-0.95875204,-8.650272,8.34469,-0.17887509,0.42385814,0.88578045,-0.58503944,0
2.020000000000001,,,,,10.807608,0.38750842,0.7958125,-0.25728852,0.31595182,0.0049054064,1.9515119,-0.26954857,-0.047946315,0.08099907,-0.95837456,-8.644978,8.325804,-0.17750941,0.3704548,1.0505135,-0.5844149,0
2.0300000000000007,,,,,10.807608,0.38750842,0.7958125,-0.25728852,0.22952569,0.0880726,1.9497443,-0.2727124,-0.04327405,0.07768069,-0.9579765,-8.640369,8.30777,-0.17595161,0.32536983,1.1895533,-0.583821,0
2.0400000000000005,,,,,10.807608,0.38750842,0.7958125,-0.25728852,0.14314158,0.17106387,1.9479934,-0.27591956,-0.03793033,0.07438317,-0.95754623,-8.636591,8.290628,-0.17420152,0.28730747,1.306907,-0.5832562,0
2.0500000000000003,,,,,10.897427,0.16081336,1.0857148,-0.08041561,0.056790605,0.25388837,1.946261,-0.27915627,-0.03201921,0.07110057,-0.9570732,-8.6337595,8.274421,-0.17226472,0.25517395,1.4059575,-0.58271915,1
2.06,,,,,10.897427,0.16081336,1.0857148,-0.08041561,-0.029536465,0.33654985,1.9445864,-0.28232834,-0.0259613,0.067895725,-0.9565588,-8.631829,8.258029,-0.16264848,0.24041778,1.3560253,-0.5580709,1
2.07,,,,,10.897427,0.16081336,1.0857148,-0.08041561,-0.11584978,0.41905248,1.9430088,-0.28535601,-0.02009434,0.06481999,-0.9560149,-8.631001,8.242653,-0.1528685,0.227968,1.3138785,-0.5346322,1
2.0799999999999996,,,,,10.897427,0.16081336,1.0857148,-0.08041561,-0.2021602,0.5014063,1.9415296,-0.28824824,-0.01438794,0.061853264,-0.95544654,-8.63124,8.228263,-0.1429495,0.21746424,1.2783034,-0.5123437,1
2.0899999999999994,,,,,10.96608,-0.30317703,0.23094712,0.08804706,-0.28847814,0.5836211,1.9401501,-0.2910132,-0.008816542,0.0589784,-0.9548577,-8.632513,8.214837,-0.13291371,0.20860235,1.2482752,-0.49114883,1
2.099999999999999,,,,,10.96608,-0.30317703,0.23094712,0.08804706,-0.37481397,0.6657059,1.938875,-0.29362026,-0.0036297482,0.056458276,-0.9542455,-8.634799,8.20226,-0.12210116,0.12871963,1.0896513,-0.46272752,1
2.109999999999999,,,,,10.96608,-0.30317703,0.23094712,0.08804706,-0.46117732,0.7476691,1.9377084,-0.29604474,0.000976584,0.05450143,-0.95361644,-8.638006,8.190488,-0.11122166,0.061308388,0.9557583,-0.43570086,1
2.1199999999999988,,,,,10.96608,-0.30317703,0.23094712,0.08804706,-0.547577,0.8295179,1.9366508,-0.2983014,0.0050945124,0.053020906,-0.9529834,-8.642051,8.179381,-0.100300126,0.004420762,0.8427406,-0.4100004,1
2.1299999999999986,,,,,10.584791,-0.35961536,-0.23340274,0.2702109,-0.63402104,0.9112586,1.9357024,-0.30040315,0.008801577,0.05194297,-0.95235527,-8.646862,8.168819,-0.08935545,-0.043586336,0.74734396,-0.3855611,1
2.1399999999999983,,,,,10.584791,-0.35961536,-0.23340274,0.2702109,-0.7205157,0.9928976,1.9348446,-0.30233017,0.011994131,0.051282447,-0.9517462,-8.652181,8.159048,-0.082194075,-0.092921816,0.5944075,-0.35338217,1
2.149999999999998,,,,,10.584791,-0.35961536,-0.23340274,0.2702109,-0.8070666,1.0744407,1.9340585,-0.30406532,0.014593623,0.051048014,-0.95116955,-8.658084,8.149577,-0.0750363,-0.13455166,0.465318,-0.32278228,1
2.159999999999998,,,,,10.584791,-0.35961536,-0.23340274,0.2702109,-0.8936791,1.15589,1.933344,-0.30562282,0.016694011,0.05117361,-0.95062894,-8.664482,8.140291,-0.06789094,-0.16967994,0.35635707,-0.29368398,1
2.1699999999999977,,,,,10.624727,-0.35586813,-0.16288199,0.58057,-0.9803577,1.2372469,1.9327008,-0.30701524,0.018374464,0.051603276,-0.95012593,-8.6713,8.131091,-0.060764264,-0.19932273,0.26438636,-0.26601347,1
2.1799999999999975,,,,,10.624727,-0.35586813,-0.16288199,0.58057,-1.0671064,1.3185116,1.9321306,-0.30821878,0.01973002,0.052278813,-0.94967204,-8.678504,8.121861,-0.05326403,-0.22375287,0.19775227,-0.22447138,1
