time-since-start [s],throttle_mpc,roll_mpc,pitch_mpc,yaw_mpc,throttle_nw,roll_nw,pitch_nw,yaw_nw,position_x [m],position_y [m],position_z [m],rotation_w [quaternion],rotation_x [quaternion],rotation_y [quaternion],rotation_z [quaternion],velocity_x [m/s],velocity_y [m/s],velocity_z [m/s],omega_x [rad/s],omega_y [rad/s],omega_z [rad/s],network_used
0.0,10.621900586705566,-5.999999470335798,-6.0,5.9999999315230035,11.349497,2.884203,-6.525049,-2.1590483,18.355885,-9.814914,1.9594383,0.11226715,0.48129898,-0.20184672,-0.84557986,-11.745883,-6.44068,0.09428011,1.8713328,-0.18862069,-0.27076226,0
0.01,10.621900586705566,-5.999999470335798,-6.0,5.9999999315230035,17.862764,2.7628477,-6.6064243,-2.4699316,18.237494,-9.879064,1.9603832,0.10714297,0.48200014,-0.2090561,-0.84409225,-11.93163,-6.3888764,0.094044834,1.7096977,-0.028782126,-0.06552194,0
0.02,10.621900586705566,-5.999999470335798,-6.0,5.9999999315230035,17.862764,2.7628477,-6.6064243,-2.4699316,18.117268,-9.942685,1.9613055,0.10337752,0.48299697,-0.21603382,-0.8422329,-12.112656,-6.335066,0.08980453,1.5741733,0.10702783,0.13463527,0
0.03,10.621900586705566,-5.999999470335798,-6.0,5.9999999315230035,17.862764,2.7628477,-6.6064243,-2.4699316,17.99525,-10.005758,1.9621679,0.10087908,0.4841858,-0.22286378,-0.84007084,-12.29045,-6.27936,0.08222849,1.4442772,0.20613796,0.32845294,0
0.04,10.621900586705566,-5.999999470335798,-6.0,5.9999999315230035,19.15238,6.1967096,-6.094984,-3.450389,17.871468,-10.068265,1.9629401,0.09958349,0.48539108,-0.22954114,-0.8377286,-12.466009,-6.221897,0.07177099,1.3066443,0.26176575,0.5152604,0
0.05,10.621900586705566,-5.999999470335798,-6.0,5.9999999315230035,19.15238,6.1967096,-6.094984,-3.450389,17.74594,-10.130191,1.9635934,0.09943613,0.48644274,-0.23604153,-0.8353264,-12.639292,-6.163079,0.058445375,1.1614373,0.2796339,0.69549644,0
0.060000000000000005,10.621900586705566,-5.999999470335798,-6.0,5.9999999315230035,19.15238,6.1967096,-6.094984,-3.450389,17.618689,-10.191524,1.9640994,0.10038701,0.4871928,-0.24233907,-0.8329689,-12.81024,-6.1032753,0.042344436,1.0089774,0.2647603,0.8695614,0
0.07,10.621900586705566,-5.999999470335798,-6.0,5.9999999315230035,19.15238,6.1967096,-6.094984,-3.450389,17.489742,-10.2522545,1.9644312,0.10239005,0.48751247,-0.24840772,-0.8307474,-12.978788,-6.0428267,0.023627829,0.84969914,0.22154582,1.0378213,0
0.08,12.534925826650213,5.999999968107596,-6.0,-4.237196439516161,15.852741,6.539736,-7.5226445,-5.064848,17.359121,-10.312379,1.9645636,0.105402485,0.48728928,-0.25422195,-0.82874036,-13.144863,-5.9820437,0.0025105416,0.6841138,0.15385282,1.2006109,0
0.09,12.534925826650213,5.999999968107596,-6.0,-4.237196439516161,15.852741,6.539736,-7.5226445,-5.064848,17.226778,-10.371867,1.9645089,0.108484186,0.48665565,-0.25961968,-0.8270399,-13.3236885,-5.915486,-0.013753983,0.65632045,0.050950177,1.0103952,0
0.09999999999999999,12.534925826650213,5.999999968107596,-6.0,-4.237196439516161,15.852741,6.539736,-7.5226445,-5.064848,17.092657,-10.430689,1.9642818,0.110671885,0.48578686,-0.26456988,-0.825691,-13.500021,-5.8487587,-0.03196331,0.6626021,-0.065635085,0.82685417,0
0.10999999999999999,12.534925826650213,5.999999968107596,-6.0,-4.237196439516161,15.852741,6.539736,-7.5226445,-5.064848,16.956787,-10.488842,1.9638634,0.11189725,0.4846474,-0.26923072,-0.82468826,-13.673678,-5.7818227,-0.051965907,0.6984342,-0.19457681,0.64958924,0
0.11999999999999998,12.534925826650213,5.999999968107596,-6.0,-4.237196439516161,15.852741,6.539736,-7.5226445,-5.064848,16.819193,-10.546325,1.9632367,0.112101555,0.48320332,-0.2737397,-0.82402325,-13.844476,-5.7145743,-0.073625974,0.75985146,-0.33460575,0.47823444,0
0.12999999999999998,16.961683045128776,6.0,-6.0,-4.466767303174254,17.883938,6.093645,-7.457139,-5.967955,16.679907,-10.603132,1.9623857,0.11123456,0.48142168,-0.27821597,-0.82368433,-14.012227,-5.6468587,-0.096822515,0.8433759,-0.48451585,0.31245387,0
0.13999999999999999,16.961683045128776,6.0,-6.0,-4.466767303174254,17.883938,6.093645,-7.457139,-5.967955,16.538805,-10.659195,1.961364,0.10904637,0.47912586,-0.282945,-0.8237047,-14.207362,-5.5657277,-0.10776434,1.0334651,-0.73068404,0.13285878,0
0.15,16.961683045128776,6.0,-6.0,-4.466767303174254,17.883938,6.093645,-7.457139,-5.967955,16.395775,-10.714442,1.9602245,0.105303705,0.47614667,-0.2881817,-0.82410365,-14.398063,-5.483457,-0.120381445,1.2355621,-0.9802103,-0.041651655,0
0.16,20.99999994288427,6.0,-6.0,-4.188852441164218,19.792843,6.4486413,-8.168084,-6.982351,16.25086,-10.768859,1.958951,0.099990495,0.47246054,-0.29397652,-0.82483983,-14.584014,-5.3995414,-0.13453501,1.4476434,-1.2324197,-0.21131337,0
0.17,20.99999994288427,6.0,-6.0,-4.188852441164218,19.792843,6.4486413,-8.168084,-6.982351,16.104002,-10.822373,1.9575791,0.09280829,0.4677655,-0.30071282,-0.825926,-14.786746,-5.3030376,-0.1401163,1.8157641,-1.6345762,-0.37591493,0
0.18000000000000002,20.99999994288427,6.0,-6.0,-4.188852441164218,19.792843,6.4486413,-8.168084,-6.982351,15.955148,-10.874909,1.9561429,0.0834876,0.46177375,-0.3087152,-0.8273389,-14.98271,-5.203511,-0.14736053,2.1786234,-2.0263147,-0.5371086,0
0.19000000000000003,20.99999994288427,6.0,-6.0,-4.188852441164218,19.792843,6.4486413,-8.168084,-6.982351,15.804371,-10.926431,1.9546266,0.0720596,0.4544725,-0.31792924,-0.828965,-15.171339,-5.1001325,-0.1561165,2.5359666,-2.408174,-0.69496495,0
0.20000000000000004,21.0,6.0,-6.0,-4.011232095651333,22.378496,8.637591,-8.118648,-6.778376,15.651748,-10.976896,1.9530157,0.058556385,0.44583926,-0.32829183,-0.83067614,-15.352029,-4.9922037,-0.16626923,2.887601,-2.780633,-0.8495531,0
0.21000000000000005,21.0,6.0,-6.0,-4.011232095651333,22.378496,8.637591,-8.118648,-6.778376,15.49737,-11.026263,1.9512922,0.04297687,0.4357884,-0.33979368,-0.83233505,-15.522303,-4.880362,-0.17865987,3.258178,-3.1689155,-0.9944405,0
0.22000000000000006,21.0,6.0,-6.0,-4.011232095651333,22.378496,8.637591,-8.118648,-6.778376,15.341334,-11.074485,1.9494381,0.02532969,0.4242322,-0.35240412,-0.8337845,-15.683268,-4.763079,-0.19235782,3.6199157,-3.5457132,-1.1366,0
0.23000000000000007,21.0,6.0,-6.0,-4.011232095651333,22.378496,8.637591,-8.118648,-6.778376,15.18374,-11.121506,1.9474406,0.005666649,0.41113532,-0.3660145,-0.8348466,-15.834186,-4.64005,-0.20734066,3.9730425,-3.9116583,-1.2760625,0
0.24000000000000007,21.0,6.0,-6.0,-4.011232095651333,22.123901,8.2279415,-8.560727,-6.803956,15.024682,-11.16726,1.9452909,-0.015907023,0.39650443,-0.38046378,-0.8353313,-15.976134,-4.509416,-0.22253206,4.2885056,-4.23797,-1.410278,0
0.25000000000000006,21.0,6.0,-6.0,-4.011232095651333,22.123901,8.2279415,-8.560727,-6.803956,14.864248,-11.211664,1.9429913,-0.039157823,0.38046733,-0.3954778,-0.83505005,-16.10918,-4.369969,-0.2373227,4.554785,-4.51338,-1.5379076,0
0.26000000000000006,21.0,6.0,-6.0,-4.011232095651333,22.123901,8.2279415,-8.560727,-6.803956,14.702533,-11.254629,1.9405453,-0.063852094,0.36315855,-0.41079906,-0.83383626,-16.23216,-4.2217436,-0.25181693,4.779558,-4.7458205,-1.6592743,0
0.2700000000000001,21.0,6.0,-6.0,-4.011232095651333,22.123901,8.2279415,-8.560727,-6.803956,14.539642,-11.29607,1.9379554,-0.08977714,0.34469998,-0.42620584,-0.8315471,-16.343966,-4.0650067,-0.26614672,4.9693027,-4.9419875,-1.7746857,0
0.2800000000000001,21.0,6.0,-6.0,-3.826118693861966,23.914684,7.880078,-8.2376795,-6.4947596,14.375694,-11.335901,1.9352224,-0.116737776,0.3252035,-0.4415073,-0.8280617,-16.443533,-3.9002364,-0.28046483,5.1294837,-5.107535,-1.8844337,0
0.2900000000000001,21.0,6.0,-6.0,-3.826118693861966,23.914684,7.880078,-8.2376795,-6.4947596,14.210816,-11.374048,1.9323456,-0.14453477,0.30476296,-0.4565466,-0.8232827,-16.529884,-3.7280986,-0.29493824,5.2647433,-5.247207,-1.9797126,0
0.3000000000000001,21.0,6.0,-6.0,-3.826118693861966,23.914684,7.880078,-8.2376795,-6.4947596,14.045144,-11.41044,1.9293225,-0.17298308,0.28346586,-0.4711891,-0.81713206,-16.602133,-3.5494282,-0.30974296,5.378938,-5.3650694,-2.0703163,0
0.3100000000000001,21.0,6.0,-6.0,-3.826118693861966,23.914684,7.880078,-8.2376795,-6.4947596,13.878824,-11.445018,1.926149,-0.20192838,0.26140457,-0.48531216,-0.80954593,-16.659485,-3.3652074,-0.3250595,5.4753513,-5.464524,-2.1564744,0
0.3200000000000001,21.0,5.801214337818019,-5.999999908489881,-3.666594166381983,23.99967,7.3545156,-7.707547,-5.0228505,13.712008,-11.477729,1.922819,-0.231226,0.23866658,-0.49881026,-0.80047554,-16.701277,-3.1765447,-0.34106842,5.5567565,-5.5484414,-2.2384043,0
0.3300000000000001,21.0,5.801214337818019,-5.999999908489881,-3.666594166381983,23.99967,7.3545156,-7.707547,-5.0228505,13.544855,-11.508536,1.9193248,-0.26070604,0.21534486,-0.5115348,-0.789931,-16.726965,-2.9846575,-0.35794088,5.59452,-5.6191726,-2.3084857,0
0.34000000000000014,21.0,5.801214337818019,-5.999999908489881,-3.666594166381983,23.99967,7.3545156,-7.707547,-5.0228505,13.377525,-11.5374155,1.9156569,-0.2902152,0.19152881,-0.5233665,-0.7779327,-16.736172,-2.7908623,-0.37581134,5.6264176,-5.678855,-2.3751285,0
0.35000000000000014,21.0,5.801214337818019,-5.999999908489881,-3.666594166381983,23.99967,7.3545156,-7.707547,-5.0228505,13.210189,-11.564352,1.9118048,-0.3196443,0.16729398,-0.53426105,-0.7644641,-16.728662,-2.5965362,-0.39479813,5.6533628,-5.7292128,-2.4385011,0
0.36000000000000015,20.99999841042821,2.8246235203758174,-5.427399250204259,-0.2571995092372473,24.909891,6.995265,-7.552498,-2.5370955,13.043012,-11.589349,1.9077567,-0.34888887,0.14271197,-0.5441803,-0.74951816,-16.704344,-2.4030933,-0.41501224,5.676126,-5.7717013,-2.498764,0
0.37000000000000016,20.99999841042821,2.8246235203758174,-5.427399250204259,-0.2571995092372473,24.909891,6.995265,-7.552498,-2.5370955,12.876161,-11.612423,1.9035001,-0.37725896,0.11822327,-0.5523633,-0.73388934,-16.663353,-2.2119744,-0.4364877,5.2319345,-5.7169075,-2.3887696,0
0.38000000000000017,20.99999841042821,2.8246235203758174,-5.427399250204259,-0.2571995092372473,24.909891,6.995265,-7.552498,-2.5370955,12.709801,-11.633602,1.8990238,-0.40423304,0.094196916,-0.55829483,-0.7183517,-16.606464,-2.0245972,-0.45886895,4.8569736,-5.670843,-2.2841728,0
0.3900000000000002,20.99999841042821,2.8246235203758174,-5.427399250204259,-0.2571995092372473,24.909891,6.995265,-7.552498,-2.5370955,12.544085,-11.652931,1.8943211,-0.42994258,0.070589475,-0.5622684,-0.70286584,-16.53465,-1.8422179,-0.48172283,4.5404525,-5.632112,-2.1847086,0
0.4000000000000002,21.0,1.6361793486122373,-3.40539311677806,-0.09941532757247991,25.488302,4.853056,-5.7820435,-2.292706,12.379157,-11.670467,1.8893889,-0.4544934,0.04735804,-0.56452525,-0.68738914,-16.44886,-1.6659302,-0.50468826,4.273261,-5.5995426,-2.0901253,0
0.4100000000000002,21.0,1.6361793486122373,-3.40539311677806,-0.09941532757247991,25.488302,4.853056,-5.7820435,-2.292706,12.215153,-11.6862755,1.8842279,-0.47749043,0.025224136,-0.5653276,-0.67213905,-16.350094,-1.4966449,-0.5274804,3.8628123,-5.25656,-1.9924403,0
0.4200000000000002,21.0,1.6361793486122373,-3.40539311677806,-0.09941532757247991,25.488302,4.853056,-5.7820435,-2.292706,12.052196,-11.700426,1.8788406,-0.4986705,0.004751896,-0.56496453,-0.65735817,-16.2397,-1.3348538,-0.54992646,3.516247,-4.9672074,-1.899549,0
0.4300000000000002,21.0,1.6361793486122373,-3.40539311677806,-0.09941532757247991,25.488302,4.853056,-5.7820435,-2.292706,11.890394,-11.712999,1.873231,-0.51828486,-0.014312334,-0.5636422,-0.6430265,-16.11902,-1.1808158,-0.571896,3.2236261,-4.723095,-1.811216,0
0.4400000000000002,21.0,1.6361793486122373,-3.40539311677806,-0.09941532757247991,24.775902,4.3058996,-3.8768747,-1.5298839,11.729846,-11.7240715,1.8674048,-0.53654104,-0.03218761,-0.5615206,-0.629112,-15.989203,-1.0346975,-0.59327525,2.9765553,-4.517144,-1.7272174,0
0.45000000000000023,21.0,1.6361793486122373,-3.40539311677806,-0.09941532757247991,24.775902,4.3058996,-3.8768747,-1.5298839,11.570639,-11.733722,1.8613681,-0.5536105,-0.04906175,-0.55872434,-0.61557704,-15.851261,-0.8966034,-0.6139673,2.7679465,-4.3433876,-1.6473408,0
0.46000000000000024,21.0,1.6361793486122373,-3.40539311677806,-0.09941532757247991,24.775902,4.3058996,-3.8768747,-1.5298839,11.4128475,-11.742031,1.8551282,-0.5696351,-0.06509482,-0.5553507,-0.60238165,-15.706078,-0.7665979,-0.63389206,2.5918136,-4.19679,-1.5713836,0
0.47000000000000025,21.0,1.6361793486122373,-3.40539311677806,-0.09941532757247991,24.775902,4.3058996,-3.8768747,-1.5298839,11.25654,-11.749082,1.848693,-0.5847324,-0.08042256,-0.55147576,-0.5894865,-15.554435,-0.64472014,-0.65298533,2.4431016,-4.0731044,-1.4991537,0
0.48000000000000026,21.0,0.5481112419842601,-1.6658749360897107,0.41972901719188116,23.26592,2.5868602,-1.3690348,-0.059903137,11.101778,-11.754953,1.8420714,-0.59900004,-0.09515949,-0.5471589,-0.5768539,-15.397029,-0.53099364,-0.6711978,2.3175423,-3.9687483,-1.4304681,0
0.49000000000000027,21.0,0.5481112419842601,-1.6658749360897107,0.41972901719188116,23.26592,2.5868602,-1.3690348,-0.059903137,10.948617,-11.759729,1.8352723,-0.6121534,-0.10877686,-0.54261845,-0.5648014,-15.234525,-0.42536694,-0.6884986,2.04215,-3.6092386,-1.3396784,0
0.5000000000000002,21.0,0.5481112419842601,-1.6658749360897107,0.41972901719188116,23.26592,2.5868602,-1.3690348,-0.059903137,10.797103,-11.763487,1.8283045,-0.6240047,-0.12087329,-0.5380665,-0.55361706,-15.067727,-0.3274017,-0.7048929,1.8096069,-3.3058665,-1.2533438,0
0.5100000000000002,21.0,0.5481112419842601,-1.6658749360897107,0.41972901719188116,23.26592,2.5868602,-1.3690348,-0.059903137,10.647274,-11.766301,1.8211774,-0.63475394,-0.13170844,-0.5335281,-0.5432198,-14.897372,-0.23656376,-0.72039056,1.6132504,-3.0498636,-1.1712457,0
0.5200000000000002,21.0,-0.347295738732853,-0.12182192403534918,1.0713025055370964,22.92064,0.78231835,-0.68301517,1.3067954,10.499166,-11.768241,1.8138996,-0.6445645,-0.14150035,-0.5290152,-0.53353226,-14.724061,-0.1523745,-0.73499626,1.4474523,-2.833831,-1.093176,0
0.5300000000000002,21.0,-0.347295738732853,-0.12182192403534918,1.0713025055370964,22.92064,0.78231835,-0.68301517,1.3067954,10.352802,-11.76937,1.8064803,-0.65325856,-0.14991567,-0.5247339,-0.5248165,-14.548307,-0.07434844,-0.74871767,1.1680323,-2.410614,-0.98696446,0
0.5400000000000003,21.0,-0.347295738732853,-0.12182192403534918,1.0713025055370964,22.92064,0.78231835,-0.68301517,1.3067954,10.208206,-11.769746,1.7989281,-0.660717,-0.15671049,-0.520863,-0.51729685,-14.370666,-0.0016992446,-0.7615903,0.93208396,-2.0534644,-0.88596475,0
0.5500000000000003,21.0,-0.347295738732853,-0.12182192403534918,1.0713025055370964,22.92064,0.78231835,-0.68301517,1.3067954,10.065394,-11.76942,1.7912513,-0.6671368,-0.16217157,-0.51736087,-0.51084834,-14.191611,0.066381946,-0.7736497,0.7328499,-1.7520642,-0.78992105,0
0.5600000000000003,21.0,-0.9708179427549827,1.0564572444445572,1.4275266772717539,21.926012,-0.23175432,-0.98465663,2.3354282,9.924377,-11.768433,1.7834579,-0.67267716,-0.16653794,-0.5141836,-0.5053565,-14.011509,0.13059442,-0.78492206,0.5646229,-1.4977082,-0.6985902,0
0.5700000000000003,21.0,-0.9708179427549827,1.0564572444445572,1.4275266772717539,21.926012,-0.23175432,-0.98465663,2.3354282,9.785166,-11.766819,1.7755556,-0.6772469,-0.16962592,-0.51147443,-0.50095594,-13.830658,0.19158721,-0.79543316,0.32542935,-1.0992557,-0.594261,0
0.5800000000000003,21.0,-0.9708179427549827,1.0564572444445572,1.4275266772717539,21.926012,-0.23175432,-0.98465663,2.3354282,9.647766,-11.764608,1.7675518,-0.6807817,-0.17130335,-0.5093464,-0.49775183,-13.649361,0.25019243,-0.8052361,0.1234611,-0.7629864,-0.49505123,0
0.5900000000000003,21.0,-0.9708179427549827,1.0564572444445572,1.4275266772717539,21.926012,-0.23175432,-0.98465663,2.3354282,9.512178,-11.76182,1.7594532,-0.6834319,-0.17182097,-0.5077145,-0.4956043,-13.467876,0.30721468,-0.8143861,-0.047069233,-0.47919255,-0.40070975,0
0.6000000000000003,21.0,-1.3678430259807561,1.721249704571418,1.5887325710463218,20.8223,-1.7572727,-0.5093705,2.5959988,9.378407,-11.758467,1.7512662,-0.6853189,-0.17138726,-0.5065014,-0.49438855,-13.28641,0.36333752,-0.8229303,-0.19104978,-0.23968214,-0.31099766,0
0.6100000000000003,21.0,-1.3678430259807561,1.721249704571418,1.5887325710463218,20.8223,-1.7572727,-0.5093705,2.5959988,9.246449,-11.754554,1.7429966,-0.68642414,-0.16994531,-0.50573856,-0.4941339,-13.105132,0.419168,-0.83091205,-0.37451088,0.0661391,-0.21777737,0
0.6200000000000003,21.0,-1.3678430259807561,1.721249704571418,1.5887325710463218,20.8223,-1.7572727,-0.5093705,2.5959988,9.116303,-11.750081,1.7346497,-0.686733,-0.16745797,-0.5054443,-0.49485454,-12.924228,0.47537988,-0.8383832,-0.5294018,0.32424468,-0.1291314,0
0.6300000000000003,21.0,-1.3678430259807561,1.721249704571418,1.5887325710463218,20.8223,-1.7572727,-0.5093705,2.5959988,8.987964,-11.745042,1.7262305,-0.6863401,-0.16411057,-0.505535,-0.49642593,-12.743869,0.5325959,-0.8453958,-0.66016716,0.5420819,-0.044835307,0
0.6400000000000003,21.0,-1.3678430259807561,1.721249704571418,1.5887325710463218,20.106695,-2.2381542,-0.323525,1.9987292,8.861424,-11.739424,1.7177432,-0.6853227,-0.16005772,-0.505938,-0.49873886,-12.564211,0.5913386,-0.8519987,-0.77056074,0.7259356,0.035324357,0
0.6500000000000004,21.0,-1.3678430259807561,1.721249704571418,1.5887325710463218,20.106695,-2.2381542,-0.323525,1.9987292,8.736677,-11.733209,1.7091917,-0.68374455,-0.15542838,-0.50659055,-0.50169796,-12.385393,0.6520452,-0.85823786,-0.86375326,0.8811094,0.111550555,0
0.6600000000000004,21.0,-1.3678430259807561,1.721249704571418,1.5887325710463218,20.106695,-2.2381542,-0.323525,1.9987292,8.613713,-11.726374,1.7005795,-0.68165874,-0.15033022,-0.50743884,-0.50522023,-12.207548,0.71507967,-0.8641573,-0.9424225,1.0120785,0.1840363,0
0.6700000000000004,21.0,-1.3678430259807561,1.721249704571418,1.5887325710463218,20.106695,-2.2381542,-0.323525,1.9987292,8.492523,-11.718897,1.6919096,-0.67911,-0.1448531,-0.5084372,-0.50923306,-12.030802,0.7807435,-0.8697986,-1.0088301,1.1226202,0.25296515,0
0.6800000000000004,21.0,-1.4952923994081595,1.8304270901396893,1.591604120055979,19.001541,-2.2407858,0.4913022,1.7483672,8.373095,-11.710749,1.6831845,-0.67613614,-0.13907208,-0.5095469,-0.51367337,-11.85528,0.8492846,-0.8752013,-1.064885,1.2159213,0.3185116,0
0.6900000000000004,21.0,-1.4952923994081595,1.8304270901396893,1.591604120055979,19.001541,-2.2407858,0.4913022,1.7483672,8.255414,-11.7019005,1.6744063,-0.6727538,-0.13299294,-0.5107384,-0.51851815,-11.681102,0.92091066,-0.8804015,-1.1320798,1.3116932,0.3809826,0
0.7000000000000004,21.0,-1.4952923994081595,1.8304270901396893,1.591604120055979,19.001541,-2.2407858,0.4913022,1.7483672,8.139467,-11.692319,1.6655769,-0.6689768,-0.12662259,-0.5119853,-0.5237436,-11.508404,0.9958207,-0.885427,-1.1887963,1.3925294,0.44038814,0
0.7100000000000004,21.0,-1.4952923994081595,1.8304270901396893,1.591604120055979,19.001541,-2.2407858,0.4913022,1.7483672,8.02524,-11.681971,1.6566982,-0.6648315,-0.12002012,-0.51326233,-0.5292972,-11.337328,1.0741842,-0.89030296,-1.2366674,1.46076,0.49687862,0
0.7200000000000004,21.0,-1.4718111834190655,1.6415294690045112,1.4848906206184895,18.467371,-2.6688166,0.79372996,1.5946016,7.912715,-11.670823,1.6477712,-0.6603409,-0.11323483,-0.5145483,-0.5351329,-11.16801,1.1561347,-0.89505404,-1.2770714,1.5183517,0.5505972,0
0.7300000000000004,21.0,-1.4718111834190655,1.6415294690045112,1.4848906206184895,18.467371,-2.6688166,0.79372996,1.5946016,7.8018737,-11.658836,1.6387974,-0.65557027,-0.10634794,-0.51578265,-0.54118884,-11.000583,1.2417684,-0.8997012,-1.3074938,1.5375111,0.59644324,0
0.7400000000000004,21.0,-1.4718111834190655,1.6415294690045112,1.4848906206184895,18.467371,-2.6688166,0.79372996,1.5946016,7.6926966,-11.645974,1.6297776,-0.6505756,-0.09942516,-0.5169182,-0.54741305,-10.835168,1.3311198,-0.9042453,-1.3331695,1.553685,0.6400396,0
0.7500000000000004,21.0,-1.4718111834190655,1.6415294690045112,1.4848906206184895,18.467371,-2.6688166,0.79372996,1.5946016,7.585163,-11.632201,1.6207128,-0.64536303,-0.09248328,-0.5179569,-0.5537811,-10.671881,1.4241959,-0.90868264,-1.3548385,1.5673385,0.6814967,0
0.7600000000000005,21.0,-1.3456954453542143,1.2860816837889328,1.3196281345315293,18.124043,-2.6434915,0.8523759,1.327694,7.479252,-11.617477,1.6116042,-0.6399385,-0.085536,-0.51890075,-0.5602712,-10.510834,1.5209919,-0.91301167,-1.3731261,1.5788652,0.72091943,0
0.7700000000000005,21.0,-1.3456954453542143,1.2860816837889328,1.3196281345315293,18.124043,-2.6434915,0.8523759,1.327694,7.374939,-11.601768,1.6024529,-0.6343894,-0.078696184,-0.51969135,-0.56681335,-10.352132,1.6214805,-0.9172282,-1.3688564,1.5331815,0.75029826,0
0.7800000000000005,21.0,-1.3456954453542143,1.2860816837889328,1.3196281345315293,18.124043,-2.6434915,0.8523759,1.327694,7.2722015,-11.585035,1.59326,-0.6287908,-0.07205292,-0.5202862,-0.57335174,-10.195842,1.7255564,-0.92130476,-1.3652529,1.4946235,0.7782355,0
0.7900000000000005,21.0,-1.3456954453542143,1.2860816837889328,1.3196281345315293,18.124043,-2.6434915,0.8523759,1.327694,7.1710143,-11.567245,1.5840273,-0.6231312,-0.06558413,-0.52070796,-0.5798869,-10.042022,1.8330984,-0.9252093,-1.362212,1.4620798,0.8048018,0
0.8000000000000005,21.0,-1.1553304325377598,0.9260410970728764,1.0784167822818733,17.076536,-3.7100532,1.718665,1.2431408,7.071353,-11.548363,1.5747565,-0.6174012,-0.05927067,-0.52097565,-0.5864184,-9.890727,1.9439952,-0.9289148,-1.3596454,1.434612,0.83006454,0
0.8100000000000005,21.0,-1.1553304325377598,0.9260410970728764,1.0784167822818733,17.076536,-3.7100532,1.718665,1.2431408,6.9731913,-11.528356,1.5654497,-0.611682,-0.05321217,-0.52106357,-0.5928792,-9.742003,2.0581312,-0.93239546,-1.3277506,1.3553072,0.8422512,0
0.8200000000000005,21.0,-1.1553304325377598,0.9260410970728764,1.0784167822818733,17.076536,-3.7100532,1.718665,1.2431408,6.876504,-11.507191,1.5561094,-0.6060438,-0.04748485,-0.5209559,-0.59921646,-9.595851,2.175328,-0.9356123,-1.3008349,1.2883681,0.8538398,0
0.8300000000000005,21.0,-1.1553304325377598,0.9260410970728764,1.0784167822818733,17.076536,-3.7100532,1.718665,1.2431408,6.7812653,-11.484839,1.5467385,-0.60046434,-0.042041607,-0.52067983,-0.6054476,-9.452254,2.2954044,-0.9385258,-1.278121,1.2318667,0.8648598,0
0.8400000000000005,21.0,-1.1553304325377598,0.9260410970728764,1.0784167822818733,16.953856,-4.3955183,2.1318738,1.095216,6.6874504,-11.461273,1.5373402,-0.59492475,-0.03684229,-0.5202578,-0.61158663,-9.311205,2.4182017,-0.9411018,-1.2589532,1.1841757,0.8753391,0
0.8500000000000005,21.0,-1.1553304325377598,0.9260410970728764,1.0784167822818733,16.953856,-4.3955183,2.1318738,1.095216,6.5950327,-11.436466,1.5279179,-0.5894089,-0.031852685,-0.51970834,-0.61764467,-9.172699,2.5435803,-0.94331056,-1.2427778,1.1439209,0.8853041,0
0.8600000000000005,21.0,-1.1553304325377598,0.9260410970728764,1.0784167822818733,16.953856,-4.3955183,2.1318738,1.095216,6.5039873,-11.410393,1.5184754,-0.58390325,-0.027043628,-0.5190469,-0.6236306,-9.036735,2.6714165,-0.94512624,-1.2291279,1.109943,0.8947802,0
0.8700000000000006,21.0,-1.1553304325377598,0.9260410970728764,1.0784167822818733,16.953856,-4.3955183,2.1318738,1.095216,6.414289,-11.38303,1.5090168,-0.57839644,-0.022390265,-0.5182861,-0.62955135,-8.903316,2.8015995,-0.94652647,-1.2176088,1.0812631,0.9037913,0
0.8800000000000006,21.0,-0.9251635032938449,0.5548196179994223,0.8483651453592836,16.853172,-4.7476106,2.1211877,0.9004196,6.325912,-11.354353,1.4995463,-0.572879,-0.017871415,-0.5174364,-0.6354125,-8.772448,2.9340286,-0.94749177,-1.2078882,1.0570551,0.91236025,0
0.8900000000000006,21.0,-0.9251635032938449,0.5548196179994223,0.8483651453592836,16.853172,-4.7476106,2.1211877,0.9004196,6.238831,-11.324342,1.4900686,-0.56743693,-0.013601616,-0.5164812,-0.64115256,-8.64413,3.0686011,-0.9480028,-1.163749,0.97876036,0.90922,0
0.9000000000000006,21.0,-0.9251635032938449,0.5548196179994223,0.8483651453592836,16.853172,-4.7476106,2.1211877,0.9004196,6.1530213,-11.292974,1.480588,-0.56214327,-0.009668912,-0.51541144,-0.64672375,-8.518298,3.2051558,-0.94803065,-1.1265007,0.9126713,0.9062338,0
0.9100000000000006,21.0,-0.9251635032938449,0.5548196179994223,0.8483651453592836,16.853172,-4.7476106,2.1211877,0.9004196,6.068457,-11.260233,1.4711097,-0.5569729,-0.0060208812,-0.51424396,-0.65214807,-8.3948765,3.3435302,-0.94754606,-1.0950679,0.85688514,0.90339416,0
0.9200000000000006,21.0,-0.7252706368066528,0.22748500000052985,0.6172479470344546,16.73671,-5.021222,2.1848686,0.5339129,5.985116,-11.226098,1.461639,-0.5519044,-0.0026131643,-0.5129924,-0.65744394,-8.273804,3.483584,-0.94652355,-1.0685424,0.8097958,0.9006939,0
0.9300000000000006,21.0,-0.7252706368066528,0.22748500000052985,0.6172479470344546,16.73671,-5.021222,2.1848686,0.5339129,5.9029737,-11.190555,1.4521812,-0.5470055,0.00047603092,-0.51164913,-0.6625699,-8.155013,3.6251857,-0.944939,-1.0149493,0.7190254,0.88678515,0
0.9400000000000006,21.0,-0.7252706368066528,0.22748500000052985,0.6172479470344546,16.73671,-5.021222,2.1848686,0.5339129,5.8220086,-11.153589,1.4427422,-0.5423332,0.0031884501,-0.5102109,-0.66749406,-8.038392,3.7681658,-0.9427612,-0.96972424,0.64240444,0.8735589,0
0.9500000000000006,21.0,-0.7252706368066528,0.22748500000052985,0.6172479470344546,16.73671,-5.021222,2.1848686,0.5339129,5.742199,-11.115188,1.4333282,-0.5378557,0.005585564,-0.50869286,-0.6722428,-7.9238224,3.9123607,-0.9399596,-0.9315602,0.57772744,0.86098164,0
0.9600000000000006,21.0,-0.584121863313261,-0.028444128482171604,0.380995703469502,16.094666,-5.170688,1.9473112,0.35486865,5.663525,-11.075338,1.4239452,-0.5335456,0.007719215,-0.50710773,-0.6768382,-7.811203,4.0576315,-0.936508,-0.8993547,0.5231323,0.8490215,0
0.9700000000000006,21.0,-0.584121863313261,-0.028444128482171604,0.380995703469502,16.094666,-5.170688,1.9473112,0.35486865,5.5859685,-11.034032,1.4146001,-0.5294518,0.009548366,-0.5054493,-0.6812557,-7.700438,4.203852,-0.9323826,-0.85014015,0.4371542,0.82605535,0
0.9800000000000006,21.0,-0.584121863313261,-0.028444128482171604,0.380995703469502,16.094666,-5.170688,1.9473112,0.35486865,5.5095105,-10.99126,1.4052998,-0.52561516,0.011044491,-0.5037143,-0.68547595,-7.5914,4.350876,-0.9275533,-0.8086105,0.36457822,0.80421615,0
0.9900000000000007,21.0,-0.584121863313261,-0.028444128482171604,0.380995703469502,16.094666,-5.170688,1.9473112,0.35486865,5.4341345,-10.947013,1.3960515,-0.52200294,0.012264644,-0.5019154,-0.68952304,-7.4839635,4.498562,-0.92199177,-0.7735655,0.3033155,0.7834486,0
1.0000000000000007,21.0,-0.34263983757538874,-0.1339853376663189,0.1848141975710495,15.903147,-5.456848,1.9118631,0.0059119537,5.3598256,-10.901287,1.3868625,-0.5185868,0.013256792,-0.5000629,-0.6934173,-7.3780193,4.646793,-0.9156741,-0.74399215,0.2516022,0.76370007,0
1.0100000000000007,21.0,-0.34263983757538874,-0.1339853376663189,0.1848141975710495,15.903147,-5.456848,1.9118631,0.0059119537,5.286569,-10.854076,1.3777406,-0.5153821,0.01399402,-0.4982101,-0.6971159,-7.2734666,4.795466,-0.90858465,-0.68136793,0.19151388,0.735294,0
1.0200000000000007,21.0,-0.34263983757538874,-0.1339853376663189,0.1848141975710495,15.903147,-5.456848,1.9118631,0.0059119537,5.2143517,-10.805377,1.3686935,-0.51240224,0.014458759,-0.49640065,-0.70058525,-7.17017,4.944476,-0.9007338,-0.6285167,0.14078888,0.70828176,0
1.0300000000000007,21.0,-0.34263983757538874,-0.1339853376663189,0.1848141975710495,15.903147,-5.456848,1.9118631,0.0059119537,5.143162,-10.755186,1.3597285,-0.5096222,0.014700521,-0.4946286,-0.70385367,-7.0679965,5.0937295,-0.8921388,-0.5839129,0.09796831,0.682595,0
1.0400000000000007,21.0,-0.34263983757538874,-0.1339853376663189,0.1848141975710495,15.461811,-5.7667017,1.9178174,0.3611979,5.0729885,-10.703501,1.3508531,-0.50702035,0.014760745,-0.4928886,-0.70694524,-6.966834,5.2431483,-0.8828144,-0.54626936,0.061820757,0.6581688,0
1.0500000000000007,21.0,-0.34263983757538874,-0.1339853376663189,0.1848141975710495,15.461811,-5.7667017,1.9178174,0.3611979,5.0038223,-10.65032,1.3420746,-0.50457793,0.014674069,-0.4911758,-0.70988053,-6.866586,5.392667,-0.87277365,-0.51449996,0.031306222,0.63494116,0
1.0600000000000007,21.0,-0.34263983757538874,-0.1339853376663189,0.1848141975710495,15.461811,-5.7667017,1.9178174,0.3611979,4.9356546,-10.595644,1.3334001,-0.50227857,0.014469408,-0.489486,-0.71267706,-6.767171,5.542229,-0.86202794,-0.4876877,0.005547254,0.6128533,0
1.0700000000000007,21.0,-0.34263983757538874,-0.1339853376663189,0.1848141975710495,15.461811,-5.7667017,1.9178174,0.3611979,4.8684764,-10.539473,1.3248364,-0.50010806,0.014170861,-0.4878155,-0.7153499,-6.668517,5.691789,-0.85058725,-0.46505928,-0.01619731,0.5918493,0
1.0800000000000007,21.0,-0.13081006667122114,-0.24505914714051708,0.04864817327851662,13.814938,-5.4617743,2.5669973,2.1793997,4.8022814,-10.481806,1.3163906,-0.498054,0.013798472,-0.48616102,-0.7179121,-6.5705667,5.841307,-0.83846045,-0.44596142,-0.034553364,0.57187605,0
1.0900000000000007,21.0,-0.13081006667122114,-0.24505914714051708,0.04864817327851662,13.814938,-5.4617743,2.5669973,2.1793997,4.7370625,-10.422645,1.3080693,-0.49614042,0.013302962,-0.48455846,-0.7203258,-6.4732604,5.9907465,-0.8256585,-0.3968026,-0.06735667,0.5462011,0
1.1000000000000008,21.0,-0.13081006667122114,-0.24505914714051708,0.04864817327851662,13.814938,-5.4617743,2.5669973,2.1793997,4.672814,-10.361991,1.2998796,-0.49438742,0.012647086,-0.4830366,-0.72256154,-6.376503,6.140061,-0.8122105,-0.35531294,-0.09504873,0.5217861,0
1.1100000000000008,21.0,-0.13081006667122114,-0.24505914714051708,0.04864817327851662,13.814938,-5.4617743,2.5669973,2.1793997,4.609531,-10.299845,1.2918273,-0.49277937,0.011862195,-0.48158324,-0.7246404,-6.2801986,6.289208,-0.79814804,-0.32029578,-0.11842602,0.4985691,0
1.1200000000000008,21.0,0.19058858421571062,-0.38517109993027104,0.009361862533630139,13.791805,-5.6137204,2.1604474,2.296688,4.547209,-10.236208,1.2839186,-0.49130255,0.01097442,-0.48018786,-0.7265806,-6.184264,6.438151,-0.7834983,-0.29074124,-0.13816045,0.47649133,0
1.1300000000000008,21.0,0.19058858421571062,-0.38517109993027104,0.009361862533630139,13.791805,-5.6137204,2.1604474,2.296688,4.485844,-10.171083,1.2761592,-0.48997676,0.009903947,-0.47890747,-0.7283342,-6.088619,6.586856,-0.7682903,-0.21566868,-0.17665523,0.45356914,0
1.1400000000000008,21.0,0.19058858421571062,-0.38517109993027104,0.009361862533630139,13.791805,-5.6137204,2.1604474,2.296688,4.4254355,-10.104472,1.2685544,-0.4888172,0.00858876,-0.4777873,-0.7298642,-5.9931297,6.735279,-0.7525822,-0.15230632,-0.20915212,0.43177179,0
1.1500000000000008,21.0,0.19058858421571062,-0.38517109993027104,0.009361862533630139,13.791805,-5.6137204,2.1604474,2.296688,4.3659816,-10.036378,1.261109,-0.487806,0.0070727295,-0.47680277,-0.7311996,-5.8976593,6.883377,-0.7364353,-0.098827645,-0.23658586,0.41104397,0
1.1600000000000008,21.0,0.33490113886408124,-0.46761132596864285,-0.057770730316523376,14.110956,-5.4920316,1.7203655,2.100242,4.3074827,-9.9668045,1.2538271,-0.48692772,0.0053925794,-0.47593302,-0.7323651,-5.8020926,7.0311136,-0.71990216,-0.053690337,-0.25974464,0.39133328,0
1.1700000000000008,21.0,0.33490113886408124,-0.46761132596864285,-0.057770730316523376,14.110956,-5.4920316,1.7203655,2.100242,4.2499404,-9.895756,1.2467122,-0.48619103,0.0035307005,-0.4751865,-0.73335,-5.7063265,7.178458,-0.7030305,0.0069144005,-0.2921459,0.36929563,0
1.1800000000000008,21.0,0.33490113886408124,-0.46761132596864285,-0.057770730316523376,14.110956,-5.4920316,1.7203655,2.100242,4.193357,-9.823236,1.2397676,-0.4856023,0.001475028,-0.47456887,-0.7341466,-5.6102433,7.325373,-0.6858747,0.058065996,-0.31949824,0.34833938,0
1.1900000000000008,21.0,0.33490113886408124,-0.46761132596864285,-0.057770730316523376,14.110956,-5.4920316,1.7203655,2.100242,4.137737,-9.74925,1.2329956,-0.48514584,-0.000738783,-0.47406006,-0.7347779,-5.5137324,7.4718246,-0.6684865,0.10123915,-0.3425878,0.32841143,0
1.2000000000000008,20.99999987740373,-0.22220198245974707,-0.12122022812481889,-0.19837777698450018,15.359827,-5.2948494,1.4140586,1.1002874,4.0830846,-9.673801,1.2263986,-0.48480812,-0.0030809082,-0.4736429,-0.7352636,-5.4167013,7.617783,-0.6509107,0.1376784,-0.36207885,0.30946133,0
1.2100000000000009,20.99999987740373,-0.22220198245974707,-0.12122022812481889,-0.19837777698450018,15.359827,-5.2948494,1.4140586,1.1002874,4.029405,-9.596896,1.2199781,-0.48452553,-0.0053082034,-0.47320625,-0.73571813,-5.319093,7.7632318,-0.6331777,0.081542425,-0.32452995,0.28454152,0
1.2200000000000009,20.99999987740373,-0.22220198245974707,-0.12122022812481889,-0.19837777698450018,15.359827,-5.2948494,1.4140586,1.1002874,3.9767044,-9.51854,1.2137358,-0.4842496,-0.0072257845,-0.47266167,-0.7362333,-5.2209864,7.9081993,-0.6152633,0.034163386,-0.29283342,0.26084453,0
1.2300000000000009,20.99999987740373,-0.22220198245974707,-0.12122022812481889,-0.19837777698450018,15.359827,-5.2948494,1.4140586,1.1002874,3.9249868,-9.438736,1.2076737,-0.4839895,-0.00887584,-0.47202626,-0.7367937,-5.122489,8.052725,-0.5971292,-0.0058250073,-0.26607716,0.23831035,0
1.2400000000000009,20.99999987740373,-0.22220198245974707,-0.12122022812481889,-0.19837777698450018,14.99556,-5.0860496,0.80441785,0.5802751,3.8742557,-9.357488,1.201794,-0.4837523,-0.010294295,-0.47131434,-0.7373865,-5.023691,8.196841,-0.5787427,-0.03957577,-0.24349163,0.21688193,0
1.2500000000000009,20.99999987740373,-0.22220198245974707,-0.12122022812481889,-0.19837777698450018,14.99556,-5.0860496,0.80441785,0.5802751,3.8245137,-9.2748,1.1960998,-0.48354352,-0.011511764,-0.47053802,-0.73800105,-4.9246707,8.340578,-0.5600757,-0.06806169,-0.2244266,0.19650501,0
1.260000000000001,20.99999987740373,-0.22220198245974707,-0.12122022812481889,-0.19837777698450018,14.99556,-5.0860496,0.80441785,0.5802751,3.7757628,-9.190679,1.1905936,-0.48336715,-0.012554371,-0.4697074,-0.73862845,-4.8254914,8.483957,-0.5411044,-0.09210439,-0.20833358,0.17712799,0
1.270000000000001,20.99999987740373,-0.22220198245974707,-0.12122022812481889,-0.19837777698450018,14.99556,-5.0860496,0.80441785,0.5802751,3.7280042,-9.1051235,1.1852787,-0.48322615,-0.013444436,-0.4688311,-0.73926145,-4.7262077,8.626999,-0.52180856,-0.112396955,-0.19474943,0.1587018,0
1.280000000000001,20.99999956975461,-1.1977924637670536,0.0826534064530957,-0.29285545346739716,14.325012,-4.1452336,0.119100645,0.106792696,3.681239,-9.018139,1.1801585,-0.48312262,-0.014201052,-0.46791634,-0.7398942,-4.626867,8.769719,-0.50217104,-0.12952437,-0.18328297,0.14117981,0
1.290000000000001,20.99999956975461,-1.1977924637670536,0.0826534064530957,-0.29285545346739716,14.325012,-4.1452336,0.119100645,0.106792696,3.6354668,-8.929729,1.1752366,-0.48303396,-0.014586131,-0.46671966,-0.7407,-4.5275364,8.912133,-0.48215482,-0.2961259,-0.14182167,0.11988159,0
1.300000000000001,20.99999956975461,-1.1977924637670536,0.0826534064530957,-0.29285545346739716,14.325012,-4.1452336,0.119100645,0.106792696,3.590687,-8.839897,1.1705173,-0.48294282,-0.014411257,-0.46504754,-0.7418137,-4.428446,9.054266,-0.46159914,-0.43674466,-0.1068202,0.09962846,0
1.310000000000001,20.99999956975461,-1.1977924637670536,0.0826534064530957,-0.29285545346739716,14.325012,-4.1452336,0.119100645,0.106792696,3.546896,-8.748644,1.1660072,-0.48285678,-0.013758564,-0.4629723,-0.7431789,-4.3298483,9.196139,-0.44032466,-0.5554325,-0.0772728,0.080369174,0
1.320000000000001,20.999997576212948,-2.7299424410882374,0.35327538733941205,-0.20612939833424765,14.078358,-4.330923,-0.7083834,0.07636393,3.5040877,-8.655974,1.161714,-0.48278126,-0.01269766,-0.46055457,-0.7447474,-4.2319593,9.3377695,-0.41818175,-0.65561014,-0.05232979,0.062054932,0
1.330000000000001,20.999997576212948,-2.7299424410882374,0.35327538733941205,-0.20612939833424765,14.078358,-4.330923,-0.7083834,0.07636393,3.4622536,-8.56189,1.1576471,-0.48266894,-0.0109157795,-0.45743957,-0.74676555,-4.135009,9.479168,-0.39501083,-0.9791036,0.010919212,0.048895065,0
1.340000000000001,20.999997576212948,-2.7299424410882374,0.35327538733941205,-0.20612939833424765,14.078358,-4.330923,-0.7083834,0.07636393,3.4213824,-8.4663925,1.1538185,-0.48247597,-0.008168815,-0.45334348,-0.7494185,-4.0394597,9.620344,-0.3704765,-1.2521472,0.06431083,0.036380943,0
1.350000000000001,20.999997576212948,-2.7299424410882374,0.35327538733941205,-0.20612939833424765,14.078358,-4.330923,-0.7083834,0.07636393,3.3814578,-8.369485,1.1502435,-0.48220867,-0.004603864,-0.44840735,-0.752584,-3.9458032,9.761294,-0.34423578,-1.4826087,0.1093806,0.024480905,0
1.360000000000001,20.134748751092665,-4.263582999879334,0.41952943502482387,0.1502008661040441,14.19837,-4.836526,-1.4814286,-0.15699005,3.3424585,-8.271169,1.1469407,-0.48187035,-0.0003454592,-0.442749,-0.75615627,-3.854463,9.902001,-0.31601265,-1.6771291,0.14742512,0.013164788,0
1.370000000000001,20.134748751092665,-4.263582999879334,0.41952943502482387,0.1502008661040441,14.19837,-4.836526,-1.4814286,-0.15699005,3.3043408,-8.171475,1.1439044,-0.48141494,0.0047971504,-0.4360134,-0.76033354,-3.769502,10.03664,-0.2908497,-2.0804863,0.18984695,0.01988919,0
1.380000000000001,20.134748751092665,-4.263582999879334,0.41952943502482387,0.1502008661040441,14.19837,-4.836526,-1.4814286,-0.15699005,3.2670574,-8.0704365,1.1411322,-0.48078823,0.010966446,-0.42791378,-0.7652518,-3.6877437,10.170916,-0.26315236,-2.4209406,0.22565126,0.026283618,0
1.390000000000001,20.134748751092665,-4.263582999879334,0.41952943502482387,0.1502008661040441,14.19837,-4.836526,-1.4814286,-0.15699005,3.2305727,-7.968058,1.1386514,-0.47997916,0.017999675,-0.41863236,-0.77074057,-3.6097863,10.304701,-0.2325552,-2.708301,0.2558708,0.032364264,0
1.400000000000001,18.93513607976551,-4.710161661300331,0.49456259044984885,1.245160325567062,14.017689,-4.9301095,-2.247531,-1.0266842,3.1948462,-7.864345,1.136492,-0.47897673,0.025758674,-0.40832227,-0.7766523,-3.5361571,10.437849,-0.19878908,-2.9508483,0.28137717,0.038146548,0
1.410000000000001,18.93513607976551,-4.710161661300331,0.49456259044984885,1.245160325567062,14.017689,-4.9301095,-2.247531,-1.0266842,3.159812,-7.759343,1.1346469,-0.47764736,0.03417982,-0.3969914,-0.7829946,-3.4714346,10.562306,-0.16971758,-3.2252252,0.31449255,0.097375065,0
1.420000000000001,18.93513607976551,-4.710161661300331,0.49456259044984885,1.245160325567062,14.017689,-4.9301095,-2.247531,-1.0266842,3.1254003,-7.653102,1.1331091,-0.4758632,0.043199327,-0.38465106,-0.7897656,-3.4117045,10.685821,-0.13732907,-3.4568145,0.34243315,0.15369722,0
1.430000000000001,18.93513607976551,-4.710161661300331,0.49456259044984885,1.245160325567062,14.017689,-4.9301095,-2.247531,-1.0266842,3.0915594,-7.545631,1.1319121,-0.47362322,0.052708477,-0.37142658,-0.79683334,-3.3574085,10.808184,-0.10152709,-3.6522884,0.36601093,0.20725565,0
1.440000000000001,18.93513607976551,-4.710161661300331,0.49456259044984885,1.245160325567062,14.463684,-5.70699,-2.6832767,-1.1702846,3.0582325,-7.436943,1.1310904,-0.4709278,0.06261503,-0.35742566,-0.80408424,-3.3089323,10.929166,-0.062282935,-3.8172786,0.3859097,0.25818592,0
1.450000000000001,18.93513607976551,-4.710161661300331,0.49456259044984885,1.245160325567062,14.463684,-5.70699,-2.6832767,-1.1702846,3.0253599,-7.3270535,1.1306782,-0.46777868,0.07284062,-0.34274134,-0.8114209,-3.266612,11.048524,-0.01962659,-3.9565384,0.402706,0.30661705,0
1.460000000000001,18.93513607976551,-4.710161661300331,0.49456259044984885,1.245160325567062,14.463684,-5.70699,-2.6832767,-1.1702846,2.9928782,-7.215979,1.1307094,-0.4641791,0.083318606,-0.32745463,-0.81875974,-3.230737,11.166001,0.026361335,-4.074081,0.4168855,0.35267165,0
1.470000000000001,18.93513607976551,-4.710161661300331,0.49456259044984885,1.245160325567062,14.463684,-5.70699,-2.6832767,-1.1702846,2.960722,-7.1037407,1.1312166,-0.46013343,0.09399222,-0.31163615,-0.826029,-3.2015536,11.281334,0.07555666,-4.173292,0.4288575,0.39646634,0
1.480000000000001,17.779670509784157,-5.118484957125315,0.44800722104217455,1.4387810745927363,15.832153,-6.3225837,-2.6423264,-0.42276585,2.9288232,-6.990361,1.1322312,-0.45564732,0.10481302,-0.29534802,-0.8331672,-3.1792676,11.39425,0.12779781,-4.2570314,0.43896723,0.438112,0
1.490000000000001,17.779670509784157,-5.118484957125315,0.44800722104217455,1.4387810745927363,15.832153,-6.3225837,-2.6423264,-0.42276585,2.8971071,-6.8758993,1.1337359,-0.45069396,0.11579094,-0.27850187,-0.8401799,-3.1649861,11.49774,0.17354852,-4.3913894,0.44019833,0.4872151,0
1.500000000000001,17.779670509784157,-5.118484957125315,0.44800722104217455,1.4387810745927363,15.832153,-6.3225837,-2.6423264,-0.42276585,2.8654997,-6.760416,1.135711,-0.44524455,0.12692843,-0.2610298,-0.8470585,-3.157538,11.598387,0.22180913,-4.504793,0.4412431,0.5339087,0
1.5100000000000011,17.779670509784157,-5.118484957125315,0.44800722104217455,1.4387810745927363,15.832153,-6.3225837,-2.6423264,-0.42276585,2.8339322,-6.643942,1.1381801,-0.43930393,0.13817695,-0.24301164,-0.8537346,-3.1570888,11.695871,0.27238,-4.600511,0.44213155,0.578311,0
1.5200000000000011,16.98371235132055,-5.261886095601623,0.43253171693416176,1.5921100110708386,16.428251,-6.7509146,-2.2854395,0.14278448,2.8023336,-6.5265102,1.1411656,-0.43287867,0.14949484,-0.22451773,-0.8601496,-3.1637614,11.789877,0.3250275,-4.681301,0.44288862,0.6205346,0
1.5300000000000011,16.98371235132055,-5.261886095601623,0.43253171693416176,1.5921100110708386,16.428251,-6.7509146,-2.2854395,0.14278448,2.7706351,-6.4081783,1.1446528,-0.42595264,0.16086137,-0.20556092,-0.8662742,-3.1770196,11.876048,0.3726609,-4.771856,0.44108862,0.66821,0
1.5400000000000011,16.98371235132055,-5.261886095601623,0.43253171693416176,1.5921100110708386,16.428251,-6.7509146,-2.2854395,0.14278448,2.7387693,-6.289003,1.148624,-0.4185109,0.17225626,-0.18615706,-0.87207806,-3.1972237,11.958283,0.42176276,-4.848288,0.43957782,0.7135461,0
1.5500000000000012,16.98371235132055,-5.261886095601623,0.43253171693416176,1.5921100110708386,16.428251,-6.7509146,-2.2854395,0.14278448,2.7066667,-6.1690264,1.1530923,-0.41056412,0.18364687,-0.16636929,-0.87751377,-3.2244031,12.036277,0.4720461,-4.9128003,0.43831116,0.7566575,0
1.5600000000000012,16.47402025924585,-5.11181267999167,0.747984531581298,2.3126108765137223,16.054235,-6.7846713,-1.5491105,1.5307552,2.6742573,-6.0482926,1.158068,-0.40212402,0.19500497,-0.1462539,-0.8825403,-3.2585487,12.109729,0.52320415,-4.9672513,0.43725035,0.7976534,0
1.5700000000000012,16.47402025924585,-5.11181267999167,0.747984531581298,2.3126108765137223,16.054235,-6.7846713,-1.5491105,1.5307552,2.6414778,-5.926859,1.1635357,-0.39311895,0.2063811,-0.12598248,-0.88712513,-3.2983842,12.176304,0.57041377,-4.9898443,0.48545548,0.8719928,0
1.5800000000000012,16.47402025924585,-5.11181267999167,0.747984531581298,2.3126108765137223,16.054235,-6.7846713,-1.5491105,1.5307552,2.6082668,-5.8047833,1.1694769,-0.38348845,0.21781544,-0.105699375,-0.8912457,-3.344872,12.238001,0.6178006,-5.0089126,0.52615523,0.94268435,0
1.5900000000000012,16.47402025924585,-5.11181267999167,0.747984531581298,2.3126108765137223,16.054235,-6.7846713,-1.5491105,1.5307552,2.5745578,-5.682116,1.1758912,-0.37326014,0.22927083,-0.085415676,-0.8948822,-3.397921,12.294632,0.6650021,-5.0250053,0.56051946,1.009907,0
1.6000000000000012,16.77166731661381,-5.241245641187637,2.5139707601703827,4.89839847452308,15.748013,-7.1266418,-1.8723407,1.2444452,2.5402863,-5.558909,1.182775,-0.3624599,0.24071488,-0.06514319,-0.8980165,-3.4574087,12.346017,0.7116595,-5.0385866,0.58953565,1.0738311,0
1.6100000000000012,16.77166731661381,-5.241245641187637,2.5139707601703827,4.89839847452308,15.748013,-7.1266418,-1.8723407,1.2444452,2.5053508,-5.435188,1.1902039,-0.35072932,0.25254434,-0.04468225,-0.900673,-3.5305297,12.397089,0.77341133,-5.220767,0.73854494,1.2472165,0
1.6200000000000012,16.77166731661381,-5.241245641187637,2.5139707601703827,4.89839847452308,15.748013,-7.1266418,-1.8723407,1.2444452,2.4696548,-5.310991,1.1982312,-0.3377397,0.26508066,-0.023932135,-0.902823,-3.6096597,12.441252,0.8315218,-5.3582687,0.8806297,1.4143769,0
1.6300000000000012,16.77166731661381,-5.241245641187637,2.5139707601703827,4.89839847452308,15.748013,-7.1266418,-1.8723407,1.2444452,2.433137,-5.1863866,1.2068212,-0.3235749,0.278224,-0.00309886,-0.9043667,-3.6948228,12.478505,0.88582754,-5.4527197,1.0222266,1.5752676,0
1.6400000000000012,16.77166731661381,-5.241245641187637,2.5139707601703827,4.89839847452308,16.10034,-7.229262,-1.2735074,1.5138799,2.3957384,-5.0614443,1.2159328,-0.3083206,0.29189682,0.017629178,-0.90521926,-3.7857594,12.508785,0.93577796,-5.510066,1.1641858,1.7302653,0
1.6500000000000012,16.77166731661381,-5.241245641187637,2.5139707601703827,4.89839847452308,16.10034,-7.229262,-1.2735074,1.5138799,2.3574033,-4.9362345,1.22552,-0.29206344,0.30603778,0.038085807,-0.9053106,-3.882129,12.532092,0.9808567,-5.535454,1.3070948,1.8797162,0
1.6600000000000013,16.77166731661381,-5.241245641187637,2.5139707601703827,4.89839847452308,16.10034,-7.229262,-1.2735074,1.5138799,2.3180788,-4.8108263,1.2355317,-0.27489042,0.32059875,0.058125272,-0.90458345,-3.9835267,12.548484,1.0205892,-5.533343,1.4513319,2.0239396,0
1.6700000000000013,16.77166731661381,-5.241245641187637,2.5139707601703827,4.89839847452308,16.10034,-7.229262,-1.2735074,1.5138799,2.2777169,-4.6852884,1.245912,-0.25688878,0.33554232,0.077620625,-0.90299094,-4.089501,12.558078,1.0545485,-5.507602,1.5971096,2.1632295,0
1.6800000000000013,15.546192097002507,-4.705693229999913,1.637421949421768,5.098868756925055,15.798985,-6.1025295,-2.2240262,0.97712946,2.2362738,-4.5596876,1.2566024,-0.23814304,0.35083476,0.096470565,-0.9004968,-4.1999307,12.56104,1.0827638,-5.4675035,1.7385827,2.297343,0
1.6900000000000013,15.546192097002507,-4.705693229999913,1.637421949421768,5.098868756925055,15.798985,-6.1025295,-2.2240262,0.97712946,2.1937351,-4.434089,1.2675141,-0.21870781,0.36600098,0.11461815,-0.8972575,-4.3083143,12.557706,1.0986067,-5.3678207,1.703459,2.4330976,0
1.7000000000000013,15.546192097002507,-4.705693229999913,1.637421949421768,5.098868756925055,15.798985,-6.1025295,-2.2240262,0.97712946,2.1500967,-4.308554,1.2785542,-0.19864218,0.3806872,0.13198382,-0.89341867,-4.4198904,12.548336,1.1086023,-5.266561,1.6909978,2.5637333,0
1.7100000000000013,15.546192097002507,-4.705693229999913,1.637421949421768,5.098868756925055,15.798985,-6.1025295,-2.2240262,0.97712946,2.1053243,-4.183143,1.2896694,-0.17799601,0.39496553,0.14857036,-0.888957,-4.5351396,12.532915,1.1136649,-5.179216,1.6823682,2.6881332,0
1.7200000000000013,14.058438773745198,-4.056295348946517,0.40858885860265326,5.476408788599116,14.580574,-5.101576,-2.9438171,0.13155138,2.0593824,-4.057916,1.3008105,-0.15679908,0.4088626,0.1644303,-0.8838587,-4.6536884,12.51144,1.1137879,-5.105487,1.6750938,2.8064287,0
1.7300000000000013,14.058438773745198,-4.056295348946517,0.40858885860265326,5.476408788599116,14.580574,-5.101576,-2.9438171,0.13155138,2.0122936,-3.9329228,1.3118867,-0.13504864,0.4219087,0.17947017,-0.8783755,-4.7641983,12.486377,1.1005825,-4.9520483,1.4670068,2.9364994,0
1.7400000000000013,14.058438773745198,-4.056295348946517,0.40858885860265326,5.476408788599116,14.580574,-5.101576,-2.9438171,0.13155138,1.9640945,-3.8082068,1.3228046,-0.11276526,0.43378457,0.19355977,-0.87272424,-4.875855,12.456027,1.0823305,-4.812288,1.3016816,3.0611205,0
1.7500000000000013,14.058438773745198,-4.056295348946517,0.40858885860265326,5.476408788599116,14.580574,-5.101576,-2.9438171,0.13155138,1.9147718,-3.6838212,1.3335185,-0.089986995,0.44467047,0.20674469,-0.8668478,-4.988862,12.420258,1.0597961,-4.694204,1.1622764,3.1796396,0
1.7600000000000013,12.774526019512258,-3.5954604866159547,-1.3687121251477048,5.999996587303224,13.322451,-4.114025,-3.7743692,-0.3923099,1.8643143,-3.5598202,1.3439865,-0.0667413,0.45469803,0.21908674,-0.8606941,-5.1027117,12.379108,1.033149,-4.5945563,1.0446072,3.2923427,0
1.7700000000000014,12.774526019512258,-3.5954604866159547,-1.3687121251477048,5.999996587303224,13.322451,-4.114025,-3.7743692,-0.3923099,1.8127412,-3.4362473,1.3541533,-0.04304778,0.4634901,0.23035912,-0.8545505,-5.21157,12.334822,0.99943334,-4.379119,0.7273592,3.41938,0
1.7800000000000014,12.774526019512258,-3.5954604866159547,-1.3687121251477048,5.999996587303224,13.322451,-4.114025,-3.7743692,-0.3923099,1.7600894,-3.313138,1.3639604,-0.018882057,0.47073895,0.24041228,-0.8486745,-5.3184314,12.286386,0.9613493,-4.2143807,0.44243422,3.5422468,0
1.7900000000000014,12.774526019512258,-3.5954604866159547,-1.3687121251477048,5.999996587303224,13.322451,-4.114025,-3.7743692,-0.3923099,1.7063802,-3.1905334,1.3733675,0.0058061965,0.47660217,0.24942504,-0.8429721,-5.423018,12.233973,0.91953444,-4.0958185,0.18139674,3.6609144,0
1.8000000000000014,12.927604276709458,-4.006697925393034,-4.077745312337127,5.999999726174082,13.76219,-4.357994,-3.3851004,0.9238026,1.6516382,-3.0684714,1.38234,0.031058576,0.48119676,0.25754794,-0.8373484,-5.525045,12.177731,0.874529,-4.014319,-0.057552524,3.7754252,0
1.8100000000000014,12.927604276709458,-4.006697925393034,-4.077745312337127,5.999999726174082,13.76219,-4.357994,-3.3851004,0.9238026,1.5958416,-2.9470196,1.3908732,0.057020247,0.48395503,0.26477018,-0.83212453,-5.6336403,12.112113,0.8316443,-3.917265,-0.5900011,3.8761134,0
1.8200000000000014,12.927604276709458,-4.006697925393034,-4.077745312337127,5.999999726174082,13.76219,-4.357994,-3.3851004,0.9238026,1.5389804,-2.826241,1.3989642,0.08383778,0.48439464,0.27109367,-0.8275503,-5.737921,12.043096,0.78621334,-3.86337,-1.067457,3.9743598,0
1.8300000000000014,12.927604276709458,-4.006697925393034,-4.077745312337127,5.999999726174082,13.76219,-4.357994,-3.3851004,0.9238026,1.4810996,-2.7061687,1.4065913,0.11151834,0.48271707,0.27663013,-0.8234208,-5.837448,11.970921,0.7389862,-3.8454368,-1.4980277,4.0702424,0
1.8400000000000014,12.927604276709458,-4.006697925393034,-4.077745312337127,5.999999726174082,13.200235,-3.4014351,-4.356972,-0.041217916,1.4222488,-2.5868328,1.41374,0.14005552,0.479077,0.28146696,-0.81953907,-5.9318433,11.895852,0.690618,-3.8573978,-1.8885647,4.163838,0
1.8500000000000014,12.927604276709458,-4.006697925393034,-4.077745312337127,5.999999726174082,13.200235,-3.4014351,-4.356972,-0.041217916,1.362478,-2.4682636,1.4204036,0.16940807,0.47361693,0.2856549,-0.81571287,-6.02172,11.817347,0.64220434,-3.8796253,-2.2302554,4.2539387,0
1.8600000000000014,12.927604276709458,-4.006697925393034,-4.077745312337127,5.999999726174082,13.200235,-3.4014351,-4.356972,-0.041217916,1.3018285,-2.3504994,1.4265872,0.19945452,0.4665317,0.28918126,-0.8117503,-6.107487,11.734924,0.59470123,-3.898504,-2.5186412,4.3396187,0
1.8700000000000014,12.927604276709458,-4.006697925393034,-4.077745312337127,5.999999726174082,13.200235,-3.4014351,-4.356972,-0.041217916,1.2403437,-2.2335777,1.4323021,0.23006256,0.45800254,0.29202816,-0.80747926,-6.188735,11.648849,0.5485552,-3.9145434,-2.7620368,4.4210944,0
1.8800000000000014,14.399778807533075,-3.6271437655170553,-5.2625539282019,5.999999656028748,15.458202,-3.5804698,-4.443675,-1.0051049,1.1780707,-2.117534,1.4375641,0.26110747,0.44818205,0.2941861,-0.80275065,-6.2651005,11.559443,0.5041599,-3.9281745,-2.9674592,4.498572,0
1.8900000000000015,14.399778807533075,-3.6271437655170553,-5.2625539282019,5.999999656028748,15.458202,-3.5804698,-4.443675,-1.0051049,1.1150187,-2.0024514,1.442424,0.29254186,0.43686053,0.29540023,-0.79768986,-6.3443637,11.456575,0.46824396,-3.8800216,-3.3254247,4.572247,0
1.9000000000000015,14.399778807533075,-3.6271437655170553,-5.2625539282019,5.999999656028748,15.458202,-3.5804698,-4.443675,-1.0051049,1.0512046,-1.8884119,1.446939,0.32430825,0.4238828,0.29545373,-0.79237163,-6.417482,11.350979,0.4352131,-3.8395214,-3.627575,4.6423078,0
1.9100000000000015,14.399778807533075,-3.6271437655170553,-5.2625539282019,5.999999656028748,15.458202,-3.5804698,-4.443675,-1.0051049,0.9866912,-1.7754391,1.45114,0.3562758,0.4094411,0.29440045,-0.786608,-6.4841633,11.243279,0.40556088,-3.8054626,-3.8826125,4.70893,0
1.9200000000000015,15.305629891610689,-2.8848363017691745,-5.895472058091976,5.9999996119138315,15.495714,-3.3258545,-4.8153524,-2.3824782,0.9215442,-1.6635511,1.4550633,0.38831928,0.3936986,0.2922937,-0.78023857,-6.5441837,11.134144,0.37969205,-3.7768254,-4.0978827,4.7722836,0
1.9300000000000015,15.305629891610689,-2.8848363017691745,-5.895472058091976,5.9999996119138315,15.495714,-3.3258545,-4.8153524,-2.3824782,0.85581386,-1.5527934,1.458772,0.42027664,0.37671754,0.2888537,-0.77331316,-6.600743,11.017374,0.36274847,-3.6366785,-4.3779254,4.832528,0
1.9400000000000015,15.305629891610689,-2.8848363017691745,-5.895472058091976,5.9999996119138315,15.495714,-3.3258545,-4.8153524,-2.3824782,0.78955424,-1.4432033,1.4623346,0.4520044,0.35857046,0.28386208,-0.7658589,-6.6500416,10.900716,0.35055885,-3.5185134,-4.614347,4.8898163,0
1.9500000000000015,15.305629891610689,-2.8848363017691745,-5.895472058091976,5.9999996119138315,15.495714,-3.3258545,-4.8153524,-2.3824782,0.72283775,-1.3347756,1.4658005,0.4834091,0.3393987,0.27745518,-0.757721,-6.692147,10.785078,0.34342578,-3.4188855,-4.8139434,4.9442935,0
1.9600000000000015,15.017049918722948,-2.024662267610086,-5.735888655153456,5.999999584384411,16.595535,-3.4825969,-4.767813,-2.5396,0.6557356,-1.2274953,1.4692211,0.5143975,0.31932288,0.26975682,-0.74877083,-6.72719,10.671356,0.34154975,-3.3348901,-4.98245,4.9960976,0
1.9700000000000015,15.017049918722948,-2.024662267610086,-5.735888655153456,5.999999584384411,16.595535,-3.4825969,-4.767813,-2.5396,0.58832026,-1.1213285,1.4726403,0.54475516,0.2986773,0.26065886,-0.7389783,-6.754855,10.56252,0.34312066,-3.130016,-5.0993834,5.0453596,0
1.9800000000000015,15.017049918722948,-2.024662267610086,-5.735888655153456,5.999999584384411,16.595535,-3.4825969,-4.767813,-2.5396,0.5206602,-1.0162327,1.4761016,0.5743145,0.27775162,0.250101,-0.7283301,-6.7762017,10.457276,0.3499639,-2.9571533,-5.198169,5.0922046,0
1.9900000000000015,15.017049918722948,-2.024662267610086,-5.735888655153456,5.999999584384411,16.595535,-3.4825969,-4.767813,-2.5396,0.4528163,-0.91216797,1.4796574,0.6030468,0.2565794,0.23825416,-0.71675295,-6.7917047,10.356423,0.3620144,-2.8113015,-5.2816257,5.13675,0
2.0000000000000013,,,,,16.614107,-4.1776214,-3.5187008,-2.9832942,0.3848445,-0.8090867,1.4833592,0.6309165,0.23518865,0.2252691,-0.70418954,-6.801861,10.260694,0.37914172,-2.6882417,-5.3521314,5.1791105,0
2.010000000000001,,,,,16.614107,-4.1776214,-3.5187008,-2.9832942,0.31678796,-0.70704764,1.487406,0.657684,0.21417283,0.21062309,-0.6908097,-6.8085933,10.148312,0.43114212,-2.2275093,-5.4219456,5.219392,0
2.020000000000001,,,,,16.614107,-4.1776214,-3.5187008,-2.9832942,0.24868906,-0.6060928,1.4920021,0.6831865,0.19403774,0.1939346,-0.67675215,-6.8105416,10.043962,0.48896748,-1.838668,-5.481092,5.257696,0
2.0300000000000007,,,,,16.614107,-4.1776214,-3.5187008,-2.9832942,0.18058921,-0.5061385,1.4972042,0.70747674,0.17467831,0.17551684,-0.6619339,-6.8089705,9.9482975,0.5522716,-1.5105014,-5.5312023,5.2941213,0
2.0400000000000005,,,,,16.614107,-4.1776214,-3.5187008,-2.9832942,0.11251765,-0.40709522,1.503065,0.7305832,0.15599774,0.15563801,-0.646288,-6.8050656,9.861831,0.6206464,-1.2335432,-5.573658,5.3287587,0
2.0500000000000003,,,,,16.200115,-3.6102962,-1.4090525,-1.5748423,0.04449209,-0.3088689,1.5096331,0.752516,0.13790874,0.13452907,-0.62976277,-6.7999377,9.784952,0.69362843,-0.99980336,-5.6096306,5.3616967,1
2.06,,,,,16.200115,-3.6102962,-1.4090525,-1.5748423,-0.023469832,-0.2114987,1.5172988,0.77281934,0.12038374,0.11257209,-0.61284894,-6.7925434,9.691614,0.8393936,-0.7815567,-5.580017,5.1137433,1
2.07,,,,,16.200115,-3.6102962,-1.4090525,-1.5748423,-0.09136311,-0.11498223,1.5264167,0.7911164,0.10340785,0.090063274,-0.5960944,-6.786401,9.614096,0.9838885,-0.5902551,-5.562202,4.8719316,1
2.0799999999999996,,,,,16.200115,-3.6102962,-1.4090525,-1.5748423,-0.159206,-0.019164909,1.5369692,0.8075141,0.08692976,0.06706921,-0.579538,-6.7826247,9.551668,1.1262319,-0.42198732,-5.55404,4.636108,1
2.0899999999999994,,,,,13.538424,-2.4366975,-3.1031241,-2.7049544,-0.22702694,0.07610034,1.5489309,0.82210577,0.070909336,0.04364617,-0.5632116,-6.7821374,9.503555,1.2655977,-0.27346966,-5.5537057,4.4061246,1
2.099999999999999,,,,,13.538424,-2.4366975,-3.1031241,-2.7049544,-0.29486364,0.17094004,1.5623491,0.8349614,0.055170607,0.019816283,-0.54717565,-6.78593,9.466581,1.4173429,-0.18218412,-5.600627,4.166362,1
2.109999999999999,,,,,13.538424,-2.4366975,-3.1031241,-2.7049544,-0.36276245,0.265479,1.5772613,0.8461318,0.039578073,-0.004405835,-0.5314823,-6.79464,9.443286,1.5643226,-0.09865692,-5.646752,3.932537,1
2.1199999999999988,,,,,13.538424,-2.4366975,-3.1031241,-2.7049544,-0.43077496,0.3598501,1.5936166,0.8556696,0.02416064,-0.028982475,-0.5161435,-6.8087325,9.432893,1.7058204,-0.022126868,-5.6917505,3.704503,1
2.1299999999999986,,,,,13.342455,-2.4714587,-2.2315238,-1.2656542,-0.49895683,0.45417845,1.6113566,0.86362416,0.008946948,-0.05387733,-0.5011675,-6.8285584,9.434601,1.8411603,0.04805453,-5.7353506,3.482117,1
2.1399999999999983,,,,,13.342455,-2.4714587,-2.2315238,-1.2656542,-0.5673458,0.54857135,1.6302245,0.8700987,-0.005812444,-0.07899286,-0.48646986,-6.8500195,9.445387,1.9314948,0.17742755,-5.7116714,3.3018064,1
2.149999999999998,,,,,13.342455,-2.4714587,-2.2315238,-1.2656542,-0.63597494,0.64311564,1.6499655,0.87520325,-0.019920755,-0.10423657,-0.47196972,-6.876626,9.464741,2.0157828,0.28996658,-5.6950545,3.1260347,1
2.159999999999998,,,,,13.342455,-2.4714587,-2.2315238,-1.2656542,-0.70489746,0.7378938,1.670524,0.8789953,-0.033441264,-0.1295257,-0.45767918,-6.9087577,9.492104,2.0952113,0.36970407,-5.665865,2.956235,1
2.1699999999999977,,,,,15.498234,-3.0557237,-2.0511248,1.0137843,-0.77416974,0.8329834,1.6918532,0.8815412,-0.046461556,-0.1546809,-0.44361976,-6.946594,9.526923,2.1698527,0.41360232,-5.6179094,2.792677,1
2.1799999999999975,,,,,15.498234,-3.0557237,-2.0511248,1.0137843,-0.8438349,0.9284427,1.7138487,0.8831131,-0.059664916,-0.17819561,-0.42987916,-6.9871144,9.565818,2.2281358,-0.0123825,-5.178563,2.715803,1
2.1899999999999973,,,,,15.498234,-3.0557237,-2.0511248,1.0137843,-0.9139252,1.0243177,1.7363918,0.88401866,-0.07366148,-0.19880426,-0.41660556,-7.0314527,9.609971,2.2793853,-0.415996,-4.763505,2.6387534,1
2.199999999999997,,,,,15.498234,-3.0557237,-2.0511248,1.0137843,-0.9844736,1.1206582,1.759413,0.8843589,-0.08842299,-0.21668926,-0.40389958,-7.078593,9.658797,2.3238118,-0.7989793,-4.3707075,2.5616941,1
2.209999999999997,,,,,17.761284,-4.494391,-0.5621777,1.7833182,-1.0555046,1.2175092,1.7828481,0.8842078,-0.103913374,-0.23204164,-0.39183375,-7.1280003,9.712199,2.3626635,-1.1506879,-4.0105305,2.4858341,1
2.2199999999999966,,,,,17.761284,-4.494391,-0.5621777,1.7833182,-1.1270792,1.3149623,1.8067538,0.8837235,-0.120340906,-0.24443074,-0.3805297,-7.1872787,9.779354,2.4179215,-1.6730846,-3.4735696,2.4513614,1
2.2299999999999964,,,,,17.761284,-4.494391,-0.5621777,1.7833182,-1.1992558,1.4131163,1.831195,0.88302594,-0.1378466,-0.2536139,-0.37005666,-7.2481833,9.85234,2.4698436,-2.1138546,-3.0201976,2.41858,1
2.239999999999996,,,,,17.761284,-4.494391,-0.5621777,1.7833182,-1.272045,1.5120287,1.8561395,0.88208807,-0.15626207,-0.26010287,-0.36034405,-7.3097043,9.931052,2.5185857,-2.4857547,-2.6374056,2.3874073,1
2.249999999999996,,,,,20.180115,-5.2076263,-0.8701094,2.639408,-1.345449,1.6117567,1.881556,0.88087,-0.17543788,-0.26432273,-0.3513141,-7.3710003,10.015422,2.5642476,-2.7995477,-2.3142085,2.3577642,1
2.259999999999996,,,,,20.180115,-5.2076263,-0.8701094,2.639408,-1.419503,1.7124171,1.9075102,0.8792759,-0.19556299,-0.2666159,-0.34284604,-7.439578,10.117677,2.626024,-3.1754122,-2.089607,2.3715844,1
2.2699999999999956,,,,,20.180115,-5.2076263,-0.8701094,2.639408,-1.4942342,1.8141325,1.9340644,0.8772017,-0.21677326,-0.26726034,-0.33480886,-7.506347,10.226425,2.6842396,-3.4926114,-1.8999462,2.3847268,1
2.2799999999999954,,,,,20.180115,-5.2076263,-0.8701094,2.639408,-1.5696216,1.9169683,1.9611821,0.8745952,-0.23887146,-0.2664931,-0.327114,-7.5706673,10.341774,2.7387052,-3.7603018,-1.7397897,2.3972242,1
