time-since-start [s],throttle_mpc,roll_mpc,pitch_mpc,yaw_mpc,throttle_nw,roll_nw,pitch_nw,yaw_nw,position_x [m],position_y [m],position_z [m],rotation_w [quaternion],rotation_x [quaternion],rotation_y [quaternion],rotation_z [quaternion],velocity_x [m/s],velocity_y [m/s],velocity_z [m/s],omega_x [rad/s],omega_y [rad/s],omega_z [rad/s],network_used
0.0,9.545192464125387,5.99999983786112,-5.999999956821241,-4.469953482491467,8.029149,2.0217276,-4.716698,-2.0203688,18.355885,-9.814914,1.9594383,0.11226715,0.48129898,-0.20184672,-0.84557986,-11.745883,-6.44068,0.09428011,1.8713328,-0.18862069,-0.27076226,0
0.01,9.545192464125387,5.99999983786112,-5.999999956821241,-4.469953482491467,15.815695,-0.5921233,-6.5827427,-1.2543765,18.237722,-9.879126,1.9602616,0.10609692,0.48143032,-0.20894511,-0.84457695,-11.885961,-6.401561,0.07004304,1.8103209,-0.39025638,-0.41379654,0
0.02,9.545192464125387,5.99999983786112,-5.999999956821241,-4.469953482491467,15.815695,-0.5921233,-6.5827427,-1.2543765,18.118174,-9.942936,1.9608324,0.09921961,0.48080355,-0.21560927,-0.8440948,-12.023582,-6.360201,0.043822967,1.7842383,-0.5858909,-0.55208653,0
0.03,9.545192464125387,5.99999983786112,-5.999999956821241,-4.469953482491467,15.815695,-0.5921233,-6.5827427,-1.2543765,17.997263,-10.006322,1.961132,0.09157636,0.4794562,-0.22197594,-0.8440748,-12.158519,-6.3166347,0.015879221,1.7880063,-0.7768333,-0.6858977,0
0.04,9.545192464125387,5.99999983786112,-5.999999956821241,-4.469953482491467,10.204375,0.69339865,-7.3745995,-2.0693784,17.875015,-10.069261,1.9611447,0.0831175,0.47741324,-0.22816071,-0.8444589,-12.290549,-6.270863,-0.013560688,1.8172506,-0.9641005,-0.8154749,0
0.05,9.545192464125387,5.99999983786112,-5.999999956821241,-4.469953482491467,10.204375,0.69339865,-7.3745995,-2.0693784,17.751461,-10.131731,1.9608563,0.07380166,0.47468936,-0.23426063,-0.8451895,-12.419469,-6.2228637,-0.044297,1.8682011,-1.1484705,-0.94104385,0
0.060000000000000005,9.545192464125387,5.99999983786112,-5.999999956821241,-4.469953482491467,10.204375,0.69339865,-7.3745995,-2.0693784,17.626635,-10.19371,1.9602549,0.06359491,0.47129065,-0.2403565,-0.846209,-12.545076,-6.1726007,-0.07615394,1.9376042,-1.330528,-1.0628129,0
0.07,9.545192464125387,5.99999983786112,-5.999999956821241,-4.469953482491467,10.204375,0.69339865,-7.3745995,-2.0693784,17.50057,-10.255176,1.9593301,0.05247007,0.46721578,-0.24651483,-0.847459,-12.667172,-6.120032,-0.10897665,2.0226498,-1.5107019,-1.1809747,0
0.08,13.136794428920355,5.999999949337217,-5.9999999960131625,-4.191353402433814,12.129528,1.1650528,-7.7888837,-2.3344936,17.373302,-10.316104,1.9580727,0.040406205,0.46245745,-0.2527893,-0.84888047,-12.78556,-6.065113,-0.14262842,2.120909,-1.6892962,-1.2957069,0
0.09,13.136794428920355,5.999999949337217,-5.9999999960131625,-4.191353402433814,12.129528,1.1650528,-7.7888837,-2.3344936,17.24478,-10.376425,1.9565265,0.02714525,0.4567199,-0.25952774,-0.85047954,-12.918341,-5.9986053,-0.16678035,2.3660498,-2.0025296,-1.4056413,0
0.09999999999999999,13.136794428920355,5.999999949337217,-5.9999999960131625,-4.191353402433814,12.129528,1.1650528,-7.7888837,-2.3344936,17.114952,-10.436067,1.954734,0.012457569,0.44971892,-0.26702267,-0.8522304,-13.045758,-5.9293146,-0.19182914,2.6093955,-2.3034081,-1.5134413,0
0.10999999999999999,13.136794428920355,5.999999949337217,-5.9999999960131625,-4.191353402433814,12.129528,1.1650528,-7.7888837,-2.3344936,16.983881,-10.495001,1.9526874,-0.0036278502,0.44145566,-0.27523163,-0.8540207,-13.167469,-5.8570175,-0.21759096,2.8503952,-2.5930235,-1.6191373,0
0.11999999999999998,13.136794428920355,5.999999949337217,-5.9999999960131625,-4.191353402433814,12.129528,1.1650528,-7.7888837,-2.3344936,16.851622,-10.553196,1.9503802,-0.021078512,0.43192485,-0.28410727,-0.8557335,-13.283121,-5.7815604,-0.24391355,3.08861,-2.8723226,-1.72276,0
0.12999999999999998,18.147397358107092,5.999999994142694,-6.0,-3.6368479134542944,13.487183,2.5495367,-7.907084,-2.2132237,16.718239,-10.610621,1.9478076,-0.03985784,0.4211162,-0.29359737,-0.85724753,-13.392352,-5.7028613,-0.2706746,3.3236928,-3.1421292,-1.8243412,0
0.13999999999999999,18.147397358107092,5.999999994142694,-6.0,-3.6368479134542944,13.487183,2.5495367,-7.907084,-2.2132237,16.583687,-10.667156,1.945041,-0.060251284,0.40856132,-0.30404872,-0.85848826,-13.51692,-5.603118,-0.28239787,3.740325,-3.5885231,-1.9132813,0
0.15,18.147397358107092,5.999999994142694,-6.0,-3.6368479134542944,13.487183,2.5495367,-7.907084,-2.2132237,16.44792,-10.722662,1.9421649,-0.08237772,0.39395016,-0.31561318,-0.85930544,-13.63495,-5.497008,-0.29254842,4.0920334,-3.9652548,-1.9978572,0
0.16,20.99999979199671,5.999999979511494,-6.0,-2.833423164408791,15.745805,3.0494623,-7.7875013,-1.9781781,16.311012,-10.777073,1.9391958,-0.10596712,0.37748972,-0.32797587,-0.8594793,-13.745354,-5.384311,-0.30101368,4.3889427,-4.2831874,-2.0782828,0
0.17,20.99999979199671,5.999999979511494,-6.0,-2.833423164408791,15.745805,3.0494623,-7.7875013,-1.9781781,16.172962,-10.830232,1.9362222,-0.13069195,0.35932997,-0.34090385,-0.85882854,-13.863075,-5.2462845,-0.2933929,4.6397142,-4.551374,-2.1153378,0
0.18000000000000002,20.99999979199671,5.999999979511494,-6.0,-2.833423164408791,15.745805,3.0494623,-7.7875013,-1.9781781,16.033787,-10.881973,1.9333346,-0.15625398,0.33960372,-0.35419917,-0.8572031,-13.9696045,-5.1008873,-0.2838081,4.8514295,-4.777689,-2.1505744,0
0.19000000000000003,20.99999979199671,5.999999979511494,-6.0,-2.833423164408791,15.745805,3.0494623,-7.7875013,-1.9781781,15.893609,-10.932226,1.9305522,-0.18246329,0.31846258,-0.36765772,-0.85446876,-14.063862,-4.9485745,-0.27236405,5.030173,-4.9686675,-2.184082,0
0.20000000000000004,21.0,5.999999767393776,-5.9999998982271485,-2.329143257120287,17.205807,3.8774157,-7.0155234,-2.4767904,15.752555,-10.980923,1.9278932,-0.20914707,0.2960463,-0.38110405,-0.85051405,-14.144855,-4.7899885,-0.2592301,5.1810813,-5.129825,-2.2159452,0
0.21000000000000005,21.0,5.999999767393776,-5.9999998982271485,-2.329143257120287,17.205807,3.8774157,-7.0155234,-2.4767904,15.61076,-11.028007,1.9253727,-0.23609442,0.27246124,-0.3944057,-0.8452626,-14.211693,-4.6259365,-0.2446321,5.308576,-5.2657313,-2.2215,0
0.22000000000000006,21.0,5.999999767393776,-5.9999998982271485,-2.329143257120287,17.205807,3.8774157,-7.0155234,-2.4767904,15.46837,-11.073426,1.9230044,-0.2631119,0.24780664,-0.40744892,-0.8386595,-14.263601,-4.4573665,-0.22884591,5.416219,-5.3804145,-2.226782,0
0.23000000000000007,21.0,5.999999767393776,-5.9999998982271485,-2.329143257120287,17.205807,3.8774157,-7.0155234,-2.4767904,15.3255415,-11.117142,1.9207987,-0.29007262,0.22219896,-0.42011875,-0.8306541,-14.29993,-4.285345,-0.21219108,5.5071015,-5.4771886,-2.231805,0
0.24000000000000007,21.0,5.999999767393776,-5.9999998982271485,-2.329143257120287,16.44563,2.5087066,-5.884431,-1.3931986,15.182428,-11.159125,1.9187623,-0.3168601,0.19574851,-0.43231606,-0.82120985,-14.320161,-4.1110373,-0.19502348,5.5838327,-5.5588493,-2.2365816,0
0.25000000000000006,21.0,5.999999767393776,-5.9999998982271485,-2.329143257120287,16.44563,2.5087066,-5.884431,-1.3931986,15.039195,-11.19936,1.9168986,-0.34336692,0.16856016,-0.4439552,-0.810303,-14.32392,-3.9356856,-0.17772795,5.648617,-5.6277575,-2.2411234,0
0.26000000000000006,21.0,5.999999767393776,-5.9999998982271485,-2.329143257120287,16.44563,2.5087066,-5.884431,-1.3931986,14.896008,-11.237841,1.9152069,-0.3694939,0.14073393,-0.45496246,-0.797921,-14.310973,-3.7605898,-0.16071138,5.7033143,-5.685905,-2.2454426,0
0.2700000000000001,21.0,5.999999767393776,-5.9999998982271485,-2.329143257120287,16.44563,2.5087066,-5.884431,-1.3931986,14.753034,-11.274577,1.9136821,-0.39514932,0.11236537,-0.4652742,-0.78406096,-14.281236,-3.5870895,-0.144396,5.7494955,-5.7349706,-2.2495499,0
0.2800000000000001,21.0,3.701394976850641,-5.554714403967326,0.7827754623838117,16.885948,0.7950675,-5.25739,-0.49523196,14.61044,-11.309593,1.9123151,-0.420248,0.08354611,-0.4748356,-0.76872844,-14.23477,-3.4165463,-0.1292131,5.788486,-5.7763734,-2.2534554,0
0.2900000000000001,21.0,3.701394976850641,-5.554714403967326,0.7827754623838117,16.885948,0.7950675,-5.25739,-0.49523196,14.468395,-11.342922,1.9110926,-0.44427335,0.054713126,-0.48301598,-0.75254494,-14.171857,-3.2503295,-0.11554825,5.4636145,-5.7407966,-2.1044667,0
0.3000000000000001,21.0,3.701394976850641,-5.554714403967326,0.7827754623838117,16.885948,0.7950675,-5.25739,-0.49523196,14.327058,-11.374618,1.9099985,-0.466843,0.026222467,-0.489371,-0.7361295,-14.093316,-3.0897748,-0.10350152,5.1893654,-5.710921,-1.9627888,0
0.3100000000000001,21.0,3.701394976850641,-5.554714403967326,0.7827754623838117,16.885948,0.7950675,-5.25739,-0.49523196,14.18658,-11.40474,1.9090168,-0.4880627,-0.0019591665,-0.49410293,-0.7194817,-14.000133,-2.936077,-0.09309458,4.9578485,-5.685828,-1.8280631,0
0.3200000000000001,21.0,2.2833202266363553,-3.557070361487679,1.3670326765257133,16.669456,-0.8772345,-5.3230543,0.5383905,14.047103,-11.433365,1.9081308,-0.5080186,-0.029860746,-0.4973785,-0.7025957,-13.893283,-2.7902887,-0.084378876,4.7624035,-5.6647496,-1.6999485,0
0.3300000000000001,21.0,2.2833202266363553,-3.557070361487679,1.3670326765257133,16.669456,-0.8772345,-5.3230543,0.5383905,13.908758,-11.460575,1.9073231,-0.5263666,-0.056694083,-0.49936113,-0.68583024,-13.773805,-2.6532788,-0.07742883,4.376682,-5.335199,-1.5494509,0
0.34000000000000014,21.0,2.2833202266363553,-3.557070361487679,1.3670326765257133,16.669456,-0.8772345,-5.3230543,0.5383905,13.771665,-11.486461,1.9065759,-0.54289424,-0.08185056,-0.50025517,-0.6695608,-13.64309,-2.5254447,-0.07229841,4.050977,-5.0571923,-1.4063382,0
0.35000000000000014,21.0,2.2833202266363553,-3.557070361487679,1.3670326765257133,16.669456,-0.8772345,-5.3230543,0.5383905,13.635929,-11.511114,1.9058708,-0.5578389,-0.105597295,-0.50023055,-0.65378505,-13.502499,-2.4069474,-0.06901535,3.7759557,-4.8226604,-1.2702482,0
0.36000000000000015,20.999999990200756,0.837986354664272,-0.4844097252345799,1.0434385350924154,16.791702,-1.2425481,-3.2851605,0.2550415,13.501643,-11.534631,1.9051893,-0.5713963,-0.12816212,-0.49941906,-0.63848406,-13.353213,-2.2978709,-0.067597374,3.5437346,-4.6248,-1.140836,0
0.37000000000000016,20.999999990200756,0.837986354664272,-0.4844097252345799,1.0434385350924154,16.791702,-1.2425481,-3.2851605,0.2550415,13.36889,-11.557104,1.9045125,-0.583232,-0.14860973,-0.49828225,-0.624076,-13.196335,-2.198141,-0.06806296,3.122535,-3.978576,-1.0336529,0
0.38000000000000017,20.999999990200756,0.837986354664272,-0.4844097252345799,1.0434385350924154,16.791702,-1.2425481,-3.2851605,0.2550415,13.237737,-11.578623,1.9038215,-0.5931558,-0.16623309,-0.49725538,-0.6109585,-13.033166,-2.1070166,-0.07043295,2.7668579,-3.4332378,-0.9317294,0
0.3900000000000002,20.999999990200756,0.837986354664272,-0.4844097252345799,1.0434385350924154,16.791702,-1.2425481,-3.2851605,0.2550415,13.108243,-11.59927,1.9030974,-0.60149646,-0.18151553,-0.4963781,-0.5990521,-12.864862,-2.0235782,-0.07469284,2.46652,-2.9730308,-0.8348073,0
0.4000000000000002,20.999999864873978,-0.8237197533430094,1.9816439020649268,0.8906272753390642,16.724277,-1.7288283,-0.7954444,-0.14469896,12.980454,-11.619118,1.9023213,-0.60851693,-0.19486201,-0.4956642,-0.58826303,-12.69233,-1.9469912,-0.08079951,2.2129188,-2.58466,-0.7426412,0
0.4100000000000002,20.999999864873978,-0.8237197533430094,1.9816439020649268,0.8906272753390642,16.724277,-1.7288283,-0.7954444,-0.14469896,12.854408,-11.63823,1.9014753,-0.61409,-0.20562063,-0.4953349,-0.57901424,-12.516332,-1.8764119,-0.08867868,1.7398009,-1.8722265,-0.6624962,0
0.4200000000000002,20.999999864873978,-0.8237197533430094,1.9816439020649268,0.8906272753390642,16.724277,-1.7288283,-0.7954444,-0.14469896,12.730136,-11.656662,1.9005424,-0.6181504,-0.21330173,-0.49558726,-0.57165223,-12.337723,-1.810521,-0.09814865,1.3403455,-1.2709775,-0.586284,0
0.4300000000000002,20.999999864873978,-0.8237197533430094,1.9816439020649268,0.8906272753390642,16.724277,-1.7288283,-0.7954444,-0.14469896,12.607659,-11.674452,1.8995076,-0.6209593,-0.21842913,-0.4963704,-0.5659641,-12.15724,-1.7479705,-0.108998336,1.0030919,-0.7635558,-0.5138115,0
0.4400000000000002,20.999999864873978,-0.8237197533430094,1.9816439020649268,0.8906272753390642,17.902576,-2.3168268,2.3932288,-0.41249475,12.486995,-11.691628,1.8983583,-0.62271804,-0.2214368,-0.497623,-0.5617473,-11.975449,-1.6875981,-0.12103554,0.7183611,-0.33531532,-0.44489533,0
0.45000000000000023,20.999999864873978,-0.8237197533430094,1.9816439020649268,0.8906272753390642,17.902576,-2.3168268,2.3932288,-0.41249475,12.368153,-11.708208,1.8970834,-0.623584,-0.22268446,-0.4992806,-0.55881506,-11.792789,-1.6284083,-0.13409236,0.47797897,0.02610369,-0.37936085,0
0.46000000000000024,20.999999864873978,-0.8237197533430094,1.9816439020649268,0.8906272753390642,17.902576,-2.3168268,2.3932288,-0.41249475,12.251141,-11.724197,1.8956734,-0.62368107,-0.2224707,-0.5012804,-0.5569985,-11.609617,-1.5695528,-0.14802663,0.2750424,0.3311308,-0.31704217,0
0.47000000000000025,20.999999864873978,-0.8237197533430094,1.9816439020649268,0.8906272753390642,17.902576,-2.3168268,2.3932288,-0.41249475,12.135962,-11.739597,1.8941203,-0.6231086,-0.22104377,-0.50356376,-0.55614716,-11.426222,-1.5103123,-0.16272111,0.103722155,0.58856726,-0.25778148,0
0.48000000000000026,20.999999807911777,-2.203477174452952,3.5755151414413495,0.8021836943794333,16.876652,-2.0204887,3.27107,-0.48600206,12.022615,-11.7544,1.8924168,-0.62194663,-0.21861027,-0.50607723,-0.5561283,-11.242848,-1.450079,-0.17808136,-0.04090466,0.8058398,-0.20142873,0
0.49000000000000027,20.999999807911777,-2.203477174452952,3.5755151414413495,0.8021836943794333,16.876652,-2.0204887,3.27107,-0.48600206,11.911104,-11.768594,1.8905567,-0.6200619,-0.21463834,-0.5088637,-0.5572363,-11.059741,-1.3882716,-0.1940133,-0.37813887,1.2378016,-0.1521812,0
0.5000000000000002,20.999999807911777,-2.203477174452952,3.5755151414413495,0.8021836943794333,16.876652,-2.0204887,3.27107,-0.48600206,11.801419,-11.782158,1.8885353,-0.6173386,-0.20871024,-0.5119442,-0.5596849,-10.877311,-1.3240051,-0.21033177,-0.66281164,1.6023751,-0.10535025,0
0.5100000000000002,20.999999807911777,-2.203477174452952,3.5755151414413495,0.8021836943794333,16.876652,-2.0204887,3.27107,-0.48600206,11.693553,-11.795062,1.8863494,-0.6138558,-0.2011363,-0.5152406,-0.56325245,-10.695996,-1.2564065,-0.22685762,-0.9031115,1.910076,-0.060817298,0
0.5200000000000002,20.999999865225988,-3.313887657545008,4.374905511563386,0.7415636178426196,17.362234,-2.2723405,3.7772994,-0.7403909,11.587493,-11.807271,1.8839979,-0.60967547,-0.19217613,-0.5186821,-0.5677447,-10.516212,-1.1847546,-0.24345961,-1.1059519,2.169778,-0.01846958,0
0.5300000000000002,20.999999865225988,-3.313887657545008,4.374905511563386,0.7415636178426196,17.362234,-2.2723405,3.7772994,-0.7403909,11.483222,-11.81874,1.8814805,-0.6047669,-0.18159047,-0.52214646,-0.5732766,-10.338382,-1.1084226,-0.26002696,-1.4503347,2.5136359,0.018825471,0
0.5400000000000003,20.999999865225988,-3.313887657545008,4.374905511563386,0.7415636178426196,17.362234,-2.2723405,3.7772994,-0.7403909,11.380717,-11.82942,1.8787984,-0.5990891,-0.16919693,-0.5255165,-0.57991225,-10.163076,-1.0266899,-0.2763679,-1.7410226,2.8038566,0.05429045,0
0.5500000000000003,20.999999865225988,-3.313887657545008,4.374905511563386,0.7415636178426196,17.362234,-2.2723405,3.7772994,-0.7403909,11.279949,-11.839252,1.8759546,-0.59267324,-0.15527323,-0.5287389,-0.5874223,-9.990909,-0.938913,-0.29231295,-1.9863855,3.0488088,0.08801513,0
0.5600000000000003,20.99999994173817,-3.775827032695822,4.255339423996979,0.6149281774817239,19.177208,-2.5118456,3.6241646,-0.7750257,11.180885,-11.848176,1.8729539,-0.5855448,-0.14005455,-0.531766,-0.5956074,-9.82248,-0.8445983,-0.30775732,-2.1934886,3.2555556,0.12008497,0
0.5700000000000003,20.99999994173817,-3.775827032695822,4.255339423996979,0.6149281774817239,19.177208,-2.5118456,3.6241646,-0.7750257,11.083485,-11.856122,1.8698013,-0.5777852,-0.123653464,-0.53441924,-0.6043769,-9.658394,-0.743385,-0.32263595,-2.4403193,3.4114137,0.14436708,0
0.5800000000000003,20.99999994173817,-3.775827032695822,4.255339423996979,0.6149281774817239,19.177208,-2.5118456,3.6241646,-0.7750257,10.9877,-11.863019,1.8665032,-0.56945777,-0.10617211,-0.5365511,-0.6136444,-9.499288,-0.63502926,-0.3368437,-2.6486564,3.5429645,0.16745764,0
0.5900000000000003,20.99999994173817,-3.775827032695822,4.255339423996979,0.6149281774817239,19.177208,-2.5118456,3.6241646,-0.7750257,10.893479,-11.868796,1.8630669,-0.5605602,-0.0877823,-0.53816545,-0.62325424,-9.345801,-0.5193959,-0.35030338,-2.8245027,3.6539993,0.18941517,0
0.6000000000000003,20.999999956829775,-3.505068010897512,3.4890416894143432,0.4963577308398512,19.155106,-3.2967167,4.4527283,-0.89440334,10.800763,-11.873381,1.8594999,-0.5510934,-0.06863166,-0.5392656,-0.63307166,-9.198554,-0.39644912,-0.3629935,-2.9729238,3.747719,0.21029522,0
0.6100000000000003,20.999999956829775,-3.505068010897512,3.4890416894143432,0.4963577308398512,19.155106,-3.2967167,4.4527283,-0.89440334,10.709486,-11.876699,1.8558097,-0.541232,-0.049094442,-0.5397601,-0.642898,-9.058124,-0.26626578,-0.37493247,-3.0559397,3.707339,0.22433239,0
0.6200000000000003,20.999999956829775,-3.505068010897512,3.4890416894143432,0.4963577308398512,19.155106,-3.2967167,4.4527283,-0.89440334,10.619576,-11.878681,1.8520038,-0.5311328,-0.02947839,-0.5395932,-0.6525866,-8.924955,-0.12912785,-0.38613427,-3.126008,3.6732585,0.23768075,0
0.6300000000000003,20.999999956829775,-3.505068010897512,3.4890416894143432,0.4963577308398512,19.155106,-3.2967167,4.4527283,-0.89440334,10.530961,-11.879259,1.8480895,-0.5207758,-0.009811271,-0.5388163,-0.6620984,-8.799429,0.014609065,-0.39662853,-3.185148,3.6444945,0.2503741,0
0.6400000000000003,20.999999956829775,-3.505068010897512,3.4890416894143432,0.4963577308398512,19.813885,-4.044922,4.329013,-0.471454,10.443561,-11.878367,1.8440735,-0.51014614,0.009882424,-0.53747344,-0.67139894,-8.681899,0.16457413,-0.4064709,-3.2350638,3.620218,0.26244462,0
0.6500000000000004,20.999999956829775,-3.505068010897512,3.4890416894143432,0.4963577308398512,19.813885,-4.044922,4.329013,-0.471454,10.357294,-11.875947,1.8399621,-0.49923337,0.02958089,-0.5356025,-0.6804572,-8.572698,0.32038188,-0.4157391,-3.2771945,3.5997295,0.2739228,0
0.6600000000000004,20.999999956829775,-3.505068010897512,3.4890416894143432,0.4963577308398512,19.813885,-4.044922,4.329013,-0.471454,10.272077,-11.871941,1.8357605,-0.48803073,0.04926449,-0.5332361,-0.68924546,-8.47213,0.48163283,-0.42452925,-3.3127537,3.582438,0.28483775,0
0.6700000000000004,20.999999956829775,-3.505068010897512,3.4890416894143432,0.4963577308398512,19.813885,-4.044922,4.329013,-0.471454,10.187821,-11.866297,1.8314729,-0.47653443,0.06891536,-0.53040224,-0.69773924,-8.380476,0.64791447,-0.4329529,-3.3427663,3.5678446,0.29521713,0
0.6800000000000004,20.999999866945657,-2.7505653669587433,2.332919825983116,0.3612915755607314,20.537374,-4.7620425,4.4077435,-0.2330681,10.104436,-11.858967,1.8271024,-0.46474323,0.08851706,-0.5271255,-0.7059165,-8.297991,0.8188019,-0.44113442,-3.3680978,3.5555289,0.30508712,0
0.6900000000000004,20.999999866945657,-2.7505653669587433,2.332919825983116,0.3612915755607314,20.537374,-4.7620425,4.4077435,-0.2330681,10.021829,-11.849908,1.8226508,-0.45294574,0.10759705,-0.5234311,-0.7136413,-8.224855,0.9938364,-0.44920012,-3.2717621,3.3648767,0.3078451,0
0.7000000000000004,20.999999866945657,-2.7505653669587433,2.332919825983116,0.3612915755607314,20.537374,-4.7620425,4.4077435,-0.2330681,9.939906,-11.839079,1.8181186,-0.4413942,0.1257841,-0.51936686,-0.72083884,-8.160965,1.1724372,-0.4572305,-3.1904552,3.2039547,0.31046772,0
0.7100000000000004,20.999999866945657,-2.7505653669587433,2.332919825983116,0.3612915755607314,20.537374,-4.7620425,4.4077435,-0.2330681,9.858578,-11.826448,1.813506,-0.4300378,0.14320137,-0.5149796,-0.7275699,-8.106132,1.3540368,-0.46528578,-3.121832,3.0681262,0.31296164,0
0.7200000000000004,20.999999725455936,-1.6828907384213982,0.9112727379032157,0.22214520393394252,20.634373,-5.021668,3.3790858,-0.23321472,9.777753,-11.811989,1.8088125,-0.41883206,0.15995319,-0.51030666,-0.73388207,-8.0601845,1.5381279,-0.4734249,-3.0639138,2.953478,0.31533316,0
0.7300000000000004,20.999999725455936,-1.6828907384213982,0.9112727379032157,0.22214520393394252,20.634373,-5.021668,3.3790858,-0.23321472,9.697344,-11.795677,1.804037,-0.40811527,0.1755421,-0.5054578,-0.7396894,-8.022908,1.7242339,-0.48169562,-2.8484707,2.63505,0.31076038,0
0.7400000000000004,20.999999725455936,-1.6828907384213982,0.9112727379032157,0.22214520393394252,20.634373,-5.021668,3.3790858,-0.23321472,9.617266,-11.777498,1.799178,-0.39817357,0.18958779,-0.50054723,-0.7449616,-7.9937444,1.9118375,-0.4900764,-2.6666381,2.3662722,0.306412,0
0.7500000000000004,20.999999725455936,-1.6828907384213982,0.9112727379032157,0.22214520393394252,20.634373,-5.021668,3.3790858,-0.23321472,9.537441,-11.757438,1.794235,-0.38889682,0.20232925,-0.49560204,-0.74980116,-7.9720793,2.1004848,-0.49851722,-2.5131721,2.1394033,0.30227703,0
0.7600000000000005,20.999999386297624,-0.5279450197590589,-0.5491176714551779,0.03382344539960807,20.449785,-4.43323,1.6188775,-0.31966338,9.457799,-11.735488,1.7892076,-0.38018784,0.21396805,-0.4906392,-0.7542871,-7.957384,2.2898088,-0.5069677,-2.3836474,1.9479086,0.2983449,0
0.7700000000000005,20.999999386297624,-0.5279450197590589,-0.5491176714551779,0.03382344539960807,20.449785,-4.43323,1.6188775,-0.31966338,9.378271,-11.711641,1.7840959,-0.37236816,0.22407092,-0.48579592,-0.75837827,-7.9491343,2.4795,-0.51536673,-2.094163,1.5585729,0.28536475,0
0.7800000000000005,20.999999386297624,-0.5279450197590589,-0.5491176714551779,0.03382344539960807,20.449785,-4.43323,1.6188775,-0.31966338,9.298798,-11.685898,1.778901,-0.36569968,0.2323115,-0.48119605,-0.7620673,-7.9464884,2.669265,-0.5235769,-1.8498412,1.2299403,0.27302152,0
0.7900000000000005,20.999999386297624,-0.5279450197590589,-0.5491176714551779,0.03382344539960807,20.449785,-4.43323,1.6188775,-0.31966338,9.219326,-11.6582575,1.7736256,-0.36001912,0.23898867,-0.4768244,-0.7654478,-7.9485974,2.8588743,-0.5314417,-1.6436356,0.9525465,0.261284,0
0.8000000000000005,20.999998212492383,0.5187315125449631,-1.6932496696553028,-0.10184892763847712,18.507778,-3.1296139,-0.048938423,-0.3068708,9.139812,-11.628721,1.768274,-0.35518393,0.24435277,-0.47266105,-0.7685888,-7.9547396,3.0481634,-0.5388177,-1.469599,0.7184031,0.25012243,0
0.8100000000000005,20.999998212492383,0.5187315125449631,-1.6932496696553028,-0.10184892763847712,18.507778,-3.1296139,-0.048938423,-0.3068708,9.06022,-11.597295,1.7628515,-0.3514033,0.24812163,-0.4688418,-0.771453,-7.964248,3.2370126,-0.5455677,-1.1594548,0.34237093,0.2328511,0
0.8200000000000005,20.999998212492383,0.5187315125449631,-1.6932496696553028,-0.10184892763847712,18.507778,-3.1296139,-0.048938423,-0.3068708,8.980519,-11.563983,1.7573655,-0.34883875,0.25008452,-0.46547556,-0.7740173,-7.976227,3.425333,-0.5515178,-0.89769405,0.024966434,0.21642728,0
0.8300000000000005,20.999998212492383,0.5187315125449631,-1.6932496696553028,-0.10184892763847712,18.507778,-3.1296139,-0.048938423,-0.3068708,8.900691,-11.52879,1.7518245,-0.3473091,0.25052905,-0.4625013,-0.77634084,-7.989805,3.613067,-0.5564975,-0.67676795,-0.24295023,0.20080937,0
0.8400000000000005,20.999998212492383,0.5187315125449631,-1.6932496696553028,-0.10184892763847712,17.196772,-2.432541,-1.2678508,-0.64094675,8.820722,-11.491723,1.7462392,-0.3466582,0.2496955,-0.45986196,-0.7784653,-8.004249,3.8001783,-0.5603602,-0.49030533,-0.4690943,0.18595786,0
0.8500000000000005,20.999998212492383,0.5187315125449631,-1.6932496696553028,-0.10184892763847712,17.196772,-2.432541,-1.2678508,-0.64094675,8.740606,-11.452788,1.7406214,-0.34675184,0.24778499,-0.45750567,-0.78041995,-8.018938,3.9866405,-0.5629825,-0.33292937,-0.6599785,0.1718351,0
0.8600000000000005,20.999998212492383,0.5187315125449631,-1.6932496696553028,-0.10184892763847712,17.196772,-2.432541,-1.2678508,-0.64094675,8.660345,-11.411992,1.7349842,-0.34747532,0.24496616,-0.45538604,-0.78222567,-8.033347,4.172431,-0.56426287,-0.20010237,-0.82109994,0.15840535,0
0.8700000000000006,20.999998212492383,0.5187315125449631,-1.6932496696553028,-0.10184892763847712,17.196772,-2.432541,-1.2678508,-0.64094675,8.579942,-11.369342,1.729341,-0.3487308,0.24138063,-0.45346227,-0.78389734,-8.047034,4.357527,-0.5641194,-0.087994546,-0.9570987,0.1456346,0
0.8800000000000006,20.858673639522433,1.2215987230950078,-2.4998371647608555,-0.25522940191028065,15.815765,-1.8046194,-0.92698115,-0.5145501,8.499407,-11.324844,1.7237067,-0.35043508,0.23714745,-0.45169878,-0.785446,-8.059623,4.5419035,-0.5624876,0.006626541,-1.0718921,0.13349053,0
0.8900000000000006,20.858673639522433,1.2215987230950078,-2.4998371647608555,-0.25522940191028065,15.815765,-1.8046194,-0.92698115,-0.5145501,8.418755,-11.278513,1.7180932,-0.35274377,0.23202267,-0.45016754,-0.786821,-8.070682,4.7242947,-0.5599935,0.19610418,-1.2945652,0.11441593,0
0.9000000000000006,20.858673639522433,1.2215987230950078,-2.4998371647608555,-0.25522940191028065,15.815765,-1.8046194,-0.92698115,-0.5145501,8.338001,-11.230362,1.7125125,-0.3557738,0.2258165,-0.44891965,-0.7879745,-8.079769,4.905898,-0.55589044,0.3560261,-1.4825189,0.09627733,0
0.9100000000000006,20.858673639522433,1.2215987230950078,-2.4998371647608555,-0.25522940191028065,15.815765,-1.8046194,-0.92698115,-0.5145501,8.257169,-11.180399,1.7069812,-0.35940713,0.218694,-0.44789767,-0.7889156,-8.086361,5.0866566,-0.5501135,0.49100325,-1.6411664,0.07902878,0
0.9200000000000006,20.37195259867413,1.5556568913793611,-2.9022167080551102,-0.3875212303170489,14.9096575,-1.1517948,-1.280028,-0.5383023,8.176285,-11.1286335,1.7015162,-0.36354315,0.21079433,-0.44705194,-0.78965014,-8.090016,5.2665014,-0.5426214,0.6049272,-1.7750763,0.06262664,0
0.9300000000000006,20.37195259867413,1.5556568913793611,-2.9022167080551102,-0.3875212303170489,14.9096575,-1.1517948,-1.280028,-0.5383023,8.09538,-11.075094,1.6961222,-0.36820847,0.20206615,-0.44638276,-0.7901487,-8.090336,5.4411774,-0.5358949,0.7531721,-1.9508579,0.04053776,0
0.9400000000000006,20.37195259867413,1.5556568913793611,-2.9022167080551102,-0.3875212303170489,14.9096575,-1.1517948,-1.280028,-0.5383023,8.01449,-11.019814,1.6908041,-0.37341756,0.19247414,-0.44588417,-0.7903803,-8.086973,5.614778,-0.5274505,0.8782944,-2.0992303,0.019532764,0
0.9500000000000006,20.37195259867413,1.5556568913793611,-2.9022167080551102,-0.3875212303170489,14.9096575,-1.1517948,-1.280028,-0.5383023,7.9336543,-10.962803,1.6855792,-0.3790745,0.18214868,-0.44550833,-0.79034644,-8.079531,5.787182,-0.51728535,0.9839013,-2.224467,-0.00044149486,0
0.9600000000000006,19.628680450844087,1.4818090267468802,-2.9092571042452717,-0.44688054451295456,14.348575,-0.84935385,-1.1179353,-0.53709567,7.852915,-10.904076,1.6804643,-0.38509768,0.1712004,-0.44521454,-0.7900475,-8.067676,5.9582553,-0.5054174,1.0730375,-2.330175,-0.01943562,0
0.9700000000000006,19.628680450844087,1.4818090267468802,-2.9092571042452717,-0.44688054451295456,14.348575,-0.84935385,-1.1179353,-0.53709567,7.772314,-10.843676,1.6754562,-0.39141962,0.15973575,-0.44494277,-0.78949475,-8.051737,6.121664,-0.4959541,1.136751,-2.4204986,-0.040410478,0
0.9800000000000006,19.628680450844087,1.4818090267468802,-2.9092571042452717,-0.44688054451295456,14.348575,-0.84935385,-1.1179353,-0.53709567,7.6918964,-10.781649,1.6705505,-0.39798412,0.14784543,-0.444644,-0.78869694,-8.031075,6.2834964,-0.48492187,1.1905282,-2.4967375,-0.060356095,0
0.9900000000000007,19.628680450844087,1.4818090267468802,-2.9092571042452717,-0.44688054451295456,14.348575,-0.84935385,-1.1179353,-0.53709567,7.6117096,-10.718012,1.6657629,-0.40474182,0.13559513,-0.44430143,-0.7876516,-8.005526,6.443589,-0.47237018,1.235919,-2.561087,-0.07932296,0
1.0000000000000007,19.177544531570238,1.156327425666426,-2.456387921860129,-0.4664614452805009,13.715967,-1.4004041,-0.9284906,-0.4419075,7.531803,-10.652782,1.6611081,-0.4116504,0.123040915,-0.44390115,-0.786357,-7.9749584,6.6017766,-0.4583607,1.2742319,-2.6154008,-0.09735912,0
1.0100000000000007,19.177544531570238,1.156327425666426,-2.456387921860129,-0.4664614452805009,13.715967,-1.4004041,-0.9284906,-0.4419075,7.4522243,-10.586,1.6565875,-0.41858047,0.11042841,-0.44340518,-0.7848493,-7.9401116,6.7543073,-0.4455758,1.2558156,-2.5906167,-0.11547107,0
1.0200000000000007,19.177544531570238,1.156327425666426,-2.456387921860129,-0.4664614452805009,13.715967,-1.4004041,-0.9284906,-0.4419075,7.3730183,-10.517704,1.6522009,-0.42543304,0.09795705,-0.44278866,-0.7831666,-7.9003296,6.9046917,-0.43152738,1.240273,-2.569697,-0.13269427,0
1.0300000000000007,19.177544531570238,1.156327425666426,-2.456387921860129,-0.4664614452805009,13.715967,-1.4004041,-0.9284906,-0.4419075,7.2942348,-10.447914,1.6479608,-0.43221498,0.08560865,-0.44205844,-0.7813106,-7.8556952,7.052819,-0.41630623,1.227156,-2.5520384,-0.14907233,0
1.0400000000000007,19.177544531570238,1.156327425666426,-2.456387921860129,-0.4664614452805009,13.034414,-1.6389004,-0.47053042,-0.23777734,7.2159214,-10.376655,1.6438785,-0.4389313,0.07336787,-0.44122046,-0.7792827,-7.8062897,7.1985784,-0.40000057,1.2160859,-2.5371332,-0.16464669,0
1.0500000000000007,19.177544531570238,1.156327425666426,-2.456387921860129,-0.4664614452805009,13.034414,-1.6389004,-0.47053042,-0.23777734,7.1381254,-10.30395,1.6399642,-0.4455856,0.0612218,-0.4402797,-0.77708405,-7.75219,7.3418636,-0.38269672,1.2067434,-2.5245516,-0.17945683,0
1.0600000000000007,19.177544531570238,1.156327425666426,-2.456387921860129,-0.4664614452805009,13.034414,-1.6389004,-0.47053042,-0.23777734,7.0608935,-10.229826,1.6362277,-0.45218036,0.049159598,-0.4392403,-0.77471584,-7.6934705,7.4825687,-0.36447927,1.1988591,-2.5139315,-0.19354023,0
1.0700000000000007,19.177544531570238,1.156327425666426,-2.456387921860129,-0.4664614452805009,13.034414,-1.6389004,-0.47053042,-0.23777734,6.9842715,-10.154307,1.6326774,-0.4587169,0.037172213,-0.4381059,-0.7721791,-7.6302056,7.6205893,-0.34543163,1.1922057,-2.5049672,-0.20693256,0
1.0800000000000007,17.951705025371016,0.6921479137166725,-1.8814902331892096,-0.39510500569168044,12.739953,-1.440544,-0.26602998,0.07171383,6.908304,-10.077423,1.6293216,-0.46519592,0.025252122,-0.43687958,-0.7694749,-7.562468,7.755822,-0.325636,1.1865907,-2.4974003,-0.2196677,0
1.0900000000000007,17.951705025371016,0.6921479137166725,-1.8814902331892096,-0.39510500569168044,12.739953,-1.440544,-0.26602998,0.07171383,6.833014,-9.999244,1.6261292,-0.47150743,0.013652923,-0.4355301,-0.7666865,-7.4949636,7.879718,-0.3127507,1.1094829,-2.4013445,-0.22827648,0
1.1000000000000008,17.951705025371016,0.6921479137166725,-1.8814902331892096,-0.39510500569168044,12.739953,-1.440544,-0.26602998,0.07171383,6.7584186,-9.919839,1.6230685,-0.47757053,0.002575513,-0.4340394,-0.7638913,-7.423571,8.000897,-0.2993017,1.0443995,-2.3202696,-0.2364628,0
1.1100000000000008,17.951705025371016,0.6921479137166725,-1.8814902331892096,-0.39510500569168044,12.739953,-1.440544,-0.26602998,0.07171383,6.6845555,-9.839235,1.6201448,-0.4834233,-0.008057198,-0.43242702,-0.76108104,-7.3485126,8.119361,-0.28534162,0.989465,-2.2518387,-0.24424744,0
1.1200000000000008,16.10089348891462,0.11050197139684637,-1.207527387854265,-0.2999498083695447,11.87315,-1.713097,-0.104840904,0.21226515,6.61146,-9.757461,1.6173631,-0.48909685,-0.018310584,-0.43070856,-0.7582477,-7.269983,8.235104,-0.27091807,0.9430972,-2.1940804,-0.25165007,0
1.1300000000000008,16.10089348891462,0.11050197139684637,-1.207527387854265,-0.2999498083695447,11.87315,-1.713097,-0.104840904,0.21226515,6.539125,-9.674601,1.6146697,-0.49449798,-0.027926639,-0.42885384,-0.7554976,-7.1966095,8.336479,-0.2677157,0.8132764,-2.0402076,-0.25402012,0
1.1400000000000008,16.10089348891462,0.11050197139684637,-1.207527387854265,-0.2999498083695447,11.87315,-1.713097,-0.104840904,0.21226515,6.467537,-9.590739,1.6120102,-0.49956015,-0.036704376,-0.4268455,-0.75292474,-7.1205745,8.435496,-0.2641432,0.70369774,-1.9103347,-0.25627393,0
1.1500000000000008,16.10089348891462,0.11050197139684637,-1.207527387854265,-0.2999498083695447,11.87315,-1.713097,-0.104840904,0.21226515,6.396722,-9.505899,1.6093882,-0.5043412,-0.044772018,-0.42471126,-0.7505039,-7.0421553,8.532247,-0.26019904,0.61120504,-1.8007177,-0.2584171,0
1.1600000000000008,14.546166292812197,-0.5092209385623612,-0.5845351742538016,-0.21777738503426786,11.699955,-1.8778323,0.1363748,0.20773901,6.3267016,-9.420103,1.6068075,-0.5088883,-0.052238144,-0.42247316,-0.7482117,-6.961586,8.626809,-0.2558799,0.53313386,-1.7081977,-0.2604551,0
1.1700000000000008,14.546166292812197,-0.5092209385623612,-0.5845351742538016,-0.21777738503426786,11.699955,-1.8778323,0.1363748,0.20773901,6.2574577,-9.333417,1.6042224,-0.51314163,-0.058886107,-0.42009085,-0.7461515,-6.8870525,8.71034,-0.26110286,0.370611,-1.532935,-0.25836092,0
1.1800000000000008,14.546166292812197,-0.5092209385623612,-0.5845351742538016,-0.21777738503426786,11.699955,-1.8778323,0.1363748,0.20773901,6.188966,-9.245904,1.6015868,-0.51705956,-0.064549506,-0.4175366,-0.74441004,-6.811052,8.792097,-0.26593766,0.23342857,-1.3850093,-0.25636947,0
1.1900000000000008,14.546166292812197,-0.5092209385623612,-0.5845351742538016,-0.21777738503426786,11.699955,-1.8778323,0.1363748,0.20773901,6.1212406,-9.157581,1.5989051,-0.5207002,-0.06938091,-0.41484225,-0.74294275,-6.733854,8.872217,-0.2703361,0.11763528,-1.2601564,-0.25447574,0
1.2000000000000008,13.876847708389139,-1.3690187106481975,0.1717063589789685,-0.03972646586698995,11.332126,-2.1136208,0.14756152,0.16767158,6.054292,-9.068465,1.5961818,-0.52411073,-0.07350926,-0.4120331,-0.7417098,-6.6556835,8.950819,-0.2742549,0.019896325,-1.1547776,-0.25267494,0
1.2100000000000009,13.876847708389139,-1.3690187106481975,0.1717063589789685,-0.03972646586698995,11.332126,-2.1136208,0.14756152,0.16767158,5.988111,-8.978588,1.5934001,-0.52721506,-0.07664757,-0.40903205,-0.74085265,-6.580386,9.024464,-0.28200492,-0.19666363,-0.9478789,-0.2422255,0
1.2200000000000009,13.876847708389139,-1.3690187106481975,0.1717063589789685,-0.03972646586698995,11.332126,-2.1136208,0.14756152,0.16767158,5.9226856,-8.88798,1.5905439,-0.52995515,-0.07857462,-0.40578035,-0.74048394,-6.50467,9.096944,-0.28916344,-0.37945917,-0.7732538,-0.23228881,0
1.2300000000000009,13.876847708389139,-1.3690187106481975,0.1717063589789685,-0.03972646586698995,11.332126,-2.1136208,0.14756152,0.16767158,5.858018,-8.796653,1.5876192,-0.5323886,-0.07947941,-0.40231955,-0.7405302,-6.4288387,9.168432,-0.29563695,-0.5337542,-0.6258677,-0.22283971,0
1.2400000000000009,13.876847708389139,-1.3690187106481975,0.1717063589789685,-0.03972646586698995,11.952552,-2.7093098,0.1714352,0.39887753,5.7941084,-8.704615,1.5846335,-0.53456175,-0.07952145,-0.39868298,-0.74092686,-6.3531466,9.23908,-0.30134657,-0.66399235,-0.50147146,-0.21385428,0
1.2500000000000009,13.876847708389139,-1.3690187106481975,0.1717063589789685,-0.03972646586698995,11.952552,-2.7093098,0.1714352,0.39887753,5.730954,-8.611874,1.581595,-0.53651196,-0.07883532,-0.3948975,-0.74161756,-6.277809,9.309017,-0.3062272,-0.7739239,-0.39647877,-0.20530978,0
1.260000000000001,13.876847708389139,-1.3690187106481975,0.1717063589789685,-0.03972646586698995,11.952552,-2.7093098,0.1714352,0.39887753,5.6685505,-8.518436,1.578512,-0.5382696,-0.07753465,-0.39098486,-0.7425535,-6.2030096,9.378346,-0.31022587,-0.86671495,-0.30786288,-0.19718455,0
1.270000000000001,13.876847708389139,-1.3690187106481975,0.1717063589789685,-0.03972646586698995,11.952552,-2.7093098,0.1714352,0.39887753,5.6068916,-8.424308,1.5753937,-0.53985953,-0.07571538,-0.38696298,-0.7436928,-6.128904,9.447159,-0.31330046,-0.9450383,-0.233069,-0.18945803,0
1.280000000000001,13.74980973463193,-2.0903188639481796,0.6117667408731194,0.24685215048797687,12.416168,-2.8304944,0.07360968,0.5528029,5.5459695,-8.329494,1.5722494,-0.5413024,-0.0734585,-0.38284653,-0.74499977,-6.055627,9.51553,-0.31541854,-1.0111493,-0.16994104,-0.18211065,0
1.290000000000001,13.74980973463193,-2.0903188639481796,0.6117667408731194,0.24685215048797687,12.416168,-2.8304944,0.07360968,0.5528029,5.485772,-8.234001,1.5690843,-0.54254186,-0.07055823,-0.37852496,-0.7465851,-5.983973,9.582904,-0.3174353,-1.1794301,-0.04803034,-0.16106132,0
1.300000000000001,13.74980973463193,-2.0903188639481796,0.6117667408731194,0.24685215048797687,12.416168,-2.8304944,0.07360968,0.5528029,5.4262853,-8.137836,1.5659043,-0.5435277,-0.06685575,-0.37390903,-0.74853224,-5.913487,9.650005,-0.3184025,-1.3214726,0.054862373,-0.14104488,0
1.310000000000001,13.74980973463193,-2.0903188639481796,0.6117667408731194,0.24685215048797687,12.416168,-2.8304944,0.07360968,0.5528029,5.3674974,-8.041001,1.5627201,-0.5442833,-0.06247748,-0.36903822,-0.7507754,-5.844391,9.716924,-0.31825233,-1.4413676,0.14170447,-0.122010686,0
1.320000000000001,13.77136284330119,-2.8701092744434176,0.9828668999815926,0.632740969625953,13.166267,-3.1231966,-0.07275334,0.80033076,5.3093925,-7.943498,1.5595431,-0.5448274,-0.057530146,-0.3639455,-0.753258,-5.776877,9.783734,-0.31693548,-1.5425678,0.21500024,-0.10391048,0
1.330000000000001,13.77136284330119,-2.8701092744434176,0.9828668999815926,0.632740969625953,13.166267,-3.1231966,-0.07275334,0.80033076,5.251954,-7.8453264,1.5563862,-0.5451026,-0.051839046,-0.35850087,-0.75607777,-5.7110276,9.850601,-0.3142522,-1.7495968,0.33472162,-0.06776278,0
1.340000000000001,13.77136284330119,-2.8701092744434176,0.9828668999815926,0.632740969625953,13.166267,-3.1231966,-0.07275334,0.80033076,5.195164,-7.746486,1.5532626,-0.5450532,-0.04527165,-0.35259888,-0.7593037,-5.647219,9.917496,-0.31028295,-1.9243454,0.43576434,-0.033388853,0
1.350000000000001,13.77136284330119,-2.8701092744434176,0.9828668999815926,0.632740969625953,13.166267,-3.1231966,-0.07275334,0.80033076,5.1390014,-7.646976,1.5501852,-0.5446961,-0.03796801,-0.34629804,-0.7628517,-5.5857263,9.984482,-0.30496177,-2.071846,0.52104384,-0.0007016808,0
1.360000000000001,13.822351130518758,-3.5662922420623233,1.0758632070216443,0.9936390848680993,13.037699,-3.3868203,-0.5143468,1.2416369,5.083441,-7.5467963,1.547168,-0.5440453,-0.030046508,-0.33964783,-0.76664966,-5.5267887,10.051602,-0.2982493,-2.1963468,0.5930206,0.030381525,0
1.370000000000001,13.822351130518758,-3.5662922420623233,1.0758632070216443,0.9936390848680993,13.037699,-3.3868203,-0.5143468,1.2416369,5.0284567,-7.4459424,1.544227,-0.54307246,-0.021442244,-0.3324946,-0.77075315,-5.470425,10.119128,-0.28972736,-2.410011,0.66824156,0.07764885,0
1.380000000000001,13.822351130518758,-3.5662922420623233,1.0758632070216443,0.9936390848680993,13.037699,-3.3868203,-0.5143468,1.2416369,4.9740214,-7.344413,1.5413786,-0.5417432,-0.0121109355,-0.3247149,-0.77519566,-5.4171395,10.186811,-0.27973282,-2.590357,0.7317253,0.12259674,0
1.390000000000001,13.822351130518758,-3.5662922420623233,1.0758632070216443,0.9936390848680993,13.037699,-3.3868203,-0.5143468,1.2416369,4.920102,-7.242206,1.5386376,-0.5400613,-0.002172907,-0.31638896,-0.7798895,-5.367215,10.254631,-0.2682303,-2.7425797,0.78530514,0.16533905,0
1.400000000000001,14.054802611106767,-4.111115644505422,0.9831553639062206,1.3150939264244916,13.741945,-3.327282,-0.74103516,1.3716016,4.866665,-7.139321,1.5360192,-0.5380303,0.00826991,-0.3075852,-0.78475916,-5.3209,10.32255,-0.25521603,-2.871064,0.83052784,0.20598398,0
1.410000000000001,14.054802611106767,-4.111115644505422,0.9831553639062206,1.3150939264244916,13.741945,-3.327282,-0.74103516,1.3716016,4.8136744,-7.03575,1.5335478,-0.53563076,0.01920684,-0.29817072,-0.7898263,-5.2777076,10.391657,-0.23881263,-3.0644827,0.8541958,0.2604083,0
1.420000000000001,14.054802611106767,-4.111115644505422,0.9831553639062206,1.3150939264244916,13.741945,-3.327282,-0.74103516,1.3716016,4.761096,-6.931488,1.531248,-0.53283614,0.030622229,-0.28804126,-0.79509795,-5.238683,10.46071,-0.22089128,-3.2277372,0.8741707,0.312162,0
1.430000000000001,14.054802611106767,-4.111115644505422,0.9831553639062206,1.3150939264244916,13.741945,-3.327282,-0.74103516,1.3716016,4.7088857,-6.8265367,1.529135,-0.52964145,0.042429436,-0.27729043,-0.8004938,-5.204079,10.529589,-0.20147444,-3.3655314,0.891031,0.36137617,0
1.440000000000001,14.054802611106767,-4.111115644505422,0.9831553639062206,1.3150939264244916,14.348778,-3.5239747,-1.2670557,1.5677389,4.656998,-6.720898,1.5272235,-0.52604437,0.054554865,-0.26599878,-0.8059443,-5.1741147,10.598167,-0.1806166,-3.4818358,0.9052645,0.40817538,0
1.450000000000001,14.054802611106767,-4.111115644505422,0.9831553639062206,1.3150939264244916,14.348778,-3.5239747,-1.2670557,1.5677389,4.6053863,-6.614575,1.5255274,-0.5220447,0.06693588,-0.25423583,-0.81138986,-5.1489787,10.666311,-0.15839937,-3.580001,0.9172816,0.4526781,0
1.460000000000001,14.054802611106767,-4.111115644505422,0.9831553639062206,1.3150939264244916,14.348778,-3.5239747,-1.2670557,1.5677389,4.554001,-6.5075736,1.5240598,-0.517644,0.0795191,-0.24206197,-0.8167789,-5.128831,10.733883,-0.13492721,-3.6628566,0.9274293,0.4949971,0
1.470000000000001,14.054802611106767,-4.111115644505422,0.9831553639062206,1.3150939264244916,14.348778,-3.5239747,-1.2670557,1.5677389,4.5027914,-6.3999004,1.5228326,-0.51284546,0.0922589,-0.22952963,-0.82206714,-5.113806,10.800738,-0.11032381,-3.7327898,0.93599963,0.53523946,0
1.480000000000001,13.715683473992167,-4.219490285714682,0.44445296109096144,1.466741432726575,15.142371,-4.3016906,-2.3355513,1.6327187,4.4517064,-6.2915626,1.5218568,-0.5076536,0.105116226,-0.21668468,-0.8272162,-5.104014,10.866733,-0.08472887,-3.7918155,0.9432386,0.57350713,0
1.490000000000001,13.715683473992167,-4.219490285714682,0.44445296109096144,1.466741432726575,15.142371,-4.3016906,-2.3355513,1.6327187,4.4006925,-6.1825776,1.5211262,-0.5020994,0.11789671,-0.20342436,-0.83223534,-5.0996466,10.930137,-0.061294276,-3.858507,0.8653182,0.6173384,0
1.500000000000001,13.715683473992167,-4.219490285714682,0.44445296109096144,1.466741432726575,15.142371,-4.3016906,-2.3355513,1.6327187,4.3496957,-6.0729647,1.5206333,-0.4962033,0.13044234,-0.18967254,-0.8371332,-5.1005077,10.992321,-0.037156403,-3.9147975,0.7995556,0.6590189,0
1.5100000000000011,13.715683473992167,-4.219490285714682,0.44445296109096144,1.466741432726575,15.142371,-4.3016906,-2.3355513,1.6327187,4.2986646,-5.9627366,1.520385,-0.4899575,0.14277126,-0.17550266,-0.84187734,-5.106612,11.053052,-0.012439045,-3.9623096,0.744055,0.69865406,0
1.5200000000000011,13.494316470512757,-4.113508678844363,-0.21470715068295654,1.531786671741557,15.864518,-4.390449,-2.845166,1.8777739,4.2475452,-5.8519096,1.5203861,-0.48335776,0.15489873,-0.16097786,-0.84643865,-5.1179614,11.11211,0.012720231,-4.002413,0.69721574,0.73634434,0
1.5300000000000011,13.494316470512757,-4.113508678844363,-0.21470715068295654,1.531786671741557,15.864518,-4.390449,-2.845166,1.8777739,4.1962886,-5.7405057,1.5206305,-0.47644445,0.16659226,-0.14606325,-0.8508313,-5.1342635,11.168356,0.036184773,-4.019685,0.5548912,0.7753769,0
1.5400000000000011,13.494316470512757,-4.113508678844363,-0.21470715068295654,1.531786671741557,15.864518,-4.390449,-2.845166,1.8777739,4.1448436,-5.62855,1.5211107,-0.4692486,0.17766786,-0.1307384,-0.8550719,-5.155609,11.222479,0.059832,-4.034267,0.43476775,0.8124942,0
1.5500000000000012,13.494316470512757,-4.113508678844363,-0.21470715068295654,1.531786671741557,15.864518,-4.390449,-2.845166,1.8777739,4.0931597,-5.5160646,1.5218276,-0.46175763,0.18820284,-0.115072995,-0.8591382,-5.1818824,11.274218,0.08355204,-4.046579,0.33338284,0.8477901,0
1.5600000000000012,13.408037000246537,-3.8075026121218887,-0.9526284829761219,1.4816205650404233,16.387882,-4.72898,-3.6342113,2.0330482,4.0411897,-5.4030747,1.5227816,-0.4539634,0.19826263,-0.09912639,-0.8630085,-5.212966,11.323336,0.107224375,-4.056975,0.24781391,0.88135403,0
1.5700000000000012,13.408037000246537,-3.8075026121218887,-0.9526284829761219,1.4816205650404233,16.387882,-4.72898,-3.6342113,2.0330482,3.9888859,-5.289609,1.5239676,-0.44592,0.20759304,-0.082920976,-0.8667094,-5.2484956,11.369315,0.12994991,-4.0179644,0.060550865,0.9108093,0
1.5800000000000012,13.408037000246537,-3.8075026121218887,-0.9526284829761219,1.4816205650404233,16.387882,-4.72898,-3.6342113,2.0330482,3.9362044,-5.1756988,1.5253797,-0.4376717,0.21599689,-0.06648132,-0.87026983,-5.288449,11.412218,0.1524251,-3.9850478,-0.097507216,0.9388192,0
1.5900000000000012,13.408037000246537,-3.8075026121218887,-0.9526284829761219,1.4816205650404233,16.387882,-4.72898,-3.6342113,2.0330482,3.8831027,-5.0613756,1.527015,-0.4292023,0.22360215,-0.049856633,-0.8736717,-5.3325872,11.451806,0.17457436,-3.9572744,-0.23091452,0.9654547,0
1.6000000000000012,13.407881142762356,-3.2221294458658902,-1.4440247662871688,1.3092204938824605,17.55743,-5.1872463,-3.4567964,2.1931026,3.8295393,-4.9466743,1.5288697,-0.42050013,0.23051696,-0.03308829,-0.8768963,-5.3806868,11.48787,0.19631222,-3.9338415,-0.3435156,0.99078315,0
1.6100000000000012,13.407881142762356,-3.2221294458658902,-1.4440247662871688,1.3092204938824605,17.55743,-5.1872463,-3.4567964,2.1931026,3.7754762,-4.8316307,1.5309395,-0.41163746,0.2365636,-0.016330084,-0.8799579,-5.4325175,11.520228,0.21755017,-3.8227346,-0.51510674,1.0064089,0
1.6200000000000012,13.407881142762356,-3.2221294458658902,-1.4440247662871688,1.3092204938824605,17.55743,-5.1872463,-3.4567964,2.1931026,3.7208774,-4.716283,1.5332189,-0.40267807,0.24160998,0.00029210374,-0.88287896,-5.487766,11.548724,0.23823832,-3.7289696,-0.6599456,1.0212679,0
1.6300000000000012,13.407881142762356,-3.2221294458658902,-1.4440247662871688,1.3092204938824605,17.55743,-5.1872463,-3.4567964,2.1931026,3.6657107,-4.60067,1.5357023,-0.39360395,0.24580151,0.01678444,-0.8856501,-5.5461144,11.573229,0.25833353,-3.6498396,-0.7822033,1.0353979,0
1.6400000000000012,13.407881142762356,-3.2221294458658902,-1.4440247662871688,1.3092204938824605,17.63768,-4.79428,-3.6610746,1.8865505,3.6099458,-4.4848323,1.5383834,-0.38440132,0.24926059,0.03315276,-0.88826,-5.607273,11.593634,0.2777853,-3.583061,-0.8854004,1.0488343,0
1.6500000000000012,13.407881142762356,-3.2221294458658902,-1.4440247662871688,1.3092204938824605,17.63768,-4.79428,-3.6610746,1.8865505,3.5535564,-4.3688116,1.5412555,-0.37505996,0.25209033,0.04940236,-0.89069635,-5.6709776,11.609845,0.296536,-3.5267062,-0.97250855,1.0616114,0
1.6600000000000013,13.407881142762356,-3.2221294458658902,-1.4440247662871688,1.3092204938824605,17.63768,-4.79428,-3.6610746,1.8865505,3.4965181,-4.25265,1.5443114,-0.36557266,0.2543775,0.065537885,-0.8929466,-5.736984,11.621787,0.31452155,-3.4791486,-1.0460359,1.0737617,0
1.6700000000000013,13.407881142762356,-3.2221294458658902,-1.4440247662871688,1.3092204938824605,17.63768,-4.79428,-3.6610746,1.8865505,3.4388094,-4.13639,1.5475432,-0.35593492,0.2561953,0.081563264,-0.89499825,-5.8050623,11.629397,0.33167213,-3.4390152,-1.1080999,1.0853157,0
1.6800000000000013,13.416381505499851,-2.537820567725674,-1.8203673481052438,1.0897851970953465,16.856426,-4.1592402,-4.071347,1.6547195,3.3804107,-4.0200768,1.550942,-0.34614417,0.25760528,0.09748169,-0.89683956,-5.874998,11.632626,0.34791294,-3.4051466,-1.1604877,1.0963029,0
1.6900000000000013,13.416381505499851,-2.537820567725674,-1.8203673481052438,1.0897851970953465,16.856426,-4.1592402,-4.071347,1.6547195,3.3213038,-3.903753,1.5544986,-0.3362802,0.25842834,0.11310864,-0.8985194,-5.9466195,11.631434,0.3632464,-3.2698147,-1.2632984,1.0959831,0
1.7000000000000013,13.416381505499851,-2.537820567725674,-1.8203673481052438,1.0897851970953465,16.856426,-4.1592402,-4.071347,1.6547195,3.2614737,-3.7874634,1.5582035,-0.32641163,0.25852954,0.12829778,-0.9000877,-6.0195904,11.625834,0.3775832,-3.155599,-1.350091,1.0956789,0
1.7100000000000013,13.416381505499851,-2.537820567725674,-1.8203673481052438,1.0897851970953465,16.856426,-4.1592402,-4.071347,1.6547195,3.2009082,-3.6712518,1.5620468,-0.3165231,0.25801566,0.14310327,-0.90153354,-6.093622,11.615853,0.39091927,-3.0592048,-1.4233611,1.0953897,0
1.7200000000000013,12.901973003098076,-1.5754918155350432,-1.795810908499088,0.7968219817510827,16.215614,-3.4483294,-4.089446,1.4760085,3.1395981,-3.5551615,1.5660182,-0.30660254,0.25697604,0.15757118,-0.9028454,-6.1684527,11.601523,0.4032427,-2.9778514,-1.4852155,1.0951147,0
1.7300000000000013,12.901973003098076,-1.5754918155350432,-1.795810908499088,0.7968219817510827,16.215614,-3.4483294,-4.089446,1.4760085,3.0775514,-3.4392328,1.570087,-0.29677483,0.25537312,0.17139965,-0.904064,-6.240947,11.5836115,0.41034982,-2.7591345,-1.5334702,1.0804775,0
1.7400000000000013,12.901973003098076,-1.5754918155350432,-1.795810908499088,0.7968219817510827,16.215614,-3.4483294,-4.089446,1.4760085,3.0147781,-3.3235033,1.5742221,-0.28714782,0.2531872,0.18435511,-0.9052381,-6.3137035,11.561718,0.416518,-2.5745318,-1.5742288,1.0665585,0
1.7500000000000013,12.901973003098076,-1.5754918155350432,-1.795810908499088,0.7968219817510827,16.215614,-3.4483294,-4.089446,1.4760085,2.9512773,-3.2080116,1.5784144,-0.27768904,0.25051,0.19656579,-0.9063641,-6.3864737,11.536009,0.42180333,-2.4187222,-1.6086553,1.0533226,0
1.7600000000000013,12.350042645417599,-0.6204498160651898,-1.6630688573027266,0.484760073062447,15.81809,-2.911171,-4.1130533,1.57642,2.8870494,-3.0927958,1.5826553,-0.26837087,0.24741746,0.20814018,-0.90743583,-6.4590397,11.506634,0.42625242,-2.2872145,-1.637733,1.040736,0
1.7700000000000014,12.350042645417599,-0.6204498160651898,-1.6630688573027266,0.484760073062447,15.81809,-2.911171,-4.1130533,1.57642,2.8221133,-2.9778843,1.5869149,-0.25931117,0.24391225,0.21881913,-0.90850604,-6.528119,11.475151,0.42556003,-2.0273101,-1.6414719,1.0134541,0
1.7800000000000014,12.350042645417599,-0.6204498160651898,-1.6630688573027266,0.484760073062447,15.81809,-2.911171,-4.1130533,1.57642,2.7564893,-2.8633034,1.5911641,-0.25060928,0.24000397,0.22840597,-0.9096286,-6.596624,11.440535,0.42420885,-1.8079367,-1.6446645,0.9875108,0
1.7900000000000014,12.350042645417599,-0.6204498160651898,-1.6630688573027266,0.484760073062447,15.81809,-2.911171,-4.1130533,1.57642,2.6901834,-2.7490835,1.595397,-0.24221769,0.23575842,0.23706931,-0.91079485,-6.6643815,11.403021,0.4223024,-1.6227734,-1.6473895,0.9628407,0
1.8000000000000014,12.034394415155536,0.2712956530679798,-1.1948730224546549,0.18539304732453266,14.698232,-2.3521142,-3.3015165,0.7868258,2.6232047,-2.6352522,1.5996085,-0.23409545,0.23122934,0.2449511,-0.9119934,-6.7312484,11.362812,0.41993025,-1.4664854,-1.6497144,0.93938106,0
1.8100000000000014,12.034394415155536,0.2712956530679798,-1.1948730224546549,0.18539304732453266,14.698232,-2.3521142,-3.3015165,0.7868258,2.5555704,-2.5218303,1.6037822,-0.22637026,0.22654068,0.25181127,-0.9132511,-6.7954216,11.3211975,0.4147398,-1.1955609,-1.5785874,0.9023827,0
1.8200000000000014,12.034394415155536,0.2712956530679798,-1.1948730224546549,0.18539304732453266,14.698232,-2.3521142,-3.3015165,0.7868258,2.4872997,-2.4088354,1.6079025,-0.2191476,0.22179593,0.2574702,-0.9145986,-6.8585253,11.277431,0.40929267,-0.96687555,-1.5185905,0.8671998,0
1.8300000000000014,12.034394415155536,0.2712956530679798,-1.1948730224546549,0.18539304732453266,14.698232,-2.3521142,-3.3015165,0.7868258,2.4184036,-2.296288,1.6119676,-0.21236429,0.21700634,0.2621188,-0.9160261,-6.920498,11.231789,0.40370494,-0.773844,-1.467981,0.83374333,0
1.8400000000000014,12.034394415155536,0.2712956530679798,-1.1948730224546549,0.18539304732453266,13.979946,-1.6663543,-2.8507318,0.40602365,2.348894,-2.184205,1.6159766,-0.20596579,0.21217965,0.26591733,-0.9175219,-6.9812922,11.184508,0.398077,-0.6109078,-1.4252888,0.80192864,0
1.8500000000000014,12.034394415155536,0.2712956530679798,-1.1948730224546549,0.18539304732453266,13.979946,-1.6663543,-2.8507318,0.40602365,2.2787821,-2.0726025,1.6199294,-0.19990519,0.2073211,0.26900038,-0.91907305,-7.0408707,11.135793,0.39249513,-0.47337475,-1.3892742,0.771675,0
1.8600000000000014,12.034394415155536,0.2712956530679798,-1.1948730224546549,0.18539304732453266,13.979946,-1.6663543,-2.8507318,0.40602365,2.2080805,-1.9614936,1.623827,-0.19414216,0.20243423,0.27148092,-0.92066705,-7.0992036,11.0858135,0.38703233,-0.3572846,-1.3588924,0.742906,0
1.8700000000000014,12.034394415155536,0.2712956530679798,-1.1948730224546549,0.18539304732453266,13.979946,-1.6663543,-2.8507318,0.40602365,2.1368022,-1.8508902,1.6276709,-0.18864208,0.1975213,0.2734539,-0.92229223,-7.156268,11.034718,0.38175017,-0.25929403,-1.3332616,0.7155487,0
1.8800000000000014,11.917173356429986,0.7102803496671347,-0.9999376039855226,-0.09586375614265052,13.385838,-1.614308,-2.0025668,0.10612931,2.0649595,-1.7408028,1.6314629,-0.18337524,0.19258384,0.27499914,-0.92393774,-7.2120447,10.98263,0.37669992,-0.17658116,-1.3116385,0.6895338,0
1.8900000000000015,11.917173356429986,0.7102803496671347,-0.9999376039855226,-0.09586375614265052,13.385838,-1.614308,-2.0025668,0.10612931,1.9925684,-1.631238,1.6352013,-0.17840332,0.1876536,0.27601397,-0.9256215,-7.2659883,10.930185,0.37101918,-0.038329307,-1.2629657,0.6509941,0
1.9000000000000015,11.917173356429986,0.7102803496671347,-0.9999376039855226,-0.09586375614265052,13.385838,-1.614308,-2.0025668,0.10612931,1.9196442,-1.5222014,1.6388844,-0.1737775,0.18275562,0.27642152,-0.92735827,-7.3186393,10.87703,0.3656774,0.07836926,-1.2218988,0.6143456,0
1.9100000000000015,11.917173356429986,0.7102803496671347,-0.9999376039855226,-0.09586375614265052,13.385838,-1.614308,-2.0025668,0.10612931,1.8462,-1.4136992,1.6425161,-0.16945961,0.17788143,0.27631813,-0.92913425,-7.3699985,10.823313,0.36073542,0.17687449,-1.1872486,0.57949543,0
1.9200000000000015,12.271497897922634,1.0916333687251962,-0.36682960514423263,-0.3016775741380181,13.814904,-1.0340515,-1.5911936,-0.07277856,1.7722486,-1.3057365,1.6461006,-0.16541678,0.17302358,0.27578464,-0.9309368,-7.4200673,10.76916,0.3562432,0.2600228,-1.1580116,0.54635537,0
1.9300000000000015,12.271497897922634,1.0916333687251962,-0.36682960514423263,-0.3016775741380181,13.814904,-1.0340515,-1.5911936,-0.07277856,1.6977957,-1.1983252,1.6496565,-0.16174045,0.16837977,0.27470994,-0.9327503,-7.4703093,10.713076,0.35504067,0.38963974,-1.0345913,0.5047422,0
1.9400000000000015,12.271497897922634,1.0916333687251962,-0.36682960514423263,-0.3016775741380181,13.814904,-1.0340515,-1.5911936,-0.07277856,1.6228467,-1.0914755,1.6532031,-0.15850382,0.16410694,0.27301124,-0.9345644,-7.5193086,10.656846,0.3543891,0.4990568,-0.9304311,0.46517095,0
1.9500000000000015,12.271497897922634,1.0916333687251962,-0.36682960514423263,-0.3016775741380181,13.814904,-1.0340515,-1.5911936,-0.07277856,1.5474136,-0.9851881,1.6567461,-0.1556557,0.16014384,0.27078873,-0.93637544,-7.5671477,10.600644,0.35432824,0.5914213,-0.84252423,0.42754146,0
1.9600000000000015,12.580288043587426,1.2190965935468692,0.0933876991030659,-0.4638741004308516,13.784205,-0.35252267,-1.0504128,-0.12599193,1.4715075,-0.879462,1.6602918,-0.15315214,0.15643845,0.2681264,-0.9381791,-7.613898,10.544618,0.35489044,0.6693905,-0.76833373,0.39175847,0
1.9700000000000015,12.580288043587426,1.2190965935468692,0.0933876991030659,-0.4638741004308516,13.784205,-0.35252267,-1.0504128,-0.12599193,1.3951334,-0.77430177,1.6638588,-0.15103137,0.15310661,0.26502192,-0.93995297,-7.66078,10.4874935,0.35859972,0.75506496,-0.6339474,0.34977233,0
1.9800000000000015,12.580288043587426,1.2190965935468692,0.0933876991030659,-0.4638741004308516,13.784205,-0.35252267,-1.0504128,-0.12599193,1.3182951,-0.6697105,1.667466,-0.14932315,0.15023774,0.26147765,-0.9416799,-7.7067294,10.430832,0.36298993,0.8273909,-0.5205249,0.30984646,0
1.9900000000000015,12.580288043587426,1.2190965935468692,0.0933876991030659,-0.4638741004308516,13.784205,-0.35252267,-1.0504128,-0.12599193,1.2410016,-0.565683,1.6711208,-0.1479808,0.14775555,0.2575645,-0.94336146,-7.7518573,10.374768,0.36807215,0.8884471,-0.4247952,0.27187976,0
2.0000000000000013,,,,,13.72251,-0.17540272,-0.64396065,-0.28242597,1.1632605,-0.46221265,1.6748297,-0.14696419,0.1455956,0.2533419,-0.9449983,-7.796259,10.31942,0.3738537,0.93998915,-0.34399772,0.23577611,0
2.010000000000001,,,,,13.72251,-0.17540272,-0.64396065,-0.28242597,1.0850756,-0.35929567,1.6786075,-0.1462718,0.14381464,0.2488849,-0.9465615,-7.8406353,10.264119,0.38180745,0.96684945,-0.23145247,0.19705245,0
2.020000000000001,,,,,13.72251,-0.17540272,-0.64396065,-0.28242597,1.0064497,-0.25692713,1.6824683,-0.14590105,0.1424549,0.24425596,-0.94802904,-7.8844724,10.209733,0.39045584,0.98952866,-0.13645887,0.16022897,0
2.0300000000000007,,,,,13.72251,-0.17540272,-0.64396065,-0.28242597,0.9273877,-0.15509759,1.6864189,-0.14581844,0.14144665,0.23948368,-0.94940925,-7.927875,10.156335,0.39977854,1.0086768,-0.056279942,0.12521242,0
2.0400000000000005,,,,,13.72251,-0.17540272,-0.64396065,-0.28242597,0.8478934,-0.053796817,1.6904659,-0.145995,0.14073111,0.23459195,-0.95070887,-7.9709315,10.103989,0.40975618,1.0248432,0.011395367,0.09191415,0
2.0500000000000003,,,,,13.504002,-0.120413855,-0.4102718,-0.34299263,0.76796997,0.046985984,1.694616,-0.1464056,0.14025883,0.22960068,-0.95193326,-8.013715,10.052748,0.4203702,1.0384918,0.06851706,0.060249828,1
2.06,,,,,13.504002,-0.120413855,-0.4102718,-0.34299263,0.6876074,0.14724731,1.6989073,-0.14686279,0.13976632,0.2250394,-0.95302385,-8.058767,9.999697,0.43799162,0.857764,-0.0061680153,0.040462617,1
2.07,,,,,13.504002,-0.120413855,-0.4102718,-0.34299263,0.6067955,0.24698341,1.7033776,-0.14721566,0.13904417,0.22133005,-0.9539432,-8.103567,9.947665,0.45617294,0.7052186,-0.069200546,0.021646352,1
2.0799999999999996,,,,,13.504002,-0.120413855,-0.4102718,-0.34299263,0.5255371,0.34620342,1.7080321,-0.14749238,0.13812666,0.21834266,-0.95472187,-8.148077,9.896445,0.4748253,0.5764609,-0.12239909,0.0037534148,1
2.0899999999999994,,,,,12.97282,-0.6810525,-0.46350995,-0.31330952,0.44383514,0.44491452,1.7128754,-0.14771584,0.13704261,0.21596694,-0.9553837,-8.192266,9.845861,0.49387604,0.46778202,-0.16729821,-0.013261514,1
2.099999999999999,,,,,12.97282,-0.6810525,-0.46350995,-0.31330952,0.3617016,0.5431321,1.7178878,-0.14786577,0.13582997,0.21432643,-0.955903,-8.234388,9.797724,0.50863826,0.2886196,-0.21349354,-0.027984958,1
2.109999999999999,,,,,12.97282,-0.6810525,-0.46350995,-0.31330952,0.27914855,0.6408698,1.7230489,-0.14792632,0.1345202,0.21351409,-0.95626056,-8.276172,9.749843,0.5236357,0.13739686,-0.25248212,-0.041985918,1
2.1199999999999988,,,,,12.97282,-0.6810525,-0.46350995,-0.31330952,0.19617936,0.73812914,1.7283609,-0.14791994,0.13312696,0.21340215,-0.95648146,-8.317614,9.702029,0.5387868,0.009756785,-0.28538844,-0.05529986,1
2.1299999999999986,,,,,12.822117,-0.92156893,-0.55782264,-0.22705327,0.112797454,0.83491004,1.733825,-0.14786483,0.13166167,0.21388234,-0.9565855,-8.358712,9.654121,0.5540232,-0.097978026,-0.31316176,-0.06796047,1
2.1399999999999983,,,,,12.822117,-0.92156893,-0.55782264,-0.22705327,0.029008672,0.9312135,1.7394348,-0.14774485,0.13011426,0.21495922,-0.9565744,-8.398992,9.606536,0.56796753,-0.22642006,-0.35130972,-0.0757672,1
2.149999999999998,,,,,12.822117,-0.92156893,-0.55782264,-0.22705327,-0.05518117,1.0270394,1.7451842,-0.14754598,0.12847748,0.21663114,-0.9564491,-8.438922,9.558569,0.5818735,-0.33483157,-0.3835084,-0.08319084,1
2.159999999999998,,,,,12.822117,-0.92156893,-0.55782264,-0.22705327,-0.13976854,1.1223832,1.751072,-0.14728461,0.12676394,0.21880509,-0.95622313,-8.478496,9.510082,0.595682,-0.4263363,-0.4106857,-0.09025022,1
2.1699999999999977,,,,,12.352486,-0.7134488,-0.9798942,-0.2130128,-0.22474985,1.217239,1.7570972,-0.14697409,0.12498418,0.22140232,-0.95590734,-8.517707,9.460962,0.6093416,-0.50357074,-0.43362507,-0.096963175,1
2.1799999999999975,,,,,12.352486,-0.7134488,-0.9798942,-0.2130128,-0.3101143,1.3116091,1.7632377,-0.14659657,0.12297382,0.22430122,-0.9555502,-8.555119,9.412939,0.6187241,-0.5363084,-0.5188113,-0.102657765,1
