time-since-start [s],throttle_mpc,roll_mpc,pitch_mpc,yaw_mpc,throttle_nw,roll_nw,pitch_nw,yaw_nw,position_x [m],position_y [m],position_z [m],rotation_w [quaternion],rotation_x [quaternion],rotation_y [quaternion],rotation_z [quaternion],velocity_x [m/s],velocity_y [m/s],velocity_z [m/s],omega_x [rad/s],omega_y [rad/s],omega_z [rad/s],network_used
0.0,9.545192464125387,5.99999983786112,-5.999999956821241,-4.469953482491468,7.8513126,2.0379791,-4.5900173,-1.9021556,18.355885,-9.814914,1.9594383,0.11226715,0.48129898,-0.20184672,-0.84557986,-11.745883,-6.44068,0.09428011,1.8713328,-0.18862069,-0.27076226,0
0.01,9.545192464125387,5.99999983786112,-5.999999956821241,-4.469953482491468,16.185377,-0.61902696,-6.4483943,-1.3824011,18.237722,-9.879126,1.9602616,0.10609692,0.48143032,-0.20894511,-0.84457695,-11.885961,-6.401561,0.07004304,1.8103209,-0.39025638,-0.41379654,0
0.02,9.545192464125387,5.99999983786112,-5.999999956821241,-4.469953482491468,16.185377,-0.61902696,-6.4483943,-1.3824011,18.118174,-9.942936,1.9608324,0.09921961,0.48080355,-0.21560927,-0.8440948,-12.023582,-6.360201,0.043822967,1.7842383,-0.5858909,-0.55208653,0
0.03,9.545192464125387,5.99999983786112,-5.999999956821241,-4.469953482491468,16.185377,-0.61902696,-6.4483943,-1.3824011,17.997263,-10.006322,1.961132,0.09157636,0.4794562,-0.22197594,-0.8440748,-12.158519,-6.3166347,0.015879221,1.7880063,-0.7768333,-0.6858977,0
0.04,9.545192464125387,5.99999983786112,-5.999999956821241,-4.469953482491468,10.123741,0.8293542,-7.1013465,-2.1118758,17.875015,-10.069261,1.9611447,0.0831175,0.47741324,-0.22816071,-0.8444589,-12.290549,-6.270863,-0.013560688,1.8172506,-0.9641005,-0.8154749,0
0.05,9.545192464125387,5.99999983786112,-5.999999956821241,-4.469953482491468,10.123741,0.8293542,-7.1013465,-2.1118758,17.751461,-10.131731,1.9608563,0.07380166,0.47468936,-0.23426063,-0.8451895,-12.419469,-6.2228637,-0.044297,1.8682011,-1.1484705,-0.94104385,0
0.060000000000000005,9.545192464125387,5.99999983786112,-5.999999956821241,-4.469953482491468,10.123741,0.8293542,-7.1013465,-2.1118758,17.626635,-10.19371,1.9602549,0.06359491,0.47129065,-0.2403565,-0.846209,-12.545076,-6.1726007,-0.07615394,1.9376042,-1.330528,-1.0628129,0
0.07,9.545192464125387,5.99999983786112,-5.999999956821241,-4.469953482491468,10.123741,0.8293542,-7.1013465,-2.1118758,17.50057,-10.255176,1.9593301,0.05247007,0.46721578,-0.24651483,-0.847459,-12.667172,-6.120032,-0.10897665,2.0226498,-1.5107019,-1.1809747,0
0.08,13.13679442892037,5.999999949337217,-5.9999999960131625,-4.19135340243381,12.036786,0.954112,-7.752992,-2.6840217,17.373302,-10.316104,1.9580727,0.040406205,0.46245745,-0.2527893,-0.84888047,-12.78556,-6.065113,-0.14262842,2.120909,-1.6892962,-1.2957069,0
0.09,13.13679442892037,5.999999949337217,-5.9999999960131625,-4.19135340243381,12.036786,0.954112,-7.752992,-2.6840217,17.24478,-10.376425,1.9565265,0.02714525,0.4567199,-0.25952774,-0.85047954,-12.918341,-5.9986053,-0.16678035,2.3660498,-2.0025296,-1.4056413,0
0.09999999999999999,13.13679442892037,5.999999949337217,-5.9999999960131625,-4.19135340243381,12.036786,0.954112,-7.752992,-2.6840217,17.114952,-10.436067,1.954734,0.012457569,0.44971892,-0.26702267,-0.8522304,-13.045758,-5.9293146,-0.19182914,2.6093955,-2.3034081,-1.5134413,0
0.10999999999999999,13.13679442892037,5.999999949337217,-5.9999999960131625,-4.19135340243381,12.036786,0.954112,-7.752992,-2.6840217,16.983881,-10.495001,1.9526874,-0.0036278502,0.44145566,-0.27523163,-0.8540207,-13.167469,-5.8570175,-0.21759096,2.8503952,-2.5930235,-1.6191373,0
0.11999999999999998,13.13679442892037,5.999999949337217,-5.9999999960131625,-4.19135340243381,12.036786,0.954112,-7.752992,-2.6840217,16.851622,-10.553196,1.9503802,-0.021078512,0.43192485,-0.28410727,-0.8557335,-13.283121,-5.7815604,-0.24391355,3.08861,-2.8723226,-1.72276,0
0.12999999999999998,18.14739735810709,5.999999994142694,-6.0,-3.636847913454292,13.4047985,2.4084358,-8.049472,-2.591728,16.718239,-10.610621,1.9478076,-0.03985784,0.4211162,-0.29359737,-0.85724753,-13.392352,-5.7028613,-0.2706746,3.3236928,-3.1421292,-1.8243412,0
0.13999999999999999,18.14739735810709,5.999999994142694,-6.0,-3.636847913454292,13.4047985,2.4084358,-8.049472,-2.591728,16.583687,-10.667156,1.945041,-0.060251284,0.40856132,-0.30404872,-0.85848826,-13.51692,-5.603118,-0.28239787,3.740325,-3.5885231,-1.9132813,0
0.15,18.14739735810709,5.999999994142694,-6.0,-3.636847913454292,13.4047985,2.4084358,-8.049472,-2.591728,16.44792,-10.722662,1.9421649,-0.08237772,0.39395016,-0.31561318,-0.85930544,-13.63495,-5.497008,-0.29254842,4.0920334,-3.9652548,-1.9978572,0
0.16,20.99999979199671,5.999999979511494,-6.0,-2.83342316440879,16.513805,2.7022443,-7.7431684,-1.8221706,16.311012,-10.777073,1.9391958,-0.10596712,0.37748972,-0.32797587,-0.8594793,-13.745354,-5.384311,-0.30101368,4.3889427,-4.2831874,-2.0782828,0
0.17,20.99999979199671,5.999999979511494,-6.0,-2.83342316440879,16.513805,2.7022443,-7.7431684,-1.8221706,16.172962,-10.830232,1.9362222,-0.13069195,0.35932997,-0.34090385,-0.85882854,-13.863075,-5.2462845,-0.2933929,4.6397142,-4.551374,-2.1153378,0
0.18000000000000002,20.99999979199671,5.999999979511494,-6.0,-2.83342316440879,16.513805,2.7022443,-7.7431684,-1.8221706,16.033787,-10.881973,1.9333346,-0.15625398,0.33960372,-0.35419917,-0.8572031,-13.9696045,-5.1008873,-0.2838081,4.8514295,-4.777689,-2.1505744,0
0.19000000000000003,20.99999979199671,5.999999979511494,-6.0,-2.83342316440879,16.513805,2.7022443,-7.7431684,-1.8221706,15.893609,-10.932226,1.9305522,-0.18246329,0.31846258,-0.36765772,-0.85446876,-14.063862,-4.9485745,-0.27236405,5.030173,-4.9686675,-2.184082,0
0.20000000000000004,21.0,5.999999767393776,-5.9999998982271485,-2.329143257120289,17.371765,3.8257174,-6.9487643,-2.333717,15.752555,-10.980923,1.9278932,-0.20914707,0.2960463,-0.38110405,-0.85051405,-14.144855,-4.7899885,-0.2592301,5.1810813,-5.129825,-2.2159452,0
0.21000000000000005,21.0,5.999999767393776,-5.9999998982271485,-2.329143257120289,17.371765,3.8257174,-6.9487643,-2.333717,15.61076,-11.028007,1.9253727,-0.23609442,0.27246124,-0.3944057,-0.8452626,-14.211693,-4.6259365,-0.2446321,5.308576,-5.2657313,-2.2215,0
0.22000000000000006,21.0,5.999999767393776,-5.9999998982271485,-2.329143257120289,17.371765,3.8257174,-6.9487643,-2.333717,15.46837,-11.073426,1.9230044,-0.2631119,0.24780664,-0.40744892,-0.8386595,-14.263601,-4.4573665,-0.22884591,5.416219,-5.3804145,-2.226782,0
0.23000000000000007,21.0,5.999999767393776,-5.9999998982271485,-2.329143257120289,17.371765,3.8257174,-6.9487643,-2.333717,15.3255415,-11.117142,1.9207987,-0.29007262,0.22219896,-0.42011875,-0.8306541,-14.29993,-4.285345,-0.21219108,5.5071015,-5.4771886,-2.231805,0
0.24000000000000007,21.0,5.999999767393776,-5.9999998982271485,-2.329143257120289,16.705359,2.4470124,-5.860709,-1.3288788,15.182428,-11.159125,1.9187623,-0.3168601,0.19574851,-0.43231606,-0.82120985,-14.320161,-4.1110373,-0.19502348,5.5838327,-5.5588493,-2.2365816,0
0.25000000000000006,21.0,5.999999767393776,-5.9999998982271485,-2.329143257120289,16.705359,2.4470124,-5.860709,-1.3288788,15.039195,-11.19936,1.9168986,-0.34336692,0.16856016,-0.4439552,-0.810303,-14.32392,-3.9356856,-0.17772795,5.648617,-5.6277575,-2.2411234,0
0.26000000000000006,21.0,5.999999767393776,-5.9999998982271485,-2.329143257120289,16.705359,2.4470124,-5.860709,-1.3288788,14.896008,-11.237841,1.9152069,-0.3694939,0.14073393,-0.45496246,-0.797921,-14.310973,-3.7605898,-0.16071138,5.7033143,-5.685905,-2.2454426,0
0.2700000000000001,21.0,5.999999767393776,-5.9999998982271485,-2.329143257120289,16.705359,2.4470124,-5.860709,-1.3288788,14.753034,-11.274577,1.9136821,-0.39514932,0.11236537,-0.4652742,-0.78406096,-14.281236,-3.5870895,-0.144396,5.7494955,-5.7349706,-2.2495499,0
0.2800000000000001,21.0,3.701394976850641,-5.554714403967323,0.7827754623838111,17.049404,0.8995642,-5.311864,-0.56370294,14.61044,-11.309593,1.9123151,-0.420248,0.08354611,-0.4748356,-0.76872844,-14.23477,-3.4165463,-0.1292131,5.788486,-5.7763734,-2.2534554,0
0.2900000000000001,21.0,3.701394976850641,-5.554714403967323,0.7827754623838111,17.049404,0.8995642,-5.311864,-0.56370294,14.468395,-11.342922,1.9110926,-0.44427335,0.054713126,-0.48301598,-0.75254494,-14.171857,-3.2503295,-0.11554825,5.4636145,-5.7407966,-2.1044667,0
0.3000000000000001,21.0,3.701394976850641,-5.554714403967323,0.7827754623838111,17.049404,0.8995642,-5.311864,-0.56370294,14.327058,-11.374618,1.9099985,-0.466843,0.026222467,-0.489371,-0.7361295,-14.093316,-3.0897748,-0.10350152,5.1893654,-5.710921,-1.9627888,0
0.3100000000000001,21.0,3.701394976850641,-5.554714403967323,0.7827754623838111,17.049404,0.8995642,-5.311864,-0.56370294,14.18658,-11.40474,1.9090168,-0.4880627,-0.0019591665,-0.49410293,-0.7194817,-14.000133,-2.936077,-0.09309458,4.9578485,-5.685828,-1.8280631,0
0.3200000000000001,21.0,2.283320226636363,-3.557070361487676,1.367032676525687,16.979387,-0.98005134,-5.278883,0.52016985,14.047103,-11.433365,1.9081308,-0.5080186,-0.029860746,-0.4973785,-0.7025957,-13.893283,-2.7902887,-0.084378876,4.7624035,-5.6647496,-1.6999485,0
0.3300000000000001,21.0,2.283320226636363,-3.557070361487676,1.367032676525687,16.979387,-0.98005134,-5.278883,0.52016985,13.908758,-11.460575,1.9073231,-0.5263666,-0.056694083,-0.49936113,-0.68583024,-13.773805,-2.6532788,-0.07742883,4.376682,-5.335199,-1.5494509,0
0.34000000000000014,21.0,2.283320226636363,-3.557070361487676,1.367032676525687,16.979387,-0.98005134,-5.278883,0.52016985,13.771665,-11.486461,1.9065759,-0.54289424,-0.08185056,-0.50025517,-0.6695608,-13.64309,-2.5254447,-0.07229841,4.050977,-5.0571923,-1.4063382,0
0.35000000000000014,21.0,2.283320226636363,-3.557070361487676,1.367032676525687,16.979387,-0.98005134,-5.278883,0.52016985,13.635929,-11.511114,1.9058708,-0.5578389,-0.105597295,-0.50023055,-0.65378505,-13.502499,-2.4069474,-0.06901535,3.7759557,-4.8226604,-1.2702482,0
0.36000000000000015,20.999999990200756,0.8379863546642697,-0.4844097252345802,1.0434385350924327,17.100769,-1.23443,-3.2202387,0.31354156,13.501643,-11.534631,1.9051893,-0.5713963,-0.12816212,-0.49941906,-0.63848406,-13.353213,-2.2978709,-0.067597374,3.5437346,-4.6248,-1.140836,0
0.37000000000000016,20.999999990200756,0.8379863546642697,-0.4844097252345802,1.0434385350924327,17.100769,-1.23443,-3.2202387,0.31354156,13.36889,-11.557104,1.9045125,-0.583232,-0.14860973,-0.49828225,-0.624076,-13.196335,-2.198141,-0.06806296,3.122535,-3.978576,-1.0336529,0
0.38000000000000017,20.999999990200756,0.8379863546642697,-0.4844097252345802,1.0434385350924327,17.100769,-1.23443,-3.2202387,0.31354156,13.237737,-11.578623,1.9038215,-0.5931558,-0.16623309,-0.49725538,-0.6109585,-13.033166,-2.1070166,-0.07043295,2.7668579,-3.4332378,-0.9317294,0
0.3900000000000002,20.999999990200756,0.8379863546642697,-0.4844097252345802,1.0434385350924327,17.100769,-1.23443,-3.2202387,0.31354156,13.108243,-11.59927,1.9030974,-0.60149646,-0.18151553,-0.4963781,-0.5990521,-12.864862,-2.0235782,-0.07469284,2.46652,-2.9730308,-0.8348073,0
0.4000000000000002,20.999999864873978,-0.823719753343014,1.9816439020649315,0.8906272753390588,17.329628,-1.8443476,-0.7657055,-0.08809934,12.980454,-11.619118,1.9023213,-0.60851693,-0.19486201,-0.4956642,-0.58826303,-12.69233,-1.9469912,-0.08079951,2.2129188,-2.58466,-0.7426412,0
0.4100000000000002,20.999999864873978,-0.823719753343014,1.9816439020649315,0.8906272753390588,17.329628,-1.8443476,-0.7657055,-0.08809934,12.854408,-11.63823,1.9014753,-0.61409,-0.20562063,-0.4953349,-0.57901424,-12.516332,-1.8764119,-0.08867868,1.7398009,-1.8722265,-0.6624962,0
0.4200000000000002,20.999999864873978,-0.823719753343014,1.9816439020649315,0.8906272753390588,17.329628,-1.8443476,-0.7657055,-0.08809934,12.730136,-11.656662,1.9005424,-0.6181504,-0.21330173,-0.49558726,-0.57165223,-12.337723,-1.810521,-0.09814865,1.3403455,-1.2709775,-0.586284,0
0.4300000000000002,20.999999864873978,-0.823719753343014,1.9816439020649315,0.8906272753390588,17.329628,-1.8443476,-0.7657055,-0.08809934,12.607659,-11.674452,1.8995076,-0.6209593,-0.21842913,-0.4963704,-0.5659641,-12.15724,-1.7479705,-0.108998336,1.0030919,-0.7635558,-0.5138115,0
0.4400000000000002,20.999999864873978,-0.823719753343014,1.9816439020649315,0.8906272753390588,18.4791,-2.368502,2.1951773,-0.32640037,12.486995,-11.691628,1.8983583,-0.62271804,-0.2214368,-0.497623,-0.5617473,-11.975449,-1.6875981,-0.12103554,0.7183611,-0.33531532,-0.44489533,0
0.45000000000000023,20.999999864873978,-0.823719753343014,1.9816439020649315,0.8906272753390588,18.4791,-2.368502,2.1951773,-0.32640037,12.368153,-11.708208,1.8970834,-0.623584,-0.22268446,-0.4992806,-0.55881506,-11.792789,-1.6284083,-0.13409236,0.47797897,0.02610369,-0.37936085,0
0.46000000000000024,20.999999864873978,-0.823719753343014,1.9816439020649315,0.8906272753390588,18.4791,-2.368502,2.1951773,-0.32640037,12.251141,-11.724197,1.8956734,-0.62368107,-0.2224707,-0.5012804,-0.5569985,-11.609617,-1.5695528,-0.14802663,0.2750424,0.3311308,-0.31704217,0
0.47000000000000025,20.999999864873978,-0.823719753343014,1.9816439020649315,0.8906272753390588,18.4791,-2.368502,2.1951773,-0.32640037,12.135962,-11.739597,1.8941203,-0.6231086,-0.22104377,-0.50356376,-0.55614716,-11.426222,-1.5103123,-0.16272111,0.103722155,0.58856726,-0.25778148,0
0.48000000000000026,20.999999807911777,-2.2034771744529493,3.5755151414413566,0.8021836943794468,17.099958,-1.9166969,3.2854471,-0.5207021,12.022615,-11.7544,1.8924168,-0.62194663,-0.21861027,-0.50607723,-0.5561283,-11.242848,-1.450079,-0.17808136,-0.04090466,0.8058398,-0.20142873,0
0.49000000000000027,20.999999807911777,-2.2034771744529493,3.5755151414413566,0.8021836943794468,17.099958,-1.9166969,3.2854471,-0.5207021,11.911104,-11.768594,1.8905567,-0.6200619,-0.21463834,-0.5088637,-0.5572363,-11.059741,-1.3882716,-0.1940133,-0.37813887,1.2378016,-0.1521812,0
0.5000000000000002,20.999999807911777,-2.2034771744529493,3.5755151414413566,0.8021836943794468,17.099958,-1.9166969,3.2854471,-0.5207021,11.801419,-11.782158,1.8885353,-0.6173386,-0.20871024,-0.5119442,-0.5596849,-10.877311,-1.3240051,-0.21033177,-0.66281164,1.6023751,-0.10535025,0
0.5100000000000002,20.999999807911777,-2.2034771744529493,3.5755151414413566,0.8021836943794468,17.099958,-1.9166969,3.2854471,-0.5207021,11.693553,-11.795062,1.8863494,-0.6138558,-0.2011363,-0.5152406,-0.56325245,-10.695996,-1.2564065,-0.22685762,-0.9031115,1.910076,-0.060817298,0
0.5200000000000002,20.999999865225988,-3.313887657545009,4.3749055115633855,0.7415636178426159,17.428307,-2.321302,4.1000495,-0.6278423,11.587493,-11.807271,1.8839979,-0.60967547,-0.19217613,-0.5186821,-0.5677447,-10.516212,-1.1847546,-0.24345961,-1.1059519,2.169778,-0.01846958,0
0.5300000000000002,20.999999865225988,-3.313887657545009,4.3749055115633855,0.7415636178426159,17.428307,-2.321302,4.1000495,-0.6278423,11.483222,-11.81874,1.8814805,-0.6047669,-0.18159047,-0.52214646,-0.5732766,-10.338382,-1.1084226,-0.26002696,-1.4503347,2.5136359,0.018825471,0
0.5400000000000003,20.999999865225988,-3.313887657545009,4.3749055115633855,0.7415636178426159,17.428307,-2.321302,4.1000495,-0.6278423,11.380717,-11.82942,1.8787984,-0.5990891,-0.16919693,-0.5255165,-0.57991225,-10.163076,-1.0266899,-0.2763679,-1.7410226,2.8038566,0.05429045,0
0.5500000000000003,20.999999865225988,-3.313887657545009,4.3749055115633855,0.7415636178426159,17.428307,-2.321302,4.1000495,-0.6278423,11.279949,-11.839252,1.8759546,-0.59267324,-0.15527323,-0.5287389,-0.5874223,-9.990909,-0.938913,-0.29231295,-1.9863855,3.0488088,0.08801513,0
0.5600000000000003,20.99999994173817,-3.7758270326958265,4.2553394239969755,0.6149281774817144,19.180922,-2.515185,3.9601946,-0.8038579,11.180885,-11.848176,1.8729539,-0.5855448,-0.14005455,-0.531766,-0.5956074,-9.82248,-0.8445983,-0.30775732,-2.1934886,3.2555556,0.12008497,0
0.5700000000000003,20.99999994173817,-3.7758270326958265,4.2553394239969755,0.6149281774817144,19.180922,-2.515185,3.9601946,-0.8038579,11.083485,-11.856122,1.8698013,-0.5777852,-0.123653464,-0.53441924,-0.6043769,-9.658394,-0.743385,-0.32263595,-2.4403193,3.4114137,0.14436708,0
0.5800000000000003,20.99999994173817,-3.7758270326958265,4.2553394239969755,0.6149281774817144,19.180922,-2.515185,3.9601946,-0.8038579,10.9877,-11.863019,1.8665032,-0.56945777,-0.10617211,-0.5365511,-0.6136444,-9.499288,-0.63502926,-0.3368437,-2.6486564,3.5429645,0.16745764,0
0.5900000000000003,20.99999994173817,-3.7758270326958265,4.2553394239969755,0.6149281774817144,19.180922,-2.515185,3.9601946,-0.8038579,10.893479,-11.868796,1.8630669,-0.5605602,-0.0877823,-0.53816545,-0.62325424,-9.345801,-0.5193959,-0.35030338,-2.8245027,3.6539993,0.18941517,0
0.6000000000000003,20.999999956829775,-3.505068010897519,3.489041689414348,0.4963577308398495,19.517231,-3.5837736,4.556126,-0.640911,10.800763,-11.873381,1.8594999,-0.5510934,-0.06863166,-0.5392656,-0.63307166,-9.198554,-0.39644912,-0.3629935,-2.9729238,3.747719,0.21029522,0
0.6100000000000003,20.999999956829775,-3.505068010897519,3.489041689414348,0.4963577308398495,19.517231,-3.5837736,4.556126,-0.640911,10.709486,-11.876699,1.8558097,-0.541232,-0.049094442,-0.5397601,-0.642898,-9.058124,-0.26626578,-0.37493247,-3.0559397,3.707339,0.22433239,0
0.6200000000000003,20.999999956829775,-3.505068010897519,3.489041689414348,0.4963577308398495,19.517231,-3.5837736,4.556126,-0.640911,10.619576,-11.878681,1.8520038,-0.5311328,-0.02947839,-0.5395932,-0.6525866,-8.924955,-0.12912785,-0.38613427,-3.126008,3.6732585,0.23768075,0
0.6300000000000003,20.999999956829775,-3.505068010897519,3.489041689414348,0.4963577308398495,19.517231,-3.5837736,4.556126,-0.640911,10.530961,-11.879259,1.8480895,-0.5207758,-0.009811271,-0.5388163,-0.6620984,-8.799429,0.014609065,-0.39662853,-3.185148,3.6444945,0.2503741,0
0.6400000000000003,20.999999956829775,-3.505068010897519,3.489041689414348,0.4963577308398495,20.279518,-4.257236,4.4378805,-0.15625773,10.443561,-11.878367,1.8440735,-0.51014614,0.009882424,-0.53747344,-0.67139894,-8.681899,0.16457413,-0.4064709,-3.2350638,3.620218,0.26244462,1
0.6500000000000004,20.999999956829775,-3.505068010897519,3.489041689414348,0.4963577308398495,20.279518,-4.257236,4.4378805,-0.15625773,10.357275,-11.875974,1.8399469,-0.49907497,0.030032614,-0.5355864,-0.68056625,-8.576482,0.31506115,-0.41878733,-3.3944428,3.7477503,0.24189876,1
0.6600000000000004,20.999999956829775,-3.505068010897519,3.489041689414348,0.4963577308398495,20.279518,-4.257236,4.4378805,-0.15625773,10.272,-11.872047,1.8356993,-0.48741674,0.050982196,-0.5331478,-0.6896232,-8.479683,0.47098172,-0.43065318,-3.528963,3.8553991,0.22236112,1
0.6700000000000004,20.999999956829775,-3.505068010897519,3.489041689414348,0.4963577308398495,20.279518,-4.257236,4.4378805,-0.15625773,10.187649,-11.866535,1.8313348,-0.47519585,0.072590664,-0.53015494,-0.6984671,-8.392075,0.6320775,-0.44220823,-3.6425023,3.9462643,0.2037822,1
0.6800000000000004,20.99999986255815,-2.740590028321602,2.3206033475793744,0.36131629330080217,21.10697,-4.761746,4.8120856,-0.2298411,10.104125,-11.859388,1.8268555,-0.46243623,0.094734766,-0.5266071,-0.7070107,-8.3141775,0.7980128,-0.4536247,-3.7383337,4.022962,0.1861149,0
0.6900000000000004,20.99999986255815,-2.740590028321602,2.3206033475793744,0.36131629330080217,21.10697,-4.761746,4.8120856,-0.2298411,10.021342,-11.85053,1.8222774,-0.44963166,0.11639492,-0.52256435,-0.7149903,-8.243963,0.97439754,-0.46201092,-3.582725,3.757479,0.19471207,0
0.7000000000000004,20.99999986255815,-2.740590028321602,2.3206033475793744,0.36131629330080217,21.10697,-4.761746,4.8120856,-0.2298411,9.939211,-11.839888,1.8176147,-0.43721396,0.13675989,-0.51813513,-0.7222726,-8.184035,1.1546263,-0.4705714,-3.451385,3.533397,0.20288742,0
0.7100000000000004,20.99999986255815,-2.740590028321602,2.3206033475793744,0.36131629330080217,21.10697,-4.761746,4.8120856,-0.2298411,9.857629,-11.827427,1.8128651,-0.42511612,0.15601216,-0.5133794,-0.72895753,-8.134061,1.3379933,-0.47939107,-3.3405292,3.3442602,0.21066156,0
0.7200000000000004,20.999999732930497,-1.5334915368401285,0.7065059440158137,0.23289931632237998,20.9827,-4.9087453,3.338196,-0.26563558,9.776497,-11.813119,1.8080257,-0.41327822,0.17430675,-0.5083432,-0.73512346,-8.093738,1.5238833,-0.48854443,-3.2469628,3.1846187,0.21805423,0
0.7300000000000004,20.999999732930497,-1.5334915368401285,0.7065059440158137,0.23289931632237998,20.9827,-4.9087453,3.338196,-0.26563558,9.695722,-11.796943,1.8030928,-0.4020781,0.19111137,-0.5031567,-0.7407052,-8.062725,1.7117369,-0.4980851,-2.9796944,2.798195,0.21878268,0
0.7400000000000004,20.999999732930497,-1.5334915368401285,0.7065059440158137,0.23289931632237998,20.9827,-4.9087453,3.338196,-0.26563558,9.6152115,-11.77888,1.7980627,-0.3918347,0.20602302,-0.49795392,-0.7456964,-8.040302,1.900974,-0.50797355,-2.7541144,2.4720283,0.21947539,0
0.7500000000000004,20.999999732930497,-1.5334915368401285,0.7065059440158137,0.23289931632237998,20.9827,-4.9087453,3.338196,-0.26563558,9.534887,-11.75892,1.7929324,-0.38241395,0.21933664,-0.49276504,-0.75022316,-8.0257,2.0911021,-0.5181316,-2.5637207,2.196722,0.22013411,0
0.7600000000000005,20.999999409415196,-0.26922067479551653,-0.9042038109004904,0.05579131325691883,20.236856,-4.1525497,1.5569047,-0.2976173,9.454672,-11.737056,1.7876995,-0.3736967,0.23130076,-0.48760745,-0.75438106,-8.018256,2.281734,-0.52847934,-2.4030244,1.9643456,0.22076052,0
0.7700000000000005,20.999999409415196,-0.26922067479551653,-0.9042038109004904,0.05579131325691883,20.236856,-4.1525497,1.5569047,-0.2976173,9.374498,-11.7132845,1.7823625,-0.36602974,0.24146232,-0.48263168,-0.75814635,-8.017324,2.472555,-0.5389228,-2.0701864,1.5170557,0.21266544,0
0.7800000000000005,20.999999409415196,-0.26922067479551653,-0.9042038109004904,0.05579131325691883,20.236856,-4.1525497,1.5569047,-0.2976173,9.294306,-11.687606,1.7769214,-0.35969353,0.2494821,-0.47797212,-0.76152676,-8.021925,2.6632824,-0.54927397,-1.7892686,1.1395097,0.20496759,0
0.7900000000000005,20.999999409415196,-0.26922067479551653,-0.9042038109004904,0.05579131325691883,20.236856,-4.1525497,1.5569047,-0.2976173,9.214045,-11.660021,1.771378,-0.35449672,0.25570375,-0.47360694,-0.76462096,-8.031081,2.8537083,-0.55932295,-1.5521716,0.8208328,0.19764745,0
0.8000000000000005,20.999998553621534,0.8146128853560867,-2.097933873331529,-0.06526855472408591,17.649193,-2.8144288,-0.7270276,-0.36180338,9.133672,-11.630533,1.7657367,-0.3502722,0.26041466,-0.46950898,-0.76749986,-8.043963,3.0436902,-0.5688792,-1.3520589,0.55184627,0.19068652,0
0.8100000000000005,20.999998553621534,0.8146128853560867,-2.097933873331529,-0.06526855472408591,17.649193,-2.8144288,-0.7270276,-0.36180338,9.053154,-11.59915,1.760003,-0.34722453,0.26334423,-0.4658129,-0.7701328,-8.0598135,3.2331333,-0.5777622,-1.014115,0.13866512,0.17812674,0
0.8200000000000005,20.999998553621534,0.8146128853560867,-2.097933873331529,-0.06526855472408591,17.649193,-2.8144288,-0.7270276,-0.36180338,8.972468,-11.565874,1.7541846,-0.34550878,0.2642914,-0.46262422,-0.7724984,-8.077647,3.421976,-0.5857504,-0.72888696,-0.21009246,0.16618326,0
0.8300000000000005,20.999998553621534,0.8146128853560867,-2.097933873331529,-0.06526855472408591,17.649193,-2.8144288,-0.7270276,-0.36180338,8.891599,-11.530713,1.7482917,-0.3449214,0.26356873,-0.45987168,-0.7746483,-8.096518,3.6101851,-0.5926301,-0.4881509,-0.5044705,0.15482585,0
0.8400000000000005,20.999998553621534,0.8146128853560867,-2.097933873331529,-0.06526855472408591,16.560482,-2.132884,-1.9213468,-0.727352,8.810538,-11.493674,1.7423365,-0.34528694,0.2614371,-0.45748895,-0.77661616,-8.115626,3.7977397,-0.5982202,-0.28496572,-0.75294745,0.14402577,0
0.8500000000000005,20.999998553621534,0.8146128853560867,-2.097933873331529,-0.06526855472408591,16.560482,-2.132884,-1.9213468,-0.727352,8.729288,-11.454762,1.7363324,-0.3464548,0.2581148,-0.45541576,-0.7784238,-8.134295,3.9846213,-0.60237056,-0.11347371,-0.9626803,0.13375564,0
0.8600000000000005,20.999998553621534,0.8146128853560867,-2.097933873331529,-0.06526855472408591,16.560482,-2.132884,-1.9213468,-0.727352,8.647856,-11.413983,1.7302945,-0.34829637,0.25378492,-0.45359835,-0.7800851,-8.151956,4.1708083,-0.6049598,0.031269014,-1.1397101,0.12398946,0
0.8700000000000006,20.999998553621534,0.8146128853560867,-2.097933873331529,-0.06526855472408591,16.560482,-2.132884,-1.9213468,-0.727352,8.566255,-11.371347,1.7242389,-0.35070205,0.24860123,-0.45198965,-0.7816087,-8.168121,4.3562713,-0.6058921,0.15343538,-1.2891355,0.11470253,0
0.8800000000000006,20.99998575780022,1.48699372768663,-2.85371580812271,-0.21050617822254272,15.429579,-1.4699744,-1.5710804,-0.45353135,8.484501,-11.326861,1.7181826,-0.3535787,0.2426932,-0.45054868,-0.7830002,-8.182384,4.540975,-0.60509485,0.25654688,-1.4152607,0.105871275,0
0.8900000000000006,20.99998575780022,1.48699372768663,-2.85371580812271,-0.21050617822254272,15.429579,-1.4699744,-1.5710804,-0.45353135,8.402616,-11.280532,1.7121431,-0.35706154,0.23584536,-0.4493385,-0.7842067,-8.194357,4.7248726,-0.6025094,0.44843337,-1.6395779,0.09034655,0
0.9000000000000006,20.99998575780022,1.48699372768663,-2.85371580812271,-0.21050617822254272,15.429579,-1.4699744,-1.5710804,-0.45353135,8.320624,-11.2323675,1.7061386,-0.3612498,0.22789028,-0.4484017,-0.7851763,-8.203501,4.9079003,-0.5980619,0.6103898,-1.8289183,0.07558363,0
0.9100000000000006,20.99998575780022,1.48699372768663,-2.85371580812271,-0.21050617822254272,15.429579,-1.4699744,-1.5710804,-0.45353135,8.238558,-11.182377,1.7001884,-0.36602142,0.21899344,-0.4476771,-0.7859113,-8.209284,5.089977,-0.5916948,0.7470855,-1.988735,0.06154513,0
0.9200000000000006,20.79239140414263,1.7350561405810794,-3.1297976743270914,-0.3430987548181829,14.639931,-1.0279995,-1.8823942,-0.44372186,8.156452,-11.130571,1.6943115,-0.3712725,0.2092948,-0.44711214,-0.78641236,-8.211257,5.271001,-0.58337784,0.8624607,-2.1236312,0.048195485,0
0.9300000000000006,20.79239140414263,1.7350561405810794,-3.1297976743270914,-0.3430987548181829,14.639931,-1.0279995,-1.8823942,-0.44372186,8.0743475,-11.07697,1.6885223,-0.376997,0.19879606,-0.44669485,-0.78665006,-8.209049,5.4490786,-0.57417506,0.99851793,-2.2805505,0.028994558,0
0.9400000000000006,20.79239140414263,1.7350561405810794,-3.1297976743270914,-0.3430987548181829,14.639931,-1.0279995,-1.8823942,-0.44372186,7.992287,-11.021594,1.6828347,-0.38318378,0.1875048,-0.44641012,-0.7865948,-8.202278,5.625861,-0.56304,1.1133544,-2.4130013,0.010735842,0
0.9500000000000006,20.79239140414263,1.7350561405810794,-3.1297976743270914,-0.3430987548181829,14.639931,-1.0279995,-1.8823942,-0.44372186,7.9103193,-10.9644575,1.6772681,-0.38974413,0.17553872,-0.44621202,-0.78624535,-8.190578,5.801192,-0.5499986,1.2102808,-2.5247984,-0.0066269278,0
0.9600000000000006,20.02234232295057,1.5474963921297151,-2.9788896400598084,-0.3934204682196402,15.045452,-0.7754052,-1.270737,-0.42569765,7.828494,-10.905575,1.6718413,-0.39660257,0.1629981,-0.4460619,-0.78560036,-8.173649,5.974898,-0.5350978,1.2920905,-2.619162,-0.023137683,0
0.9700000000000006,20.02234232295057,1.5474963921297151,-2.9788896400598084,-0.3934204682196402,15.045452,-0.7754052,-1.270737,-0.42569765,7.746861,-10.844996,1.6665511,-0.4036612,0.15004879,-0.44589174,-0.78468126,-8.152082,6.140432,-0.52265376,1.3318883,-2.6752777,-0.041307565,0
0.9800000000000006,20.02234232295057,1.5474963921297151,-2.9788896400598084,-0.3934204682196402,15.045452,-0.7754052,-1.270737,-0.42569765,7.665471,-10.782773,1.6613938,-0.41084185,0.13682912,-0.44564822,-0.7835085,-8.125114,6.304049,-0.5085542,1.3654803,-2.7226422,-0.058585845,0
0.9900000000000007,20.02234232295057,1.5474963921297151,-2.9788896400598084,-0.3934204682196402,15.045452,-0.7754052,-1.270737,-0.42569765,7.5843782,-10.718924,1.6563854,-0.41811156,0.123381145,-0.44532144,-0.78208035,-8.092657,6.465569,-0.49288136,1.3938345,-2.76262,-0.07501629,0
1.0000000000000007,19.463830029949516,1.1103058646614874,-2.374426717094189,-0.39806320323622413,14.887148,-0.9525004,-0.81395286,-0.17491911,7.503638,-10.653469,1.6515412,-0.4254418,0.109741,-0.4449033,-0.7803962,-8.0546465,6.62481,-0.4757259,1.4177679,-2.7963629,-0.090640485,0
1.0100000000000007,19.463830029949516,1.1103058646614874,-2.374426717094189,-0.39806320323622413,14.887148,-0.9525004,-0.81395286,-0.17491911,7.423299,-10.586457,1.6468595,-0.43268386,0.0962039,-0.44435576,-0.77851045,-8.012282,6.777226,-0.4604415,1.3697965,-2.730573,-0.10572582,0
1.0200000000000007,19.463830029949516,1.1103058646614874,-2.374426717094189,-0.39806320323622413,14.887148,-0.9525004,-0.81395286,-0.17491911,7.3434105,-10.517934,1.6423368,-0.43972626,0.08300799,-0.44365633,-0.77647966,-7.9646435,6.9271426,-0.44392517,1.3293079,-2.6750417,-0.120070875,0
1.0300000000000007,19.463830029949516,1.1103058646614874,-2.374426717094189,-0.39806320323622413,14.887148,-0.9525004,-0.81395286,-0.17491911,7.264024,-10.447924,1.6379849,-0.44659582,0.07010473,-0.44281948,-0.77430576,-7.9119043,7.074467,-0.42628622,1.2951349,-2.6281698,-0.13371204,0
1.0400000000000007,19.463830029949516,1.1103058646614874,-2.374426717094189,-0.39806320323622413,14.212212,-1.3342298,-0.24367109,0.008005639,7.185189,-10.376454,1.6338146,-0.45331421,0.057452958,-0.4418572,-0.77199,-7.8542204,7.2191095,-0.40762672,1.2662923,-2.588607,-0.14668384,0
1.0500000000000007,19.463830029949516,1.1103058646614874,-2.374426717094189,-0.39806320323622413,14.212212,-1.3342298,-0.24367109,0.008005639,7.106955,-10.303552,1.6298355,-0.45989898,0.045017757,-0.4407793,-0.76953286,-7.7917337,7.3609815,-0.38804287,1.2419492,-2.5552135,-0.15901911,0
1.0600000000000007,19.463830029949516,1.1103058646614874,-2.374426717094189,-0.39806320323622413,14.212212,-1.3342298,-0.24367109,0.008005639,7.02937,-10.229244,1.6260566,-0.46636415,0.032769628,-0.43959388,-0.7669346,-7.724575,7.4999967,-0.36762637,1.221403,-2.5270271,-0.17074908,0
1.0700000000000007,19.463830029949516,1.1103058646614874,-2.374426717094189,-0.39806320323622413,14.212212,-1.3342298,-0.24367109,0.008005639,6.952479,-10.153562,1.6224855,-0.47272083,0.02068365,-0.43830758,-0.7641954,-7.652863,7.6360703,-0.34646526,1.2040616,-2.503236,-0.18190344,0
1.0800000000000007,18.154407459873205,0.5718487164542816,-1.6941682936151181,-0.3180405562797094,12.61846,-1.7357265,-0.06539765,0.23339857,6.8763275,-10.076534,1.6191295,-0.4789778,0.008738824,-0.436926,-0.76131505,-7.5767107,7.7691183,-0.32464457,1.1894258,-2.4831548,-0.19251044,0
1.0900000000000007,18.154407459873205,0.5718487164542816,-1.6941682936151181,-0.3180405562797094,12.61846,-1.7357265,-0.06539765,0.23339857,6.800933,-9.998235,1.6159542,-0.48501605,-0.0027761846,-0.43542224,-0.75839317,-7.5016637,7.8903294,-0.31035125,1.0931209,-2.3601048,-0.19867024,0
1.1000000000000008,18.154407459873205,0.5718487164542816,-1.6941682936151181,-0.3180405562797094,12.61846,-1.7357265,-0.06539765,0.23339857,6.7263074,-9.918737,1.6129242,-0.490749,-0.013633612,-0.43378273,-0.7555217,-7.4228535,8.00867,-0.29557556,1.0118338,-2.2562456,-0.20452777,0
1.1100000000000008,18.154407459873205,0.5718487164542816,-1.6941682936151181,-0.3180405562797094,12.61846,-1.7357265,-0.06539765,0.23339857,6.652488,-9.838071,1.6100442,-0.49622563,-0.023932176,-0.43202853,-0.75268835,-7.340547,8.12418,-0.2803632,0.943222,-2.1685843,-0.21009786,0
1.1200000000000008,16.233168180600078,-0.053657378826243315,-0.9546943261051644,-0.22020302144123471,11.663298,-2.0604753,0.02094826,0.32573596,6.5795083,-9.756263,1.6073183,-0.5014859,-0.03375556,-0.43017644,-0.7498811,-7.2549744,8.236894,-0.26475403,0.88530934,-2.0945947,-0.21539463,0
1.1300000000000008,16.233168180600078,-0.053657378826243315,-0.9546943261051644,-0.22020302144123471,11.663298,-2.0604753,0.02094826,0.32573596,6.5073524,-9.673401,1.6046901,-0.5064369,-0.04283236,-0.42820206,-0.74721545,-7.1757374,8.335218,-0.26085106,0.73890257,-1.9168075,-0.21563055,0
1.1400000000000008,16.233168180600078,-0.053657378826243315,-0.9546943261051644,-0.22020302144123471,11.663298,-2.0604753,0.02094826,0.32573596,6.436002,-9.589567,1.6021024,-0.511013,-0.050952032,-0.4260926,-0.74479234,-7.0940866,8.431198,-0.25661877,0.61532414,-1.7667491,-0.21585493,0
1.1500000000000008,16.233168180600078,-0.053657378826243315,-0.9546943261051644,-0.22020302144123471,11.663298,-2.0604753,0.02094826,0.32573596,6.365478,-9.504785,1.5995587,-0.51527905,-0.0582622,-0.42387447,-0.7425796,-7.010326,8.524968,-0.25204304,0.5110145,-1.6400951,-0.2160683,0
1.1600000000000008,14.638400601880422,-0.6854783778697154,-0.31036845973466787,-0.13940362928653474,11.543392,-2.0102243,0.3176572,0.19451751,6.295801,-9.419076,1.5970626,-0.51928794,-0.06488773,-0.42156827,-0.74054754,-6.9247084,8.616645,-0.24710871,0.42296907,-1.533195,-0.21627119,0
1.1700000000000008,14.638400601880422,-0.6854783778697154,-0.31036845973466787,-0.13940362928653474,11.543392,-2.0102243,0.3176572,0.19451751,6.2269464,-9.332503,1.594567,-0.52298474,-0.07061614,-0.4191374,-0.73879975,-6.84604,8.697532,-0.25195393,0.25013742,-1.342471,-0.21249928,0
1.1800000000000008,14.638400601880422,-0.6854783778697154,-0.31036845973466787,-0.13940362928653474,11.543392,-2.0102243,0.3176572,0.19451751,6.158884,-9.2451315,1.5920248,-0.52633095,-0.075284995,-0.4165563,-0.7374209,-6.766197,8.776796,-0.25640473,0.1042537,-1.1814946,-0.20891246,0
1.1900000000000008,14.638400601880422,-0.6854783778697154,-0.31036845973466787,-0.13940362928653474,11.543392,-2.0102243,0.3176572,0.19451751,6.091625,-9.156973,1.5894403,-0.52938694,-0.0790592,-0.4138534,-0.73635954,-6.685458,8.854605,-0.26040247,-0.018883754,-1.0456263,-0.20550165,0
1.2000000000000008,13.959092348965873,-1.5254571201435412,0.4182090169603281,0.031186444206432434,11.652496,-2.3065395,0.54992944,0.22964777,6.025177,-9.068045,1.5868183,-0.53220147,-0.08207802,-0.41105103,-0.7355696,-6.604056,8.931098,-0.26389518,-0.12282154,-0.9309495,-0.20225818,0
1.2100000000000009,13.959092348965873,-1.5254571201435412,0.4182090169603281,0.031186444206432434,11.652496,-2.3065395,0.54992944,0.22964777,5.9595265,-8.9783745,1.5841422,-0.5347074,-0.08407408,-0.40807354,-0.73518455,-6.5260077,9.002919,-0.2712447,-0.34152853,-0.72052264,-0.19080299,0
1.2200000000000009,13.959092348965873,-1.5254571201435412,0.4182090169603281,0.031186444206432434,11.652496,-2.3065395,0.54992944,0.22964777,5.8946576,-8.88799,1.5813956,-0.53685254,-0.08484204,-0.40486214,-0.7353086,-6.4478393,9.073808,-0.2779654,-0.52613556,-0.5429188,-0.17990988,0
1.2300000000000009,13.959092348965873,-1.5254571201435412,0.4182090169603281,0.031186444206432434,11.652496,-2.3065395,0.54992944,0.22964777,5.8305693,-8.7969,1.5785854,-0.5386915,-0.08457368,-0.40145412,-0.735863,-6.369853,9.143951,-0.28395945,-0.681959,-0.39301783,-0.16955131,0
1.2400000000000009,13.959092348965873,-1.5254571201435412,0.4182090169603281,0.031186444206432434,12.143515,-2.8348992,0.5916787,0.41615668,5.767259,-8.705112,1.5757192,-0.5402682,-0.08343077,-0.3978792,-0.73677856,-6.2923017,9.21351,-0.28914562,-0.8134863,-0.26649815,-0.15970105,0
1.2500000000000009,13.959092348965873,-1.5254571201435412,0.4182090169603281,0.031186444206432434,12.143515,-2.8348992,0.5916787,0.41615668,5.7047215,-8.612632,1.5728055,-0.54161805,-0.081549786,-0.39416134,-0.7379954,-6.215402,9.282617,-0.29345787,-0.92450565,-0.15971264,-0.15033413,0
1.260000000000001,13.959092348965873,-1.5254571201435412,0.4182090169603281,0.031186444206432434,12.143515,-2.8348992,0.5916787,0.41615668,5.642948,-8.519461,1.5698533,-0.54276997,-0.07904592,-0.39032,-0.7394617,-6.139339,9.351385,-0.29684368,-1.0182145,-0.069582835,-0.14142688,0
1.270000000000001,13.959092348965873,-1.5254571201435412,0.4182090169603281,0.031186444206432434,12.143515,-2.8348992,0.5916787,0.41615668,5.581931,-8.425604,1.5668719,-0.5437476,-0.07601642,-0.38637114,-0.74113303,-6.06427,9.419907,-0.29926243,-1.0973117,0.0064893663,-0.13295668,0
1.280000000000001,13.819984934599411,-2.2031678809750517,0.7963932414187285,0.3020417191905859,12.330878,-3.016749,0.10305104,0.76939,5.5216594,-8.331062,1.5638714,-0.5445705,-0.07254342,-0.38232794,-0.7429714,-5.9903326,9.488258,-0.30068398,-1.1640755,0.07069653,-0.12490214,0
1.290000000000001,13.819984934599411,-2.2031678809750517,0.7963932414187285,0.3020417191905859,12.330878,-3.016749,0.10305104,0.76939,5.462117,-8.235842,1.5608569,-0.545191,-0.068448685,-0.3780794,-0.74507606,-5.9183846,9.555828,-0.30205286,-1.3261145,0.1838637,-0.10395188,0
1.300000000000001,13.819984934599411,-2.2031678809750517,0.7963932414187285,0.3020417191905859,12.330878,-3.016749,0.10305104,0.76939,5.4032865,-8.139946,1.5578341,-0.545565,-0.06359535,-0.3735353,-0.7475204,-5.8479,9.623384,-0.30234182,-1.4628876,0.27937785,-0.08402966,0
1.310000000000001,13.819984934599411,-2.2031678809750517,0.7963932414187285,0.3020417191905859,12.330878,-3.016749,0.10305104,0.76939,5.345153,-8.043374,1.5548141,-0.545712,-0.058103163,-0.3687337,-0.75023913,-5.7790933,9.6910095,-0.30148992,-1.5783339,0.3599929,-0.06508502,0
1.320000000000001,13.820356200697102,-2.924407691630167,1.0794405171866215,0.6612441569461647,12.965841,-3.2550635,-0.115446,1.052065,5.287698,-7.9461246,1.5518084,-0.54564804,-0.052073292,-0.36370647,-0.7531766,-5.712154,9.758766,-0.2994551,-1.6757785,0.42803395,-0.04707002,0
1.330000000000001,13.820356200697102,-2.924407691630167,1.0794405171866215,0.6612441569461647,12.965841,-3.2550635,-0.115446,1.052065,5.2309027,-7.848197,1.5488291,-0.5453256,-0.04536433,-0.3583219,-0.75641805,-5.647261,9.826706,-0.29620048,-1.8705103,0.52958447,-0.012312846,0
1.340000000000001,13.820356200697102,-2.924407691630167,1.0794405171866215,0.6612441569461647,12.965841,-3.2550635,-0.115446,1.052065,5.1747456,-7.7495894,1.5458888,-0.5446968,-0.03787011,-0.35247308,-0.7600229,-5.5846734,9.894882,-0.29166344,-2.0348775,0.61529183,0.020738773,0
1.350000000000001,13.820356200697102,-2.924407691630167,1.0794405171866215,0.6612441569461647,12.965841,-3.2550635,-0.115446,1.052065,5.1192007,-7.6502986,1.5430003,-0.54377383,-0.029717036,-0.3462186,-0.7639113,-5.5246487,9.963335,-0.28578833,-2.173614,0.6876292,0.05216854,0
1.360000000000001,13.836592349506448,-3.562200352062265,1.078056165599188,0.9889047848264559,12.621543,-3.2264738,-0.37763384,1.1826043,5.0642424,-7.550321,1.5401775,-0.54256696,-0.02101203,-0.33960807,-0.76801485,-5.4674163,10.032087,-0.27854568,-2.2907164,0.7486834,0.08205606,0
1.370000000000001,13.836592349506448,-3.562200352062265,1.078056165599188,0.9889047848264559,12.621543,-3.2264738,-0.37763384,1.1826043,5.0098424,-7.449655,1.5374347,-0.54105794,-0.011721322,-0.3324858,-0.7723814,-5.413126,10.101222,-0.2697946,-2.4890296,0.7999664,0.12655541,0
1.380000000000001,13.836592349506448,-3.562200352062265,1.078056165599188,0.9889047848264559,12.621543,-3.2264738,-0.37763384,1.1826043,4.9559693,-7.3482957,1.5347865,-0.53922117,-0.00182507,-0.32472727,-0.7770394,-5.3621078,10.1706295,-0.25961727,-2.6564167,0.84324735,0.16887113,0
1.390000000000001,13.836592349506448,-3.562200352062265,1.078056165599188,0.9889047848264559,12.621543,-3.2264738,-0.37763384,1.1826043,4.902589,-7.2462416,1.5322473,-0.537056,0.008574345,-0.31641433,-0.7819079,-5.3146214,10.240258,-0.24798669,-2.7977002,0.87977684,0.20911042,0
1.400000000000001,14.037876796322017,-4.063170418041858,0.9093742193848209,1.2770144815310367,13.588129,-3.4882905,-0.3486015,1.2533716,4.8496647,-7.14349,1.5298316,-0.53456295,0.019390177,-0.30761695,-0.7869173,-5.2708936,10.310048,-0.23490614,-2.9169502,0.9106096,0.24737516,0
1.410000000000001,14.037876796322017,-4.063170418041858,0.9093742193848209,1.2770144815310367,13.588129,-3.4882905,-0.3486015,1.2533716,4.7971606,-7.0400343,1.5275623,-0.5317303,0.030591637,-0.29820135,-0.79208803,-5.2305536,10.380936,-0.2187594,-3.0957327,0.91028666,0.29789987,0
1.420000000000001,14.037876796322017,-4.063170418041858,0.9093742193848209,1.2770144815310367,13.588129,-3.4882905,-0.3486015,1.2533716,4.745039,-6.935871,1.5254616,-0.52853864,0.042147685,-0.28806305,-0.7974275,-5.1944737,10.451777,-0.20117,-3.2466326,0.9100137,0.3459453,0
1.430000000000001,14.037876796322017,-4.063170418041858,0.9093742193848209,1.2770144815310367,13.588129,-3.4882905,-0.3486015,1.2533716,4.693256,-6.831,1.5235438,-0.5249798,0.053989995,-0.27729794,-0.80286205,-5.1628776,10.52243,-0.18216188,-3.3739984,0.909785,0.39163315,0
1.440000000000001,14.037876796322017,-4.063170418041858,0.9093742193848209,1.2770144815310367,14.254829,-3.7348812,-0.9877421,1.4744698,4.641765,-6.725424,1.521823,-0.5210489,0.066060565,-0.26598844,-0.80832833,-5.135957,10.592744,-0.16178933,-3.4815001,0.909595,0.43507907,0
1.450000000000001,14.037876796322017,-4.063170418041858,0.9093742193848209,1.2770144815310367,14.254829,-3.7348812,-0.9877421,1.4744698,4.5905194,-6.619147,1.5203125,-0.5167434,0.078310035,-0.25420558,-0.81377137,-5.1138763,10.662564,-0.1401321,-3.5722358,0.9094387,0.47639307,0
1.460000000000001,14.037876796322017,-4.063170418041858,0.9093742193848209,1.2770144815310367,14.254829,-3.7348812,-0.9877421,1.4744698,4.5394697,-6.5121746,1.5190245,-0.5120633,0.09069634,-0.24201082,-0.81914383,-5.0967746,10.731737,-0.117291555,-3.64882,0.9093115,0.51567984,0
1.470000000000001,14.037876796322017,-4.063170418041858,0.9093742193848209,1.2770144815310367,14.254829,-3.7348812,-0.9877421,1.4744698,4.4885664,-6.404515,1.5179703,-0.5070103,0.10318355,-0.22945753,-0.8244049,-5.084766,10.800109,-0.09338714,-3.7134597,0.90920913,0.5530388,0
1.480000000000001,13.676400620779912,-4.148816211422085,0.3342301233716828,1.405779925705039,13.754933,-4.576626,-1.4647073,1.3431591,4.4377575,-6.296176,1.5171599,-0.50158757,0.115740836,-0.2165922,-0.8295193,-5.077943,10.867523,-0.06855331,-3.768018,0.909128,0.5885645,0
1.490000000000001,13.676400620779912,-4.148816211422085,0.3342301233716828,1.405779925705039,13.754933,-4.576626,-1.4647073,1.3431591,4.3869896,-6.1871767,1.516586,-0.49583125,0.12816411,-0.2033139,-0.83449936,-5.076413,10.932104,-0.046116434,-3.8273907,0.81935036,0.6286655,0
1.500000000000001,13.676400620779912,-4.148816211422085,0.3342301233716828,1.405779925705039,13.754933,-4.576626,-1.4647073,1.3431591,4.3362117,-6.077538,1.5162398,-0.4897662,0.14028816,-0.18954813,-0.839357,-5.08002,10.9953575,-0.023022292,-3.8775043,0.74357927,0.6667988,0
1.5100000000000011,13.676400620779912,-4.148816211422085,0.3342301233716828,1.405779925705039,13.754933,-4.576626,-1.4647073,1.3431591,4.285372,-5.9672747,1.5161273,-0.4833828,0.15214118,-0.17536831,-0.844062,-5.0887585,11.057046,0.0006162273,-3.9198034,0.67963046,0.70306075,0
1.5200000000000011,13.447532195212009,-4.037699730848435,-0.3309400723229626,1.4576025470863123,14.27681,-4.6829314,-1.8874489,1.5333227,4.234419,-5.8564034,1.5162535,-0.4766751,0.16374697,-0.16083741,-0.84858686,-5.1026115,11.116945,0.024672698,-3.955507,0.62566024,0.7375434,0
1.5300000000000011,13.447532195212009,-4.037699730848435,-0.3309400723229626,1.4576025470863123,14.27681,-4.6829314,-1.8874489,1.5333227,4.1833034,-5.7449474,1.5166115,-0.46968445,0.17487727,-0.14592253,-0.8529488,-5.1212234,11.173867,0.046967246,-3.9682646,0.47638145,0.7728769,0
1.5400000000000011,13.447532195212009,-4.037699730848435,-0.3309400723229626,1.4576025470863123,14.27681,-4.6829314,-1.8874489,1.5333227,4.1319776,-5.632933,1.5171933,-0.46244243,0.18535197,-0.13060462,-0.8571666,-5.144718,11.228551,0.06944498,-3.9790375,0.35038742,0.80647653,0
1.5500000000000012,13.447532195212009,-4.037699730848435,-0.3309400723229626,1.4576025470863123,14.27681,-4.6829314,-1.8874489,1.5333227,4.080393,-5.520385,1.5180005,-0.45493475,0.1952546,-0.11495226,-0.86121804,-5.172967,11.280739,0.09200883,-3.988135,0.24404691,0.8384275,0
1.5600000000000012,13.368776824881758,-3.7402467853148593,-1.0484548904029611,1.4037412767992836,16.485332,-5.2063994,-3.069256,2.3890195,4.0285025,-5.407328,1.5190333,-0.4471516,0.20465578,-0.099023744,-0.86508167,-5.2058425,11.330197,0.1145505,-3.9958189,0.15429465,0.8688106,0
1.5700000000000012,13.368776824881758,-3.7402467853148593,-1.0484548904029611,1.4037412767992836,16.485332,-5.2063994,-3.069256,2.3890195,3.9762616,-5.2937922,1.5202874,-0.43914512,0.21331467,-0.082843244,-0.8687842,-5.242983,11.376434,0.13625424,-3.955856,-0.033318706,0.8950598,0
1.5800000000000012,13.368776824881758,-3.7402467853148593,-1.0484548904029611,1.4037412767992836,16.485332,-5.2063994,-3.069256,2.3890195,3.923628,-5.17981,1.5217576,-0.43095773,0.22104478,-0.06643642,-0.872354,-5.284355,11.419495,0.1577548,-3.9221363,-0.19167298,0.92002094,0
1.5900000000000012,13.368776824881758,-3.7402467853148593,-1.0484548904029611,1.4037412767992836,16.485332,-5.2063994,-3.069256,2.3890195,3.870561,-5.065414,1.5234414,-0.4225718,0.2279747,-0.049850658,-0.87577176,-5.329718,11.45915,0.17898577,-3.8936856,-0.32533088,0.9437572,0
1.6000000000000012,13.380895340632998,-3.17222065577334,-1.5022213568466263,1.2372893002272136,17.449406,-5.365806,-3.6381865,2.3933804,3.817021,-4.9506397,1.525336,-0.41397452,0.23421307,-0.03312577,-0.87901795,-5.378846,11.495199,0.19986986,-3.8696814,-0.43814376,0.96632874,0
1.6100000000000012,13.380895340632998,-3.17222065577334,-1.5022213568466263,1.2372893002272136,17.449406,-5.365806,-3.6381865,2.3933804,3.7629714,-4.835523,1.5274378,-0.40523502,0.23959976,-0.016416162,-0.8821041,-5.431557,11.527495,0.22043434,-3.7608032,-0.60405034,0.9796248,0
1.6200000000000012,13.380895340632998,-3.17222065577334,-1.5022213568466263,1.2372893002272136,17.449406,-5.365806,-3.6381865,2.3933804,3.7083786,-4.7201033,1.529743,-0.39641425,0.24401654,0.0001520617,-0.8850493,-5.487499,11.5558605,0.2405237,-3.6689188,-0.7440914,0.9922685,0
1.6300000000000012,13.380895340632998,-3.17222065577334,-1.5022213568466263,1.2372893002272136,17.449406,-5.365806,-3.6381865,2.3933804,3.6532116,-4.6044197,1.5322465,-0.38749343,0.24760409,0.01658674,-0.8878438,-5.5463605,11.580175,0.26009685,-3.5913763,-0.86229944,1.0042918,0
1.6400000000000012,13.380895340632998,-3.17222065577334,-1.5022213568466263,1.2372893002272136,17.53916,-5.09207,-3.7942495,2.200639,3.5974424,-4.4885135,1.5349429,-0.37845802,0.2504809,0.03289506,-0.8904759,-5.6078587,11.60034,0.2791048,-3.5259366,-0.9620786,1.0157251,0
1.6500000000000012,13.380895340632998,-3.17222065577334,-1.5022213568466263,1.2372893002272136,17.53916,-5.09207,-3.7942495,2.200639,3.5410461,-4.372427,1.5378263,-0.36929727,0.25274676,0.049083415,-0.89293337,-5.671735,11.616271,0.297491,-3.4707117,-1.0463017,1.0265974,0
1.6600000000000013,13.380895340632998,-3.17222065577334,-1.5022213568466263,1.2372893002272136,17.53916,-5.09207,-3.7942495,2.200639,3.4840002,-4.256203,1.5408903,-0.36000338,0.25448573,0.065157354,-0.8952037,-5.7377496,11.627896,0.3151922,-3.424107,-1.1173943,1.0369363,0
1.6700000000000013,13.380895340632998,-3.17222065577334,-1.5022213568466263,1.2372893002272136,17.53916,-5.09207,-3.7942495,2.200639,3.4262843,-4.1398845,1.5441276,-0.35057127,0.25576863,0.08112152,-0.89727485,-5.80568,11.635161,0.33213905,-3.3847773,-1.177403,1.0467678,0
1.6800000000000013,13.399465281501977,-2.510422550970853,-1.8371501299854842,1.0294801903482658,17.285013,-4.076726,-4.299082,1.8764797,3.3678808,-4.0235147,1.5475303,-0.34099796,0.25665516,0.09697971,-0.89913523,-5.8753147,11.638019,0.34825706,-3.3515875,-1.2280561,1.0561168,0
1.6900000000000013,13.399465281501977,-2.510422550970853,-1.8371501299854842,1.0294801903482658,17.285013,-4.076726,-4.299082,1.8764797,3.3087726,-3.907139,1.5510906,-0.33136055,0.25698373,0.112548605,-0.90082914,-5.946542,11.636439,0.36363372,-3.220344,-1.3229508,1.0548097,0
1.7000000000000013,13.399465281501977,-2.510422550970853,-1.8371501299854842,1.0294801903482658,17.285013,-4.076726,-4.299082,1.8764797,3.2489457,-3.7908013,1.5548,-0.32172528,0.25663313,0.12768292,-0.90240246,-6.0189857,11.630436,0.37808904,-3.1095784,-1.4030613,1.0535667,0
1.7100000000000013,13.399465281501977,-2.510422550970853,-1.8371501299854842,1.0294801903482658,17.285013,-4.076726,-4.299082,1.8764797,3.1883895,-3.6745455,1.5586493,-0.31207672,0.2557033,0.14243704,-0.9038454,-6.0923676,11.620046,0.39161348,-3.0160954,-1.4706906,1.0523847,0
1.7200000000000013,12.892276344165547,-1.5691164715264396,-1.7733661229098583,0.7524828944072119,16.594181,-3.4470508,-4.2783146,1.68798,3.127096,-3.5584154,1.5626291,-0.30240256,0.2542781,0.15685715,-0.9051475,-6.1664376,11.605304,0.40419003,-2.937198,-1.5277835,1.0512607,0
1.7300000000000013,12.892276344165547,-1.5691164715264396,-1.7733661229098583,0.7524828944072119,16.594181,-3.4470508,-4.2783146,1.68798,3.0650733,-3.442451,1.5667089,-0.29282516,0.25233388,0.1706429,-0.90634584,-6.238139,11.58699,0.41165152,-2.7238355,-1.5659099,1.0365996,0
1.7400000000000013,12.892276344165547,-1.5691164715264396,-1.7733661229098583,0.7524828944072119,16.594181,-3.4470508,-4.2783146,1.68798,3.0023324,-3.3266895,1.570859,-0.28345007,0.24986161,0.18356192,-0.9074861,-6.310021,11.564701,0.41822237,-2.5437505,-1.5981178,1.0226579,0
1.7500000000000013,12.892276344165547,-1.5691164715264396,-1.7733661229098583,0.7524828944072119,16.594181,-3.4470508,-4.2783146,1.68798,2.938873,-3.2111702,1.5750706,-0.27424502,0.24694435,0.19574207,-0.90856695,-6.381847,11.53861,0.42394993,-2.3917527,-1.6253257,1.0094002,0
1.7600000000000013,12.341882209528013,-0.6318138936191485,-1.6095665847496647,0.45696613168911865,16.0596,-3.0768137,-3.9309876,1.3645798,2.8746967,-3.09593,1.5793353,-0.26518255,0.24365076,0.20729142,-0.9095842,-6.453413,11.50887,0.42887333,-2.2634614,-1.6483096,0.9967932,0
1.7700000000000014,12.341882209528013,-0.6318138936191485,-1.6095665847496647,0.45696613168911865,16.0596,-3.0768137,-3.9309876,1.3645798,2.8098218,-2.980998,1.5836235,-0.25637814,0.23999237,0.21795234,-0.9105885,-6.521499,11.477053,0.42866772,-2.0090394,-1.6420676,0.9703038,0
1.7800000000000014,12.341882209528013,-0.6318138936191485,-1.6095665847496647,0.45696613168911865,16.0596,-3.0768137,-3.9309876,1.3645798,2.744269,-2.8663998,1.5879065,-0.24792919,0.23598535,0.22752942,-0.9116321,-6.588981,11.442124,0.42781833,-1.7942921,-1.6368337,0.94511414,0
1.7900000000000014,12.341882209528013,-0.6318138936191485,-1.6095665847496647,0.45696613168911865,16.0596,-3.0768137,-3.9309876,1.3645798,2.6780448,-2.7521653,1.5921781,-0.2397886,0.23168695,0.23619033,-0.9127088,-6.655699,11.404323,0.42642027,-1.6130325,-1.6324445,0.9211606,0
1.8000000000000014,12.024001011396049,0.24953587825559154,-1.1245272370718113,0.17249677910275224,14.353515,-2.460971,-3.1799376,0.6868795,2.611158,-2.6383224,1.5964333,-0.23191589,0.2271437,0.24407636,-0.9138097,-6.721521,11.363853,0.42455605,-1.4600383,-1.6287634,0.8983824,0
1.8100000000000014,12.024001011396049,0.24953587825559154,-1.1245272370718113,0.17249677910275224,14.353515,-2.460971,-3.1799376,0.6868795,2.543626,-2.5248911,1.6006554,-0.22443645,0.22248231,0.2509482,-0.9149621,-6.7846675,11.32202,0.41983506,-1.1935135,-1.5499442,0.86276305,0
1.8200000000000014,12.024001011396049,0.24953587825559154,-1.1245272370718113,0.17249677910275224,14.353515,-2.460971,-3.1799376,0.6868795,2.475468,-2.4118893,1.6048291,-0.21745391,0.21780795,0.25662675,-0.916197,-6.84676,11.278061,0.41484466,-0.9685408,-1.4834527,0.8288915,0
1.8300000000000014,12.024001011396049,0.24953587825559154,-1.1245272370718113,0.17249677910275224,14.353515,-2.460971,-3.1799376,0.6868795,2.4066944,-2.2993362,1.608952,-0.21090573,0.21312515,0.26130202,-0.9175067,-6.9077473,11.232256,0.4096951,-0.77864265,-1.4273593,0.79668206,0
1.8400000000000014,12.024001011396049,0.24953587825559154,-1.1245272370718113,0.17249677910275224,13.692432,-1.8799409,-2.8024478,0.40492335,2.3373168,-2.1872497,1.6130229,-0.20473793,0.20843607,0.26513338,-0.9188808,-6.96759,11.184841,0.4044823,-0.61835104,-1.3800371,0.7660531,0
1.8500000000000014,12.024001011396049,0.24953587825559154,-1.1245272370718113,0.17249677910275224,13.692432,-1.8799409,-2.8024478,0.40492335,2.2673466,-2.0756445,1.6170417,-0.19890404,0.20374124,0.2682547,-0.9203081,-7.0262575,11.136017,0.3992888,-0.48304987,-1.3401138,0.7369271,0
1.8600000000000014,12.024001011396049,0.24953587825559154,-1.1245272370718113,0.17249677910275224,13.692432,-1.8799409,-2.8024478,0.40492335,2.1967955,-1.9645336,1.621009,-0.19336414,0.19904022,0.2707784,-0.9217772,-7.0837274,11.085953,0.3941848,-0.3688434,-1.3064317,0.7092303,0
1.8700000000000014,12.024001011396049,0.24953587825559154,-1.1245272370718113,0.17249677910275224,13.692432,-1.8799409,-2.8024478,0.40492335,2.125676,-1.853929,1.6249259,-0.18808392,0.19433203,0.27279884,-0.9232774,-7.1399813,11.034797,0.38922966,-0.27244258,-1.2780145,0.6828926,0
1.8800000000000014,11.904142075637063,0.6847978568913624,-0.9273143760319452,-0.0953095824718525,13.287216,-1.6923276,-2.6722445,0.3222696,2.054,-1.7438409,1.6287942,-0.18303391,0.18961541,0.27439538,-0.92479867,-7.195004,10.982672,0.38447303,-0.19107144,-1.2540388,0.65784734,0
1.8900000000000015,11.904142075637063,0.6847978568913624,-0.9273143760319452,-0.0953095824718525,13.287216,-1.6923276,-2.6722445,0.3222696,1.9817828,-1.6342757,1.6326115,-0.17827396,0.18492149,0.27546564,-0.9263595,-7.248249,10.9302225,0.3790274,-0.054531023,-1.2030263,0.6208897,0
1.9000000000000015,11.904142075637063,0.6847978568913624,-0.9273143760319452,-0.0953095824718525,13.287216,-1.6923276,-2.6722445,0.3222696,1.9090393,-1.5252386,1.6363759,-0.17385358,0.18027467,0.27593288,-0.92797506,-7.3002653,10.877083,0.37388524,0.060722977,-1.1599841,0.58574563,0
1.9100000000000015,11.904142075637063,0.6847978568913624,-0.9273143760319452,-0.0953095824718525,13.287216,-1.6923276,-2.6722445,0.3222696,1.8357817,-1.4167359,1.6400905,-0.1697351,0.17566435,0.27589294,-0.92963207,-7.351057,10.823399,0.3691065,0.15800874,-1.1236657,0.5523261,0
1.9200000000000015,12.258880267946571,1.0675902230418335,-0.3020809902745355,-0.29019871046660045,13.490032,-1.1696357,-2.2090278,0.16408123,1.7620224,-1.3087721,1.6437594,-0.1658861,0.17108133,0.27542627,-0.9313184,-7.4006295,10.769295,0.3647408,0.2401275,-1.0930202,0.52054644,0
1.9300000000000015,12.258880267946571,1.0675902230418335,-0.3020809902745355,-0.29019871046660045,13.490032,-1.1696357,-2.2090278,0.16408123,1.6877661,-1.201359,1.6474009,-0.16239601,0.16671917,0.27442086,-0.9330199,-7.450438,10.71327,0.363637,0.36910272,-0.96963936,0.480763,0
1.9400000000000015,12.258880267946571,1.0675902230418335,-0.3020809902745355,-0.29019871046660045,13.490032,-1.1696357,-2.2090278,0.16408123,1.6130176,-1.0945071,1.6510339,-0.15933631,0.1627313,0.272793,-0.9347273,-7.4990783,10.657111,0.36304706,0.4779774,-0.8655115,0.44293165,0
1.9500000000000015,12.258880267946571,1.0675902230418335,-0.3020809902745355,-0.29019871046660045,13.490032,-1.1696357,-2.2090278,0.16408123,1.5377882,-0.98821664,1.6546637,-0.15665658,0.15905616,0.27064267,-0.9364364,-7.546634,10.600989,0.3630117,0.5698835,-0.7776315,0.40695673,0
1.9600000000000015,12.56932407180168,1.2002266294137267,0.14210267900471918,-0.4443061025853669,13.395487,-0.37602454,-1.1446422,-0.18421064,1.4620883,-0.88248664,1.6582961,-0.15431352,0.15564138,0.2680536,-0.93814236,-7.5931783,10.54505,0.36356416,0.647465,-0.7034634,0.3727471,0
1.9700000000000015,12.56932407180168,1.2002266294137267,0.14210267900471918,-0.4443061025853669,13.395487,-0.37602454,-1.1446422,-0.18421064,1.3859222,-0.77732164,1.6619496,-0.15234353,0.15259637,0.2650219,-0.9398244,-7.639934,10.488011,0.36724445,0.73362076,-0.571596,0.33265406,0
1.9800000000000015,12.56932407180168,1.2002266294137267,0.14210267900471918,-0.4443061025853669,13.395487,-0.37602454,-1.1446422,-0.18421064,1.3092928,-0.6727248,1.6656431,-0.15077485,0.15000543,0.26154867,-0.94146603,-7.685833,10.431438,0.37157282,0.80635214,-0.4602995,0.29452837,0
1.9900000000000015,12.56932407180168,1.2002266294137267,0.14210267900471918,-0.4443061025853669,13.395487,-0.37602454,-1.1446422,-0.18421064,1.2322081,-0.5686908,1.6693832,-0.1495618,0.14779377,0.2577049,-0.9430679,-7.7309833,10.375467,0.37656227,0.8677498,-0.36636388,0.25827354,0
2.0000000000000013,,,,,13.5984,-0.25395113,-0.5425193,-0.28759846,1.1546752,-0.465213,1.6731765,-0.14866503,0.14589822,0.2535501,-0.9446297,-7.7754774,10.320214,0.38222176,0.91957957,-0.28708065,0.22379778,0
2.010000000000001,,,,,13.5984,-0.25395113,-0.5425193,-0.28759846,1.0766972,-0.36228758,1.6770375,-0.1480816,0.14436868,0.24915773,-0.94612396,-7.820025,10.265001,0.3900427,0.94783086,-0.17896356,0.18683514,0
2.020000000000001,,,,,13.5984,-0.25395113,-0.5425193,-0.28759846,0.99827635,-0.2599098,1.6809798,-0.14780785,0.14324199,0.2445887,-0.9475292,-7.864097,10.210702,0.39853287,0.97168326,-0.08770782,0.15168627,0
2.0300000000000007,,,,,13.5984,-0.25395113,-0.5425193,-0.28759846,0.91941667,-0.15807013,1.6850103,-0.14781132,0.14245138,0.23987226,-0.9488526,-7.907794,10.157392,0.4076742,0.9918213,-0.01068368,0.11826216,0
2.0400000000000005,,,,,13.5984,-0.25395113,-0.5425193,-0.28759846,0.8401215,-0.05675836,1.6891354,-0.148064,0.14194055,0.23503277,-0.9501,-7.9511995,10.105131,0.41744924,1.0088228,0.054328598,0.086478174,0
2.0500000000000003,,,,,13.312165,-0.23251326,-0.40701333,-0.36067042,0.76039344,0.044036295,1.6933614,-0.14854155,0.14166218,0.23009065,-0.951276,-7.994384,10.053976,0.42784098,1.023176,0.10920245,0.05625385,1
2.06,,,,,13.312165,-0.23251326,-0.40701333,-0.36067042,0.6802249,0.14431395,1.6977183,-0.14905332,0.14135106,0.22561668,-0.9523133,-8.039296,10.001727,0.44364536,0.8273554,0.028680587,0.035795256,1
2.07,,,,,13.312165,-0.23251326,-0.40701333,-0.36067042,0.5996082,0.24407421,1.7022359,-0.14944655,0.14079651,0.22206582,-0.95316803,-8.084007,9.950465,0.45997632,0.6620705,-0.03927803,0.01634057,1
2.0799999999999996,,,,,13.312165,-0.23251326,-0.40701333,-0.36067042,0.51854557,0.34332585,1.7069192,-0.14975199,0.14003497,0.21929719,-0.95387304,-8.12848,9.899968,0.4767399,0.52256024,-0.096633986,-0.0021594698,1
2.0899999999999994,,,,,12.660925,-0.7972453,-0.33017603,-0.27597317,0.43703955,0.44207555,1.7117721,-0.14999467,0.1390971,0.21719122,-0.9544538,-8.172682,9.850048,0.49385932,0.40480527,-0.14504202,-0.019751713,1
2.099999999999999,,,,,12.660925,-0.7972453,-0.33017603,-0.27597317,0.3551037,0.54034036,1.7167693,-0.15016013,0.13807422,0.21585625,-0.95487905,-8.214445,9.802955,0.5056142,0.2173443,-0.17391306,-0.03232458,1
2.109999999999999,,,,,12.660925,-0.7972453,-0.33017603,-0.27597317,0.27275157,0.6381354,1.7218851,-0.15023606,0.13704048,0.21537259,-0.9551252,-8.25594,9.756051,0.517551,0.05911744,-0.19827932,-0.04428049,1
2.1199999999999988,,,,,12.660925,-0.7972453,-0.33017603,-0.27597317,0.18998575,0.7354614,1.7271206,-0.15024357,0.13599631,0.21560864,-0.95522004,-8.297186,9.70915,0.5295822,-0.07443416,-0.21884412,-0.055649713,1
2.1299999999999986,,,,,12.447344,-0.9588633,-0.42092386,-0.17792998,0.10680866,0.8323178,1.7324767,-0.15019986,0.13494194,0.21645291,-0.95518553,-8.338197,9.66209,0.5416341,-0.18715844,-0.23620078,-0.06646104,1
2.1399999999999983,,,,,12.447344,-0.9588633,-0.42092386,-0.17792998,0.023226028,0.9287063,1.7379439,-0.15009071,0.13385509,0.21787661,-0.9550319,-8.378297,9.615537,0.55178523,-0.30750763,-0.265002,-0.07193086,1
2.149999999999998,,,,,12.447344,-0.9588633,-0.42092386,-0.17792998,-0.06075653,1.0246272,1.743512,-0.14990342,0.1327184,0.21985152,-0.9547673,-8.418181,9.568559,0.5618325,-0.40908834,-0.2893118,-0.07713228,1
2.159999999999998,,,,,12.447344,-0.9588633,-0.42092386,-0.17792998,-0.14513686,1.1200757,1.7491801,-0.14965276,0.13153858,0.22229125,-0.9544049,-8.45785,9.521034,0.5717203,-0.49482748,-0.3098307,-0.08207845,1
2.1699999999999977,,,,,11.898277,-0.79871136,-0.78911525,-0.07556496,-0.22991282,1.2150457,1.7549458,-0.14935097,0.1303212,0.22512276,-0.95395535,-8.497305,9.472861,0.58139974,-0.5671955,-0.32715008,-0.08678192,1
2.1799999999999975,,,,,11.898277,-0.79871136,-0.78911525,-0.07556496,-0.31507355,1.309541,1.7607833,-0.14897104,0.12892368,0.22824347,-0.953463,-8.534805,9.426114,0.58608764,-0.60330415,-0.39919144,-0.0862315,1
2.1899999999999973,,,,,11.898277,-0.79871136,-0.78911525,-0.07556496,-0.40060797,1.4035652,1.7666667,-0.14848953,0.12723386,0.23156853,-0.9529632,-8.572038,9.378601,0.59052134,-0.633781,-0.45999822,-0.0857081,1
