time-since-start [s],throttle_mpc,roll_mpc,pitch_mpc,yaw_mpc,throttle_nw,roll_nw,pitch_nw,yaw_nw,position_x [m],position_y [m],position_z [m],rotation_w [quaternion],rotation_x [quaternion],rotation_y [quaternion],rotation_z [quaternion],velocity_x [m/s],velocity_y [m/s],velocity_z [m/s],omega_x [rad/s],omega_y [rad/s],omega_z [rad/s],network_used
0.0,9.056360699912673,5.999999669998201,-5.999999917673724,-4.47701576397956,11.130535,2.9312062,-3.4556246,-1.9353386,18.534008,-9.471707,2.1169748,0.02284832,0.38699266,-0.2633276,-0.8833873,-10.956827,-4.328376,0.55791456,1.4621272,-0.13551906,-0.22049215,0
0.01,9.056360699912673,5.999999669998201,-5.999999917673724,-4.47701576397956,14.35317,3.8125305,-3.8935595,-2.5877666,18.423876,-9.5146265,2.1225185,0.018476753,0.38655558,-0.26914677,-0.881926,-11.069297,-4.255103,0.5504596,1.425974,-0.3064289,-0.36285618,0
0.02,9.056360699912673,5.999999669998201,-5.999999917673724,-4.47701576397956,14.35317,3.8125305,-3.8935595,-2.5877666,18.312632,-9.556807,2.1279767,0.013297529,0.38553283,-0.27460572,-0.8807834,-11.1793785,-4.1808577,0.54084647,1.4205424,-0.47579792,-0.5004788,0
0.03,9.056360699912673,5.999999669998201,-5.999999917673724,-4.47701576397956,14.35317,3.8125305,-3.8935595,-2.5877666,18.2003,-9.59824,2.1333287,0.0072739897,0.3839284,-0.2798331,-0.87990886,-11.286853,-4.105685,0.52925384,1.4414314,-0.6442616,-0.63362753,0
0.04,9.056360699912673,5.999999669998201,-5.999999917673724,-4.47701576397956,15.326321,6.237237,-4.507163,-3.2806883,18.086906,-9.638916,2.1385555,0.00037597725,0.3817404,-0.28493738,-0.8792525,-11.391509,-4.0295987,0.5158376,1.4848367,-0.8122646,-0.76254857,0
0.05,9.056360699912673,5.999999669998201,-5.999999917673724,-4.47701576397956,15.326321,6.237237,-4.507163,-3.2806883,17.97248,-9.678827,2.1436396,-0.0074207583,0.37896198,-0.29000917,-0.87876475,-11.493138,-3.9525895,0.50073403,1.5474653,-0.98010015,-0.88746893,0
0.060000000000000005,9.056360699912673,5.999999669998201,-5.999999917673724,-4.47701576397956,15.326321,6.237237,-4.507163,-3.2806883,17.857056,-9.717964,2.1485646,-0.01613505,0.37558237,-0.29512355,-0.8783961,-11.591536,-3.8746347,0.484062,1.626465,-1.1479414,-1.008598,0
0.07,9.056360699912673,5.999999669998201,-5.999999917673724,-4.47701576397956,15.326321,6.237237,-4.507163,-3.2806883,17.740664,-9.756316,2.1533158,-0.025780732,0.37158754,-0.3003417,-0.8780962,-11.6865,-3.7957044,0.46592543,1.7193621,-1.3158675,-1.1261287,0
0.08,10.924097415457796,5.999999807447206,-5.999999947428934,-4.3869118597963945,13.614014,6.756336,-4.7578306,-3.98846,17.623339,-9.793875,2.1578784,-0.036366962,0.36696082,-0.3057125,-0.8778138,-11.777827,-3.7157676,0.44641516,1.8240107,-1.4838862,-1.2402395,0
0.09,10.924097415457796,5.999999807447206,-5.999999947428934,-4.3869118597963945,13.614014,6.756336,-4.7578306,-3.98846,17.505081,-9.830592,2.162274,-0.04800824,0.36153713,-0.31140566,-0.87750363,-11.873088,-3.6275861,0.4324863,2.0015116,-1.7150295,-1.3523029,0
0.09999999999999999,10.924097415457796,5.999999807447206,-5.999999947428934,-4.3869118597963945,13.614014,6.756336,-4.7578306,-3.98846,17.385893,-9.866423,2.1665227,-0.06080457,0.35516003,-0.3175619,-0.87710804,-11.963714,-3.538331,0.41709682,2.1824048,-1.9412509,-1.4616477,0
0.10999999999999999,10.924097415457796,5.999999807447206,-5.999999947428934,-4.3869118597963945,13.614014,6.756336,-4.7578306,-3.98846,17.265823,-9.901355,2.1706107,-0.07473722,0.34782228,-0.32417232,-0.87655365,-12.049417,-3.4479172,0.40033603,2.3657255,-2.1628795,-1.5683681,0
0.11999999999999998,10.924097415457796,5.999999807447206,-5.999999947428934,-4.3869118597963945,13.614014,6.756336,-4.7578306,-3.98846,17.144922,-9.935378,2.1745248,-0.08978397,0.33951402,-0.33122113,-0.8757635,-12.129916,-3.3562977,0.3822771,2.5506496,-2.3801825,-1.6725527,0
0.12999999999999998,14.038969358689373,5.999999896006177,-5.999999970613872,-4.1010859733526575,15.449831,6.5786567,-4.0655327,-3.29654,17.023243,-9.968478,2.178252,-0.105918854,0.33022338,-0.33868632,-0.8746572,-12.204936,-3.263466,0.3629779,2.736474,-2.5933785,-1.7742856,0
0.13999999999999999,14.038969358689373,5.999999896006177,-5.999999970613872,-4.1010859733526575,15.449831,6.5786567,-4.0655327,-3.29654,16.900793,-10.000579,2.1818337,-0.12331449,0.31962284,-0.3467798,-0.8731429,-12.283696,-3.156529,0.3531428,3.0464783,-2.926816,-1.8706985,0
0.15,14.038969358689373,5.999999896006177,-5.999999970613872,-4.1010859733526575,15.449831,6.5786567,-4.0655327,-3.29654,16.777592,-10.031605,2.1853094,-0.1421144,0.3074056,-0.3556639,-0.87109613,-12.355191,-3.048558,0.34172702,3.3459458,-3.2461064,-1.9657627,0
0.16,17.69078612332583,5.999999933835105,-5.999999981292327,-3.385279995959641,16.884329,5.5897565,-3.3302855,-2.554685,16.653713,-10.061546,2.188663,-0.1622424,0.29358864,-0.36523518,-0.8683815,-12.418979,-2.9395785,0.32878405,3.6354012,-3.5523322,-2.0594444,0
0.17,17.69078612332583,5.999999933835105,-5.999999981292327,-3.385279995959641,16.884329,5.5897565,-3.3302855,-2.554685,16.529188,-10.090293,2.1919568,-0.18371654,0.27791065,-0.37557316,-0.8648461,-12.485072,-2.8090305,0.33007398,4.003481,-3.9347072,-2.1245036,0
0.18000000000000002,17.69078612332583,5.999999933835105,-5.999999981292327,-3.385279995959641,16.884329,5.5897565,-3.3302855,-2.554685,16.404045,-10.117715,2.1952658,-0.20643033,0.26027113,-0.38662708,-0.8603285,-12.542159,-2.6746266,0.33179793,4.3142204,-4.2573915,-2.1863704,0
0.19000000000000003,17.69078612332583,5.999999933835105,-5.999999981292327,-3.385279995959641,16.884329,5.5897565,-3.3302855,-2.554685,16.27838,-10.143774,2.1985939,-0.23013502,0.24090768,-0.39812574,-0.85469145,-12.589256,-2.5366488,0.33385235,4.576556,-4.529699,-2.2452013,0
0.20000000000000004,20.99999210289123,5.999999947486805,-5.999999984039839,-2.8587176669755787,18.133223,5.2359314,-3.448763,-1.9103738,16.152298,-10.168437,2.2019434,-0.25460657,0.22003166,-0.40983668,-0.8478182,-12.625491,-2.3955572,0.33608204,4.7980328,-4.75949,-2.3011453,0
0.21000000000000005,20.99999210289123,5.999999947486805,-5.999999984039839,-2.8587176669755787,18.133223,5.2359314,-3.448763,-1.9103738,16.025887,-10.191542,2.2054095,-0.27958733,0.19780622,-0.42157543,-0.8396297,-12.654719,-2.22511,0.35705033,4.9851003,-4.953316,-2.3285055,0
0.22000000000000006,20.99999210289123,5.999999947486805,-5.999999984039839,-2.8587176669755787,18.133223,5.2359314,-3.448763,-1.9103738,15.899255,-10.212932,2.2090838,-0.30484313,0.17437802,-0.43318447,-0.83006895,-12.66942,-2.0525901,0.37770775,5.1430387,-5.116873,-2.3545232,0
0.23000000000000007,20.99999210289123,5.999999947486805,-5.999999984039839,-2.8587176669755787,18.133223,5.2359314,-3.448763,-1.9103738,15.772551,-10.23259,2.2129617,-0.33021352,0.14990625,-0.4445161,-0.81908053,-12.6690035,-1.8790182,0.3977349,5.2763853,-5.2548857,-2.379264,0
0.24000000000000007,20.99999210289123,5.999999947486805,-5.999999984039839,-2.8587176669755787,18.426554,4.5378914,-2.065554,-1.5768309,15.645928,-10.250512,2.2170353,-0.35555246,0.124537386,-0.45544422,-0.8066249,-12.653041,-1.7055193,0.4167835,5.38897,-5.371343,-2.402791,0
0.25000000000000006,20.99999210289123,5.999999947486805,-5.999999984039839,-2.8587176669755787,18.426554,4.5378914,-2.065554,-1.5768309,15.519545,-10.266705,2.2212927,-0.38072672,0.09840704,-0.46586132,-0.792677,-12.621261,-1.5332992,0.43448496,5.4840264,-5.4696107,-2.4251635,0
0.26000000000000006,20.99999210289123,5.999999947486805,-5.999999984039839,-2.8587176669755787,18.426554,4.5378914,-2.065554,-1.5768309,15.3935585,-10.281187,2.225719,-0.40561426,0.07164127,-0.4756758,-0.7772242,-12.573555,-1.3636215,0.45045805,5.564285,-5.552529,-2.4464383,0
0.2700000000000001,20.99999210289123,5.999999947486805,-5.999999984039839,-2.8587176669755787,18.426554,4.5378914,-2.065554,-1.5768309,15.268128,-10.293991,2.230295,-0.43010324,0.04435774,-0.4848098,-0.76026535,-12.509976,-1.1977859,0.46431676,5.632049,-5.6224937,-2.4666688,0
0.2800000000000001,20.99999951094492,4.48339825493124,-5.999997918794846,-1.1267213628961334,18.442503,3.6932974,-0.70333177,-2.017712,15.143413,-10.305161,2.2349968,-0.45409092,0.016666682,-0.49319732,-0.7418089,-12.4307375,-1.0371073,0.47567677,5.689265,-5.6815286,-2.4859068,0
0.2900000000000001,20.99999951094492,4.48339825493124,-5.999997918794846,-1.1267213628961334,18.442503,3.6932974,-0.70333177,-2.017712,15.019566,-10.314755,2.2397983,-0.477326,-0.011153333,-0.50034577,-0.7222811,-12.336243,-0.8829013,0.48420307,5.5013804,-5.7306504,-2.4192114,0
0.3000000000000001,20.99999951094492,4.48339825493124,-5.999997918794846,-1.1267213628961334,18.442503,3.6932974,-0.70333177,-2.017712,14.896737,-10.322845,2.2446706,-0.49962527,-0.03886854,-0.50589556,-0.70209247,-12.227257,-0.7364587,0.4898093,5.342799,-5.7721844,-2.3557885,0
0.3100000000000001,20.99999951094492,4.48339825493124,-5.999997918794846,-1.1267213628961334,18.442503,3.6932974,-0.70333177,-2.017712,14.775068,-10.329515,2.2495844,-0.5209897,-0.0664452,-0.5099729,-0.68123615,-12.104692,-0.5989717,0.49247754,5.20895,-5.807301,-2.2954779,0
0.3200000000000001,20.700849352968415,2.531702599596754,-3.9993349518889505,-0.43890287453478993,19.255474,2.8119478,0.27795213,-1.5758791,14.654688,-10.33486,2.25451,-0.5414153,-0.09385195,-0.5126837,-0.65970975,-11.969517,-0.47152108,0.49216884,5.095974,-5.8369923,-2.2381268,0
0.3300000000000001,20.700849352968415,2.531702599596754,-3.9993349518889505,-0.43890287453478993,19.255474,2.8119478,0.27795213,-1.5758791,14.535708,-10.338992,2.2594106,-0.5605234,-0.12015519,-0.51405436,-0.63806313,-11.824905,-0.35666883,0.48750293,4.6968155,-5.5495567,-2.1498382,0
0.34000000000000014,20.700849352968415,2.531702599596754,-3.9993349518889505,-0.43890287453478993,19.255474,2.8119478,0.27795213,-1.5758791,14.418224,-10.342032,2.26425,-0.5780899,-0.14463522,-0.51420045,-0.61683947,-11.670396,-0.25295356,0.47998673,4.3597975,-5.307089,-2.0658822,0
0.35000000000000014,20.700849352968415,2.531702599596754,-3.9993349518889505,-0.43890287453478993,19.255474,2.8119478,0.27795213,-1.5758791,14.30233,-10.34409,2.269001,-0.59430903,-0.16755618,-0.5133115,-0.5960145,-11.507428,-0.16047527,0.46978593,4.075248,-5.1025496,-1.986046,0
0.36000000000000015,17.9668242367274,0.4620317266101737,-1.6452743736662485,0.4321671627632553,19.816736,2.2671134,1.6013646,-1.2992294,14.188101,-10.345281,2.273637,-0.60933864,-0.18914354,-0.5115361,-0.5755539,-11.337267,-0.07926275,0.4570579,3.835,-4.9300027,-1.9101272,0
0.37000000000000016,17.9668242367274,0.4620317266101737,-1.6452743736662485,0.4321671627632553,19.816736,2.2671134,1.6013646,-1.2992294,14.075489,-10.345761,2.2780788,-0.6229417,-0.20860438,-0.5090915,-0.55610627,-11.184355,-0.018451013,0.4310107,3.3099587,-4.416847,-1.7951902,0
0.38000000000000017,17.9668242367274,0.4620317266101737,-1.6452743736662485,0.4321671627632553,19.816736,2.2671134,1.6013646,-1.2992294,13.964428,-10.34568,2.2822511,-0.6350063,-0.22535715,-0.5062229,-0.53825635,-11.027343,0.033320107,0.40320036,2.8666174,-3.9838974,-1.6858932,0
0.3900000000000002,17.9668242367274,0.4620317266101737,-1.6452743736662485,0.4321671627632553,19.816736,2.2671134,1.6013646,-1.2992294,13.854953,-10.345123,2.2861378,-0.6458048,-0.23986045,-0.5030562,-0.52186006,-10.867204,0.076823644,0.3739353,2.492271,-3.618609,-1.5819592,0
0.4000000000000002,15.987360847401002,-1.1432804970741455,0.44719429798974974,0.972545809602039,19.926506,0.7788774,2.4648879,-0.6232513,13.747091,-10.34417,2.289726,-0.65555215,-0.25249845,-0.49967706,-0.50677323,-10.704701,0.11276284,0.3434934,2.176188,-3.3104014,-1.4831254,0
0.4100000000000002,15.987360847401002,-1.1432804970741455,0.44719429798974974,0.972545809602039,19.926506,0.7788774,2.4648879,-0.6232513,13.640774,-10.342907,2.2929678,-0.6641404,-0.26278558,-0.4963619,-0.49344343,-10.558551,0.13864253,0.3047833,1.6593014,-2.7237742,-1.3626249,0
0.4200000000000002,15.987360847401002,-1.1432804970741455,0.44719429798974974,0.972545809602039,19.926506,0.7788774,2.4648879,-0.6232513,13.535924,-10.341413,2.2958198,-0.67152077,-0.2703733,-0.4933575,-0.48224148,-10.41137,0.1593933,0.26554856,1.2228479,-2.2287827,-1.2480375,0
0.4300000000000002,15.987360847401002,-1.1432804970741455,0.44719429798974974,0.972545809602039,19.926506,0.7788774,2.4648879,-0.6232513,13.4325485,-10.339733,2.2982779,-0.67791384,-0.27573526,-0.4906608,-0.472922,-10.263566,0.17600077,0.2260698,0.85432094,-1.8111038,-1.1390729,0
0.4400000000000002,15.987360847401002,-1.1432804970741455,0.44719429798974974,0.972545809602039,19.793879,-1.5753087,3.7209067,0.63306797,13.330652,-10.337905,2.3003411,-0.6834886,-0.27926272,-0.48825097,-0.4652601,-10.115425,0.18931346,0.18658718,0.5431571,-1.4586546,-1.0354553,0
0.45000000000000023,15.987360847401002,-1.1432804970741455,0.44719429798974974,0.972545809602039,19.793879,-1.5753087,3.7209067,0.63306797,13.23024,-10.335957,2.3020105,-0.6883755,-0.28127936,-0.48609793,-0.45905358,-9.967154,0.20005801,0.14730333,0.28043413,-1.1612425,-0.93692213,0
0.46000000000000024,15.987360847401002,-1.1432804970741455,0.44719429798974974,0.972545809602039,19.793879,-1.5753087,3.7209067,0.63306797,13.1313095,-10.33391,2.3032885,-0.6926762,-0.28205302,-0.48416758,-0.45412305,-9.8189,0.20885457,0.10838738,0.05861603,-0.91026795,-0.843224,0
0.47000000000000025,15.987360847401002,-1.1432804970741455,0.44719429798974974,0.972545809602039,19.793879,-1.5753087,3.7209067,0.63306797,13.033861,-10.331783,2.30418,-0.696471,-0.28180572,-0.48242518,-0.4503108,-9.670773,0.21623111,0.069979206,-0.12866166,-0.69847643,-0.75412357,0
0.48000000000000026,16.46125869797747,-4.170678564474884,3.3438562637507245,2.8643555837596364,19.33183,-3.1542122,3.833125,0.52251387,12.937893,-10.329588,2.3046901,-0.6998238,-0.2807216,-0.48083746,-0.447479,-9.522852,0.22263637,0.032193594,-0.28677395,-0.5197475,-0.6693954,0
0.49000000000000027,16.46125869797747,-4.170678564474884,3.3438562637507245,2.8643555837596364,19.33183,-3.1542122,3.833125,0.52251387,12.843471,-10.32733,2.304854,-0.7024707,-0.2776889,-0.4795906,-0.446561,-9.362403,0.22907828,0.00045876484,-0.8902557,0.0849036,-0.50449,0
0.5000000000000002,16.46125869797747,-4.170678564474884,3.3438562637507245,2.8643555837596364,19.33183,-3.1542122,3.833125,0.52251387,12.75063,-10.325005,2.3046975,-0.7041675,-0.27184752,-0.4788214,-0.44830492,-9.206423,0.23598243,-0.03179971,-1.3983928,0.59649277,-0.34366876,0
0.5100000000000002,16.46125869797747,-4.170678564474884,3.3438562637507245,2.8643555837596364,19.33183,-3.1542122,3.833125,0.52251387,12.659327,-10.322604,2.3042173,-0.7049731,-0.2636687,-0.47841543,-0.45233902,-9.054763,0.24450013,-0.064174086,-1.8282973,1.0272926,-0.18707538,0
0.5200000000000002,18.63472494937014,-5.999997786119337,5.769777200232134,3.521952522032076,20.169443,-4.7506075,4.513028,0.85974234,12.56953,-10.3201065,2.3034186,-0.70493305,-0.25353497,-0.4782464,-0.45833388,-8.904836,0.25571588,-0.09525014,-2.19368,1.3883917,-0.03734078,0
0.5300000000000002,18.63472494937014,-5.999997786119337,5.769777200232134,3.521952522032076,20.169443,-4.7506075,4.513028,0.85974234,12.481333,-10.317468,2.3023677,-0.7037833,-0.24082017,-0.4784749,-0.46664402,-8.735049,0.27266943,-0.1147383,-2.803083,2.0557702,0.13589972,0
0.5400000000000003,18.63472494937014,-5.999997786119337,5.769777200232134,3.521952522032076,20.169443,-4.7506075,4.513028,0.85974234,12.394816,-10.314634,2.3011296,-0.70119447,-0.22504584,-0.47926486,-0.47747883,-8.568399,0.29502472,-0.13251519,-3.3020384,2.6345034,0.3020482,0
0.5500000000000003,18.63472494937014,-5.999997786119337,5.769777200232134,3.521952522032076,20.169443,-4.7506075,4.513028,0.85974234,12.309957,-10.311543,2.2997258,-0.6971456,-0.2066796,-0.48042887,-0.490367,-8.404065,0.32427627,-0.14780004,-3.7231987,3.122984,0.46004987,0
0.5600000000000003,18.61107330428684,-5.999999570084491,5.999998909120763,3.7759773830681014,19.974178,-5.3800163,4.453523,1.0624353,12.226727,-10.308122,2.298182,-0.691626,-0.18610924,-0.48176458,-0.5048959,-8.242682,0.3615302,-0.160542,-4.0787315,3.535246,0.61029834,0
0.5700000000000003,18.61107330428684,-5.999999570084491,5.999998909120763,3.7759773830681014,19.974178,-5.3800163,4.453523,1.0624353,12.14509,-10.304283,2.2965229,-0.6845576,-0.16363524,-0.48315248,-0.5207383,-8.085182,0.40760255,-0.17089306,-4.3788996,3.9190621,0.76563907,0
0.5800000000000003,18.61107330428684,-5.999999570084491,5.999998909120763,3.7759773830681014,19.974178,-5.3800163,4.453523,1.0624353,12.065007,-10.299936,2.2947721,-0.6758684,-0.13952035,-0.48448282,-0.5375989,-7.9321704,0.46323088,-0.1788816,-4.632278,4.243012,0.91335726,0
0.5900000000000003,18.61107330428684,-5.999999570084491,5.999998909120763,3.7759773830681014,19.974178,-5.3800163,4.453523,1.0624353,11.986428,-10.294983,2.2929528,-0.66555375,-0.11402631,-0.48560634,-0.5551783,-7.784522,0.52890414,-0.1847147,-4.846148,4.5164433,1.0538268,0
0.6000000000000003,20.220895198582234,-5.999999350227144,5.999975259867961,3.8227718191363897,19.29267,-5.4080677,4.753795,1.4107316,11.909294,-10.289322,2.2910845,-0.6536133,-0.087384716,-0.48639756,-0.5732112,-7.643165,0.6049071,-0.18865259,-5.026661,4.7472425,1.1874034,0
0.6100000000000003,20.220895198582234,-5.999999350227144,5.999975259867961,3.8227718191363897,19.29267,-5.4080677,4.753795,1.4107316,11.833598,-10.282812,2.2892265,-0.64005005,-0.059804954,-0.48675206,-0.5914659,-7.4974527,0.69880825,-0.18271744,-5.179019,4.9420524,1.3167217,0
0.6200000000000003,20.220895198582234,-5.999999350227144,5.999975259867961,3.8227718191363897,19.29267,-5.4080677,4.753795,1.4107316,11.7593155,-10.275307,2.2874348,-0.6248734,-0.031475168,-0.48658422,-0.60973644,-7.3606615,0.8039379,-0.17542416,-5.3076,5.106499,1.4396943,0
0.6300000000000003,20.220895198582234,-5.999999350227144,5.999975259867961,3.8227718191363897,19.29267,-5.4080677,4.753795,1.4107316,11.686351,-10.266696,2.2857213,-0.6081034,-0.0025627036,-0.48582542,-0.62783563,-7.233831,0.9200166,-0.16717316,-5.416109,5.245322,1.5566326,0
0.6400000000000003,20.220895198582234,-5.999999350227144,5.999975259867961,3.8227718191363897,19.449488,-5.8191395,4.840258,2.4156902,11.6146,-10.256871,2.2840931,-0.5897666,0.026780427,-0.48442116,-0.64559615,-7.1179705,1.0465932,-0.15838702,-5.5076737,5.362519,1.6678327,0
0.6500000000000004,20.220895198582234,-5.999999350227144,5.999975259867961,3.8227718191363897,19.449488,-5.8191395,4.840258,2.4156902,11.54395,-10.245731,2.282554,-0.56989634,0.056415472,-0.48232895,-0.66286826,-7.0140424,1.1830581,-0.14950277,-5.5849357,5.461461,1.7735763,0
0.6600000000000004,20.220895198582234,-5.999999350227144,5.999975259867961,3.8227718191363897,19.449488,-5.8191395,4.840258,2.4156902,11.474276,-10.23318,2.2811022,-0.54853165,0.08621521,-0.47951666,-0.6795173,-6.9229465,1.3286561,-0.14096482,-5.6501245,5.5449963,1.8741308,0
0.6700000000000004,20.220895198582234,-5.999999350227144,5.999975259867961,3.8227718191363897,19.449488,-5.8191395,4.840258,2.4156902,11.405444,-10.2191305,2.279732,-0.525717,0.11606254,-0.47596094,-0.6954224,-6.845507,1.4825,-0.13321833,-5.705124,5.6155276,1.9697512,0
0.6800000000000004,19.32906907254782,-5.911632241246233,3.7015939535507267,1.5594319645749588,18.68864,-5.5126863,3.9546587,3.1388457,11.337315,-10.2035055,2.2784333,-0.501502,0.14584921,-0.4716459,-0.7104745,-6.782457,1.6435843,-0.1267031,-5.751522,5.6750817,2.0606794,0
0.6900000000000004,19.32906907254782,-5.911632241246233,3.7015939535507267,1.5594319645749588,18.68864,-5.5126863,3.9546587,3.1388457,11.2697315,-10.1862755,2.2771697,-0.4765882,0.17493407,-0.46610135,-0.7245767,-6.736507,1.8033822,-0.1263357,-5.7759924,5.3673773,2.036083,0
0.7000000000000004,19.32906907254782,-5.911632241246233,3.7015939535507267,1.5594319645749588,18.68864,-5.5126863,3.9546587,3.1388457,11.202535,-10.167423,2.2759013,-0.45161033,0.202814,-0.45900545,-0.7377186,-6.7050977,1.9676012,-0.12753901,-5.796723,5.1076603,2.0126936,0
0.7100000000000004,19.32906907254782,-5.911632241246233,3.7015939535507267,1.5594319645749588,18.68864,-5.5126863,3.9546587,3.1388457,11.135579,-10.146914,2.2746136,-0.42652538,0.22958566,-0.45054382,-0.74991786,-6.6882687,2.1348252,-0.13026108,-5.814285,4.888447,1.9904519,0
0.7200000000000004,17.22456240615687,-4.170756723989206,1.7173482315806194,0.867520768225418,18.580406,-5.0654974,1.9949036,1.8426229,11.06872,-10.124721,2.2732909,-0.40129966,0.25533122,-0.44087103,-0.76118153,-6.6859746,2.30372,-0.13447843,-5.829161,4.7034187,1.9693016,0
0.7300000000000004,17.22456240615687,-4.170756723989206,1.7173482315806194,0.867520768225418,18.580406,-5.0654974,1.9949036,1.8426229,11.001816,-10.100929,2.2718682,-0.37651443,0.27928346,-0.43032703,-0.77139896,-6.6966953,2.4545844,-0.15023066,-5.5697865,4.2382717,1.9152368,0
0.7400000000000004,17.22456240615687,-4.170756723989206,1.7173482315806194,0.867520768225418,18.580406,-5.0654974,1.9949036,1.8426229,10.934744,-10.075632,2.270282,-0.35268837,0.3008816,-0.41925374,-0.78058153,-6.7194963,2.6047506,-0.16716486,-5.3509893,3.8455873,1.863825,0
0.7500000000000004,17.22456240615687,-4.170756723989206,1.7173482315806194,0.867520768225418,18.580406,-5.0654974,1.9949036,1.8426229,10.867387,-10.0488405,2.2685215,-0.32970282,0.32046685,-0.40775892,-0.78887874,-6.753576,2.7533216,-0.18511422,-5.1664176,3.5140781,1.814936,0
0.7600000000000005,15.358544556357833,-2.0426551850431482,-0.31583048913786094,0.22911617736436518,17.247114,-4.264007,0.70097893,0.6896148,10.799637,-10.020575,2.2665772,-0.30744898,0.33832693,-0.39592075,-0.79640234,-6.7981963,2.8995483,-0.20392644,-5.0107155,3.234215,1.768446,0
0.7700000000000005,15.358544556357833,-2.0426551850431482,-0.31583048913786094,0.22911617736436518,17.247114,-4.264007,0.70097893,0.6896148,10.731412,-9.990917,2.2644093,-0.28640464,0.35397485,-0.38415167,-0.80318224,-6.8480244,3.0307896,-0.23004678,-4.590229,2.724385,1.6968015,0
0.7800000000000005,15.358544556357833,-2.0426551850431482,-0.31583048913786094,0.22911617736436518,17.247114,-4.264007,0.70097893,0.6896148,10.662656,-9.95998,2.2619686,-0.26708946,0.36692435,-0.37289038,-0.8093099,-6.9044566,3.1559222,-0.25828698,-4.1967783,2.2553637,1.6251972,0
0.7900000000000005,15.358544556357833,-2.0426551850431482,-0.31583048913786094,0.22911617736436518,17.247114,-4.264007,0.70097893,0.6896148,10.593302,-9.927811,2.2592425,-0.24937059,0.37752002,-0.36215985,-0.8149437,-6.96745,3.2775207,-0.28688678,-3.860336,1.8549165,1.556691,0
0.8000000000000005,14.328956975331495,-0.043201268297251946,-1.9954438262858891,-0.32904113418379677,16.13751,-2.331596,-1.2344625,-0.29038364,10.523287,-9.894441,2.2562308,-0.23304477,0.38615236,-0.35191438,-0.8202029,-7.0362706,3.3958716,-0.31540114,-3.5764618,1.5168298,1.4915466,0
0.8100000000000005,14.328956975331495,-0.043201268297251946,-1.9954438262858891,-0.32904113418379677,16.13751,-2.331596,-1.2344625,-0.29038364,10.452552,-9.859893,2.252942,-0.2182472,0.3928003,-0.3423832,-0.8251363,-7.111212,3.5126734,-0.34258047,-3.155364,1.1000376,1.4138997,0
0.8200000000000005,14.328956975331495,-0.043201268297251946,-1.9954438262858891,-0.32904113418379677,16.13751,-2.331596,-1.2344625,-0.29038364,10.381056,-9.824208,2.2493746,-0.20519514,0.39733183,-0.33383164,-0.8298065,-7.1883216,3.6233437,-0.37108904,-2.7575958,0.70577854,1.336271,0
0.8300000000000005,14.328956975331495,-0.043201268297251946,-1.9954438262858891,-0.32904113418379677,16.13751,-2.331596,-1.2344625,-0.29038364,10.308782,-9.787446,2.2455168,-0.19382274,0.39990455,-0.3262539,-0.8343066,-7.2666492,3.7283912,-0.40065327,-2.3812537,0.33228326,1.2588158,0
0.8400000000000005,14.328956975331495,-0.043201268297251946,-1.9954438262858891,-0.32904113418379677,15.52899,-1.08267,-3.0748515,-1.0235233,10.235722,-9.749659,2.241359,-0.18406196,0.4006572,-0.3196357,-0.8387062,-7.345453,3.8284204,-0.43096307,-2.0260885,-0.020588227,1.1817962,0
0.8500000000000005,14.328956975331495,-0.043201268297251946,-1.9954438262858891,-0.32904113418379677,15.52899,-1.08267,-3.0748515,-1.0235233,10.161868,-9.710887,2.2369,-0.17579451,0.39977357,-0.31391695,-0.8430501,-7.4254355,3.925618,-0.46060407,-1.7166365,-0.3282441,1.107659,0
0.8600000000000005,14.328956975331495,-0.043201268297251946,-1.9954438262858891,-0.32904113418379677,15.52899,-1.08267,-3.0748515,-1.0235233,10.087209,-9.671153,2.2321513,-0.16882627,0.39751664,-0.30897018,-0.84735805,-7.5065475,4.0209365,-0.4889425,-1.4555042,-0.58798724,1.0371597,0
0.8700000000000006,14.328956975331495,-0.043201268297251946,-1.9954438262858891,-0.32904113418379677,15.52899,-1.08267,-3.0748515,-1.0235233,10.011735,-9.630473,2.2271264,-0.16298106,0.39411506,-0.3046747,-0.851636,-7.588302,4.114621,-0.5158319,-1.235143,-0.80727595,0.9701197,0
0.8800000000000006,14.565908619480103,1.51753400829313,-3.0752070798453337,-0.8636291094627031,16.124954,-0.5971321,-3.526939,-1.2478784,9.935442,-9.588864,2.2218401,-0.15810846,0.38975778,-0.30092493,-0.85588247,-7.670288,4.206888,-0.5411539,-1.0491842,-0.9924086,0.9063695,0
0.8900000000000006,14.565908619480103,1.51753400829313,-3.0752070798453337,-0.8636291094627031,16.124954,-0.5971321,-3.526939,-1.2478784,9.858314,-9.546321,2.2163236,-0.15444238,0.3842393,-0.29801354,-0.86005557,-7.7550282,4.301177,-0.56217784,-0.6765077,-1.2892542,0.82202303,0
0.9000000000000006,14.565908619480103,1.51753400829313,-3.0752070798453337,-0.8636291094627031,16.124954,-0.5971321,-3.526939,-1.2478784,9.780349,-9.502849,2.210598,-0.15224667,0.37729618,-0.29624084,-0.8641237,-7.8376174,4.392936,-0.58275294,-0.33544296,-1.5664113,0.7394161,0
0.9100000000000006,14.565908619480103,1.51753400829313,-3.0752070798453337,-0.8636291094627031,16.124954,-0.5971321,-3.526939,-1.2478784,9.701565,-9.458463,2.204675,-0.15136106,0.36909682,-0.29545775,-0.8680795,-7.9189215,4.4841022,-0.6015145,-0.04645069,-1.8015648,0.6607542,0
0.9200000000000006,15.01196239863283,2.5208030992729986,-3.769132483540572,-1.2505051987305793,16.58097,-0.4423621,-4.0337896,-1.3490903,9.621976,-9.413167,2.198574,-0.15160497,0.35983652,-0.29549566,-0.8719036,-7.9985285,4.575059,-0.6183404,0.1974403,-2.0000927,0.5859523,0
0.9300000000000006,15.01196239863283,2.5208030992729986,-3.769132483540572,-1.2505051987305793,16.58097,-0.4423621,-4.0337896,-1.3490903,9.541587,-9.366944,2.1923306,-0.15306924,0.34941766,-0.29647976,-0.8755437,-8.078759,4.669308,-0.63024247,0.5526495,-2.26878,0.49649248,0
0.9400000000000006,15.01196239863283,2.5208030992729986,-3.769132483540572,-1.2505051987305793,16.58097,-0.4423621,-4.0337896,-1.3490903,9.460411,-9.319781,2.1859753,-0.15585256,0.3377166,-0.2985305,-0.8789407,-8.155874,4.763501,-0.64050215,0.8595183,-2.502707,0.41076678,0
0.9500000000000006,15.01196239863283,2.5208030992729986,-3.769132483540572,-1.2505051987305793,16.58097,-0.4423621,-4.0337896,-1.3490903,9.37848,-9.271673,2.1795275,-0.15977359,0.32491428,-0.30145922,-0.8820573,-8.229725,4.8583817,-0.6487224,1.1185046,-2.7001948,0.32924768,0
0.9600000000000006,15.521336545391343,2.86566985756206,-3.9195121146020755,-1.5061322272879478,17.077406,0.26198766,-4.478151,-1.5522165,9.295829,-9.22261,2.173008,-0.1646719,0.31117016,-0.30509913,-0.8848562,-8.299843,4.9541736,-0.65494263,1.3370836,-2.8669152,0.25172877,0
0.9700000000000006,15.521336545391343,2.86566985756206,-3.9195121146020755,-1.5061322272879478,17.077406,0.26198766,-4.478151,-1.5522165,9.212485,-9.172568,2.1664515,-0.17049886,0.29655218,-0.30940998,-0.8872723,-8.36804,5.054326,-0.6560486,1.5753227,-3.031116,0.16547005,0
0.9800000000000006,15.521336545391343,2.86566985756206,-3.9195121146020755,-1.5061322272879478,17.077406,0.26198766,-4.478151,-1.5522165,9.128484,-9.121519,2.1598935,-0.17720814,0.281121,-0.3143491,-0.8892427,-8.431502,5.155733,-0.6552641,1.7763976,-3.1697338,0.083444044,0
0.9900000000000007,15.521336545391343,2.86566985756206,-3.9195121146020755,-1.5061322272879478,17.077406,0.26198766,-4.478151,-1.5522165,9.043873,-9.069449,2.1533525,-0.18467529,0.26499215,-0.31978148,-0.89073765,-8.489827,5.2584853,-0.65272194,1.9461086,-3.2867506,0.0054430775,0
1.0000000000000007,15.68146498463446,2.612486000370735,-3.5884468927594892,-1.6359869625506096,16.857315,0.017527677,-4.0042686,-1.8312181,8.958706,-9.016345,2.1468446,-0.19279312,0.24826504,-0.32559237,-0.8917312,-8.542653,5.3626165,-0.64857507,2.0893507,-3.3855293,-0.068730354,0
1.0100000000000007,15.68146498463446,2.612486000370735,-3.5884468927594892,-1.6359869625506096,16.857315,0.017527677,-4.0042686,-1.8312181,8.873037,-8.962187,2.140391,-0.20141567,0.2311693,-0.331617,-0.89220077,-8.59016,5.469192,-0.6419252,2.1707606,-3.4172864,-0.1456361,0
1.0200000000000007,15.68146498463446,2.612486000370735,-3.5884468927594892,-1.6359869625506096,16.857315,0.017527677,-4.0042686,-1.8312181,8.786924,-8.906957,2.1340106,-0.21042533,0.21389748,-0.33772355,-0.8921387,-8.631595,5.5770535,-0.6340214,2.2394807,-3.4440916,-0.21876803,0
1.0300000000000007,15.68146498463446,2.612486000370735,-3.5884468927594892,-1.6359869625506096,16.857315,0.017527677,-4.0042686,-1.8312181,8.700426,-8.850641,2.1277144,-0.21977347,0.19647922,-0.343867,-0.891544,-8.666794,5.6860824,-0.6250638,2.2974901,-3.4667158,-0.28831136,0
1.0400000000000007,15.68146498463446,2.612486000370735,-3.5884468927594892,-1.6359869625506096,16.457058,-0.71540344,-3.6046753,-1.6828774,8.613608,-8.79323,2.121512,-0.22941677,0.17894086,-0.35000947,-0.89041626,-8.695621,5.7961354,-0.61525273,2.3464596,-3.4858098,-0.35444218,0
1.0500000000000007,15.68146498463446,2.612486000370735,-3.5884468927594892,-1.6359869625506096,16.457058,-0.71540344,-3.6046753,-1.6828774,8.526535,-8.7347145,2.1154113,-0.23931636,0.16130605,-0.35611904,-0.8887558,-8.717958,5.9070506,-0.6047883,2.3877988,-3.5019236,-0.41732797,0
1.0600000000000007,15.68146498463446,2.612486000370735,-3.5884468927594892,-1.6359869625506096,16.457058,-0.71540344,-3.6046753,-1.6828774,8.439271,-8.675086,2.1094174,-0.24943706,0.143596,-0.36216894,-0.8865633,-8.733708,6.0186486,-0.5938695,2.4226978,-3.5155206,-0.47712794,0
1.0700000000000007,15.68146498463446,2.612486000370735,-3.5884468927594892,-1.6359869625506096,16.457058,-0.71540344,-3.6046753,-1.6828774,8.351882,-8.614339,2.1035345,-0.259747,0.12582986,-0.3681366,-0.8838401,-8.742792,6.130736,-0.5826938,2.452161,-3.5269933,-0.5339935,0
1.0800000000000007,15.10729502191475,1.886035813106469,-2.89456365546566,-1.6015899725843064,15.686214,-1.5538975,-3.363142,-1.277216,8.264437,-8.55247,2.0977638,-0.27021688,0.10802507,-0.37400302,-0.8805877,-8.745152,6.243106,-0.5714566,2.4770353,-3.5366728,-0.5880686,0
1.0900000000000007,15.10729502191475,1.886035813106469,-2.89456365546566,-1.6015899725843064,15.686214,-1.5538975,-3.363142,-1.277216,8.177001,-8.489499,2.092085,-0.28068343,0.090520315,-0.37957516,-0.8768951,-8.740937,6.3514223,-0.56434464,2.384796,-3.4365785,-0.63780236,0
1.1000000000000008,15.10729502191475,1.886035813106469,-2.89456365546566,-1.6015899725843064,15.686214,-1.5538975,-3.363142,-1.277216,8.089641,-8.425445,2.086476,-0.2910236,0.07358968,-0.38471234,-0.8728606,-8.730385,6.4595675,-0.55750036,2.3069463,-3.3520906,-0.68509567,0
1.1100000000000008,15.10729502191475,1.886035813106469,-2.89456365546566,-1.6015899725843064,15.686214,-1.5538975,-3.363142,-1.277216,8.002415,-8.36031,2.0809338,-0.30126518,0.0571597,-0.38946894,-0.86849606,-8.713689,6.5673175,-0.55104744,2.241241,-3.280776,-0.7300683,0
1.1200000000000008,14.3766259687942,0.761606683582878,-2.1258211681307286,-1.440476206833347,15.244064,-2.1603847,-2.967133,-0.98601985,7.9153867,-8.2941,2.0754535,-0.31142908,0.041167606,-0.3938902,-0.86380965,-8.691024,6.6744647,-0.54509914,2.1857858,-3.2205813,-0.7728342,0
1.1300000000000008,14.3766259687942,0.761606683582878,-2.1258211681307286,-1.440476206833347,15.244064,-2.1603847,-2.967133,-0.98601985,7.8286076,-8.226849,2.0700047,-0.32137778,0.02595931,-0.39772588,-0.8589854,-8.6639595,6.775666,-0.5447502,1.9637063,-3.0497844,-0.8055956,0
1.1400000000000008,14.3766259687942,0.761606683582878,-2.1258211681307286,-1.440476206833347,15.244064,-2.1603847,-2.967133,-0.98601985,7.742125,-8.158589,2.0645566,-0.33101323,0.011808344,-0.4007944,-0.8541979,-8.631751,6.8759103,-0.5449702,1.7762558,-2.905631,-0.8367493,0
1.1500000000000008,14.3766259687942,0.761606683582878,-2.1258211681307286,-1.440476206833347,15.244064,-2.1603847,-2.967133,-0.98601985,7.6559887,-8.089334,2.0591035,-0.34040028,-0.0014338433,-0.40322024,-0.8494342,-8.594766,6.9750266,-0.54572994,1.6180342,-2.7839653,-0.8663744,0
1.1600000000000008,13.87683957993091,-0.5769410004212281,-1.1143773858025792,-1.1218513765139024,14.610773,-3.6511686,-2.4511032,-0.38176155,7.5702453,-8.0190935,2.0536401,-0.34959042,-0.013894487,-0.405106,-0.8446787,-8.553325,7.0728726,-0.5470002,1.4844832,-2.6812804,-0.89454573,0
1.1700000000000008,13.87683957993091,-0.5769410004212281,-1.1143773858025792,-1.1218513765139024,14.610773,-3.6511686,-2.4511032,-0.38176155,7.484929,-7.947898,2.048145,-0.3584385,-0.025168194,-0.40622944,-0.84015805,-8.509325,7.1659737,-0.55208653,1.1631298,-2.4367442,-0.9056997,0
1.1800000000000008,13.87683957993091,-0.5769410004212281,-1.1143773858025792,-1.1218513765139024,14.610773,-3.6511686,-2.4511032,-0.38176155,7.4000707,-7.8757787,2.0425975,-0.36683902,-0.034940194,-0.40643206,-0.8360746,-8.461805,7.2576466,-0.5574844,0.8918729,-2.2303681,-0.9163063,0
1.1900000000000008,13.87683957993091,-0.5769410004212281,-1.1143773858025792,-1.1218513765139024,14.610773,-3.6511686,-2.4511032,-0.38176155,7.3157034,-7.8027506,2.036995,-0.3748793,-0.04343427,-0.4058735,-0.83237314,-8.411247,7.3478355,-0.56303334,0.66290236,-2.056198,-0.9263925,0
1.2000000000000008,13.799186423277563,-1.8755812841002792,-0.08903568988193232,-0.6671648686516102,14.473711,-4.1863084,-1.656751,0.8468448,7.231855,-7.728828,2.0313368,-0.3826288,-0.050840892,-0.40468407,-0.8289997,-8.358055,7.4365053,-0.5685901,0.46962607,-1.9092079,-0.9359837,0
1.2100000000000009,13.799186423277563,-1.8755812841002792,-0.08903568988193232,-0.6671648686516102,14.473711,-4.1863084,-1.656751,0.8468448,7.148548,-7.654028,2.025621,-0.38995916,-0.056804918,-0.4026966,-0.8261597,-8.302919,7.523153,-0.57452977,0.10407931,-1.6251292,-0.92279273,0
1.2200000000000009,13.799186423277563,-1.8755812841002792,-0.08903568988193232,-0.6671648686516102,14.473711,-4.1863084,-1.656751,0.8468448,7.065802,-7.5783696,2.0198472,-0.3967707,-0.06105489,-0.3997895,-0.8240224,-8.246075,7.6083016,-0.58011097,-0.20449221,-1.3853924,-0.910249,0
1.2300000000000009,13.799186423277563,-1.8755812841002792,-0.08903568988193232,-0.6671648686516102,14.473711,-4.1863084,-1.656751,0.8468448,6.9836307,-7.501867,2.0140207,-0.40314937,-0.06385342,-0.39611802,-0.8224859,-8.188039,7.6919975,-0.58510715,-0.4649686,-1.1830755,-0.8983208,0
1.2400000000000009,13.799186423277563,-1.8755812841002792,-0.08903568988193232,-0.6671648686516102,14.76524,-4.8532877,-0.7570484,1.4493719,6.9020433,-7.4245343,2.008148,-0.4091632,-0.06542286,-0.39180803,-0.8214567,-8.1292515,7.7742906,-0.5893267,-0.6848454,-1.012337,-0.88697785,0
1.2500000000000009,13.799186423277563,-1.8755812841002792,-0.08903568988193232,-0.6671648686516102,14.76524,-4.8532877,-0.7570484,1.4493719,6.821047,-7.3463855,2.0022376,-0.41486648,-0.06595143,-0.38696223,-0.8208506,-8.070088,7.855228,-0.5926099,-0.8704505,-0.86824757,-0.87619156,0
1.260000000000001,13.799186423277563,-1.8755812841002792,-0.08903568988193232,-0.6671648686516102,14.76524,-4.8532877,-0.7570484,1.4493719,6.740642,-7.2674336,1.9962995,-0.4203026,-0.065598495,-0.3816648,-0.82059354,-8.010866,7.9348545,-0.5948259,-1.0271257,-0.74664736,-0.86593455,0
1.270000000000001,13.799186423277563,-1.8755812841002792,-0.08903568988193232,-0.6671648686516102,14.76524,-4.8532877,-0.7570484,1.4493719,6.660829,-7.1876926,1.9903451,-0.42550656,-0.06449902,-0.37598512,-0.8206208,-7.951858,8.01321,-0.5958697,-1.1593801,-0.644026,-0.8561809,0
1.280000000000001,14.265408935566887,-2.8530517470223713,0.8161905549932428,-0.08027004182593496,15.501911,-4.88511,-0.38650638,1.472689,6.581604,-7.107174,1.9843864,-0.43050662,-0.062767304,-0.36998042,-0.8208764,-7.8933005,8.09033,-0.5956587,-1.2710197,-0.55742097,-0.84690577,0
1.290000000000001,14.265408935566887,-2.8530517470223713,0.8161905549932428,-0.08027004182593496,15.501911,-4.88511,-0.38650638,1.472689,6.5029707,-7.0258775,1.9784533,-0.43515676,-0.06006034,-0.36352903,-0.8215092,-7.833471,8.168816,-0.5907525,-1.5176098,-0.34310794,-0.8092867,0
1.300000000000001,14.265408935566887,-2.8530517470223713,0.8161905549932428,-0.08027004182593496,15.501911,-4.88511,-0.38650638,1.472689,6.4249306,-6.943802,1.9725765,-0.43933228,-0.056112226,-0.3565355,-0.82263005,-7.7747364,8.246144,-0.5843523,-1.7257719,-0.16224627,-0.7735136,0
1.310000000000001,14.265408935566887,-2.8530517470223713,0.8161905549932428,-0.08027004182593496,15.501911,-4.88511,-0.38650638,1.472689,6.3474708,-6.860958,1.9667716,-0.44308174,-0.051116407,-0.3490777,-0.82414174,-7.717493,8.3224,-0.5763494,-1.9014934,-0.00961303,-0.73949593,0
1.320000000000001,14.450631128760573,-3.567801339575202,1.2064139179473972,0.5049912187038825,16.44361,-5.098752,-0.38191348,1.751423,6.2705746,-6.777357,1.9610552,-0.44644457,-0.045236588,-0.34121996,-0.82595944,-7.6620812,8.397651,-0.56666934,-2.0498288,0.119198985,-0.7071475,0
1.330000000000001,14.450631128760573,-3.567801339575202,1.2064139179473972,0.5049912187038825,16.44361,-5.098752,-0.38191348,1.751423,6.194226,-6.693004,1.9554513,-0.4493519,-0.038378745,-0.33284548,-0.8281443,-7.6081276,8.472912,-0.5538374,-2.2864888,0.28877035,-0.64766747,0
1.340000000000001,14.450631128760573,-3.567801339575202,1.2064139179473972,0.5049912187038825,16.44361,-5.098752,-0.38191348,1.751423,6.1184034,-6.6079025,1.9499847,-0.4517369,-0.030477075,-0.3238611,-0.8307335,-7.556741,8.547252,-0.5391804,-2.4862642,0.4318694,-0.5911062,0
1.350000000000001,14.450631128760573,-3.567801339575202,1.2064139179473972,0.5049912187038825,16.44361,-5.098752,-0.38191348,1.751423,6.0430803,-6.5220623,1.944674,-0.4536318,-0.021697897,-0.3143479,-0.83362573,-7.5083003,8.620696,-0.5226487,-2.6549017,0.55263114,-0.5373204,0
1.360000000000001,14.649813931726698,-3.9729427075343953,1.3365564152502822,1.0139486363425319,17.241587,-5.418424,-0.099533066,1.6599878,5.968226,-6.435492,1.9395381,-0.4550637,-0.012182259,-0.30437434,-0.8367341,-7.4631367,8.693255,-0.50423133,-2.7972538,0.65454465,-0.48617384,0
1.370000000000001,14.649813931726698,-3.9729427075343953,1.3365564152502822,1.0139486363425319,17.241587,-5.418424,-0.099533066,1.6599878,5.8938084,-6.3481956,1.9346039,-0.4559881,-0.0019513892,-0.29388544,-0.8400604,-7.4209757,8.765908,-0.48231417,-2.9806042,0.76081955,-0.41256237,0
1.380000000000001,14.649813931726698,-3.9729427075343953,1.3365564152502822,1.0139486363425319,17.241587,-5.418424,-0.099533066,1.6599878,5.8197927,-6.260177,1.9298984,-0.45635936,0.008969495,-0.28283963,-0.8435974,-7.382762,8.837625,-0.45852706,-3.1353734,0.8505044,-0.3425631,0
1.390000000000001,14.649813931726698,-3.9729427075343953,1.3365564152502822,1.0139486363425319,17.241587,-5.418424,-0.099533066,1.6599878,5.746138,-6.171447,1.9254397,-0.45619807,0.020464178,-0.2713092,-0.8472633,-7.348797,8.908355,-0.43292007,-3.2660148,0.9261916,-0.27599868,0
1.400000000000001,14.669816434521254,-3.9852209638177314,1.05188169247204,1.3770894321232319,16.404299,-5.362974,-1.0794072,1.5670853,5.672801,-6.0820146,1.9212459,-0.45552287,0.03243384,-0.25935656,-0.8509879,-7.319341,8.978038,-0.40557557,-3.3762891,0.99006844,-0.21270058,0
1.410000000000001,14.669816434521254,-3.9852209638177314,1.05188169247204,1.3770894321232319,16.404299,-5.362974,-1.0794072,1.5670853,5.599735,-5.9918904,1.9173347,-0.45434192,0.044688012,-0.24698128,-0.8547373,-7.294582,9.04669,-0.37642723,-3.4713013,0.9995451,-0.13468911,0
1.420000000000001,14.669816434521254,-3.9852209638177314,1.05188169247204,1.3770894321232319,16.404299,-5.362974,-1.0794072,1.5670853,5.526892,-5.901086,1.9137226,-0.45265734,0.057069387,-0.23418868,-0.8584866,-7.2747264,9.114096,-0.34576297,-3.5514948,1.0075426,-0.060505692,0
1.430000000000001,14.669816434521254,-3.9852209638177314,1.05188169247204,1.3770894321232319,16.404299,-5.362974,-1.0794072,1.5670853,5.454223,-5.8096137,1.9104244,-0.4504785,0.0695451,-0.22103699,-0.8621916,-7.259905,9.180124,-0.31371477,-3.6191807,1.0142938,0.010037512,0
1.440000000000001,14.669816434521254,-3.9852209638177314,1.05188169247204,1.3770894321232319,15.943779,-4.62,-2.0025015,1.5834981,5.3816767,-5.7174883,1.9074528,-0.4478156,0.0820872,-0.20757678,-0.865814,-7.250227,9.244644,-0.2804318,-3.6763093,1.0199945,0.07711914,0
1.450000000000001,14.669816434521254,-3.9852209638177314,1.05188169247204,1.3770894321232319,15.943779,-4.62,-2.0025015,1.5834981,5.3092012,-5.6247263,1.9048195,-0.44467962,0.09467187,-0.19385211,-0.8693202,-7.24578,9.307525,-0.24607736,-3.724527,1.0248101,0.14090906,0
1.460000000000001,14.669816434521254,-3.9852209638177314,1.05188169247204,1.3770894321232319,15.943779,-4.62,-2.0025015,1.5834981,5.236744,-5.531344,1.9025344,-0.441082,0.107278734,-0.17990158,-0.87268114,-7.2466307,9.368636,-0.21082628,-3.7652228,1.0288794,0.20156877,0
1.470000000000001,14.669816434521254,-3.9852209638177314,1.05188169247204,1.3770894321232319,15.943779,-4.62,-2.0025015,1.5834981,5.1642513,-5.43736,1.9006054,-0.43703443,0.119890295,-0.16575904,-0.87587106,-7.2528276,9.42785,-0.17486274,-3.7995706,1.0323192,0.2592519,0
1.480000000000001,14.435800632913848,-3.6857889760215046,0.44460274678985007,1.559982831777065,15.65291,-3.92714,-2.9926069,1.4061989,5.0916696,-5.3427935,1.8990389,-0.43254897,0.13249147,-0.15145424,-0.8788674,-7.264402,9.485041,-0.13837834,-3.8285604,1.0352283,0.3141045,0
1.490000000000001,14.435800632913848,-3.6857889760215046,0.44460274678985007,1.559982831777065,15.65291,-3.92714,-2.9926069,1.4061989,5.018946,-5.24767,1.8978283,-0.4276708,0.14480065,-0.13701771,-0.8816776,-7.2810807,9.5392,-0.103717774,-3.806314,0.94297326,0.3752401,0
1.500000000000001,14.435800632913848,-3.6857889760215046,0.44460274678985007,1.559982831777065,15.65291,-3.92714,-2.9926069,1.4061989,4.9460297,-5.1520176,1.8969653,-0.42243695,0.15659489,-0.12247981,-0.8843204,-7.3029456,9.591075,-0.06889807,-3.7875323,0.86511356,0.43337575,0
1.5100000000000011,14.435800632913848,-3.6857889760215046,0.44460274678985007,1.559982831777065,15.65291,-3.92714,-2.9926069,1.4061989,4.872869,-5.055858,1.8964504,-0.41684848,0.16794139,-0.107864514,-0.88679034,-7.329864,9.640503,-0.034073237,-3.771676,0.79940367,0.4886587,0
1.5200000000000011,13.871698104575312,-3.1280952071964383,-0.5617496721108248,1.5752400379649267,15.863415,-3.6201067,-3.496032,1.3724642,4.7994156,-4.9592166,1.8962833,-0.41090846,0.17889696,-0.09319237,-0.88908046,-7.361708,9.687336,0.00060259737,-3.7582898,0.74394804,0.5412289,0
1.5300000000000011,13.871698104575312,-3.1280952071964383,-0.5617496721108248,1.5752400379649267,15.863415,-3.6201067,-3.496032,1.3724642,4.725626,-4.862129,1.8964356,-0.40469772,0.18906052,-0.07851576,-0.8912406,-7.396898,9.729704,0.029808586,-3.6599576,0.5402385,0.5919681,0
1.5400000000000011,13.871698104575312,-3.1280952071964383,-0.5617496721108248,1.5752400379649267,15.863415,-3.6201067,-3.496032,1.3724642,4.651463,-4.764632,1.8968782,-0.39828354,0.19812007,-0.06388197,-0.8933288,-7.436394,9.769264,0.058654994,-3.5769596,0.36830333,0.64021754,0
1.5500000000000012,13.871698104575312,-3.1280952071964383,-0.5617496721108248,1.5752400379649267,15.863415,-3.6201067,-3.496032,1.3724642,4.5768847,-4.666754,1.8976073,-0.39165258,0.20623991,-0.049299307,-0.89534444,-7.4798946,9.805849,0.087084785,-3.506906,0.2231862,0.6860994,0
1.5600000000000012,13.54068327550644,-2.3998718750900583,-1.4318752324652781,1.4341758522565595,16.885227,-3.7213185,-4.220277,1.6895057,4.5018525,-4.5685253,1.8986183,-0.38479525,0.21355872,-0.034773856,-0.8972819,-7.5271277,9.8393135,0.11503907,-3.447779,0.10070402,0.72972983,0
1.5700000000000012,13.54068327550644,-2.3998718750900583,-1.4318752324652781,1.4341758522565595,16.885227,-3.7213185,-4.220277,1.6895057,4.426337,-4.4699826,1.8998913,-0.37779546,0.21977073,-0.02043511,-0.8991955,-7.576616,9.868811,0.13947171,-3.2842422,-0.13829756,0.7642972,0
1.5800000000000012,13.54068327550644,-2.3998718750900583,-1.4318752324652781,1.4341758522565595,16.885227,-3.7213185,-4.220277,1.6895057,4.3503103,-4.371161,1.901406,-0.37072432,0.2246438,-0.0063882954,-0.9011418,-7.6291046,9.895024,0.16340163,-3.1462176,-0.3400292,0.7971684,0
1.5900000000000012,13.54068327550644,-2.3998718750900583,-1.4318752324652781,1.4341758522565595,16.885227,-3.7213185,-4.220277,1.6895057,4.2737455,-4.2720942,1.9031577,-0.36355865,0.2283843,0.0073963935,-0.90311116,-7.6842127,9.917854,0.18685597,-3.0297267,-0.51030344,0.8284265,0
1.6000000000000012,13.287648215968945,-1.5920080673361547,-2.0329548051978157,1.176734734493878,15.820831,-2.5148773,-4.786484,1.4181741,4.1966186,-4.172816,1.9051416,-0.35628,0.23116586,0.020945475,-0.90508944,-7.741607,9.937221,0.20985307,-2.9314113,-0.6540259,0.8581508,0
1.6100000000000012,13.287648215968945,-1.5920080673361547,-2.0329548051978157,1.176734734493878,15.820831,-2.5148773,-4.786484,1.4181741,4.1189127,-4.073363,1.9073421,-0.34897265,0.23280215,0.03408195,-0.9071154,-7.799863,9.952767,0.23015718,-2.7224033,-0.8689803,0.8737838,0
1.6200000000000012,13.287648215968945,-1.5920080673361547,-2.0329548051978157,1.176734734493878,15.820831,-2.5148773,-4.786484,1.4181741,4.0406156,-3.973772,1.9097435,-0.34170842,0.23315637,0.046666354,-0.9092274,-7.859659,9.964837,0.2500986,-2.5460052,-1.050426,0.8886497,0
1.6300000000000012,13.287648215968945,-1.5920080673361547,-2.0329548051978157,1.176734734493878,15.820831,-2.5148773,-4.786484,1.4181741,3.9617147,-3.874078,1.912343,-0.33445704,0.23242882,0.05877181,-0.91140544,-7.9206142,9.973431,0.26975155,-2.3971303,-1.2035869,0.90278614,0
1.6400000000000012,13.287648215968945,-1.5920080673361547,-2.0329548051978157,1.176734734493878,14.818342,-1.6639555,-5.106868,1.1700004,3.8822002,-3.7743154,1.9151378,-0.32719377,0.23078747,0.070461206,-0.91362756,-7.9823966,9.978556,0.28917515,-2.2714844,-1.3328725,0.9162289,0
1.6500000000000012,13.287648215968945,-1.5920080673361547,-2.0329548051978157,1.176734734493878,14.818342,-1.6639555,-5.106868,1.1700004,3.8020651,-3.6745186,1.9181259,-0.31989858,0.22837332,0.081788525,-0.9158711,-8.044719,9.98022,0.30841374,-2.1654434,-1.4420049,0.929012,0
1.6600000000000013,13.287648215968945,-1.5920080673361547,-2.0329548051978157,1.176734734493878,14.818342,-1.6639555,-5.106868,1.1700004,3.7213051,-3.5747225,1.9213054,-0.31255576,0.2253048,0.092800006,-0.9181141,-8.107327,9.978437,0.32749817,-2.0759485,-1.5341254,0.94116783,0
1.6700000000000013,13.287648215968945,-1.5920080673361547,-2.0329548051978157,1.176734734493878,14.818342,-1.6639555,-5.106868,1.1700004,3.6399183,-3.4749618,1.9246752,-0.30515307,0.22168146,0.10353525,-0.9203359,-8.169998,9.973227,0.34644663,-2.0004184,-1.6118864,0.9527272,0
1.6800000000000013,13.122281063562319,-0.8867161668107483,-2.322356691426306,0.8869535541523206,12.906923,-1.7856221,-5.3811707,0.6637169,3.5579052,-3.3752701,1.9282339,-0.29768136,0.21758708,0.11402808,-0.92251724,-8.2325325,9.964604,0.36526653,-1.9366744,-1.677526,0.9637193,0
1.6900000000000013,13.122281063562319,-0.8867161668107483,-2.322356691426306,0.8869535541523206,12.906923,-1.7856221,-5.3811707,0.6637169,3.4752727,-3.2756805,1.9319729,-0.29021478,0.21289816,0.12408879,-0.9246895,-8.293965,9.952754,0.38250992,-1.7728753,-1.77798,0.95995235,0
1.7000000000000013,13.122281063562319,-0.8867161668107483,-2.322356691426306,0.8869535541523206,12.906923,-1.7856221,-5.3811707,0.6637169,3.392028,-3.1762261,1.9358839,-0.282816,0.20752239,0.13356857,-0.9268808,-8.354831,9.937652,0.39967468,-1.6346304,-1.862785,0.95637023,0
1.7100000000000013,13.122281063562319,-0.8867161668107483,-2.322356691426306,0.8869535541523206,12.906923,-1.7856221,-5.3811707,0.6637169,3.308179,-3.0769384,1.9399663,-0.2754635,0.2015661,0.14254946,-0.9290692,-8.414888,9.9193945,0.41680634,-1.5179534,-1.934379,0.9529639,0
1.7200000000000013,12.630419756229806,-0.24846973661161043,-2.4987948987840203,0.5462344242011461,12.468603,-1.0640913,-5.371791,0.12994123,3.223734,-2.9778488,1.9442201,-0.26813987,0.19511847,0.15110114,-0.93123424,-8.473931,9.898072,0.43393648,-1.4194793,-1.9948198,0.9497248,0
1.7300000000000013,12.630419756229806,-0.24846973661161043,-2.4987948987840203,0.5462344242011461,12.468603,-1.0640913,-5.371791,0.12994123,3.1387153,-2.8789825,1.9486235,-0.26090917,0.18811451,0.15907164,-0.93339944,-8.529597,9.874689,0.44677103,-1.2368392,-2.0732858,0.92992544,0
1.7400000000000013,12.630419756229806,-0.24846973661161043,-2.4987948987840203,0.5462344242011461,12.468603,-1.0640913,-5.371791,0.12994123,3.0531468,-2.780364,1.9531556,-0.2538257,0.1805074,0.16634384,-0.9355845,-8.583884,9.848583,0.45968184,-1.0826895,-2.1395369,0.9110976,0
1.7500000000000013,12.630419756229806,-0.24846973661161043,-2.4987948987840203,0.5462344242011461,12.468603,-1.0640913,-5.371791,0.12994123,2.9670432,-2.6820195,1.9578174,-0.24686383,0.17239009,0.17301932,-0.937765,-8.636586,9.819898,0.4727197,-0.95258576,-2.1954746,0.89319366,0
1.7600000000000013,12.216994256162687,0.2996426630512411,-2.2486519934483598,0.21261569014443243,12.546459,-0.49382344,-4.700879,0.18598402,2.8804212,-2.5839744,1.9626105,-0.24000233,0.16384038,0.17918406,-0.93991876,-8.687526,9.788762,0.48591986,-0.8427768,-2.242704,0.87616825,0
1.7700000000000014,12.216994256162687,0.2996426630512411,-2.2486519934483598,0.21261569014443243,12.546459,-0.49382344,-4.700879,0.18598402,2.7933075,-2.4862468,1.9675183,-0.23331639,0.15495853,0.18468758,-0.9420408,-8.734943,9.756401,0.49565846,-0.66466427,-2.2435155,0.8436075,0
1.7800000000000014,12.216994256162687,0.2996426630512411,-2.2486519934483598,0.21261569014443243,12.546459,-0.49382344,-4.700879,0.18598402,2.7057292,-2.3888535,1.9725245,-0.2268703,0.14582846,0.18941627,-0.9441316,-8.780377,9.721984,0.5056141,-0.5143259,-2.2442234,0.81264454,0
1.7900000000000014,12.216994256162687,0.2996426630512411,-2.2486519934483598,0.21261569014443243,12.546459,-0.49382344,-4.700879,0.18598402,2.617707,-2.2918136,1.9776314,-0.22063333,0.1364879,0.19348662,-0.9461787,-8.823717,9.685698,0.51581866,-0.3874307,-2.2448392,0.783201,0
1.8000000000000014,11.876262571998339,0.6304366134103164,-1.7853688232472928,-0.07677601572633283,11.325239,-0.4942318,-4.7942085,0.15322989,2.5292623,-2.1951454,1.9828417,-0.2145794,0.12696816,0.1969969,-0.94816995,-8.864867,9.64771,0.52629286,-0.2803227,-2.245374,0.7552021,0
1.8100000000000014,11.876262571998339,0.6304366134103164,-1.7853688232472928,-0.07677601572633283,11.325239,-0.4942318,-4.7942085,0.15322989,2.4404228,-2.0988593,1.9881431,-0.20877399,0.11743624,0.19986972,-0.9500913,-8.90267,9.609278,0.53401315,-0.13838357,-2.173563,0.71437675,0
1.8200000000000014,11.876262571998339,0.6304366134103164,-1.7853688232472928,-0.07677601572633283,11.325239,-0.4942318,-4.7942085,0.15322989,2.3512163,-2.002964,1.993523,-0.20327304,0.10802641,0.20205034,-0.9519376,-8.938247,9.569537,0.5420214,-0.018568309,-2.1129682,0.67555463,0
1.8300000000000014,11.876262571998339,0.6304366134103164,-1.7853688232472928,-0.07677601572633283,11.325239,-0.4942318,-4.7942085,0.15322989,2.2616656,-1.9074721,1.9989845,-0.19804323,0.098718174,0.20364523,-0.9537093,-8.971588,9.528672,0.55032873,0.082571484,-2.0618365,0.6386376,0
1.8400000000000014,11.876262571998339,0.6304366134103164,-1.7853688232472928,-0.07677601572633283,11.135206,-0.084474765,-4.51822,-0.2628882,2.1717925,-1.8123938,2.0045304,-0.19305588,0.0894938,0.20474385,-0.9554054,-9.002687,9.486847,0.55894077,0.16794656,-2.0186899,0.603532,0
1.8500000000000014,11.876262571998339,0.6304366134103164,-1.7853688232472928,-0.07677601572633283,11.135206,-0.084474765,-4.51822,-0.2628882,2.0816195,-1.7177379,2.0101643,-0.18828638,0.08033809,0.20542137,-0.9570242,-9.031542,9.4442,0.56785804,0.24001406,-1.9822804,0.5701491,0
1.8600000000000014,11.876262571998339,0.6304366134103164,-1.7853688232472928,-0.07677601572633283,11.135206,-0.084474765,-4.51822,-0.2628882,1.991169,-1.6235121,2.0158885,-0.18371345,0.071238056,0.20574103,-0.9585637,-9.058147,9.400852,0.5770764,0.3008483,-1.9515557,0.53840435,0
1.8700000000000014,11.876262571998339,0.6304366134103164,-1.7853688232472928,-0.07677601572633283,11.135206,-0.084474765,-4.51822,-0.2628882,1.900464,-1.5297229,2.0217063,-0.17931873,0.062182706,0.20575596,-0.9600218,-9.0824995,9.35691,0.58658737,0.35220045,-1.9256278,0.5082172,0
1.8800000000000014,11.487637456626913,0.7329589081857737,-1.2741880330636899,-0.305936029819805,10.819834,-0.81165475,-4.2111325,-0.5788391,1.8095267,-1.4363756,2.0276213,-0.17508626,0.0531628,0.20551085,-0.96139646,-9.104597,9.312466,0.5963787,0.39554834,-1.9037474,0.47951144,0
1.8900000000000015,11.487637456626913,0.7329589081857737,-1.2741880330636899,-0.305936029819805,10.819834,-0.81165475,-4.2111325,-0.5788391,1.718383,-1.3434676,2.0336175,-0.17107368,0.044354495,0.20497003,-0.9626802,-9.123796,9.269075,0.6028962,0.4480913,-1.8055627,0.4409693,0
1.9000000000000015,11.487637456626913,0.7329589081857737,-1.2741880330636899,-0.305936029819805,10.819834,-0.81165475,-4.2111325,-0.5788391,1.6270579,-1.250995,2.0396802,-0.16732971,0.035896957,0.20410879,-0.9638731,-9.140882,9.2253895,0.6096578,0.49245128,-1.722694,0.40431842,0
1.9100000000000015,11.487637456626913,0.7329589081857737,-1.2741880330636899,-0.305936029819805,10.819834,-0.81165475,-4.2111325,-0.5788391,1.5355723,-1.1589603,2.0458117,-0.16382904,0.027733117,0.20297623,-0.9649824,-9.155921,9.181512,0.6166519,0.52990234,-1.652752,0.36946604,0
1.9200000000000015,11.076871118685114,0.6739039162627862,-0.8351289441248685,-0.48101286842833063,10.708006,-0.6837828,-3.8327677,-0.7859591,1.4439462,-1.067365,2.0520139,-0.16054961,0.019814782,0.2016134,-0.96601385,-9.168973,9.137527,0.6238668,0.5615202,-1.5937196,0.3363239,0
1.9300000000000015,11.076871118685114,0.6739039162627862,-0.8351289441248685,-0.48101286842833063,10.708006,-0.6837828,-3.8327677,-0.7859591,1.3522015,-0.97620195,2.0582705,-0.15752803,0.012270534,0.20005012,-0.96696115,-9.179699,9.095085,0.6275168,0.57898176,-1.4754288,0.29621693,0
1.9400000000000015,11.076871118685114,0.6739039162627862,-0.8351289441248685,-0.48101286842833063,10.708006,-0.6837828,-3.8327677,-0.7859591,1.2603583,-0.8854632,2.0645647,-0.15479514,0.0051998007,0.19831276,-0.96782386,-9.188666,9.052685,0.63135487,0.5937312,-1.3755864,0.25807804,0
1.9500000000000015,11.076871118685114,0.6739039162627862,-0.8351289441248685,-0.48101286842833063,10.708006,-0.6837828,-3.8327677,-0.7859591,1.1684339,-0.7951479,2.070898,-0.15232475,-0.0014741723,0.19642809,-0.9686127,-9.195974,9.010391,0.63536954,0.60618925,-1.2913145,0.22181064,0
1.9600000000000015,10.688213585599026,0.5333173375223966,-0.26892358009551753,-0.581204143207059,10.862297,0.031316973,-3.515462,-1.1424524,1.0764444,-0.70525473,2.077273,-0.15009381,-0.007816096,0.1944183,-0.9693358,-9.201709,8.96826,0.63955104,0.61671156,-1.2201849,0.1873229,0
1.9700000000000015,10.688213585599026,0.5333173375223966,-0.26892358009551753,-0.581204143207059,10.862297,0.031316973,-3.515462,-1.1424524,0.9844057,-0.6157745,2.083672,-0.14813857,-0.013654795,0.19232267,-0.9699898,-9.205806,8.927805,0.6402957,0.6036616,-1.0718528,0.14961104,0
1.9800000000000015,10.688213585599026,0.5333173375223966,-0.26892358009551753,-0.581204143207059,10.862297,0.031316973,-3.515462,-1.1424524,0.89233273,-0.5266977,2.0900793,-0.14648806,-0.018857643,0.19017422,-0.97057664,-9.208598,8.88759,0.641184,0.59265697,-0.9466514,0.11374974,0
1.9900000000000015,10.688213585599026,0.5333173375223966,-0.26892358009551753,-0.581204143207059,10.862297,0.031316973,-3.515462,-1.1424524,0.80023783,-0.43802166,2.0964963,-0.14511314,-0.023526793,0.18798116,-0.97110826,-9.21022,8.847652,0.64221,0.5833763,-0.8409738,0.07964815,0
2.0000000000000013,,,,,9.208689,0.3676425,-3.592349,-1.239643,0.708132,-0.34974357,2.1029243,-0.14398827,-0.02774835,0.18575011,-0.97159344,-9.210788,8.808018,0.64336973,0.57554895,-0.7517754,0.047219947,0
2.010000000000001,,,,,9.208689,0.3676425,-3.592349,-1.239643,0.61602527,-0.2618542,2.1093493,-0.14313388,-0.031392086,0.18351567,-0.9720333,-9.210418,8.769916,0.64161646,0.54563034,-0.5983195,0.01477378,0
2.020000000000001,,,,,9.208689,0.3676425,-3.592349,-1.239643,0.5239263,-0.17434415,2.1157572,-0.1425648,-0.03435852,0.18130593,-0.97243124,-9.20927,8.732149,0.6399895,0.5203846,-0.4687931,-0.016080238,0
2.0300000000000007,,,,,9.208689,0.3676425,-3.592349,-1.239643,0.43184206,-0.087210014,2.1221497,-0.1422523,-0.036755893,0.17911671,-0.97279495,-9.207482,8.694734,0.63848966,0.49908072,-0.359465,-0.045420237,0
2.0400000000000005,,,,,9.208689,0.3676425,-3.592349,-1.239643,0.33977842,-0.00044822507,2.1285276,-0.1421713,-0.038675398,0.1769443,-0.9731298,-9.205174,8.657681,0.6371188,0.4811029,-0.26718536,-0.073320515,0
2.0500000000000003,,,,,8.585392,0.28468987,-3.2609735,-1.3430182,0.24774003,0.085944906,2.1348925,-0.14229992,-0.04019386,0.17478539,-0.9734396,-9.202444,8.621002,0.635879,0.46593106,-0.18929584,-0.09985171,1
2.06,,,,,8.585392,0.28468987,-3.2609735,-1.3430182,0.155729,0.17199501,2.141187,-0.14248298,-0.04258778,0.17298843,-0.973632,-9.19971,8.5891695,0.62277794,0.38630018,-0.6170147,-0.15624948,1
2.07,,,,,8.585392,0.28468987,-3.2609735,-1.3430182,0.063747644,0.25773138,2.1473417,-0.14259978,-0.046953168,0.17176905,-0.97363,-9.196456,8.558229,0.60784113,0.34003294,-0.99899954,-0.21175475,1
2.0799999999999996,,,,,8.585392,0.28468987,-3.2609735,-1.3430182,-0.02819736,0.34316215,2.153338,-0.14267692,-0.053103317,0.17094588,-0.97344756,-9.192399,8.528025,0.5910578,0.3212891,-1.3417434,-0.266354,1
2.0899999999999994,,,,,8.703419,0.104685105,-3.6220841,-1.1898869,-0.12009656,0.42829296,2.1591597,-0.14273638,-0.060857404,0.17038038,-0.97308403,-9.187241,8.498124,0.5732701,0.31547365,-1.641056,-0.31918624,1
2.099999999999999,,,,,8.703419,0.104685105,-3.6220841,-1.1898869,-0.21193694,0.5131222,2.1648083,-0.14276464,-0.07011386,0.17010124,-0.9725056,-9.180596,8.467697,0.5564402,0.28248316,-1.9499971,-0.3619118,1
2.109999999999999,,,,,8.703419,0.104685105,-3.6220841,-1.1898869,-0.30370277,0.59764624,2.1702874,-0.14275008,-0.08075901,0.17014089,-0.97167474,-9.172299,8.437073,0.53938335,0.25463593,-2.2107582,-0.40254077,1
2.1199999999999988,,,,,8.703419,0.104685105,-3.6220841,-1.1898869,-0.3953765,0.6818627,2.1755946,-0.14271602,-0.09257468,0.17043848,-0.97057307,-9.16214,8.406176,0.5220104,0.2311326,-2.4308534,-0.4411761,1
2.1299999999999986,,,,,9.057941,0.06443385,-3.2930572,-1.0407702,-0.4869386,0.76576865,2.1807263,-0.14268029,-0.10537535,0.17094181,-0.96918344,-9.149947,8.374949,0.50422734,0.21129727,-2.6166244,-0.47791556,1
2.1399999999999983,,,,,9.057941,0.06443385,-3.2930572,-1.0407702,-0.57836515,0.849354,2.185694,-0.14266296,-0.11887017,0.17160523,-0.9675061,-9.135,8.34206,0.4891879,0.18831225,-2.7221098,-0.50553495,1
2.149999999999998,,,,,9.057941,0.06443385,-3.2930572,-1.0407702,-0.6696306,0.9326084,2.1905081,-0.14267775,-0.13281958,0.17239113,-0.9655478,-9.117713,8.308747,0.47352332,0.1689161,-2.811145,-0.5317991,1
2.159999999999998,,,,,9.057941,0.06443385,-3.2930572,-1.0407702,-0.7607112,1.0155275,2.195162,-0.14272815,-0.14714648,0.17326923,-0.96330345,-9.098032,8.27499,0.45713753,0.15254916,-2.8862963,-0.55677444,1
2.1699999999999977,,,,,7.315373,-0.29989815,-3.4850388,-1.3896937,-0.8515828,1.0981067,2.1996481,-0.14281611,-0.16178487,0.17421375,-0.9607694,-9.075915,8.240774,0.43993375,0.13873914,-2.9497278,-0.5805242,1
2.1799999999999975,,,,,7.315373,-0.29989815,-3.4850388,-1.3896937,-0.94224423,1.1803747,2.2038805,-0.14299464,-0.17673834,0.17534651,-0.95789814,-9.056066,8.212757,0.40642574,0.07022401,-3.033185,-0.6202304,1
2.1899999999999973,,,,,7.315373,-0.29989815,-3.4850388,-1.3896937,-1.0326971,1.2623605,2.207774,-0.14331266,-0.19200605,0.17675982,-0.9546467,-9.03421,8.184323,0.3720823,0.012398891,-3.1036284,-0.65798813,1
