time-since-start [s],throttle_mpc,roll_mpc,pitch_mpc,yaw_mpc,throttle_nw,roll_nw,pitch_nw,yaw_nw,position_x [m],position_y [m],position_z [m],rotation_w [quaternion],rotation_x [quaternion],rotation_y [quaternion],rotation_z [quaternion],velocity_x [m/s],velocity_y [m/s],velocity_z [m/s],omega_x [rad/s],omega_y [rad/s],omega_z [rad/s],network_used
0.0,11.498927907822468,1.516484609004361,-5.99999936308825,0.13636912037303703,8.179693,-0.72566867,-3.0331683,0.02046471,11.200798,-9.923618,1.1838444,-0.38654554,0.18547991,-0.1354067,-0.89322156,-5.568972,2.6516507,-0.35480782,-0.4760339,-0.70068884,0.69335943,0
0.01,11.498927907822468,1.516484609004361,-5.99999936308825,0.13636912037303703,8.854403,-1.1038786,-3.7452304,0.1051118,11.144972,-9.8968725,1.1803422,-0.38391688,0.18076585,-0.1323869,-0.8957707,-5.5958424,2.697167,-0.34614685,-0.20751321,-1.4844452,0.66986805,0
0.02,11.498927907822468,1.516484609004361,-5.99999936308825,0.13636912037303703,8.854403,-1.1038786,-3.7452304,0.1051118,11.088886,-9.869685,1.1769118,-0.38210657,0.1722147,-0.12911238,-0.89870274,-5.621071,2.740076,-0.3400546,0.056839153,-2.1837556,0.6441325,0
0.03,11.498927907822468,1.516484609004361,-5.99999936308825,0.13636912037303703,8.854403,-1.1038786,-3.7452304,0.1051118,11.032557,-9.842076,1.1735436,-0.380992,0.16027558,-0.12567304,-0.90186644,-5.6446147,2.7812753,-0.3334157,0.28467488,-2.7788057,0.6192164,0
0.04,11.498927907822468,1.516484609004361,-5.99999936308825,0.13636912037303703,10.033435,-0.11293567,-4.478902,-0.043007687,10.976002,-9.814065,1.1702474,-0.38042125,0.14545149,-0.12209046,-0.9051063,-5.6659026,2.820665,-0.32560584,0.47692713,-3.2810788,0.59552294,0
0.05,11.498927907822468,1.516484609004361,-5.99999936308825,0.13636912037303703,10.033435,-0.11293567,-4.478902,-0.043007687,10.919248,-9.785669,1.1670358,-0.38025832,0.12817319,-0.118377715,-0.9082741,-5.684346,2.8579953,-0.31652585,0.63915575,-3.7050395,0.57299215,0
0.060000000000000005,11.498927907822468,1.516484609004361,-5.99999936308825,0.13636912037303703,10.033435,-0.11293567,-4.478902,-0.043007687,10.862326,-9.756912,1.1639215,-0.38038477,0.10880707,-0.1145442,-0.9112343,-5.699436,2.893042,-0.30615938,0.7760517,-4.062897,0.5515669,0
0.07,11.498927907822468,1.516484609004361,-5.99999936308825,0.13636912037303703,10.033435,-0.11293567,-4.478902,-0.043007687,10.805272,-9.727817,1.160917,-0.3806985,0.0876666,-0.11059707,-0.91386616,-5.710732,2.925603,-0.294565,0.89157254,-4.364958,0.531193,0
0.08,12.177982207638395,1.2971718643787022,-5.999999334431799,0.004040376605711989,11.556438,0.33261874,-5.6360517,-0.7299446,10.748126,-9.69841,1.1580342,-0.3811123,0.06502147,-0.10654222,-0.91606456,-5.7178555,2.9554946,-0.28186733,0.98905706,-4.61992,0.5118188,0
0.09,12.177982207638395,1.2971718643787022,-5.999999334431799,0.004040376605711989,11.556438,0.33261874,-5.6360517,-0.7299446,10.690929,-9.66871,1.155316,-0.38156226,0.04114009,-0.102303505,-0.9177426,-5.720644,2.9841473,-0.26165038,1.0371008,-4.835143,0.486902,0
0.09999999999999999,12.177982207638395,1.2971718643787022,-5.999999334431799,0.004040376605711989,11.556438,0.33261874,-5.6360517,-0.7299446,10.63373,-9.638738,1.1528038,-0.38199905,0.016253252,-0.09782177,-0.9188271,-5.7184157,3.0096178,-0.24069706,1.0776391,-5.0168056,0.46320787,0
0.10999999999999999,12.177982207638395,1.2971718643787022,-5.999999334431799,0.004040376605711989,11.556438,0.33261874,-5.6360517,-0.7299446,10.576578,-9.608528,1.1505036,-0.38237366,-0.009471772,-0.09312544,-0.91925406,-5.710965,3.031744,-0.21928921,1.1118455,-5.17014,0.4406764,0
0.11999999999999998,12.177982207638395,1.2971718643787022,-5.999999334431799,0.004040376605711989,11.556438,0.33261874,-5.6360517,-0.7299446,10.519529,-9.5781145,1.1484187,-0.38264468,-0.035888165,-0.088239565,-0.9189715,-5.6981316,3.0503852,-0.19774462,1.1407101,-5.2995634,0.41925052,0
0.12999999999999998,13.232117607721284,0.5609317802313933,-5.999998776367725,-0.08355045111508164,12.347271,-0.27354187,-3.6347191,-1.0440427,10.462635,-9.547533,1.1465483,-0.38277704,-0.06286651,-0.0831865,-0.9179375,-5.679798,3.0654225,-0.17641003,1.1650683,-5.408805,0.39887604,0
0.13999999999999999,13.232117607721284,0.5609317802313933,-5.999998776367725,-0.08355045111508164,12.347271,-0.27354187,-3.6347191,-1.0440427,10.405964,-9.516814,1.14494,-0.38277262,-0.090178706,-0.07771675,-0.9161401,-5.65383,3.077727,-0.14536318,1.0707926,-5.501042,0.37520322,0
0.15,13.232117607721284,0.5609317802313933,-5.999998776367725,-0.08355045111508164,12.347271,-0.27354187,-3.6347191,-1.0440427,10.349582,-9.485993,1.1436374,-0.38264397,-0.11763342,-0.07163649,-0.913572,-5.6218524,3.0858338,-0.11533721,0.9912172,-5.578888,0.35269204,0
0.16,13.449603754537534,-0.21861256466607845,-4.956872002409486,-0.11592610998083906,12.457808,-0.16795772,-3.144653,-0.9506106,10.293548,-9.455113,1.1426284,-0.3823758,-0.14517249,-0.06504005,-0.9102105,-5.583953,3.0895884,-0.08673281,0.92405087,-5.644588,0.33128548,0
0.17,13.449603754537534,-0.21861256466607845,-4.956872002409486,-0.11592610998083906,12.457808,-0.16795772,-3.144653,-0.9506106,10.237926,-9.424218,1.1419069,-0.38198215,-0.17224506,-0.05788571,-0.90612924,-5.539552,3.0888662,-0.057896912,0.7457507,-5.5373883,0.30934066,0
0.18000000000000002,13.449603754537534,-0.21861256466607845,-4.956872002409486,-0.11592610998083906,12.457808,-0.16795772,-3.144653,-0.9506106,10.1827755,-9.3933525,1.1414629,-0.38149813,-0.19841655,-0.05014958,-0.90142936,-5.489596,3.0835493,-0.03125348,0.5952664,-5.4468956,0.28847268,0
0.19000000000000003,13.449603754537534,-0.21861256466607845,-4.956872002409486,-0.11592610998083906,12.457808,-0.16795772,-3.144653,-0.9506106,10.128151,-9.362563,1.1412731,-0.38093436,-0.22379428,-0.041930635,-0.8961288,-5.434443,3.0736146,-0.007105979,0.46825862,-5.370507,0.26862872,0
0.20000000000000004,12.660607038832081,-0.6654259390873709,-1.0463417323075357,-0.13823162639076084,12.163349,-0.9618465,1.921785,-0.4188375,10.074103,-9.331897,1.1413113,-0.3802952,-0.24846753,-0.03331304,-0.8902412,-5.374427,3.0590582,0.014256503,0.36106485,-5.3060236,0.2497585,0
0.21000000000000005,12.660607038832081,-0.6654259390873709,-1.0463417323075357,-0.13823162639076084,12.163349,-0.9618465,1.921785,-0.4188375,10.02066,-9.301393,1.1415136,-0.37959138,-0.27105898,-0.024805665,-0.88420695,-5.313705,3.041072,0.025770292,0.20081827,-4.641757,0.2307197,0
0.22000000000000006,12.660607038832081,-0.6654259390873709,-1.0463417323075357,-0.13823162639076084,12.163349,-0.9618465,1.921785,-0.4188375,9.967843,-9.271089,1.141817,-0.37888536,-0.290519,-0.016817763,-0.8784996,-5.249397,3.0191786,0.034496274,0.065595165,-4.081075,0.21261515,0
0.23000000000000007,12.660607038832081,-0.6654259390873709,-1.0463417323075357,-0.13823162639076084,12.163349,-0.9618465,1.921785,-0.4188375,9.915683,-9.24102,1.1421944,-0.3782338,-0.30735403,-0.00927899,-0.8731474,-5.1821423,2.9938009,0.040607512,-0.04851351,-3.6078255,0.195399,0
0.24000000000000007,12.660607038832081,-0.6654259390873709,-1.0463417323075357,-0.13823162639076084,11.1186495,-2.2419653,4.7167735,-0.40580577,9.864208,-9.211223,1.1426207,-0.37767154,-0.32198796,-0.0021279152,-0.86814934,-5.112464,2.9652915,0.04429046,-0.14480598,-3.2083743,0.17902766,0
0.25000000000000006,12.660607038832081,-0.6654259390873709,-1.0463417323075357,-0.13823162639076084,11.1186495,-2.2419653,4.7167735,-0.40580577,9.81344,-9.181725,1.1430725,-0.3772184,-0.3347754,0.0046886904,-0.8634869,-5.040791,2.9339447,0.045730516,-0.22606513,-2.8712137,0.16345967,0
0.26000000000000006,12.660607038832081,-0.6654259390873709,-1.0463417323075357,-0.13823162639076084,11.1186495,-2.2419653,4.7167735,-0.40580577,9.763399,-9.152553,1.1435281,-0.3768838,-0.3460129,0.011216699,-0.85913193,-4.9674745,2.9000053,0.045103576,-0.29463866,-2.58663,0.1486556,0
0.2700000000000001,12.660607038832081,-0.6654259390873709,-1.0463417323075357,-0.13823162639076084,11.1186495,-2.2419653,4.7167735,-0.40580577,9.714096,-9.123733,1.1439679,-0.3766703,-0.35594848,0.017495504,-0.855052,-4.8928056,2.8636777,0.042571396,-0.3525076,-2.3464255,0.13457796,0
0.2800000000000001,11.99277325624026,-0.8927985789833764,4.307178426149733,-0.11748180059208886,9.4211445,-0.98634315,5.5133624,0.047262035,9.665547,-9.095286,1.1443734,-0.37657583,-0.3647897,0.023558855,-0.8512133,-4.8170247,2.8251326,0.038279537,-0.40134376,-2.143679,0.121191114,0
0.2900000000000001,11.99277325624026,-0.8927985789833764,4.307178426149733,-0.11748180059208886,9.4211445,-0.98634315,5.5133624,0.047262035,9.61774,-9.067225,1.1447035,-0.37668604,-0.37085932,0.028707603,-0.84837896,-4.74443,2.786723,0.02756993,-0.47807425,-1.1376739,0.10947937,0
0.3000000000000001,11.99277325624026,-0.8927985789833764,4.307178426149733,-0.11748180059208886,9.4211445,-0.98634315,5.5133624,0.047262035,9.57066,-9.039557,1.1449217,-0.37709102,-0.3728551,0.032390285,-0.8471908,-4.6715326,2.7469707,0.016004484,-0.5428133,-0.28855288,0.09834231,0
0.3100000000000001,11.99277325624026,-0.8927985789833764,4.307178426149733,-0.11748180059208886,9.4211445,-0.98634315,5.5133624,0.047262035,9.524308,-9.01229,1.1450229,-0.37777403,-0.37142628,0.034831747,-0.84741724,-4.5988503,2.7064664,0.004271579,-0.5974365,0.42814934,0.08775175,0
0.3200000000000001,10.942674749220249,-0.9481252795238341,5.999999481012215,-0.2528930481945366,7.519742,-0.7708905,5.629117,0.3089822,9.478681,-8.98543,1.1450084,-0.37870267,-0.36710474,0.036221016,-0.84882647,-4.526816,2.6657047,-0.0070407055,-0.64352614,1.0330834,0.077680886,0
0.3300000000000001,10.942674749220249,-0.9481252795238341,5.999999481012215,-0.2528930481945366,7.519742,-0.7708905,5.629117,0.3089822,9.433738,-8.958959,1.1448469,-0.37988263,-0.35974428,0.03647288,-0.8514358,-4.4620347,2.62868,-0.025099568,-0.69104886,1.8076762,0.061459534,0
0.34000000000000014,10.942674749220249,-0.9481252795238341,5.999999481012215,-0.2528930481945366,7.519742,-0.7708905,5.629117,0.3089822,9.389436,-8.932855,1.1445112,-0.38130215,-0.34923598,0.03552548,-0.85520804,-4.3986025,2.5922832,-0.041802876,-0.7311416,2.4614725,0.046034176,0
0.35000000000000014,10.942674749220249,-0.9481252795238341,5.999999481012215,-0.2528930481945366,7.519742,-0.7708905,5.629117,0.3089822,9.34576,-8.90711,1.1440171,-0.38289407,-0.33603078,0.03355704,-0.8598542,-4.3369155,2.5569556,-0.056715444,-0.76496804,3.0133104,0.031365734,0
0.36000000000000015,10.069273107783353,-0.8069776687447446,5.999999787004081,-0.4553370635904942,7.914244,-0.67043495,5.6046944,0.3526761,9.3026905,-8.881711,1.1433843,-0.3845924,-0.32050505,0.030718444,-0.86511356,-4.2773385,2.5230856,-0.06951238,-0.79350954,3.4790893,0.017417077,0
0.37000000000000016,10.069273107783353,-0.8069776687447446,5.999999787004081,-0.4553370635904942,7.914244,-0.67043495,5.6046944,0.3526761,9.260182,-8.856629,1.1426002,-0.38633928,-0.30299863,0.027081098,-0.870747,-4.22477,2.4935818,-0.086965,-0.7955561,3.8722358,-0.0057811104,0
0.38000000000000017,10.069273107783353,-0.8069776687447446,5.999999787004081,-0.4553370635904942,7.914244,-0.67043495,5.6046944,0.3526761,9.218187,-8.831834,1.1416528,-0.38808575,-0.28379926,0.022708593,-0.87654537,-4.1747375,2.4660382,-0.10214441,-0.79727566,4.204071,-0.027840963,0
0.3900000000000002,10.069273107783353,-0.8069776687447446,5.999999787004081,-0.4553370635904942,7.914244,-0.67043495,5.6046944,0.3526761,9.176678,-8.807302,1.1405653,-0.3897861,-0.26313213,0.017709881,-0.88233477,-4.127505,2.4407258,-0.115004554,-0.79872245,4.484156,-0.04881832,0
0.4000000000000002,10.851990500111713,-0.3549727731086018,5.999999823343352,-0.31193371416458127,9.004085,-0.47288764,5.463959,-0.69683903,9.135626,-8.783011,1.1393607,-0.3913994,-0.2411916,0.012178903,-0.8879666,-4.083319,2.4178872,-0.12556404,-0.7999411,4.7205615,-0.068766326,0
0.4100000000000002,10.851990500111713,-0.3549727731086018,5.999999823343352,-0.31193371416458127,9.004085,-0.47288764,5.463959,-0.69683903,9.095016,-8.758944,1.1380966,-0.39283183,-0.21821763,0.00604024,-0.8933239,-4.039227,2.3961782,-0.12692215,-0.7305014,4.9200916,-0.080698624,0
0.4200000000000002,10.851990500111713,-0.3549727731086018,5.999999823343352,-0.31193371416458127,9.004085,-0.47288764,5.463959,-0.69683903,9.054828,-8.735078,1.1368301,-0.39400917,-0.19441503,-0.0007605457,-0.89830893,-3.998854,2.3776217,-0.12602773,-0.67189157,5.088505,-0.0920454,0
0.4300000000000002,10.851990500111713,-0.3549727731086018,5.999999823343352,-0.31193371416458127,9.004085,-0.47288764,5.463959,-0.69683903,9.015024,-8.71138,1.135583,-0.39492378,-0.16989504,-0.008118837,-0.9028317,-3.9623659,2.362444,-0.123071544,-0.622423,5.2306533,-0.10283538,0
0.4400000000000002,10.851990500111713,-0.3549727731086018,5.999999823343352,-0.31193371416458127,9.708293,0.18967348,5.3590755,-0.344248,8.975566,-8.687816,1.134375,-0.39556795,-0.14475662,-0.015943965,-0.90681714,-3.9299161,2.35084,-0.118281595,-0.5806706,5.3506336,-0.11309591,0
0.45000000000000023,10.851990500111713,-0.3549727731086018,5.999999823343352,-0.31193371416458127,9.708293,0.18967348,5.3590755,-0.344248,8.936411,-8.664349,1.1332229,-0.39593446,-0.1190883,-0.024157148,-0.9102034,-3.9016438,2.3429756,-0.11191774,-0.54543096,5.4519033,-0.12285296,0
0.46000000000000024,10.851990500111713,-0.3549727731086018,5.999999823343352,-0.31193371416458127,9.708293,0.18967348,5.3590755,-0.344248,8.897518,-8.640943,1.1321411,-0.39601657,-0.09296984,-0.032689754,-0.91293967,-3.877673,2.3389864,-0.10426687,-0.51568884,5.5373797,-0.13213122,0
0.47000000000000025,10.851990500111713,-0.3549727731086018,5.999999823343352,-0.31193371416458127,9.708293,0.18967348,5.3590755,-0.344248,8.858842,-8.617557,1.131141,-0.39580813,-0.06647341,-0.04148182,-0.9149844,-3.8581102,2.3389819,-0.09563832,-0.4905868,5.6095257,-0.1409542,0
0.48000000000000026,12.61648154163371,0.1231331002795911,5.999999774463065,-0.12029325681531484,10.631866,-0.37567464,5.342156,-0.03210839,8.820339,-8.594151,1.1302305,-0.3953038,-0.039664667,-0.050480798,-0.9163042,-3.8430448,2.3430457,-0.0863598,-0.46940118,5.6704206,-0.1493442,0
0.49000000000000027,12.61648154163371,0.1231331002795911,5.999999774463065,-0.12029325681531484,10.631866,-0.37567464,5.342156,-0.03210839,8.781973,-8.570677,1.1295024,-0.39447135,-0.012680564,-0.05981506,-0.9168717,-3.8308337,2.3525758,-0.059265655,-0.37699604,5.721809,-0.14791864,0
0.5000000000000002,12.61648154163371,0.1231331002795911,5.999999774463065,-0.12029325681531484,10.631866,-0.37567464,5.342156,-0.03210839,8.743704,-8.547083,1.129045,-0.3932883,0.014362539,-0.06958292,-0.9166658,-3.8239367,2.367001,-0.03223454,-0.29900217,5.765185,-0.14656307,0
0.5100000000000002,12.61648154163371,0.1231331002795911,5.999999774463065,-0.12029325681531484,10.631866,-0.37567464,5.342156,-0.03210839,8.705477,-8.523319,1.128856,-0.39176247,0.041434947,-0.07970014,-0.9156709,-3.8223352,2.3863902,-0.005695491,-0.23317179,5.8017974,-0.145274,0
0.5200000000000002,14.914559145905022,0.4780911490329083,5.9999994712858,-0.14847019176149154,11.908269,0.14069945,5.369724,0.043709207,8.667238,-8.499338,1.1289281,-0.3898995,0.06850745,-0.09009362,-0.9138754,-3.8259983,2.4107776,0.01991857,-0.17760801,5.8327017,-0.14404815,0
0.5300000000000002,14.914559145905022,0.4780911490329083,5.9999994712858,-0.14847019176149154,11.908269,0.14069945,5.369724,0.043709207,8.628931,-8.475061,1.1293615,-0.3877177,0.09549632,-0.10082918,-0.91125673,-3.8364928,2.445525,0.0664593,-0.07534898,5.858782,-0.14426515,0
0.5400000000000003,14.914559145905022,0.4780911490329083,5.9999994712858,-0.14847019176149154,11.908269,0.14069945,5.369724,0.043709207,8.5904875,-8.450408,1.1302499,-0.3852364,0.122330196,-0.11195316,-0.90779656,-3.8530366,2.4861991,0.11087362,0.010962561,5.8807964,-0.14447148,0
0.5500000000000003,14.914559145905022,0.4780911490329083,5.9999994712858,-0.14847019176149154,11.908269,0.14069945,5.369724,0.043709207,8.551849,-8.425317,1.1315696,-0.3824598,0.14899732,-0.12337959,-0.9034942,-3.8754911,2.532781,0.15264617,0.0838135,5.899379,-0.14466771,0
0.5600000000000003,15.633708217236457,0.8431145010520579,5.999999047433913,-0.047736297357544165,12.9116745,1.4717202,5.0830584,-0.6920327,8.512959,-8.399732,1.1332918,-0.37939024,0.17548385,-0.13503389,-0.89835083,-3.9037073,2.5852115,0.19126943,0.14530297,5.915065,-0.1448543,0
0.5700000000000003,15.633708217236457,0.8431145010520579,5.999999047433913,-0.047736297357544165,12.9116745,1.4717202,5.0830584,-0.6920327,8.473748,-8.37358,1.1354147,-0.37604466,0.20171735,-0.14698444,-0.8923542,-3.9391477,2.6462076,0.23266143,0.2541092,5.928301,-0.1400887,0
0.5800000000000003,15.633708217236457,0.8431145010520579,5.999999047433913,-0.047736297357544165,12.9116745,1.4717202,5.0830584,-0.6920327,8.434155,-8.346787,1.1379302,-0.37243882,0.22763588,-0.15927976,-0.8854948,-3.9802213,2.713151,0.26971343,0.34594777,5.939475,-0.13555695,0
0.5900000000000003,15.633708217236457,0.8431145010520579,5.999999047433913,-0.047736297357544165,12.9116745,1.4717202,5.0830584,-0.6920327,8.394125,-8.319297,1.1407923,-0.36857137,0.25323752,-0.17183234,-0.877781,-4.0266776,2.7859235,0.30192262,0.42346498,5.9489083,-0.1312476,0
0.6000000000000003,15.782304564640514,1.0578804637994723,5.989545192992498,0.08689885709889338,12.354181,0.5232336,4.6100383,-0.08897051,8.353604,-8.29105,1.1439503,-0.3644402,0.27851692,-0.1845664,-0.869222,-4.0782604,2.8643668,0.32880387,0.48889402,5.956872,-0.12714967,0
0.6100000000000003,15.782304564640514,1.0578804637994723,5.989545192992498,0.08689885709889338,12.354181,0.5232336,4.6100383,-0.08897051,8.31254,-8.261988,1.1473542,-0.36005393,0.303428,-0.19749373,-0.8598191,-4.135239,2.9490879,0.35102394,0.57758653,5.961964,-0.116646245,0
0.6200000000000003,15.782304564640514,1.0578804637994723,5.989545192992498,0.08689885709889338,12.354181,0.5232336,4.6100383,-0.08897051,8.270883,-8.23205,1.1509492,-0.3554194,0.3279299,-0.2106187,-0.84957564,-4.1968203,3.0391352,0.36694273,0.6524497,5.966264,-0.106658235,0
0.6300000000000003,15.782304564640514,1.0578804637994723,5.989545192992498,0.08689885709889338,12.354181,0.5232336,4.6100383,-0.08897051,8.228589,-8.201187,1.15467,-0.35053185,0.35202056,-0.22386956,-0.8385054,-4.262689,3.1342754,0.3761306,0.7156396,5.969895,-0.09716033,0
0.6400000000000003,15.782304564640514,1.0578804637994723,5.989545192992498,0.08689885709889338,12.408884,0.45154706,3.5846972,-0.14717062,8.185616,-8.169349,1.1584474,-0.345387,0.37569472,-0.23718397,-0.82662266,-4.332527,3.2342412,0.37818322,0.768977,5.972961,-0.08812851,0
0.6500000000000004,15.782304564640514,1.0578804637994723,5.989545192992498,0.08689885709889338,12.408884,0.45154706,3.5846972,-0.14717062,8.141925,-8.136487,1.1622078,-0.33998126,0.39894468,-0.25050756,-0.81394213,-4.406013,3.3387341,0.37272292,0.8139981,5.9755487,-0.07953987,0
0.6600000000000004,15.782304564640514,1.0578804637994723,5.989545192992498,0.08689885709889338,12.408884,0.45154706,3.5846972,-0.14717062,8.097483,-8.10256,1.1658747,-0.33431172,0.42176062,-0.26379272,-0.80047923,-4.4828205,3.4474287,0.35940015,0.85199976,5.9777346,-0.071372695,0
0.6700000000000004,15.782304564640514,1.0578804637994723,5.989545192992498,0.08689885709889338,12.408884,0.45154706,3.5846972,-0.14717062,8.0522585,-8.067525,1.1693677,-0.32837656,0.44413123,-0.27699754,-0.7862497,-4.562619,3.559974,0.3378949,0.8840766,5.9795794,-0.06360626,0
0.6800000000000004,14.734881382209565,1.1126187320764103,1.5780848679282105,0.21304349741413656,13.308525,0.31851736,3.3931112,-0.28594112,8.006223,-8.031348,1.1726035,-0.32217476,0.46604383,-0.290085,-0.77126986,-4.645075,3.6759968,0.30791774,0.9111525,5.9811363,-0.056220934,0
0.6900000000000004,14.734881382209565,1.1126187320764103,1.5780848679282105,0.21304349741413656,13.308525,0.31851736,3.3931112,-0.28594112,7.959378,-7.994034,1.1754762,-0.31623495,0.4861369,-0.30249128,-0.75641614,-4.7241826,3.787178,0.26537576,0.9424999,5.29449,-0.04300804,0
0.7000000000000004,14.734881382209565,1.1126187320764103,1.5780848679282105,0.21304349741413656,13.308525,0.31851736,3.3931112,-0.28594112,7.9117336,-7.9555955,1.177885,-0.3110403,0.5034214,-0.31381896,-0.74252164,-4.804855,3.9007246,0.21529973,0.96897477,4.7149253,-0.030443523,0
0.7100000000000004,14.734881382209565,1.1126187320764103,1.5780848679282105,0.21304349741413656,13.308525,0.31851736,3.3931112,-0.28594112,7.863277,-7.916013,1.1797584,-0.30651572,0.51837546,-0.32425576,-0.7295157,-4.8865643,4.016209,0.15836886,0.9913332,4.2257442,-0.018495549,0
0.7200000000000004,13.945253962319955,1.0039477680952205,-4.513432489138055,0.35396989876327256,12.93332,0.65809464,-1.2126322,-0.20719536,7.814,-7.8752666,1.181031,-0.30258557,0.53139156,-0.3339545,-0.71731395,-4.9688926,4.1333046,0.09518729,1.0102142,3.8128502,-0.007133861,0
0.7300000000000004,13.945253962319955,1.0039477680952205,-4.513432489138055,0.35396989876327256,12.93332,0.65809464,-1.2126322,-0.20719536,7.763919,-7.833372,1.1816353,-0.29997405,0.5410799,-0.34230408,-0.7071605,-5.047193,4.2456164,0.024923569,1.0118175,2.5169983,0.010340804,0
0.7400000000000004,13.945253962319955,1.0039477680952205,-4.513432489138055,0.35396989876327256,12.93332,0.65809464,-1.2126322,-0.20719536,7.7130575,-7.7903514,1.1815158,-0.29928353,0.5464096,-0.34883836,-0.7001269,-5.125115,4.3587627,-0.049251873,1.0105814,1.4206176,0.027202787,0
0.7500000000000004,13.945253962319955,1.0039477680952205,-4.513432489138055,0.35396989876327256,12.93332,0.65809464,-1.2126322,-0.20719536,7.6614194,-7.7461944,1.1806419,-0.3002658,0.5481352,-0.35387528,-0.6958164,-5.202402,4.4728146,-0.1257753,1.0095575,0.4952164,0.04323734,0
0.7600000000000005,13.464273952568007,0.7021511695043754,-5.999999532788269,0.3188132081530111,12.396395,0.9405369,-5.595563,0.18512994,7.609013,-7.7008924,1.1789964,-0.3026859,0.54685235,-0.35766098,-0.69383883,-5.278744,4.5876975,-0.20336466,1.008707,-0.2858695,0.058485076,0
0.7700000000000005,13.464273952568007,0.7021511695043754,-5.999999532788269,0.3188132081530111,12.396395,0.9405369,-5.595563,0.18512994,7.555862,-7.6544576,1.1765712,-0.30647781,0.5426592,-0.36011922,-0.6941948,-5.3512955,4.699368,-0.28160715,0.96094304,-1.1769787,0.07125945,0
0.7800000000000005,13.464273952568007,0.7021511695043754,-5.999999532788269,0.3188132081530111,12.396395,0.9405369,-5.595563,0.18512994,7.501992,-7.6069026,1.1733685,-0.31156427,0.5356325,-0.36118096,-0.69683135,-5.422466,4.8117094,-0.3586751,0.92063457,-1.9291208,0.08340698,0
0.7900000000000005,13.464273952568007,0.7021511695043754,-5.999999532788269,0.3188132081530111,12.396395,0.9405369,-5.595563,0.18512994,7.4474187,-7.5582213,1.1694051,-0.31772324,0.52616936,-0.36102584,-0.701326,-5.492042,4.9246163,-0.43355784,0.8866156,-2.563967,0.09495844,0
0.8000000000000005,13.089317641679177,0.37378912165430356,-5.999999835741093,0.26603498698598044,12.183485,1.1695247,-5.7123713,0.09247683,7.3921585,-7.508409,1.1647077,-0.32475567,0.51459074,-0.35979655,-0.7073024,-5.559815,5.0379543,-0.505413,0.85790354,-3.0998101,0.10594307,1
0.8100000000000005,13.089317641679177,0.37378912165430356,-5.999999835741093,0.26603498698598044,12.183485,1.1695247,-5.7123713,0.09247683,7.336261,-7.4575157,1.1592957,-0.33255905,0.50119054,-0.35776457,-0.7142948,-5.6193113,5.1407537,-0.5764033,0.90652734,-3.5072348,0.10528227,1
0.8200000000000005,13.089317641679177,0.37378912165430356,-5.999999835741093,0.26603498698598044,12.183485,1.1695247,-5.7123713,0.09247683,7.2797785,-7.4055934,1.1531926,-0.34103823,0.4862147,-0.35515052,-0.72191155,-5.676738,5.243649,-0.6435701,0.94756365,-3.8511221,0.1046539,1
0.8300000000000005,13.089317641679177,0.37378912165430356,-5.999999835741093,0.26603498698598044,12.183485,1.1695247,-5.7123713,0.09247683,7.222734,-7.3526425,1.1464386,-0.35003915,0.46984306,-0.35199255,-0.7299461,-5.7318463,5.34647,-0.7065606,0.9821965,-4.1413813,0.10405636,1
0.8400000000000005,13.089317641679177,0.37378912165430356,-5.999999835741093,0.26603498698598044,12.572982,1.0554463,-5.874305,-0.0032206327,7.165151,-7.298665,1.1390768,-0.3594286,0.45223,-0.34832314,-0.7382208,-5.784396,5.4490137,-0.76510286,1.0114253,-4.3863745,0.10348814,1
0.8500000000000005,13.089317641679177,0.37378912165430356,-5.999999835741093,0.26603498698598044,12.572982,1.0554463,-5.874305,-0.0032206327,7.107048,-7.2436476,1.1311597,-0.36910206,0.43348145,-0.34410775,-0.7466239,-5.8357477,5.554309,-0.81758046,1.0182903,-4.6184196,0.0982519,1
0.8600000000000005,13.089317641679177,0.37378912165430356,-5.999999835741093,0.26603498698598044,12.572982,1.0554463,-5.874305,-0.0032206327,7.0484467,-7.187581,1.1227424,-0.3789693,0.41369137,-0.33931884,-0.7550525,-5.883997,5.658799,-0.8650948,1.0240817,-4.8142776,0.09327261,1
0.8700000000000006,13.089317641679177,0.37378912165430356,-5.999999835741093,0.26603498698598044,12.572982,1.0554463,-5.874305,-0.0032206327,6.98938,-7.1304755,1.1138753,-0.3889422,0.39296916,-0.33399352,-0.7633789,-5.9289317,5.7621837,-0.9075408,1.0289677,-4.9795914,0.08853767,1
0.8800000000000006,14.687056594148839,-0.18541723619441983,-5.999999840226443,0.559710497276938,14.186886,0.8143361,-6.161985,-0.16235761,6.9298806,-7.0723424,1.1046091,-0.3989443,0.37141195,-0.32816502,-0.77149475,-5.9703517,5.864147,-0.94487417,1.0330901,-5.1191244,0.08403507,1
0.8900000000000006,14.687056594148839,-0.18541723619441983,-5.999999840226443,0.559710497276938,14.186886,0.8143361,-6.161985,-0.16235761,6.869961,-7.0131335,1.0950371,-0.40890536,0.3491125,-0.32176116,-0.77935004,-6.012912,5.977224,-0.96864676,0.99894154,-5.256506,0.07194451,1
0.9000000000000006,14.687056594148839,-0.18541723619441983,-5.999999840226443,0.559710497276938,14.186886,0.8143361,-6.161985,-0.16235761,6.809637,-6.952806,1.0852559,-0.41876823,0.32615426,-0.31472597,-0.7868951,-6.0511255,6.087925,-0.9867015,0.97011757,-5.3724623,0.060447242,1
0.9100000000000006,14.687056594148839,-0.18541723619441983,-5.999999840226443,0.559710497276938,14.186886,0.8143361,-6.161985,-0.16235761,6.748954,-6.8913846,1.0753224,-0.4284879,0.30260676,-0.30711064,-0.79404664,-6.0848417,6.19584,-0.99912965,0.9457885,-5.470334,0.049514145,1
0.9200000000000006,17.011327469714235,-0.7952599246876216,-5.999999693349942,0.6365905656866522,15.55278,-0.023527095,-6.2530537,-0.18636905,6.6879563,-6.8289,1.0652921,-0.43802425,0.27853325,-0.2989611,-0.8007347,-6.113923,6.300563,-1.0060748,0.9252536,-5.5529423,0.039117537,0
0.9300000000000006,17.011327469714235,-0.7952599246876216,-5.999999693349942,0.6365905656866522,15.55278,-0.023527095,-6.2530537,-0.18636905,6.6266665,-6.7652845,1.0553143,-0.4470888,0.25424677,-0.28982922,-0.80713636,-6.1431336,6.421809,-0.98851407,0.65704954,-5.622655,0.0684357,0
0.9400000000000006,17.011327469714235,-0.7952599246876216,-5.999999693349942,0.6365905656866522,15.55278,-0.023527095,-6.2530537,-0.18636905,6.5651126,-6.700481,1.0455431,-0.4554582,0.23000756,-0.27936274,-0.8133946,-6.166836,6.5381274,-0.96479654,0.4306685,-5.681504,0.09631522,0
0.9500000000000006,17.011327469714235,-0.7952599246876216,-5.999999693349942,0.6365905656866522,15.55278,-0.023527095,-6.2530537,-0.18636905,6.5033484,-6.634541,1.0360389,-0.46318272,0.20579751,-0.2677308,-0.81940794,-6.1852417,6.6489162,-0.9351541,0.23958772,-5.7311807,0.1228267,0
0.9600000000000006,18.05318595663077,-1.2830114828100276,-5.999999416482004,0.7263938544316612,16.179113,-0.66818714,-6.21038,0.39553654,6.441426,-6.5675235,1.0268593,-0.47029996,0.1816032,-0.25507948,-0.8250895,-6.1985307,6.7536235,-0.89987147,0.078301854,-5.7731147,0.14803725,0
0.9700000000000006,18.05318595663077,-1.2830114828100276,-5.999999416482004,0.7263938544316612,16.179113,-0.66818714,-6.21038,0.39553654,6.379392,-6.499461,1.0181018,-0.4767945,0.15750512,-0.24137576,-0.8304197,-6.2073793,6.857742,-0.85078365,-0.13388339,-5.80852,0.17641737,0
0.9800000000000006,18.05318595663077,-1.2830114828100276,-5.999999416482004,0.7263938544316612,16.179113,-0.66818714,-6.21038,0.39553654,6.3172956,-6.4303946,1.0098618,-0.48265642,0.13357058,-0.22660214,-0.8353761,-6.211206,6.95432,-0.79643327,-0.3129833,-5.838407,0.20340487,0
0.9900000000000007,18.05318595663077,-1.2830114828100276,-5.999999416482004,0.7263938544316612,16.179113,-0.66818714,-6.21038,0.39553654,6.255185,-6.360402,1.0021898,-0.48791605,0.10977458,-0.21089792,-0.83988667,-6.21024,7.0428557,-0.7372329,-0.4641573,-5.863635,0.22906809,0
1.0000000000000007,18.032741028396487,-1.4331675272630364,-5.999997200423725,0.8087166239077371,16.056837,-0.7028567,-5.8653336,0.50600904,6.193107,-6.289567,0.99513215,-0.4925957,0.08609884,-0.19438435,-0.84389055,-6.204684,7.122899,-0.67363834,-0.5917605,-5.8849297,0.25347203,0
1.0100000000000007,18.032741028396487,-1.4331675272630364,-5.999997200423725,0.8087166239077371,16.056837,-0.7028567,-5.8653336,0.50600904,6.131107,-6.2179756,0.9887294,-0.49669814,0.062558666,-0.17711736,-0.8473528,-6.1947336,7.193964,-0.6063302,-0.72286975,-5.902909,0.28071803,0
1.0200000000000007,18.032741028396487,-1.4331675272630364,-5.999997200423725,0.8087166239077371,16.056837,-0.7028567,-5.8653336,0.50600904,6.069227,-6.1457195,0.9830171,-0.5002245,0.039168935,-0.15914986,-0.8502426,-6.180575,7.255773,-0.535646,-0.8335378,-5.918083,0.30662704,0
1.0300000000000007,18.032741028396487,-1.4331675272630364,-5.999997200423725,0.8087166239077371,16.056837,-0.7028567,-5.8653336,0.50600904,6.0075088,-6.072893,0.9780262,-0.5031865,0.015919283,-0.14057726,-0.85251856,-6.162392,7.308004,-0.46213537,-0.9269521,-5.930891,0.33126473,0
1.0400000000000007,18.032741028396487,-1.4331675272630364,-5.999997200423725,0.8087166239077371,16.35577,-0.85780543,-5.7267885,0.5993076,5.9459915,-5.9995933,0.9737821,-0.5055927,-0.0071956865,-0.12148371,-0.8541463,-6.140356,7.350383,-0.3863755,-1.005803,-5.9417005,0.35469344,0
1.0500000000000007,18.032741028396487,-1.4331675272630364,-5.999997200423725,0.8087166239077371,16.35577,-0.85780543,-5.7267885,0.5993076,5.8847136,-5.9259195,0.97030437,-0.5074492,-0.030177098,-0.10194387,-0.85509765,-6.1146274,7.382684,-0.3089666,-1.0723617,-5.9508233,0.3769725,0
1.0600000000000007,18.032741028396487,-1.4331675272630364,-5.999997200423725,0.8087166239077371,16.35577,-0.85780543,-5.7267885,0.5993076,5.823711,-5.851974,0.9676063,-0.50876063,-0.053022433,-0.08202422,-0.8553497,-6.085361,7.404732,-0.23052756,-1.128545,-5.9585214,0.3981583,0
1.0700000000000007,18.032741028396487,-1.4331675272630364,-5.999997200423725,0.8087166239077371,16.35577,-0.85780543,-5.7267885,0.5993076,5.7630177,-5.7778606,0.9656951,-0.5095305,-0.07572611,-0.061784364,-0.8548842,-6.052707,7.4163966,-0.15169184,-1.1759709,-5.9650173,0.4183045,0
1.0800000000000007,17.0041341277313,-1.3746327535237348,-3.3646345426470816,0.9779334538657583,15.461534,-0.9007269,-4.920687,0.7542292,5.702667,-5.7036824,0.96457154,-0.5097616,-0.09827995,-0.041278053,-0.8536864,-6.016814,7.417598,-0.073103376,-1.2160043,-5.970498,0.43746215,0
1.0900000000000007,17.0041341277313,-1.3746327535237348,-3.3646345426470816,0.9779334538657583,15.461534,-0.9007269,-4.920687,0.7542292,5.64268,-5.6295424,0.96417975,-0.5094102,-0.11978878,-0.021109808,-0.851884,-5.980089,7.4089007,-0.0054273475,-1.2407613,-5.5641437,0.4639832,0
1.1000000000000008,17.0041341277313,-1.3746327535237348,-3.3646345426470816,0.9779334538657583,15.461534,-0.9007269,-4.920687,0.7542292,5.5830736,-5.5555367,0.9644584,-0.5085039,-0.13955227,-0.0017635124,-0.849674,-5.940849,7.39085,0.060915224,-1.2616559,-5.2211585,0.48920292,0
1.1100000000000008,17.0041341277313,-1.3746327535237348,-3.3646345426470816,0.9779334538657583,15.461534,-0.9007269,-4.920687,0.7542292,5.52387,-5.481756,0.9653921,-0.5071322,-0.15782519,0.016880916,-0.8471265,-5.8994713,7.364015,0.12552856,-1.2792895,-4.9316607,0.5131851,0
1.1200000000000008,15.623320781543166,-1.1607354654474484,1.543046629910429,1.1388028907478214,14.824455,-0.99102813,-3.0029452,1.196417,5.4650903,-5.408285,0.96696186,-0.5053627,-0.17482348,0.034926295,-0.84428996,-5.8562794,7.3289013,0.18808305,-1.2941699,-4.6873083,0.53599036,0
1.1300000000000008,15.623320781543166,-1.1607354654474484,1.543046629910429,1.1388028907478214,14.824455,-0.99102813,-3.0029452,1.196417,5.4067316,-5.335188,0.96908134,-0.50330925,-0.1891208,0.051402003,-0.8415884,-5.815231,7.2895594,0.23548983,-1.273627,-3.7157054,0.56557053,0
1.1400000000000008,15.623320781543166,-1.1607354654474484,1.543046629910429,1.1388028907478214,14.824455,-0.99102813,-3.0029452,1.196417,5.348788,-5.2625146,0.97166485,-0.5011424,-0.19962151,0.06555572,-0.83947,-5.7733727,7.2442636,0.2809254,-1.2562696,-2.8956227,0.5936992,0
1.1500000000000008,15.623320781543166,-1.1607354654474484,1.543046629910429,1.1388028907478214,14.824455,-0.99102813,-3.0029452,1.196417,5.2912645,-5.190319,0.9746941,-0.49895838,-0.2069342,0.077762164,-0.8379568,-5.7312555,7.1941733,0.3246857,-1.2415997,-2.2034307,0.62044764,0
1.1600000000000008,14.762833249603867,-0.8101850578115706,5.999980443884252,1.1575724013966613,13.743454,-0.34143773,1.653735,1.3336574,5.2341614,-5.118644,0.9781539,-0.49681127,-0.21156666,0.08833688,-0.83702713,-5.6893325,7.1402435,0.36709145,-1.2291974,-1.6191849,0.64588344,0
1.1700000000000008,14.762833249603867,-0.8101850578115706,5.999980443884252,1.1575724013966613,13.743454,-0.34143773,1.653735,1.3336574,5.177464,-5.0475087,0.981994,-0.49486205,-0.21252033,0.09654394,-0.83703387,-5.6502957,7.086498,0.4008293,-1.164344,-0.43097195,0.6709922,0
1.1800000000000008,14.762833249603867,-0.8101850578115706,5.999980443884252,1.1575724013966613,13.743454,-0.34143773,1.653735,1.3336574,5.121151,-4.976919,0.9861694,-0.49324495,-0.20902291,0.101816766,-0.83824337,-5.612403,7.0312195,0.43426758,-1.1095592,0.57193816,0.6948688,0
1.1900000000000008,14.762833249603867,-0.8101850578115706,5.999980443884252,1.1575724013966613,13.743454,-0.34143773,1.653735,1.3336574,5.0652094,-4.906885,0.99068046,-0.4919191,-0.2017596,0.104621306,-0.8404539,-5.5762224,6.975641,0.46806055,-1.0632751,1.4184436,0.7175738,0
1.2000000000000008,14.380942534399551,-0.4315400093514145,5.999998707821553,1.0626521251993368,12.751896,0.09486864,5.5845184,1.1670797,5.0096188,-4.837404,0.99553365,-0.49081787,-0.19129832,0.1053438,-0.8434484,-5.542253,6.9207983,0.5027457,-1.024169,2.1329358,0.73916465,0
1.2100000000000009,14.380942534399551,-0.4315400093514145,5.999998707821553,1.0626521251993368,12.751896,0.09486864,5.5845184,1.1670797,4.9543505,-4.7684565,1.0007226,-0.48984516,-0.17818867,0.104175,-0.84702283,-5.5117435,6.8689566,0.5352661,-0.93206704,2.7360368,0.75503826,0
1.2200000000000009,14.380942534399551,-0.4315400093514145,5.999998707821553,1.0626521251993368,12.751896,0.09486864,5.5845184,1.1670797,4.8993735,-4.700017,1.0062444,-0.48891065,-0.1628894,0.101278916,-0.8509851,-5.484153,6.8194675,0.56933695,-0.85429204,3.2450795,0.77013296,0
1.2300000000000009,14.380942534399551,-0.4315400093514145,5.999998707821553,1.0626521251993368,12.751896,0.09486864,5.5845184,1.1670797,4.8446565,-4.6320577,1.0121154,-0.4879474,-0.14571731,0.0969156,-0.85514957,-5.4597754,6.7730055,0.6051257,-0.78861356,3.6747332,0.784487,0
1.2400000000000009,14.380942534399551,-0.4315400093514145,5.999998707821553,1.0626521251993368,12.414817,-0.22654918,5.8820558,1.2174624,4.7901664,-4.5645447,1.0183531,-0.48689213,-0.12694268,0.09130416,-0.85935134,-5.438885,6.7301583,0.64269584,-0.733149,4.037379,0.7981366,0
1.2500000000000009,14.380942534399551,-0.4315400093514145,5.999998707821553,1.0626521251993368,12.414817,-0.22654918,5.8820558,1.2174624,4.7358665,-4.49744,1.0249754,-0.48568717,-0.106797844,0.08462996,-0.8634463,-5.4217362,6.691433,0.68201697,-0.6863087,4.3434668,0.81111646,0
1.260000000000001,14.380942534399551,-0.4315400093514145,5.999998707821553,1.0626521251993368,12.414817,-0.22654918,5.8820558,1.2174624,4.6817183,-4.4307003,1.0319991,-0.4842813,-0.08548376,0.07705048,-0.86731017,-5.4085603,6.657271,0.7229754,-0.64675105,4.6018176,0.8234593,0
1.270000000000001,14.380942534399551,-0.4315400093514145,5.999998707821553,1.0626521251993368,12.414817,-0.22654918,5.8820558,1.2174624,4.6276813,-4.3642774,1.0394399,-0.48262995,-0.063175365,0.06870004,-0.870837,-5.3995686,6.6280503,0.76538455,-0.6133426,4.819876,0.83519655,0
1.280000000000001,14.193380288150202,-0.27699449991016367,5.999998516503624,0.9289920136945101,13.165906,0.47243133,5.4995337,0.54826456,4.573712,-4.298121,1.0473111,-0.4806951,-0.040025756,0.059693657,-0.87393725,-5.3949485,6.604092,0.8089952,-0.5851268,5.0039268,0.8463579,0
1.290000000000001,14.193380288150202,-0.27699449991016367,5.999998516503624,0.9289920136945101,13.165906,0.47243133,5.4995337,0.54826456,4.5197663,-4.232175,1.0556138,-0.4784573,-0.016200263,0.05007553,-0.8765319,-5.3948636,6.5859075,0.85164475,-0.5371729,5.159289,0.8504128,0
1.300000000000001,14.193380288150202,-0.27699449991016367,5.999998516503624,0.9289920136945101,13.165906,0.47243133,5.4995337,0.54826456,4.465799,-4.166383,1.064346,-0.47590417,0.008157976,0.03988796,-0.87855405,-5.3993716,6.573414,0.89484036,-0.496684,5.2904177,0.85426867,0
1.310000000000001,14.193380288150202,-0.27699449991016367,5.999998516503624,0.9289920136945101,13.165906,0.47243133,5.4995337,0.54826456,4.4117627,-4.100686,1.0735112,-0.47301573,0.0329521,0.02922075,-0.87995225,-5.408564,6.566797,0.9382055,-0.46249795,5.4010944,0.85793537,0
1.320000000000001,14.203140728636972,-0.2863261057617982,5.9999967465399555,0.7551646294179444,12.9134445,0.905264,4.32364,0.60095334,4.3576117,-4.035026,1.0831093,-0.46977565,0.058095336,0.018151822,-0.8806849,-5.4225116,6.566197,0.98133445,-0.43363348,5.4945087,0.8614221,0
1.330000000000001,14.203140728636972,-0.2863261057617982,5.9999967465399555,0.7551646294179444,12.9134445,0.905264,4.32364,0.60095334,4.3032966,-3.9693413,1.0931361,-0.4661896,0.083511,0.006753687,-0.8807084,-5.441277,6.571714,1.0238954,-0.41068643,5.573354,0.8562081,0
1.340000000000001,14.203140728636972,-0.2863261057617982,5.9999967465399555,0.7551646294179444,12.9134445,0.905264,4.32364,0.60095334,4.2487693,-3.9035704,1.1035835,-0.46226487,0.10912984,-0.004909738,-0.87998724,-5.464882,6.583403,1.0653452,-0.39131126,5.6399007,0.8512499,0
1.350000000000001,14.203140728636972,-0.2863261057617982,5.9999967465399555,0.7551646294179444,12.9134445,0.905264,4.32364,0.60095334,4.193982,-3.837652,1.1144378,-0.45799205,0.1348877,-0.01678643,-0.8785025,-5.493334,6.60128,1.1052262,-0.37495252,5.696068,0.84653497,0
1.360000000000001,13.669865425841722,-0.3031132466849605,4.041415147406126,0.5981708280129431,12.092219,0.05255842,1.6854795,0.6384064,4.138886,-3.7715237,1.1256812,-0.4533641,0.1607261,-0.028830478,-0.8762402,-5.52662,6.6253242,1.1430736,-0.36114052,5.743474,0.8420514,0
1.370000000000001,13.669865425841722,-0.3031132466849605,4.041415147406126,0.5981708280129431,12.092219,0.05255842,1.6854795,0.6384064,4.0834403,-3.7051299,1.1372658,-0.44842437,0.18591146,-0.04063885,-0.8733275,-5.5632505,6.6543097,1.1734254,-0.3519029,5.478047,0.83008415,0
1.380000000000001,13.669865425841722,-0.3031132466849605,4.041415147406126,0.5981708280129431,12.092219,0.05255842,1.6854795,0.6384064,4.027606,-3.6384184,1.1491404,-0.44324642,0.2098707,-0.051894605,-0.86993897,-5.6042595,6.6888137,1.2010634,-0.34413397,5.2540116,0.81870407,0
1.390000000000001,13.669865425841722,-0.3031132466849605,4.041415147406126,0.5981708280129431,12.092219,0.05255842,1.6854795,0.6384064,3.971341,-3.571336,1.1612768,-0.43786228,0.23277152,-0.0626761,-0.86612105,-5.6493993,6.7284636,1.2257347,-0.33760008,5.0649137,0.8078825,0
1.400000000000001,13.21679279187721,-0.3935800968704434,0.3127372400446486,0.4622176005310028,12.227704,0.07502614,-2.1135912,0.88368404,3.9146047,-3.5038326,1.1736442,-0.43229544,0.25475535,-0.07304899,-0.8619073,-5.698449,6.7729244,1.2472181,-0.33210492,4.9053054,0.79759187,0
1.410000000000001,13.21679279187721,-0.3935800968704434,0.3127372400446486,0.4622176005310028,12.227704,0.07502614,-2.1135912,0.88368404,3.8573678,-3.43587,1.1861904,-0.42669225,0.27467984,-0.08239274,-0.8577273,-5.7494183,6.820206,1.2615103,-0.34127474,4.1890955,0.7811349,0
1.420000000000001,13.21679279187721,-0.3935800968704434,0.3127372400446486,0.4622176005310028,12.227704,0.07502614,-2.1135912,0.88368404,3.7996056,-3.367416,1.198864,-0.4212198,0.2916768,-0.090234175,-0.85402364,-5.803491,6.8711133,1.2727298,-0.3490874,3.584579,0.7654855,0
1.430000000000001,13.21679279187721,-0.3935800968704434,0.3127372400446486,0.4622176005310028,12.227704,0.07502614,-2.1135912,0.88368404,3.7412891,-3.2984374,1.2116355,-0.41590804,0.30622134,-0.09682016,-0.8508084,-5.8602266,6.9249744,1.2811512,-0.35574162,3.074337,0.75060403,0
1.440000000000001,13.21679279187721,-0.3935800968704434,0.3127372400446486,0.4622176005310028,11.81181,0.40410453,-4.1279564,0.28914648,3.6823933,-3.228908,1.2244784,-0.41076893,0.31871048,-0.10235663,-0.84806585,-5.919264,6.9812407,1.2870506,-0.36140752,2.6436675,0.7364528,0
1.450000000000001,13.21679279187721,-0.3935800968704434,0.3127372400446486,0.4622176005310028,11.81181,0.40410453,-4.1279564,0.28914648,3.622897,-3.1588058,1.2373687,-0.405803,0.32947582,-0.107015185,-0.8457644,-5.980308,7.039464,1.2906916,-0.3662302,2.2801614,0.722996,0
1.460000000000001,13.21679279187721,-0.3935800968704434,0.3127372400446486,0.4622176005310028,11.81181,0.40410453,-4.1279564,0.28914648,3.5627809,-3.0881133,1.2502851,-0.40100402,0.3387944,-0.11093878,-0.84386414,-6.0431156,7.0992756,1.2923183,-0.37033433,1.9733437,0.7101995,0
1.470000000000001,13.21679279187721,-0.3935800968704434,0.3127372400446486,0.4622176005310028,11.81181,0.40410453,-4.1279564,0.28914648,3.502029,-3.0168161,1.2632087,-0.3963619,0.34689784,-0.11424647,-0.8423223,-6.107487,7.1603746,1.2921523,-0.37382606,1.7143745,0.6980309,0
1.480000000000001,12.604684058563041,-0.4976280641311661,-3.8532569115259765,0.3464515509601529,11.881266,0.023959953,-4.9317465,-0.08957821,3.4406264,-2.9449024,1.2761227,-0.39186448,0.35397992,-0.117037475,-0.8410961,-6.173258,7.2225122,1.290391,-0.37679592,1.4957916,0.6864595,0
1.490000000000001,12.604684058563041,-0.4976280641311661,-3.8532569115259765,0.3464515509601529,11.881266,0.023959953,-4.9317465,-0.08957821,3.378575,-2.8723776,1.2889899,-0.38769558,0.35882106,-0.11870475,-0.84074295,-6.2371454,7.282512,1.2828777,-0.3952592,0.6616063,0.66977525,0
1.500000000000001,12.604684058563041,-0.4976280641311661,-3.8532569115259765,0.3464515509601529,11.881266,0.023959953,-4.9317465,-0.08957821,3.3158808,-2.7992513,1.3017778,-0.3840082,0.36046815,-0.118779674,-0.8417195,-6.3018274,7.3427324,1.2746527,-0.41091672,-0.042486623,0.6539097,0
1.5100000000000011,12.604684058563041,-0.4976280641311661,-3.8532569115259765,0.3464515509601529,11.881266,0.023959953,-4.9317465,-0.08957821,3.252537,-2.7255242,1.3144827,-0.38073796,0.35941988,-0.11751989,-0.84382755,-6.366913,7.4026394,1.2663453,-0.42419228,-0.6367756,0.63882256,0
1.5200000000000011,12.590165639571328,-0.6595807211896926,-5.999992549040032,0.18650555014714398,11.350568,-0.11658253,-5.3815336,0.12202571,3.1885421,-2.6512015,1.3271064,-0.37781912,0.3560876,-0.11513792,-0.84687513,-6.4320674,7.46179,1.2584884,-0.4354462,-1.1383848,0.62447584,0
1.5300000000000011,12.590165639571328,-0.6595807211896926,-5.999992549040032,0.18650555014714398,11.350568,-0.11658253,-5.3815336,0.12202571,3.1238968,-2.5762928,1.339655,-0.3752791,0.3501086,-0.111423634,-0.8509843,-6.4968987,7.5197134,1.2514526,-0.47011757,-1.8965572,0.6029845,0
1.5400000000000011,12.590165639571328,-0.6595807211896926,-5.999992549040032,0.18650555014714398,11.350568,-0.11658253,-5.3815336,0.12202571,3.0586064,-2.5008128,1.3521404,-0.37312138,0.3411967,-0.10621603,-0.8562029,-6.561081,7.575961,1.2459131,-0.4994463,-2.5364907,0.5825478,0
1.5500000000000012,12.590165639571328,-0.6595807211896926,-5.999992549040032,0.18650555014714398,11.350568,-0.11658253,-5.3815336,0.12202571,2.9926789,-2.4247808,1.3645802,-0.37125012,0.3297659,-0.0997417,-0.86225253,-6.624202,7.6300244,1.2423816,-0.5242528,-3.0766246,0.56311387,0
1.5600000000000012,12.548469423651328,-0.7757259376364715,-5.999997558315651,0.0635639547472191,11.8013735,-0.3053863,-6.043518,-0.06690033,2.9261274,-2.3482213,1.3769963,-0.3695777,0.31616232,-0.09219017,-0.8688813,-6.685874,7.681454,1.2412424,-0.5452321,-3.5325236,0.54463357,1
1.5700000000000012,12.548469423651328,-0.7757259376364715,-5.999997558315651,0.0635639547472191,11.8013735,-0.3053863,-6.043518,-0.06690033,2.8589869,-2.2711773,1.3893832,-0.36809754,0.30062872,-0.08383484,-0.8758415,-6.741975,7.726824,1.2365237,-0.50776803,-3.9173017,0.51462543,1
1.5800000000000012,12.548469423651328,-0.7757259376364715,-5.999997558315651,0.0635639547472191,11.8013735,-0.3053863,-6.043518,-0.06690033,2.791295,-2.1936953,1.401736,-0.36680028,0.28337526,-0.07490166,-0.88291895,-6.7960052,7.769053,1.2344595,-0.47617656,-4.242078,0.4860898,1
1.5900000000000012,12.548469423651328,-0.7757259376364715,-5.999997558315651,0.0635639547472191,11.8013735,-0.3053863,-6.043518,-0.06690033,2.7230752,-2.115808,1.4140818,-0.36561027,0.2646299,-0.06547483,-0.88995135,-6.8476124,7.807881,1.235123,-0.44953498,-4.516208,0.45895442,1
1.6000000000000012,12.85458997382611,-0.8179855234777961,-5.999995968191493,0.018209859425498572,12.205964,-0.92053884,-5.9569874,0.2746002,2.6543524,-2.0375504,1.426448,-0.36446336,0.24458922,-0.05562699,-0.896799,-6.8964663,7.843071,1.2385112,-0.42706573,-4.7475905,0.4331506,1
1.6100000000000012,12.85458997382611,-0.8179855234777961,-5.999995968191493,0.018209859425498572,12.205964,-0.92053884,-5.9569874,0.2746002,2.5851483,-1.9589546,1.438879,-0.3632081,0.22352664,-0.04521642,-0.90336674,-6.943838,7.875476,1.2481222,-0.5039943,-4.9362144,0.42537045,1
1.6200000000000012,12.85458997382611,-0.8179855234777961,-5.999995968191493,0.018209859425498572,12.205964,-0.92053884,-5.9569874,0.2746002,2.5154872,-1.8800555,1.4514194,-0.36172226,0.20167243,-0.034134716,-0.90957147,-6.987819,7.903634,1.2603326,-0.5689347,-5.0954185,0.4179721,1
1.6300000000000012,12.85458997382611,-0.8179855234777961,-5.999995968191493,0.018209859425498572,12.205964,-0.92053884,-5.9569874,0.2746002,2.445404,-1.8008972,1.4640939,-0.35999492,0.17912847,-0.022486705,-0.9153202,-7.0282063,7.9273043,1.2749445,-0.62375456,-5.229792,0.41093677,1
1.6400000000000012,12.85458997382611,-0.8179855234777961,-5.999995968191493,0.018209859425498572,12.439019,-1.0541503,-6.0566106,0.084070176,2.374936,-1.7215255,1.4769256,-0.35801676,0.1559857,-0.010363664,-0.92053527,-7.0648065,7.946282,1.2917163,-0.6700308,-5.3432074,0.40424672,1
1.6500000000000012,12.85458997382611,-0.8179855234777961,-5.999995968191493,0.018209859425498572,12.439019,-1.0541503,-6.0566106,0.084070176,2.3041186,-1.641987,1.4899458,-0.35579377,0.1323292,0.002213662,-0.925146,-7.098063,7.9606624,1.3125976,-0.7299628,-5.445642,0.38853556,1
1.6600000000000013,12.85458997382611,-0.8179855234777961,-5.999995968191493,0.018209859425498572,12.439019,-1.0541503,-6.0566106,0.084070176,2.2329893,-1.56233,1.5031831,-0.35333437,0.10823462,0.015222036,-0.9290902,-7.1271157,7.969923,1.3350773,-0.7805516,-5.5320992,0.37359536,1
1.6700000000000013,12.85458997382611,-0.8179855234777961,-5.999995968191493,0.018209859425498572,12.439019,-1.0541503,-6.0566106,0.084070176,2.1615913,-1.4826066,1.5166517,-0.35063457,0.08376708,0.028583005,-0.9323206,-7.1518188,7.9739313,1.3588084,-0.82325333,-5.605071,0.35938826,1
1.6800000000000013,12.8504771559851,-0.7430329213934367,-5.373532995647915,0.017319319460330038,12.54156,-0.8786904,-5.721079,-0.42758286,2.0899684,-1.4028699,1.5303622,-0.34769097,0.058986202,0.04222752,-0.9347988,-7.1720433,7.97259,1.3834202,-0.85929716,-5.6666603,0.34587833,1
1.6900000000000013,12.8504771559851,-0.7430329213934367,-5.373532995647915,0.017319319460330038,12.54156,-0.8786904,-5.721079,-0.42758286,2.0181656,-1.3231738,1.5443268,-0.3445695,0.03402425,0.05599374,-0.93647164,-7.187807,7.965785,1.4095387,-0.86246,-5.6751266,0.30792436,1
1.7000000000000013,12.8504771559851,-0.7430329213934367,-5.373532995647915,0.017319319460330038,12.54156,-0.8786904,-5.721079,-0.42758286,1.9462286,-1.2435728,1.5585533,-0.34133404,0.008992402,0.06974705,-0.9373078,-7.198863,7.9535384,1.435748,-0.86512333,-5.682273,0.2718328,1
1.7100000000000013,12.8504771559851,-0.7430329213934367,-5.373532995647915,0.017319319460330038,12.54156,-0.8786904,-5.721079,-0.42758286,1.8742048,-1.1641215,1.5730406,-0.3379786,-0.016085768,0.08346695,-0.9373075,-7.205155,7.9358954,1.4616405,-0.8673652,-5.688306,0.23751226,1
1.7200000000000013,12.377562895440649,-0.45287008463401507,-2.1159362058635436,0.047788803121787,12.983796,-0.91659355,-5.6472034,-0.61709654,1.8021419,-1.0848733,1.5877837,-0.33449763,-0.04118707,0.09713402,-0.93647224,-7.206643,7.91292,1.4868082,-0.86925185,-5.6933985,0.20487587,0
1.7300000000000013,12.377562895440649,-0.45287008463401507,-2.1159362058635436,0.047788803121787,12.983796,-0.91659355,-5.6472034,-0.61709654,1.7300882,-1.0058792,1.6027651,-0.3309782,-0.064990595,0.1100952,-0.93493795,-7.203407,7.8851175,1.5092623,-0.8044176,-5.1354823,0.19716755,0
1.7400000000000013,12.377562895440649,-0.45287008463401507,-2.1159362058635436,0.047788803121787,12.983796,-0.91659355,-5.6472034,-0.61709654,1.6580889,-0.9271869,1.6179643,-0.32753116,-0.08645411,0.12185096,-0.93295324,-7.195828,7.852644,1.5303488,-0.74967664,-4.6645756,0.1898375,0
1.7500000000000013,12.377562895440649,-0.45287008463401507,-2.1159362058635436,0.047788803121787,12.983796,-0.91659355,-5.6472034,-0.61709654,1.5861852,-0.8488406,1.6333668,-0.32417506,-0.105935484,0.13259086,-0.93064934,-7.1843333,7.8159986,1.5499047,-0.70345837,-4.267108,0.18286714,0
1.7600000000000013,11.764232499737622,-0.028966651609468163,1.8991423306931188,0.06470543710929559,13.45748,-0.1980699,-1.7494193,-0.5350495,1.5144144,-0.7708798,1.6489568,-0.3209175,-0.12373924,0.14247425,-0.92811745,-7.169289,7.7756047,1.5678232,-0.6644362,-3.9316263,0.17623879,0
1.7700000000000014,11.764232499737622,-0.028966651609468163,1.8991423306931188,0.06470543710929559,13.45748,-0.1980699,-1.7494193,-0.5350495,1.442806,-0.69332933,1.6646891,-0.31797507,-0.13869026,0.15096682,-0.92567074,-7.151973,7.7340417,1.5784013,-0.5654504,-3.0223079,0.1707658,0
1.7800000000000014,11.764232499737622,-0.028966651609468163,1.8991423306931188,0.06470543710929559,13.45748,-0.1980699,-1.7494193,-0.5350495,1.3713832,-0.6162077,1.68052,-0.3155474,-0.14988476,0.15766732,-0.9236373,-7.1322784,7.689938,1.5875667,-0.48187914,-2.2547994,0.16556141,0
1.7900000000000014,11.764232499737622,-0.028966651609468163,1.8991423306931188,0.06470543710929559,13.45748,-0.1980699,-1.7494193,-0.5350495,1.3001664,-0.53953725,1.6964366,-0.3135981,-0.15792315,0.16287306,-0.9220571,-7.110854,7.6439104,1.5955877,-0.4113227,-1.6069856,0.16061237,0
1.8000000000000014,11.331447037895146,0.3750165537385667,5.28782245244272,0.043487170758452924,11.453857,0.18383357,2.642808,-0.30755645,1.2291702,-0.46333444,1.7124288,-0.31208208,-0.16330823,0.16682933,-0.9209254,-7.0882416,7.59646,1.6027333,-0.351755,-1.0601995,0.1559062,0
1.8100000000000014,11.331447037895146,0.3750165537385667,5.28782245244272,0.043487170758452924,11.453857,0.18383357,2.642808,-0.30755645,1.1583996,-0.38760254,1.72847,-0.3111556,-0.1652636,0.16916747,-0.92046344,-7.0657997,7.5498223,1.6054373,-0.23851639,-0.070216596,0.15038976,0
1.8200000000000014,11.331447037895146,0.3750165537385667,5.28782245244272,0.043487170758452924,11.453857,0.18383357,2.642808,-0.30755645,1.087854,-0.31233916,1.744537,-0.31093562,-0.16319285,0.16960342,-0.920827,-7.0433693,7.502853,1.6079899,-0.14291567,0.7653765,0.14514403,0
1.8300000000000014,11.331447037895146,0.3750165537385667,5.28782245244272,0.043487170758452924,11.453857,0.18383357,2.642808,-0.30755645,1.0175298,-0.2375446,1.7606306,-0.3113134,-0.15772094,0.16843194,-0.92186725,-7.0216107,7.4561377,1.6108071,-0.062206604,1.4706572,0.1401557,0
1.8400000000000014,11.331447037895146,0.3750165537385667,5.28782245244272,0.043487170758452924,11.494356,0.48301873,4.699043,-0.12261066,0.94741756,-0.16321379,1.7767551,-0.31218392,-0.1493693,0.16589496,-0.92342263,-7.0010853,7.410175,1.6142256,0.005930016,2.0659482,0.13541213,1
1.8500000000000014,11.331447037895146,0.3750165537385667,5.28782245244272,0.043487170758452924,11.494356,0.48301873,4.699043,-0.12261066,0.8775037,-0.089340255,1.7929254,-0.31342396,-0.1388098,0.16222341,-0.92530066,-6.9819946,7.3647475,1.6199689,0.080315694,2.4765837,0.12275088,1
1.8600000000000014,11.331447037895146,0.3750165537385667,5.28782245244272,0.043487170758452924,11.494356,0.48301873,4.699043,-0.12261066,0.80777055,-0.015913507,1.809158,-0.3149319,-0.12659866,0.15760984,-0.92733514,-6.9649825,7.3208694,1.6267337,0.14311147,2.8231788,0.11071092,1
1.8700000000000014,11.331447037895146,0.3750165537385667,5.28782245244272,0.043487170758452924,11.494356,0.48301873,4.699043,-0.12261066,0.7381959,0.0570835,1.8254638,-0.31664607,-0.11298422,0.15218747,-0.9294135,-6.95033,7.278843,1.6346061,0.1961218,3.1157207,0.09926175,1
1.8800000000000014,10.977060500952572,0.6305071862617674,5.999782269893665,0.019767899555776524,11.583687,0.7541689,3.5788941,-0.52818996,0.66875494,0.12967065,1.841854,-0.3185123,-0.09817753,0.14606911,-0.9314374,-6.9382772,7.238937,1.6436191,0.24087113,3.3626404,0.088374406,0
1.8900000000000015,10.977060500952572,0.6305071862617674,5.999782269893665,0.019767899555776524,11.583687,0.7541689,3.5788941,-0.52818996,0.5994184,0.20187894,1.8583157,-0.3205343,-0.081889085,0.13913035,-0.9333785,-6.9294667,7.2030983,1.6488938,0.3016192,3.7739038,0.085007876,0
1.9000000000000015,10.977060500952572,0.6305071862617674,5.999782269893665,0.019767899555776524,11.583687,0.7541689,3.5788941,-0.52818996,0.5301553,0.2737415,1.8748355,-0.32269728,-0.06389784,0.13127345,-0.93517464,-6.9236445,7.169849,1.6552386,0.3528986,4.1210303,0.08180653,0
1.9100000000000015,10.977060500952572,0.6305071862617674,5.999782269893665,0.019767899555776524,11.583687,0.7541689,3.5788941,-0.52818996,0.46093425,0.34528592,1.891424,-0.32493165,-0.044464618,0.122623846,-0.93669975,-6.9210916,7.1395073,1.6625935,0.39618474,4.414022,0.07876228,0
1.9200000000000015,10.46735968634268,0.7509643541183871,5.415033993266058,0.04435875956339901,10.885148,0.91360384,3.210737,-0.47545052,0.3917214,0.41654265,1.9080905,-0.32717708,-0.023814041,0.11328922,-0.9378455,-6.9220424,7.112356,1.6708399,0.43272343,4.6613216,0.07586741,0
1.9300000000000015,10.46735968634268,0.7509643541183871,5.415033993266058,0.04435875956339901,10.885148,0.91360384,3.210737,-0.47545052,0.3224817,0.4875505,1.9248184,-0.3293534,-0.0023755296,0.10339459,-0.93852586,-6.9264636,7.0897427,1.6748366,0.48235193,4.7788644,0.07432126,0
1.9400000000000015,10.46735968634268,0.7509643541183871,5.415033993266058,0.04435875956339901,10.885148,0.91360384,3.210737,-0.47545052,0.2531798,0.5583494,1.9415889,-0.33140227,0.019495688,0.09304813,-0.9386879,-6.934482,7.070583,1.6793191,0.5242416,4.8780766,0.072851,0
1.9500000000000015,10.46735968634268,0.7509643541183871,5.415033993266058,0.04435875956339901,10.885148,0.91360384,3.210737,-0.47545052,0.18377955,0.6289745,1.9584057,-0.33330476,0.04171892,0.08231383,-0.93829226,-6.9461365,7.0550194,1.6840608,0.5595993,4.9618163,0.07145286,0
1.9600000000000015,9.830711403074963,0.7211500528033457,2.860588251708777,0.11097946111021345,10.576908,0.77555215,1.6179229,-0.021559216,0.114244476,0.6994625,1.9752703,-0.33504444,0.0642227,0.07124761,-0.9373073,-6.9614472,7.0431724,1.6888182,0.5894437,5.0324965,0.070123345,0
1.9700000000000015,9.830711403074963,0.7211500528033457,2.860588251708777,0.11097946111021345,10.576908,0.77555215,1.6179229,-0.021559216,0.04454369,0.76985353,1.9921501,-0.33653522,0.08599166,0.06025325,-0.9357988,-6.97923,7.0356007,1.6870971,0.6099925,4.69379,0.07212816,0
1.9800000000000015,9.830711403074963,0.7211500528033457,2.860588251708777,0.11097946111021345,10.576908,0.77555215,1.6179229,-0.021559216,-0.025351007,0.84018624,2.0090108,-0.33774152,0.106223434,0.049659837,-0.9339066,-7.0001817,7.031467,1.684948,0.6273354,4.407905,0.07403461,0
1.9900000000000015,9.830711403074963,0.7211500528033457,2.860588251708777,0.11097946111021345,10.576908,0.77555215,1.6179229,-0.021559216,-0.09546991,0.9104941,2.0258472,-0.338714,0.12514806,0.03941021,-0.9316963,-7.0240316,7.0306053,1.6822065,0.64197236,4.1666036,0.0758475,0
2.0000000000000013,,,,,9.725073,0.92067826,-0.5456858,0.25218096,-0.1658408,0.9808091,2.0426524,-0.33949172,0.1429605,0.029455021,-0.92921495,-7.0505476,7.032872,1.6787361,0.65432554,3.9629326,0.07757144,1
2.010000000000001,,,,,9.725073,0.92067826,-0.5456858,0.25218096,-0.23648769,1.0511615,2.059414,-0.34007013,0.15853606,0.020138603,-0.92672193,-7.0791707,7.0380487,1.6734293,0.6958803,3.259822,0.08613959,1
2.020000000000001,,,,,9.725073,0.92067826,-0.5456858,0.25218096,-0.30743083,1.121579,2.0761185,-0.34047818,0.17100574,0.01173233,-0.9244969,-7.109721,7.045817,1.6673255,0.7309564,2.666361,0.09428729,1
2.0300000000000007,,,,,9.725073,0.92067826,-0.5456858,0.25218096,-0.37868708,1.1920856,2.0927582,-0.34077826,0.1808641,0.004097105,-0.9225736,-7.141727,7.055819,1.6605095,0.760563,2.1654499,0.10203518,1
2.0400000000000005,,,,,9.725073,0.92067826,-0.5456858,0.25218096,-0.450269,1.2627022,2.1093266,-0.34101245,0.18852624,-0.0028860527,-0.9209563,-7.174797,7.0677543,1.6530805,0.78555244,1.742655,0.10940288,1
2.0500000000000003,,,,,9.310752,1.3451953,-4.9657464,0.5922782,-0.5221856,1.3334466,2.125818,-0.34120876,0.19434048,-0.009318443,-0.9196314,-7.208608,7.0813704,1.6451408,0.80664426,1.3857948,0.11640904,1
2.06,,,,,9.310752,1.3451953,-4.9657464,0.5922782,-0.5944424,1.4043345,2.1422274,-0.3414294,0.19697674,-0.014978813,-0.91891354,-7.2425885,7.09631,1.6361767,0.92616874,0.4307682,0.13655989,1
2.07,,,,,9.310752,1.3451953,-4.9657464,0.5922782,-0.66703296,1.4753747,2.1585314,-0.34169996,0.19533111,-0.019556718,-0.9190783,-7.275341,7.111767,1.6243675,0.9962996,-0.40609062,0.15848576,1
2.0799999999999996,,,,,9.310752,1.3451953,-4.9657464,0.5922782,-0.73994625,1.5465716,2.1747146,-0.3419937,0.19001722,-0.02311096,-0.9200001,-7.307152,7.1276784,1.612313,1.050798,-1.1171463,0.17977208,1
2.0899999999999994,,,,,9.415389,1.1166563,-5.64811,-0.047169432,-0.8131716,1.6179287,2.1907792,-0.34229377,0.1815946,-0.025795586,-0.9215169,-7.3376803,7.143741,1.6006931,1.0968015,-1.7173135,0.20001388,1
2.099999999999999,,,,,9.415389,1.1166563,-5.64811,-0.047169432,-0.8866956,1.6894467,2.2067354,-0.34263945,0.17031534,-0.02755341,-0.9234891,-7.3668094,7.1598005,1.5906738,1.0999594,-2.3303273,0.18788454,1
2.109999999999999,,,,,9.415389,1.1166563,-5.64811,-0.047169432,-0.96050036,1.761123,2.2225952,-0.34306228,0.15640052,-0.028343787,-0.9257668,-7.393776,7.1753297,1.5814337,1.1026051,-2.8477414,0.17635037,1
2.1199999999999988,,,,,9.415389,1.1166563,-5.64811,-0.047169432,-1.0345625,1.8329504,2.238367,-0.34352612,0.14024359,-0.02831352,-0.9281812,-7.418203,7.1900115,1.5730666,1.1048231,-3.284465,0.1653822,1
2.1299999999999986,,,,,9.490771,0.60428804,-5.839837,-0.33226877,-1.1088545,1.9049193,2.2540598,-0.34399456,0.12217832,-0.02758664,-0.9305802,-7.4397593,7.2035737,1.5656058,1.1066834,-3.653082,0.15495226,1
2.1399999999999983,,,,,9.490771,0.60428804,-5.839837,-0.33226877,-1.1833475,1.9770178,2.269686,-0.34444377,0.102489546,-0.026046686,-0.93283236,-7.458306,7.215869,1.559762,1.0283076,-3.9941292,0.13104416,1
2.149999999999998,,,,,9.490771,0.60428804,-5.839837,-0.33226877,-1.2580088,2.0492313,2.285258,-0.34485897,0.081421405,-0.023607137,-0.9348186,-7.4734373,7.226527,1.5547408,0.9621431,-4.281986,0.10830927,1
2.159999999999998,,,,,9.490771,0.60428804,-5.839837,-0.33226877,-1.3328036,2.1215417,2.3007836,-0.34521818,0.059184216,-0.020406146,-0.93643236,-7.4849577,7.235307,1.5504291,0.9062894,-4.524949,0.08668997,1
2.1699999999999977,,,,,10.158421,-0.28230634,-5.6054206,0.106088,-1.4076949,2.1939301,2.3162687,-0.3454999,0.03596015,-0.016561735,-0.93758345,-7.4927,7.242001,1.5466751,0.8591408,-4.7300196,0.06613153,1
2.1799999999999975,,,,,10.158421,-0.28230634,-5.6054206,0.106088,-1.4826458,2.2663758,2.3317516,-0.34562245,0.012117559,-0.011876371,-0.93822044,-7.4968085,7.2467365,1.5499563,0.6811448,-4.866545,0.06809222,1
