t,px,py,pz,qx,qy,qz,qw,vx,vy,vz,wx,wy,wz,throttle_mpc,roll_mpc,pitch_mpc,yaw_mpc,throttle_nw,roll_nw,pitch_nw,yaw_nw,network_used
-2.0,15.654562,-11.459228,1.4821948999999999,-0.44004184,0.3999778,0.80303735,0.038883213,-11.633496000000001,-3.4217690000000003,0.05460716,1.8413004000000002,-0.3097791,-0.07397731,10.60089116296102,5.9999997484708665,-5.999999937264966,-4.66285198875445,11.969378,-0.8907552,-3.2283998,-1.1769651,0
-1.99,15.537633,-11.492846499999999,1.4825069,-0.43841922,0.40676599999999996,0.80023307,0.04423886,-11.751679,-3.3018994,0.0074413326,1.7621251,-0.46968058,-0.23408991,10.60089116296102,5.9999997484708665,-5.999999937264966,-4.66285198875445,13.663722,-4.1861809999999995,-5.5143094,0.57368356,0
-1.98,15.41954,-11.525263,1.4823369,-0.43645123,0.41290012,0.79779834,0.050414905,-11.866425,-3.1814325,-0.041742336,1.7208979,-0.6302644000000001,-0.38863635,10.60089116296102,5.9999997484708665,-5.999999937264966,-4.66285198875445,13.663722,-4.1861809999999995,-5.5143094,0.57368356,0
-1.97,15.300317999999999,-11.556473,1.4816661,-0.4341215,0.41852784,0.795657,0.057471555,-11.977569,-3.0604877,-0.092680156,1.7123089,-0.7920404999999999,-0.5379440999999999,10.60089116296102,5.9999997484708665,-5.999999937264966,-4.66285198875445,13.663722,-4.1861809999999995,-5.5143094,0.57368356,0
-1.96,15.180003,-11.586472,1.480478,-0.4314085999999999,0.42377254,0.7937371,0.065459244,-12.084936,-2.9391446,-0.14514323,1.7317599999999997,-0.9553236999999999,-0.6823142,10.60089116296102,5.9999997484708665,-5.999999937264966,-4.66285198875445,7.776515,-2.8299162,-5.695832299999999,-1.3324338,0
-1.95,15.058632999999999,-11.615255,1.4787586000000001,-0.42828736,0.4287366,0.79197013,0.074419536,-12.188345,-2.8174539000000003,-0.19893177,1.7752683,-1.1202722,-0.8220238000000001,10.60089116296102,5.9999997484708665,-5.999999937264966,-4.66285198875445,7.776515,-2.8299162,-5.695832299999999,-1.3324338,0
-1.94,14.93625,-11.64282,1.4764954,-0.42472944,0.43350390000000005,0.79029006,0.084385864,-12.287600999999999,-2.6954474,-0.25386998,1.8393768,-1.2869251,-0.95732796,10.60089116296102,5.9999997484708665,-5.999999937264966,-4.66285198875445,7.776515,-2.8299162,-5.695832299999999,-1.3324338,0
-1.93,14.812895999999999,-11.669164,1.4736778,-0.420704,0.43814179999999997,0.78863287,0.095384136,-12.382508,-2.5731473,-0.3098017,1.9210832999999998,-1.4552299,-1.0884615,10.60089116296102,5.9999997484708665,-5.999999937264966,-4.66285198875445,7.776515,-2.8299162,-5.695832299999999,-1.3324338,0
-1.92,14.688616,-11.694283,1.4702964,-0.41617826,0.44270299999999996,0.7869357,0.10743323,-12.47286,-2.4505727000000004,-0.3665864,2.0177784,-1.625065,-1.2156414,13.847456840444625,5.999999898721728,-5.9999999787822285,-4.574910795380187,12.675707000000001,-2.5163207,-7.259268799999999,0.50535065,0
-1.91,14.563392000000002,-11.718083,1.4663737,-0.41089430000000005,0.44739142,0.78512484,0.12077107,-12.5710535,-2.309612,-0.41810495,2.2270582,-1.8963112000000002,-1.34368,13.847456840444625,5.999999898721728,-5.9999999787822285,-4.574910795380187,12.675707000000001,-2.5163207,-7.259268799999999,0.50535065,0
-1.9,14.437216000000001,-11.740475,1.4619316999999998,-0.40460667,0.45237035,0.78311247,0.13560726,-12.663149,-2.1686096,-0.47040138,2.4397227999999997,-2.1613474,-1.4686593000000001,13.847456840444625,5.999999898721728,-5.9999999787822285,-4.574910795380187,12.675707000000001,-2.5163207,-7.259268799999999,0.50535065,0
-1.89,14.31015,-11.761455999999999,1.4569637,-0.39729749999999997,0.45761436,0.780812,0.15190887,-12.748753,-2.0274985,-0.5233142,2.6547104999999998,-2.420604,-1.5906813,13.847456840444625,5.999999898721728,-5.9999999787822285,-4.574910795380187,12.675707000000001,-2.5163207,-7.259268799999999,0.50535065,0
-1.8800000000000001,14.182262,-11.781025,1.4514639,-0.38894537,0.46308940000000004,0.77813405,0.16963774,-12.827484,-1.8862700000000001,-0.57669324,2.871117,-2.674436,-1.7098426,13.847456840444625,5.999999898721728,-5.9999999787822285,-4.574910795380187,12.675707000000001,-2.5163207,-7.259268799999999,0.50535065,0
-1.87,14.053624,-11.799180999999999,1.4454287000000001,-0.3795263,0.46875329999999993,0.7749861,0.18874998,-12.898978999999999,-1.744978,-0.63039774,3.088173,-2.9231377,-1.8262342,18.50166930839628,5.999999954291398,-5.999999997530643,-4.118290337923739,12.253307000000001,-1.3172872,-7.310219999999999,0.17195019,0
-1.8599999999999999,13.924252,-11.8158,1.4388945,-0.36853832,0.47483420000000004,0.77122265,0.20958902,-12.974089999999999,-1.5788566000000002,-0.67650723,3.4944382000000007,-3.3566203000000003,-1.9344578999999997,18.50166930839628,5.999999954291398,-5.999999997530643,-4.118290337923739,12.253307000000001,-1.3172872,-7.310219999999999,0.17195019,0
-1.85,13.794176,-11.830761,1.431898,-0.35551209999999994,0.48148155,0.76665616,0.23243245,-13.039403,-1.4130751,-0.7227051999999999,3.878572,-3.7637715,-2.0410774,18.50166930839628,5.999999954291398,-5.999999997530643,-4.118290337923739,12.253307000000001,-1.3172872,-7.310219999999999,0.17195019,0
-1.84,13.663495999999999,-11.844053,1.4244442,-0.34057054,0.48847568,0.7611420999999999,0.2570328,-13.095183,-1.2448268999999998,-0.7678522,4.2086716,-4.1132273999999995,-2.1430067999999998,20.999999515487797,5.999999939794288,-5.999999987199309,-3.6051013175676654,12.684395,-0.33300117,-5.7907705,-0.075009495,0
-1.83,13.532276999999999,-11.855534,1.4165823,-0.32389486,0.49558735,0.7545785,0.2830134,-13.146751,-1.0508646000000001,-0.8042539000000001,4.487412,-4.4080667,-2.2147522,20.999999515487797,5.999999939794288,-5.999999987199309,-3.6051013175676654,12.684395,-0.33300117,-5.7907705,-0.075009495,0
-1.82,13.400604999999999,-11.865063000000001,1.4083651000000001,-0.30564782,0.5026199,0.7468826,0.31003055,-13.185567,-0.85452324,-0.83887786,4.7227345000000005,-4.6568765999999995,-2.2829769,20.999999515487797,5.999999939794288,-5.999999987199309,-3.6051013175676654,12.684395,-0.33300117,-5.7907705,-0.075009495,0
-1.81,13.268613,-11.872619,1.3998113,-0.28600317,0.5093878,0.73797244,0.33782086,-13.210776999999998,-0.65660626,-0.8715746999999999,4.921406299999999,-4.8668394,-2.3478537,20.999999515487797,5.999999939794288,-5.999999987199309,-3.6051013175676654,12.684395,-0.33300117,-5.7907705,-0.075009495,0
-1.8,13.136439000000001,-11.878192,1.3909405000000001,-0.2651176,0.5157345,0.7277823,0.3661468,-13.221698000000002,-0.45807484,-0.9022279000000001,5.089139,-5.044016,-2.4095470000000003,21.0,5.8896267107708375,-5.999999714749874,-3.4302158707018684,14.075438,-0.90357125,-7.549095599999999,0.1878632,0
-1.79,13.004230499999998,-11.881782000000001,1.381774,-0.24313964,0.52150327,0.71629363,0.39476684,-13.217807999999998,-0.26002014,-0.93074965,5.213571,-5.193466,-2.4596317,21.0,5.8896267107708375,-5.999999714749874,-3.4302158707018684,14.075438,-0.90357125,-7.549095599999999,0.1878632,0
-1.7799999999999998,12.872136,-11.883398,1.3723333,-0.22020562,0.5265675,0.70350057,0.42346543,-13.198773000000001,-0.06363698,-0.9570697,5.318635,-5.3195777,-2.5072584,21.0,5.8896267107708375,-5.999999714749874,-3.4302158707018684,14.075438,-0.90357125,-7.549095599999999,0.1878632,0
-1.77,12.740309,-11.883065,1.3626403999999999,-0.1964358,0.5308485,0.68937796,0.45207390000000003,-13.164435000000001,0.12980898,-0.9811445,5.407346700000001,-5.425993,-2.5525484,21.0,5.8896267107708375,-5.999999714749874,-3.4302158707018684,14.075438,-0.90357125,-7.549095599999999,0.1878632,0
-1.7599999999999998,12.608901,-11.880816000000001,1.352718,-0.17194174,0.5342819000000001,0.6739126,0.48043802,-13.114794,0.31900746,-1.0029606,5.4822545,-5.5157875999999995,-2.5956159,21.0,5.8896267107708375,-5.999999714749874,-3.4302158707018684,15.063572,-0.8763386999999999,-6.797218300000001,0.18117914,0
-1.75,12.4780655,-11.876703,1.3425888000000001,-0.1468276,0.53681606,0.6571018,0.50841653,-13.050013,0.502626,-1.0225327,5.545507,-5.5915555999999995,-2.63657,21.0,5.8896267107708375,-5.999999714749874,-3.4302158707018684,15.063572,-0.8763386999999999,-6.797218300000001,0.18117914,0
-1.7399999999999998,12.347951,-11.870789,1.3322748,-0.121190965,0.5384101,0.63895243,0.53587973,-12.970410000000001,0.6793307,-1.0399015999999999,5.598919,-5.655486,-2.6755145000000002,21.0,5.8896267107708375,-5.999999714749874,-3.4302158707018684,15.063572,-0.8763386999999999,-6.797218300000001,0.18117914,0
-1.73,12.218706,-11.863147,1.321798,-0.09512379,0.53903246,0.6194795,0.5627083,-12.876458,0.8478058,-1.0551326,5.644023000000001,-5.709427400000001,-2.7125478,21.0,5.8896267107708375,-5.999999714749874,-3.4302158707018684,15.063572,-0.8763386999999999,-6.797218300000001,0.18117914,0
-1.72,12.09047,-11.853866,1.3111792,-0.068712994,0.5386595000000001,0.5987053000000001,0.5887923,-12.768771000000001,1.0067714,-1.0683132,5.6821127,-5.754939599999999,-2.747764,21.0,2.6428091980265283,-5.542680794789164,0.7436795369334931,14.9180155,-0.55091417,-5.2827644,0.25443992,0
-1.71,11.963376,-11.843048,1.3004386000000001,-0.042650174000000006,0.5366688000000001,0.57767195,0.61356556,-12.648184,1.1550723,-1.0794822,5.209144599999999,-5.7200975,-2.5764668,21.0,2.6428091980265283,-5.542680794789164,0.7436795369334931,14.9180155,-0.55091417,-5.2827644,0.25443992,0
-1.7,11.837545,-11.830805,1.2895973,-0.017492907,0.53265834,0.5573498,0.63665557,-12.516217,1.2918737,-1.0884194,4.8095784,-5.6912456,-2.4135463,21.0,2.6428091980265283,-5.542680794789164,0.7436795369334931,14.9180155,-0.55091417,-5.2827644,0.25443992,0
-1.69,11.713085000000001,-11.817252,1.2786790000000001,0.0068723178000000005,0.52690256,0.5376531999999999,0.6582214,-12.374438,1.4166638999999999,-1.0948262,4.4722815,-5.667093,-2.2586205,21.0,2.6428091980265283,-5.542680794789164,0.7436795369334931,14.9180155,-0.55091417,-5.2827644,0.25443992,0
-1.68,11.590086,-11.802514,1.2677101999999998,0.030546375,0.5196249,0.5185017,0.6783899,-12.224309,1.5290343000000002,-1.0984985,4.1875480000000005,-5.6468678,-2.111297,20.99999998801712,0.9319985786953215,-3.3373537468040806,1.928040257853057,14.531644,-1.2179284,-3.1175354,0.79575783,0
-1.67,11.468628,-11.786712,1.2567214,0.05277709999999999,0.51130563,0.5003063,0.6967601999999999,-12.066675,1.6291316,-1.0989867,3.6884522000000004,-5.278118599999999,-1.9137679,20.99999998801712,0.9319985786953215,-3.3373537468040806,1.928040257853057,14.531644,-1.2179284,-3.1175354,0.79575783,0
-1.66,11.34877,-11.769974000000001,1.2457392,0.07298908400000001,0.50235206,0.48349205,0.7131272,-11.904142,1.716637,-1.0970242000000001,3.259576,-4.9745193,-1.7252493000000002,20.99999998801712,0.9319985786953215,-3.3373537468040806,1.928040257853057,14.531644,-1.2179284,-3.1175354,0.79575783,0
-1.65,11.230559,-11.7524185,1.2347902,0.09151161,0.49288797,0.4679601,0.72780526,-11.737511999999999,1.7925229,-1.0923431000000001,2.8974322999999997,-4.7184563,-1.5459813,20.99999998801712,0.9319985786953215,-3.3373537468040806,1.928040257853057,14.531644,-1.2179284,-3.1175354,0.79575783,0
-1.64,11.114030999999999,-11.734160000000001,1.2239015,0.10862630599999999,0.48301134,0.45360458,0.7410420999999999,-11.567899,1.8573732,-1.0850106000000002,2.5916426,-4.502475700000001,-1.3755101,20.999999796266973,-0.5267034404018787,-0.6231973131122561,2.591155525671877,15.174910999999998,-1.3514938,-0.60277224,0.6551675,0
-1.63,10.999222,-11.715303,1.2131068999999999,0.12366263,0.47324076,0.44082200000000005,0.75261337,-11.394093,1.9125386000000002,-1.0737529,2.0791774,-3.9239564,-1.1833208,20.999999796266973,-0.5267034404018787,-0.6231973131122561,2.591155525671877,15.174910999999998,-1.3514938,-0.60277224,0.6551675,0
-1.6199999999999999,10.886146,-11.695944,1.2024298,0.13615683,0.46415216,0.4299325,0.7623531,-11.221148,1.9578906000000003,-1.0613968,1.6718894,-3.4103991999999996,-0.9982664000000001,20.999999796266973,-0.5267034404018787,-0.6231973131122561,2.591155525671877,15.174910999999998,-1.3514938,-0.60277224,0.6551675,0
-1.6099999999999999,10.7748,-11.676172,1.1918862,0.14657602,0.45576295,0.42075196,0.7705605,-11.047836,1.995353,-1.0470009,1.3296473999999998,-2.9753592,-0.82213247,20.999999796266973,-0.5267034404018787,-0.6231973131122561,2.591155525671877,15.174910999999998,-1.3514938,-0.60277224,0.6551675,0
-1.5999999999999999,10.665189,-11.656058999999999,1.1814965,0.15528978,0.44799614,0.4131236,0.7775046999999999,-10.87447,2.0261014,-1.0306646000000002,1.040634,-2.6082706,-0.6546414,20.99999926639874,-1.7472461341379302,1.8024327931772548,2.8955060248300133,16.000248000000003,-2.5471703999999997,1.8271171000000002,-0.0058646537,0
-1.5899999999999999,10.557311,-11.635669,1.1712798999999998,0.16184142,0.44131687,0.4073063,0.78303796,-10.701243,2.0512304,-1.012469,0.60484654,-1.9217011000000002,-0.48057815,20.99999926639874,-1.7472461341379302,1.8024327931772548,2.8955060248300133,16.000248000000003,-2.5471703999999997,1.8271171000000002,-0.0058646537,0
-1.5799999999999998,10.451161,-11.615049,1.1612523000000001,0.16589634,0.43611458,0.40350214,0.78706324,-10.528617,2.0721881,-0.9928418999999999,0.23836899,-1.3407818999999999,-0.31491274,20.99999926639874,-1.7472461341379302,1.8024327931772548,2.8955060248300133,16.000248000000003,-2.5471703999999997,1.8271171000000002,-0.0058646537,0
-1.5699999999999998,10.346736,-11.594234,1.1514274,0.16788976,0.43217775,0.40149125,0.7898356,-10.356562,2.0904553,-0.9719357,-0.071095675,-0.8505414000000001,-0.15737654,20.99999926639874,-1.7472461341379302,1.8024327931772548,2.8955060248300133,16.000248000000003,-2.5471703999999997,1.8271171000000002,-0.0058646537,0
-1.5599999999999998,10.244028,-11.573244,1.1418173,0.16818188,0.42931199999999997,0.40107259999999995,0.7915471,-10.185117,2.107267,-0.9499361999999999,-0.33240288,-0.43681592,-0.0075707175,20.99999926639874,-1.7472461341379302,1.8024327931772548,2.8955060248300133,16.350866,-2.8441560000000004,4.609568,-0.77030015,0
-1.5499999999999998,10.14303,-11.55209,1.1324321000000002,0.16707139,0.42734355,0.40206477,0.79234374,-10.014297000000001,2.1236656000000003,-0.9269921999999998,-0.5530354000000001,-0.087655395,0.13488412,20.99999926639874,-1.7472461341379302,1.8024327931772548,2.8955060248300133,16.350866,-2.8441560000000004,4.609568,-0.77030015,0
-1.5399999999999998,10.043739,-11.53077,1.1232803999999998,0.16480637,0.42611954,0.40430585,0.79233694,-9.844109,2.1405303,-0.9032261999999999,-0.7393147,0.20702222,0.27034867,20.99999926639874,-1.7472461341379302,1.8024327931772548,2.8955060248300133,16.350866,-2.8441560000000004,4.609568,-0.77030015,0
-1.5299999999999998,9.946146,-11.509275,1.11437,0.16159312,0.42550686,0.40765202,0.79161316,-9.674561500000001,2.1586017999999996,-0.87874234,-0.8965818999999999,0.45572335,0.39916593,20.99999926639874,-1.7472461341379302,1.8024327931772548,2.8955060248300133,16.350866,-2.8441560000000004,4.609568,-0.77030015,0
-1.5199999999999998,9.850245,-11.487591,1.1057078000000002,0.15760347,0.42539078,0.41197622,0.7902401,-9.505674,2.1785026000000003,-0.85363084,-1.0293492,0.6656258,0.52166206,20.999999539706696,-3.0398375638064903,3.528231307739082,3.1033806848593675,17.0487,-2.116545,5.3794319999999995,-1.1928992,0
-1.5099999999999998,9.75603,-11.465695,1.0972993,0.15229666,0.42599848,0.4175127,0.7880446,-9.337491,2.2008349999999997,-0.8279778,-1.3431247,1.1118313,0.6483478,20.999999539706696,-3.0398375638064903,3.528231307739082,3.1033806848593675,17.0487,-2.116545,5.3794319999999995,-1.1928992,0
-1.4999999999999998,9.663492,-11.443562,1.0891496,0.14524564,0.42748994,0.42442724,0.7848679000000001,-9.170111,2.2265669999999997,-0.80189896,-1.6080003,1.4884305,0.76881695,20.999999539706696,-3.0398375638064903,3.528231307739082,3.1033806848593675,17.0487,-2.116545,5.3794319999999995,-1.1928992,0
-1.4899999999999998,9.572624000000001,-11.421149,1.0812624,0.13673493,0.42968100000000004,0.43251809999999996,0.7807725999999999,-9.003685,2.2566652,-0.7755211999999999,-1.8315873,1.8062886999999999,0.8833747,20.999999539706696,-3.0398375638064903,3.528231307739082,3.1033806848593675,17.0487,-2.116545,5.3794319999999995,-1.1928992,0
-1.4799999999999998,9.483416,-11.39841,1.0736398999999999,0.12700386,0.43241322,0.44160706,0.7758041,-8.838407499999999,2.2919322999999996,-0.74897295,-2.0203137,2.0745735,0.99231094,20.999999752273744,-3.671885161074732,4.2279703776984485,3.0344775168866795,17.652397,-2.152238,6.1890279999999995,-1.6441699,0
-1.4699999999999998,9.395853,-11.375289,1.0662831,0.11593006,0.43565446,0.45167294,0.7699071,-8.674522,2.3330642999999998,-0.7223874,-2.2782482999999996,2.41008,1.0925207000000001,20.999999752273744,-3.671885161074732,4.2279703776984485,3.0344775168866795,17.652397,-2.152238,6.1890279999999995,-1.6441699,0
-1.4599999999999997,9.309919,-11.351725,1.0591917,0.103423744,0.43935907,0.46267343,0.76302063,-8.5123625,2.3808238999999998,-0.6959115,-2.4959528,2.69327,1.1878132,20.999999752273744,-3.671885161074732,4.2279703776984485,3.0344775168866795,17.652397,-2.152238,6.1890279999999995,-1.6441699,0
-1.4499999999999997,9.225597,-11.327647,1.0523639999999999,0.08971675,0.44338320000000003,0.47443116,0.7551671,-8.352326,2.43589,-0.6697081,-2.679696,2.9323056,1.2784295,20.999999752273744,-3.671885161074732,4.2279703776984485,3.0344775168866795,17.652397,-2.152238,6.1890279999999995,-1.6441699,0
-1.4399999999999997,9.142863,-11.30298,1.045796,0.075007126,0.44760463,0.4867898,0.74636436,-8.194856,2.4987937999999996,-0.64395213,-2.834771,3.134076,1.3645992,20.999999789828696,-3.6446136756529217,4.021153985560324,2.8476342196901787,18.963003,-2.1264362,6.941242,-1.2779818,0
-1.4299999999999997,9.061689,-11.277642,1.0394827,0.05950331,0.45186594,0.49958396,0.7366766,-8.040426,2.569929,-0.61882496,-2.9613428,3.272163,1.4373722,20.999999789828696,-3.6446136756529217,4.021153985560324,2.8476342196901787,18.963003,-2.1264362,6.941242,-1.2779818,0
-1.4199999999999997,8.982042,-11.251552,1.0334169,0.043381825,0.45604035,0.5126715999999999,0.72616315,-7.889541,2.6495333,-0.5944917,-3.0681599999999998,3.3887296,1.5065742,20.999999789828696,-3.6446136756529217,4.021153985560324,2.8476342196901787,18.963003,-2.1264362,6.941242,-1.2779818,0
-1.4099999999999997,8.903885,-11.224622,1.0275896999999998,0.026757642999999998,0.46007395,0.5259550000000001,0.7148336999999999,-7.7427177,2.737733,-0.57111585,-3.1583035,3.4871323,1.5723804,20.999999789828696,-3.6446136756529217,4.021153985560324,2.8476342196901787,18.963003,-2.1264362,6.941242,-1.2779818,0
-1.3999999999999997,8.827172000000001,-11.196767,1.0219907,0.009730343,0.46392187,0.5393474,0.7026992,-7.600480999999999,2.834567,-0.548866,-3.2343740000000003,3.570203,1.6349576000000001,20.99999977340027,-3.3358651336224003,3.0568559978850502,2.5588029662230127,20.124989000000003,-2.0401525,5.641083999999999,-0.91716546,0
-1.3899999999999997,8.751857000000001,-11.167900999999999,1.0166079,-0.007333788000000001,0.46734790000000004,0.5526907,0.6899748,-7.463346499999999,2.9399637999999997,-0.5278948,-3.2502196,3.4900339,1.6802909,20.99999977340027,-3.3358651336224003,3.0568559978850502,2.5588029662230127,20.124989000000003,-2.0401525,5.641083999999999,-0.91716546,0
-1.3799999999999997,8.677886,-11.137939,1.0114281999999999,-0.024136627,0.47018190000000004,0.56586975,0.6768589,-7.3317614,3.0536043999999998,-0.5082515999999999,-3.2635982000000006,3.4223735,1.7233998,20.99999977340027,-3.3358651336224003,3.0568559978850502,2.5588029662230127,20.124989000000003,-2.0401525,5.641083999999999,-0.91716546,0
-1.3699999999999997,8.605201,-11.106800999999999,1.0064381,-0.040691078,0.47247756,0.5788689,0.6633401,-7.2061253,3.175093,-0.4899541,-3.2748942000000003,3.365271,1.7643931000000002,20.99999977340027,-3.3358651336224003,3.0568559978850502,2.5588029662230127,20.124989000000003,-2.0401525,5.641083999999999,-0.91716546,0
-1.3599999999999997,8.533741000000001,-11.074411,1.0016243,-0.057008065,0.47427967,0.59167165,0.64941025,-7.0868125,3.304032,-0.47302586,-3.2844317000000003,3.3170794999999997,1.803375,20.99999977340027,-3.3358651336224003,3.0568559978850502,2.5588029662230127,19.644157,-1.8474365000000001,4.803449,-0.5122877,0
-1.3499999999999996,8.463442,-11.040697,0.99697286,-0.07309667,0.47562570000000004,0.6042607,0.63506395,-6.9741740000000005,3.4400212999999997,-0.45749474,-3.2924843,3.2764091,1.840444,20.99999977340027,-3.3358651336224003,3.0568559978850502,2.5588029662230127,19.644157,-1.8474365000000001,4.803449,-0.5122877,0
-1.3399999999999996,8.394235,-11.005589,0.9924696,-0.088964276,0.47654682,0.6166186,0.6202984,-6.868539,3.5826542000000003,-0.44339179999999995,-3.299283,3.242086,1.875694,20.99999977340027,-3.3358651336224003,3.0568559978850502,2.5588029662230127,19.644157,-1.8474365000000001,4.803449,-0.5122877,0
-1.3299999999999996,8.326047,-10.969023,0.98810005,-0.10461669999999999,0.47706914,0.628728,0.6051129,-6.7702136,3.7315197,-0.43074968,-3.3050230000000003,3.2131202,1.9092145,20.99999977340027,-3.3358651336224003,3.0568559978850502,2.5588029662230127,19.644157,-1.8474365000000001,4.803449,-0.5122877,0
-1.3199999999999996,8.258804,-10.930939,0.9838494000000001,-0.12005832,0.47721437,0.6405715,0.5895089,-6.6794853000000005,3.8861997,-0.41960200000000003,-3.3098687999999994,3.1886764,1.9410900000000002,20.999999678989425,-2.82171391791738,1.729765745018932,2.0979325383042644,18.17991,-2.3196423,2.3897982000000004,-0.33290586,0
-1.3099999999999996,8.19243,-10.891281,0.9797027,-0.13485786,0.4768204000000001,0.65207195,0.57381,-6.5965867,4.0462356,-0.40995517,-3.2334688,2.9612397999999995,1.9487863999999997,20.999999678989425,-2.82171391791738,1.729765745018932,2.0979325383042644,18.17991,-2.3196423,2.3897982000000004,-0.33290586,0
-1.2999999999999996,8.126845,-10.849998,0.97564554,-0.14867833,0.4757849,0.6631912,0.55830187,-6.521545400000001,4.2109857,-0.40165997,-3.1690252,2.7692587000000004,1.9561051,20.999999678989425,-2.82171391791738,1.729765745018932,2.0979325383042644,18.17991,-2.3196423,2.3897982000000004,-0.33290586,0
-1.2899999999999996,8.061972,-10.807047,0.97166544,-0.16165085,0.47420117,0.67396295,0.5429331000000001,-6.4543137999999995,4.3798065,-0.39452982,-3.1146677000000005,2.6072052,1.9630647,20.999999678989425,-2.82171391791738,1.729765745018932,2.0979325383042644,18.17991,-2.3196423,2.3897982000000004,-0.33290586,0
-1.2799999999999996,7.997732000000001,-10.76239,0.9677515,-0.17388706,0.47214478,0.68441147,0.52765864,-6.394839,4.552124,-0.38840014,-3.0688176,2.470414,1.9696827000000001,20.99999923687297,-2.2855184225363256,0.059439658184726324,1.4238228209658157,17.972464000000002,-2.4386577999999997,1.5442690000000001,0.039465632,0
-1.2699999999999996,7.934048700000001,-10.715994,0.9638946,-0.18495053,0.4694647,0.6945335,0.51285416,-6.343026,4.727386,-0.38308924,-2.9461436,2.0946326,1.9428971999999998,20.99999923687297,-2.2855184225363256,0.059439658184726324,1.4238228209658157,17.972464000000002,-2.4386577999999997,1.5442690000000001,0.039465632,0
-1.2599999999999996,7.8708463,-10.667833,0.96008825,-0.19450775,0.46606642,0.7043495,0.49883935,-6.298535299999999,4.9049087,-0.37822378,-2.8426888,1.7774235,1.9174259999999999,20.99999923687297,-2.2855184225363256,0.059439658184726324,1.4238228209658157,17.972464000000002,-2.4386577999999997,1.5442690000000001,0.039465632,0
-1.2499999999999996,7.808053999999999,-10.617889,0.9563299999999999,-0.20278539,0.46207609999999993,0.7139018,0.4854978,-6.260965000000001,5.0840535000000004,-0.37340614,-2.75544,1.5096571,1.8932048,20.99999923687297,-2.2855184225363256,0.059439658184726324,1.4238228209658157,17.972464000000002,-2.4386577999999997,1.5442690000000001,0.039465632,0
-1.2399999999999995,7.745603999999999,-10.566149000000001,0.95262116,-0.20997539999999998,0.45759386,0.72322005,0.4727273,-6.2299514,5.2642812999999995,-0.36829394,-2.681858,1.2836275,1.8701721000000002,20.999988029276224,-1.649762134279975,-1.7011389277633682,0.6042708063574644,17.759233,-2.5641036,0.6707456,0.13128504,0
-1.2299999999999995,7.683433,-10.512602000000001,0.9489662,-0.21565661,0.45253563,0.73231435,0.46089005,-6.205114,5.445107,-0.36255676,-2.5203027999999996,0.8184538,1.808054,20.999988029276224,-1.649762134279975,-1.7011389277633682,0.6042708063574644,17.759233,-2.5641036,0.6707456,0.13128504,0
-1.2199999999999995,7.6214824000000005,-10.457247,0.9453739,-0.21951006,0.44685167,0.7412042,0.45028383,-6.185807700000001,5.6259623,-0.35569772,-2.3840630000000003,0.42577693,1.748984,20.999988029276224,-1.649762134279975,-1.7011389277633682,0.6042708063574644,17.759233,-2.5641036,0.6707456,0.13128504,0
-1.2099999999999995,7.5597,-10.4000845,0.9418579,-0.2218224,0.44065455,0.7499143,0.44073483,-6.1713567000000005,5.806327,-0.34722507,-2.2691677,0.0942998,1.6928126000000001,20.999988029276224,-1.649762134279975,-1.7011389277633682,0.6042708063574644,17.759233,-2.5641036,0.6707456,0.13128504,0
-1.1999999999999995,7.498040700000001,-10.341123,0.9384363000000001,-0.22283472,0.43403146,0.75845784,0.4320917,-6.161164299999999,5.985774500000001,-0.3367295,-2.172269,-0.18551512,1.6393974999999998,19.22202582938489,-1.1919317593602017,-2.9470801282603496,0.03575292494157748,17.53503,-3.2533436,0.49879572,0.54192156,0
-1.1899999999999995,7.436461,-10.280448,0.93508464,-0.22232233,0.42696124,0.766843,0.42453367,-6.1552157,6.1488466,-0.33324499999999996,-2.018957,-0.61591214,1.5607063,19.22202582938489,-1.1919317593602017,-2.9470801282603496,0.03575292494157748,17.53503,-3.2533436,0.49879572,0.54192156,0
-1.1799999999999995,7.3749270000000005,-10.21815,0.93178034,-0.22011809,0.41943115,0.77507126,0.41819865,-6.1519856,6.310358,-0.32717678,-1.8896605,-0.97923267,1.4858764,19.22202582938489,-1.1919317593602017,-2.9470801282603496,0.03575292494157748,17.53503,-3.2533436,0.49879572,0.54192156,0
-1.1699999999999995,7.3134146,-10.154246,0.9285511999999999,-0.216486,0.41151124,0.7831343000000001,0.41290793,-6.150821700000001,6.469957,-0.31815943,-1.7806121,-1.285929,1.4147185,19.22202582938489,-1.1919317593602017,-2.9470801282603496,0.03575292494157748,17.53503,-3.2533436,0.49879572,0.54192156,0
-1.1599999999999995,7.251906,-10.088758,0.9254281999999999,-0.21164806,0.40325567,0.79101914,0.40850776,-6.1511555,6.627339999999999,-0.30590627,-1.6886366999999998,-1.5448251,1.3470521999999998,19.22202582938489,-1.1919317593602017,-2.9470801282603496,0.03575292494157748,16.438612,-3.8811904999999998,-0.1336012,0.58668274,0
-1.1499999999999995,7.1903880000000004,-10.0217085,0.92244494,-0.20579126,0.39470685,0.7987111,0.40486652,-6.152491599999999,6.782236999999999,-0.2901988,-1.6110578000000002,-1.7633704,1.2827063,19.22202582938489,-1.1919317593602017,-2.9470801282603496,0.03575292494157748,16.438612,-3.8811904999999998,-0.1336012,0.58668274,0
-1.1399999999999995,7.1288543,-9.953123,0.91963667,-0.19907331,0.38589865,0.8061953000000001,0.40187195,-6.1543975,6.9344068,-0.2708776,-1.5456187,-1.9478526999999999,1.2215178999999998,19.22202582938489,-1.1919317593602017,-2.9470801282603496,0.03575292494157748,16.438612,-3.8811904999999998,-0.1336012,0.58668274,0
-1.1299999999999994,7.0673,-9.883030999999999,0.91704017,-0.19162739999999998,0.37685840000000004,0.8134577,0.39942843,-6.156494599999999,7.083626299999999,-0.24783398,-1.4904169,-2.1035812000000003,1.1633321,19.22202582938489,-1.1919317593602017,-2.9470801282603496,0.03575292494157748,16.438612,-3.8811904999999998,-0.1336012,0.58668274,0
-1.1199999999999994,7.005725,-9.811460499999999,0.914693,-0.18356615,0.3676087,0.82048583,0.39745465,-6.1584525,7.229692,-0.22100295,-1.4438492,-2.2350369999999997,1.1080014999999999,17.768752990201033,-0.883887986449178,-3.565626757635036,-0.3444600980805055,16.425629999999998,-3.8891468000000002,-1.2363853,1.0601922,0
-1.1099999999999994,6.944133,-9.738502,0.9125848,-0.17474928,0.35816276,0.82724875,0.39603218,-6.1598463,7.3616147,-0.20008370000000003,-1.356487,-2.4424157,1.0367287,17.768752990201033,-0.883887986449178,-3.565626757635036,-0.3444600980805055,16.425629999999998,-3.8891468000000002,-1.2363853,1.0601922,0
-1.0999999999999994,6.8825307,-9.66424,0.9107036000000001,-0.16507007,0.348531,0.8337133,0.39522147,-6.16046,7.490228699999999,-0.17559129999999998,-1.2827829,-2.6174734,0.96895343,17.768752990201033,-0.883887986449178,-3.565626757635036,-0.3444600980805055,16.425629999999998,-3.8891468000000002,-1.2363853,1.0601922,0
-1.0899999999999994,6.8209276,-9.588709,0.9090853000000001,-0.15466198,0.3387268,0.8398655,0.39492998,-6.1599393,7.615325500000001,-0.14751223,-1.2205982,-2.7652464,0.9045038000000001,17.768752990201033,-0.883887986449178,-3.565626757635036,-0.3444600980805055,16.425629999999998,-3.8891468000000002,-1.2363853,1.0601922,0
-1.0799999999999994,6.7593369999999995,-9.511946,0.90776557,-0.14363821,0.32876137,0.84569293,0.39507887,-6.1579766,7.7367077,-0.11587028,-1.1681302,-2.8899875,0.8432166999999999,16.203139842750115,-0.8228893799227726,-3.651165865183456,-0.5234987520593096,14.583732000000001,-3.5766358,-1.2405313999999998,1.0684874,0
-1.0699999999999994,6.6977720000000005,-9.43404,0.9067215000000001,-0.13206337,0.31864864,0.8511731,0.3956343,-6.1546307,7.8438362999999995,-0.09246161,-1.1143562,-3.0086145,0.7761515999999999,16.203139842750115,-0.8228893799227726,-3.651165865183456,-0.5234987520593096,14.583732000000001,-3.5766358,-1.2405313999999998,1.0684874,0
-1.0599999999999994,6.63625,-9.355082000000001,0.9059271000000001,-0.11999461,0.30840054,0.85628545,0.3965671,-6.149503,7.9472394,-0.06592817599999999,-1.0689806,-3.1087527,0.7123774,16.203139842750115,-0.8228893799227726,-3.651165865183456,-0.5234987520593096,14.583732000000001,-3.5766358,-1.2405313999999998,1.0684874,0
-1.0499999999999994,6.574789,-9.275109,0.9054133,-0.10751076,0.29802394,0.86102337,0.39782134,-6.1423974,8.046757000000001,-0.036365706,-1.0306897,-3.193283,0.6517326,16.203139842750115,-0.8228893799227726,-3.651165865183456,-0.5234987520593096,14.583732000000001,-3.5766358,-1.2405313999999998,1.0684874,0
-1.0399999999999994,6.5134096,-9.19416,0.9052098,-0.09467891,0.28752545,0.8653815999999999,0.39934899999999995,-6.1331472,8.142236,-0.0038898623999999997,-0.99837565,-3.2646384,0.59406364,14.795589121408543,-0.8293129809407742,-3.3463101526347585,-0.5861910435290704,15.75975,-3.7533345000000002,-2.391441,1.4930048,0
-1.0299999999999994,6.452129,-9.112319,0.9052872999999999,-0.0816653,0.27695772,0.86934406,0.40108112,-6.122620599999999,8.225605,0.019779239,-0.9721291999999999,-3.277328,0.53614825,14.795589121408543,-0.8293129809407742,-3.3463101526347585,-0.5861910435290704,15.75975,-3.7533345000000002,-2.391441,1.4930048,0
-1.0199999999999994,6.3909645,-9.029663000000001,0.9056136,-0.06860632400000001,0.26636553,0.8729043,0.40296474,-6.1099442999999996,8.305067,0.04583249599999999,-0.94997156,-3.2880437000000007,0.48107475,14.795589121408543,-0.8293129809407742,-3.3463101526347585,-0.5861910435290704,15.75975,-3.7533345000000002,-2.391441,1.4930048,0
-1.0099999999999993,6.3299375,-8.946232,0.9062116,-0.05551432,0.25574450000000004,0.8760719000000001,0.40498263,-6.0950755999999995,8.380545,0.07410881,-0.9312648000000001,-3.2970927000000003,0.4287037,14.795589121408543,-0.8293129809407742,-3.3463101526347585,-0.5861910435290704,15.75975,-3.7533345000000002,-2.391441,1.4930048,0
-0.9999999999999991,6.2690706,-8.862067,0.9071028,-0.04239979,0.2450915,0.8788552,0.40711895,-6.077979599999999,8.451963000000001,0.10444586,-0.91547066,-3.304734,0.37890250000000003,13.793795304343956,-0.8551974963177487,-2.528121160253537,-0.5722429904434063,14.972088000000001,-3.119167,-1.3785174,1.3979576999999999,0
-0.9899999999999991,6.2083793,-8.777231,0.90826297,-0.029563697000000003,0.23453008,0.88125575,0.40927973,-6.0599566,8.514708500000001,0.12785058,-0.906198,-3.1835918,0.33222952,13.793795304343956,-0.8551974963177487,-2.528121160253537,-0.5722429904434063,14.972088000000001,-3.119167,-1.3785174,1.3979576999999999,0
-0.9799999999999991,6.147878599999999,-8.691787,0.9096653,-0.017246301999999998,0.22416253,0.8832924000000001,0.4113981,-6.0399265,8.573646,0.15283804,-0.89835614,-3.081344,0.28784683,13.793795304343956,-0.8551974963177487,-2.528121160253537,-0.5722429904434063,14.972088000000001,-3.119167,-1.3785174,1.3979576999999999,0
-0.9699999999999993,6.0875874,-8.605771,0.9113245999999999,-0.0053734583999999995,0.21395828,0.8849940000000001,0.41349579999999997,-6.017985299999999,8.628824,0.17923392,-0.8917244000000001,-2.9950435,0.245642,13.793795304343956,-0.8551974963177487,-2.528121160253537,-0.5722429904434063,14.972088000000001,-3.119167,-1.3785174,1.3979576999999999,0
-0.9599999999999993,6.027525,-8.519223,0.91325426,0.0061180290000000005,0.20389141,0.88638407,0.4155891,-5.9942183,8.680286,0.20688027,-0.8861162,-2.9222029999999997,0.20550814,13.793795304343956,-0.8551974963177487,-2.528121160253537,-0.5722429904434063,14.899004000000001,-3.1442912,-1.0218959,1.6704283,0
-0.9499999999999993,5.967708999999999,-8.432178500000001,0.915466,0.017281955,0.19394001,0.88748175,0.41768992,-5.968701,8.728066,0.23563218,-0.88137394,-2.8607235,0.16734368,13.793795304343956,-0.8551974963177487,-2.528121160253537,-0.5722429904434063,14.899004000000001,-3.1442912,-1.0218959,1.6704283,0
-0.9399999999999993,5.9081564,-8.344674000000001,0.9179702,0.028164066,0.18408567,0.88830274,0.4198067,-5.941501000000001,8.77219,0.26535526,-0.8773639000000001,-2.8088333999999997,0.13105196,13.793795304343956,-0.8551974963177487,-2.528121160253537,-0.5722429904434063,14.899004000000001,-3.1442912,-1.0218959,1.6704283,0
-0.9299999999999993,5.848884,-8.256747,0.920776,0.03880322,0.17431289,0.88885987,0.42194504,-5.912681,8.81268,0.29592353,-0.873973,-2.7650363,0.09654108,13.793795304343956,-0.8551974963177487,-2.528121160253537,-0.5722429904434063,14.899004000000001,-3.1442912,-1.0218959,1.6704283,0
-0.9199999999999993,5.7899080000000005,-8.168434,0.9238912,0.049232397000000004,0.16460879,0.8891639000000001,0.42410829999999994,-5.8822975,8.849553,0.3272177,-0.87110573,-2.7280705000000003,0.06372366,12.983850270933912,-0.9163017967131016,-1.593927162415776,-0.4847011694375954,14.696539000000001,-2.872158,-0.5056102,2.37953,0
-0.9099999999999993,5.7312335999999995,-8.07978,0.9272843000000001,0.059138656,0.15509963,0.88925487,0.42623085,-5.85229,8.880884,0.35148996,-0.8782064,-2.5511863,0.036812300000000006,12.983850270933912,-0.9163017967131016,-1.593927162415776,-0.4847011694375954,14.696539000000001,-2.872158,-0.5056102,2.37953,0
-0.8999999999999992,5.672866,-7.990828,0.93092257,0.068276376,0.1458876,0.88918054,0.42826784,-5.8210180000000005,8.908952000000001,0.37623683,-0.8841911,-2.401888,0.011221481,12.983850270933912,-0.9163017967131016,-1.593927162415776,-0.4847011694375954,14.696539000000001,-2.872158,-0.5056102,2.37953,0
-0.8899999999999992,5.6148167,-7.9016113,0.93481034,0.07676229,0.13692972,0.8889575999999999,0.43024700000000005,-5.788633,8.933888,0.40137059999999997,-0.889236,-2.275873,-0.013113573,12.983850270933912,-0.9163017967131016,-1.593927162415776,-0.4847011694375954,14.696539000000001,-2.872158,-0.5056102,2.37953,0
-0.8799999999999992,5.557097,-7.812160499999999,0.9389511,0.084695235,0.12818916,0.88859814,0.43218958,-5.7552642999999994,8.955805,0.42681610000000003,-0.89348865,-2.1695104,-0.036254507000000005,12.560479395098513,-1.1456068839859872,-0.4561633805152834,-0.290796730518438,14.154876999999999,-2.76632,-0.00011636688999999998,2.5690142999999996,0
-0.8699999999999992,5.4997096,-7.722508400000001,0.94332737,0.09171789999999999,0.11974835,0.8881753000000001,0.4340425,-5.7221589999999996,8.974194,0.44847348,-0.93281573,-1.9023063000000002,-0.04874496,12.560479395098513,-1.1456068839859872,-0.4561633805152834,-0.290796730518438,14.154876999999999,-2.76632,-0.00011636688999999998,2.5690142999999996,0
-0.8599999999999992,5.4426559999999995,-7.632685,0.9479213,0.097552784,0.1116723,0.88776004,0.4357696,-5.6884484,8.989961,0.4703362,-0.9660064,-1.6767724999999998,-0.060622512999999996,12.560479395098513,-1.1456068839859872,-0.4561633805152834,-0.290796730518438,14.154876999999999,-2.76632,-0.00011636688999999998,2.5690142999999996,0
-0.8499999999999992,5.3859415,-7.542717,0.95273477,0.10238453,0.10390784,0.8873539,0.43740582,-5.654356,9.003305000000001,0.49238512,-0.9940184999999999,-1.4864108999999999,-0.07191722,12.560479395098513,-1.1456068839859872,-0.4561633805152834,-0.290796730518438,14.154876999999999,-2.76632,-0.00011636688999999998,2.5690142999999996,0
-0.8399999999999992,5.329569,-7.452626700000001,0.9577696,0.10636898,0.09640926,0.88695526,0.43897775,-5.6200695,9.014397,0.514608,-1.0176604999999999,-1.3257362,-0.08265771,12.48042858887451,-1.3699066645491198,0.5689105606114295,-0.023786926302636284,16.329155,-3.3539677000000006,-1.5000219,3.4586617999999993,0
-0.8299999999999992,5.2735386,-7.3624363,0.96302366,0.10923768,0.0892347,0.88662857,0.44044784,-5.5859822999999995,9.0233345,0.5362326,-1.0725751000000001,-1.030266,-0.07976889599999999,12.48042858887451,-1.3699066645491198,0.5689105606114295,-0.023786926302636284,16.329155,-3.3539677000000006,-1.5000219,3.4586617999999993,0
-0.8199999999999992,5.217849,-7.2721667000000005,0.96849483,0.11078524599999999,0.08242818,0.88642937,0.44178674,-5.552122,9.030414,0.55804604,-1.1189295,-0.7808748999999999,-0.077021845,12.48042858887451,-1.3699066645491198,0.5689105606114295,-0.023786926302636284,16.329155,-3.3539677000000006,-1.5000219,3.4586617999999993,0
-0.8099999999999992,5.162495,-7.181833999999999,0.9741853000000001,0.11121764,0.075934015,0.8863389000000002,0.44302177,-5.5187297,9.03585,0.5800761999999999,-1.1580578000000001,-0.5703767,-0.07440959,12.48042858887451,-1.3699066645491198,0.5689105606114295,-0.023786926302636284,16.329155,-3.3539677000000006,-1.5000219,3.4586617999999993,0
-0.7999999999999992,5.1074724,-7.091455000000001,0.9800972,0.11070839,0.06970462,0.8863380999999999,0.44417322,-5.4860067,9.03983,0.60234773,-1.1910863,-0.39270565,-0.07192551,12.766325999444414,-1.5896310357336392,1.4901001909431593,0.2798739117629818,17.566323999999998,-4.0157733,-1.502255,3.7303812999999995,0
-0.7899999999999991,5.052776000000001,-7.001042,0.9862469000000001,0.10904048400000001,0.06378124,0.8864719999999999,0.44520748,-5.453411599999999,9.042587,0.627648,-1.2532241000000002,-0.099094175,-0.054662634,12.766325999444414,-1.5896310357336392,1.4901001909431593,0.2798739117629818,17.566323999999998,-4.0157733,-1.502255,3.7303812999999995,0
-0.7799999999999991,4.9983997,-6.910607000000001,0.99265116,0.106049135,0.058193974,0.8867735000000001,0.44609407,-5.421946,9.044257,0.65326077,-1.3056792,0.14872767,-0.038246825,12.766325999444414,-1.5896310357336392,1.4901001909431593,0.2798739117629818,17.566323999999998,-4.0157733,-1.502255,3.7303812999999995,0
-0.7699999999999991,4.9443316,-6.8201594,0.9993133,0.101939365,0.052890204,0.88720727,0.44684940000000006,-5.3918576,9.045060000000001,0.67922413,-1.3499595,0.3579015,-0.022636548,12.766325999444414,-1.5896310357336392,1.4901001909431593,0.2798739117629818,17.566323999999998,-4.0157733,-1.502255,3.7303812999999995,0
-0.7599999999999991,4.890556299999999,-6.7297077000000005,1.006237,0.09688401,0.04782529,0.8877406999999999,0.44748509999999997,-5.363355599999999,9.045181,0.70556396,-1.3873386,0.5344545,-0.007792269300000001,12.766325999444414,-1.5896310357336392,1.4901001909431593,0.2798739117629818,17.875926999999997,-3.8981717000000002,-1.3618112,3.8575690000000002,0
-0.7499999999999991,4.837058,-6.639257400000001,1.013426,0.09102891,0.042961482,0.88834435,0.4480095,-5.3366184,9.044777,0.73229414,-1.4188914,0.68347406,0.006323591,12.766325999444414,-1.5896310357336392,1.4901001909431593,0.2798739117629818,17.875926999999997,-3.8981717000000002,-1.3618112,3.8575690000000002,0
-0.7399999999999989,4.783818,-6.548814,1.0208843,0.08449719,0.038266882,0.88899255,0.44842866,-5.311797599999999,9.04398,0.75941736,-1.4455258,0.80925417,0.019746782,12.766325999444414,-1.5896310357336392,1.4901001909431593,0.2798739117629818,17.875926999999997,-3.8981717000000002,-1.3618112,3.8575690000000002,0
-0.7299999999999989,4.7308154,-6.458379,1.0286158,0.07739293,0.033714656,0.8896628000000001,0.44874704,-5.2890224,9.042900999999999,0.78692657,-1.4680079,0.9154191999999999,0.032511298,12.766325999444414,-1.5896310357336392,1.4901001909431593,0.2798739117629818,17.875926999999997,-3.8981717000000002,-1.3618112,3.8575690000000002,0
-0.7199999999999989,4.6780295,-6.3679559999999995,1.0366242,0.06980413,0.02928222,0.8903358,0.44896796,-5.268404,9.041635000000001,0.81480587,-1.486985,1.0050280999999999,0.044649445,12.418809486624374,-1.6203695756931038,1.7244004610582346,0.5296849474038466,17.189404999999997,-3.1181877,-0.67279816,3.741289,0
-0.7099999999999989,4.625437000000001,-6.2775464,1.0448959,0.061717127000000004,0.02497966,0.89101523,0.44906450000000003,-5.2505403,9.0403,0.8395935999999999,-1.5078068,1.1171898,0.06845028,12.418809486624374,-1.6203695756931038,1.7244004610582346,0.5296849474038466,17.189404999999997,-3.1181877,-0.67279816,3.741289,0
-0.6999999999999991,4.573011,-6.18715,1.0534171,0.053124897000000004,0.020814072,0.8917027,0.4490111,-5.2349725,9.038953999999999,0.8646929,-1.5253828,1.2118607,0.0910832,12.418809486624374,-1.6203695756931038,1.7244004610582346,0.5296849474038466,17.189404999999997,-3.1181877,-0.67279816,3.741289,0
-0.6899999999999991,4.520729,-6.096767,1.0621907,0.044105335999999995,0.01676408,0.8923799000000001,0.44881177,-5.2217946,9.037676,0.89007145,-1.5402187,1.2917687,0.11260552,12.418809486624374,-1.6203695756931038,1.7244004610582346,0.5296849474038466,17.189404999999997,-3.1181877,-0.67279816,3.741289,0
-0.679999999999999,4.468566,-6.006396,1.0712191999999998,0.034724455,0.012811827,0.89303124,0.44847018,-5.211088,9.036535,0.9156899,-1.5527413,1.3592157,0.13307174,11.285811101576884,-1.5909890659447263,1.4044992848514726,0.7066185681165098,15.809341,-2.4212425,-0.53013754,3.2668355,0
-0.669999999999999,4.4164944,-5.9160347,1.0804483999999999,0.02515819,0.00889484,0.8936497,0.4479714,-5.2036614000000005,9.035673,0.93019813,-1.5587316999999998,1.3662485,0.16121584,11.285811101576884,-1.5909890659447263,1.4044992848514726,0.7066185681165098,15.809341,-2.4212425,-0.53013754,3.2668355,0
-0.659999999999999,4.364485299999999,-5.825680999999999,1.0898235,0.015549179,0.004963302,0.8942341999999999,0.44730198,-5.1985617,9.034989999999999,0.944837,-1.5637867,1.3721857,0.18797891,11.285811101576884,-1.5909890659447263,1.4044992848514726,0.7066185681165098,15.809341,-2.4212425,-0.53013754,3.2668355,0
-0.649999999999999,4.3125153,-5.735334,1.0993453000000002,0.005904301,0.0010206108,0.89478004,0.44646728,-5.195801,9.03449,0.95955825,-1.5680525,1.3771985,0.21342872,11.285811101576884,-1.5909890659447263,1.4044992848514726,0.7066185681165098,15.809341,-2.4212425,-0.53013754,3.2668355,0
-0.639999999999999,4.2605615,-5.644991,1.1090146,-0.0037704876,-0.0029301932000000003,0.8952831,0.44547250000000005,-5.195387,9.034167,0.9743132,-1.5716518,1.3814309,0.23762968,9.93075841735508,-1.4344782887024277,0.7162673348091748,0.8018795700197557,14.772567,-1.7769144000000001,-0.67358565,2.76281,0
-0.629999999999999,4.208601,-5.55465,1.1187638,-0.013195548,-0.0069527924,0.8957480999999999,0.44431213,-5.1970844000000005,9.034028,0.9755045,-1.5502669,1.2776744,0.2653176,9.93075841735508,-1.4344782887024277,0.7162673348091748,0.8018795700197557,14.772567,-1.7769144000000001,-0.67358565,2.76281,0
-0.619999999999999,4.156613,-5.46431,1.1285247,-0.022149000000000002,-0.011096861000000001,0.8961878000000001,0.44298315,-5.200785,9.033978,0.97664154,-1.5322149,1.1901001,0.2916468,9.93075841735508,-1.4344782887024277,0.7162673348091748,0.8018795700197557,14.772567,-1.7769144000000001,-0.67358565,2.76281,0
-0.6099999999999992,4.104579,-5.3739705,1.1382965,-0.030703964,-0.01534107,0.89660776,0.44149384,-5.206419,9.033952000000001,0.9776878000000001,-1.5169771,1.1161842,0.31668409999999997,9.93075841735508,-1.4344782887024277,0.7162673348091748,0.8018795700197557,14.772567,-1.7769144000000001,-0.67358565,2.76281,0
-0.5999999999999992,4.052479,-5.283631,1.1480781,-0.038922217,-0.019667417,0.8970111999999999,0.43985167,-5.2139263,9.033892999999999,0.97860986,-1.5041151000000001,1.0537968,0.34049278,8.938676676288239,-1.1961417849443967,0.15402494132462913,0.8636195764134358,11.431965,-0.8900527,-1.207415,1.7946789,0
-0.5899999999999992,4.0002985,-5.1932926,1.1578188,-0.04661237,-0.024073642000000003,0.89741546,0.43805656,-5.222314,9.033762,0.9695009,-1.4560711000000002,0.9134639999999999,0.36616278,8.938676676288239,-1.1961417849443967,0.15402494132462913,0.8636195764134358,11.431965,-0.8900527,-1.207415,1.7946789,0
-0.5799999999999992,3.9480271,-5.1029563,1.1674676000000002,-0.053625844000000006,-0.028556662000000003,0.8978403,0.43611002,-5.232236400000001,9.033484,0.9602338,-1.4155196,0.79501706,0.39057317,8.938676676288239,-1.1961417849443967,0.15402494132462913,0.8636195764134358,11.431965,-0.8900527,-1.207415,1.7946789,0
-0.5699999999999992,3.8956489999999997,-5.012624,1.1770228999999999,-0.060068462,-0.03310148,0.8982886999999998,0.43402055,-5.243594,9.03299,0.9507937,-1.381293,0.6950423000000001,0.4137857,8.938676676288239,-1.1961417849443967,0.15402494132462913,0.8636195764134358,11.431965,-0.8900527,-1.207415,1.7946789,0
-0.5599999999999992,3.8431504000000003,-4.9222975,1.1864829,-0.066029556,-0.03769558,0.89876133,0.43179584,-5.256304,9.032226,0.9411681000000001,-1.3524051000000001,0.61065924,0.43585920000000006,8.938676676288239,-1.1961417849443967,0.15402494132462913,0.8636195764134358,10.874311,-0.6420505999999999,-1.7746568,1.6598211999999999,0
-0.5499999999999992,3.7905182999999996,-4.831980000000001,1.1958456,-0.071584515,-0.042328525,0.8992571,0.42944267,-5.2702922999999995,9.031138,0.93134606,-1.3280231000000002,0.5394359000000001,0.45684952,8.938676676288239,-1.1961417849443967,0.15402494132462913,0.8636195764134358,10.874311,-0.6420505999999999,-1.7746568,1.6598211999999999,0
-0.5399999999999991,3.7377404999999997,-4.7416754,1.2051091,-0.07679699,-0.04699161599999999,0.8997741,0.42696735,-5.2854977,9.029686,0.9213174000000001,-1.3074447,0.4793205,0.47680986,8.938676676288239,-1.1961417849443967,0.15402494132462913,0.8636195764134358,10.874311,-0.6420505999999999,-1.7746568,1.6598211999999999,0
-0.5299999999999991,3.6848047,-4.6513877,1.2142713,-0.081720665,-0.051677607,0.90030944,0.42437556,-5.301866,9.027833,0.9110725000000001,-1.2900767,0.42858019999999997,0.49579075,8.938676676288239,-1.1961417849443967,0.15402494132462913,0.8636195764134358,10.874311,-0.6420505999999999,-1.7746568,1.6598211999999999,0
-0.5199999999999991,3.6316996,-4.5611205,1.2233299,-0.08640079,-0.056380477000000005,0.9008601,0.4216727,-5.3193526,9.025549,0.9006018,-1.2754184,0.3857531,0.51384026,8.388592922363548,-0.9659980171188688,-0.1792828182617905,0.8560691389034613,10.244067999999999,-0.2553266,-1.7162713,1.2939201999999999,0
-0.5099999999999991,3.5784197,-4.4708776,1.2322556999999998,-0.09071664,-0.061068412,0.9014398000000001,0.4188652,-5.336768,9.022974000000001,0.8845190999999999,-1.2271383,0.29763870000000003,0.53063357,8.388592922363548,-0.9659980171188688,-0.1792828182617905,0.8560691389034613,10.244067999999999,-0.2553266,-1.7162713,1.2939201999999999,0
-0.4999999999999991,3.5249610000000002,-4.3806624,1.2410196000000002,-0.09457483,-0.065715685,0.90206164,0.41595963,-5.355118,9.019935,0.86821645,-1.1863902,0.22326478,0.5466028,8.388592922363548,-0.9659980171188688,-0.1792828182617905,0.8560691389034613,10.244067999999999,-0.2553266,-1.7162713,1.2939201999999999,0
-0.4899999999999989,3.4713147000000006,-4.2904805999999995,1.2496194,-0.09804741,-0.07032597,0.9027208000000001,0.41296077,-5.3743300000000005,9.016399,0.85169554,-1.1519993999999998,0.16048858,0.5617884,8.388592922363548,-0.9659980171188688,-0.1792828182617905,0.8560691389034613,10.244067999999999,-0.2553266,-1.7162713,1.2939201999999999,0
-0.47999999999999887,3.417472,-4.200337,1.2580527,-0.1011951,-0.074902534,0.9034121999999999,0.40987299999999993,-5.3943434,9.012342,0.83495754,-1.1229742,0.10750148,0.57622886,8.152273439589068,-0.8654244233252147,-0.4343663504509881,0.8522232296502696,10.429428999999999,-0.26937523,-2.0640266,1.3116767,0
-0.46999999999999886,3.363428,-4.1102357000000005,1.2663062,-0.103960365,-0.07945367,0.90414435,0.4066973,-5.414516000000001,9.007869,0.81571764,-1.0827779,0.023002936,0.5897720000000001,8.152273439589068,-0.8654244233252147,-0.4343663504509881,0.8522232296502696,10.429428999999999,-0.26937523,-2.0640266,1.3116767,0
-0.45999999999999885,3.3091795,-4.0201817,1.2743661,-0.106300294,-0.083985865,0.904924,0.40343475,-5.435345,9.002834,0.7962731,-1.0488540000000002,-0.048319437,0.6026505999999999,8.152273439589068,-0.8654244233252147,-0.4343663504509881,0.8522232296502696,10.429428999999999,-0.26937523,-2.0640266,1.3116767,0
-0.44999999999999885,3.2547194999999998,-3.9301812999999997,1.2822308999999998,-0.10828175400000001,-0.0884995,0.90574366,0.40008968,-5.4567657,8.99721,0.7766295,-1.0202239,-0.10852024,0.6148971999999999,8.152273439589068,-0.8654244233252147,-0.4343663504509881,0.8522232296502696,10.429428999999999,-0.26937523,-2.0640266,1.3116767,0
-0.43999999999999884,3.2000422000000004,-3.8402398,1.2898982,-0.109961115,-0.09299505,0.9065964,0.39666593,-5.478722599999999,8.990969999999999,0.75679106,-0.9960614,-0.15933369,0.62654287,8.507994579800343,-0.8605569364070565,-0.6271754761575812,0.8516931339293617,11.568715,-1.3040346999999999,-3.2512984,2.3311574,0
-0.4299999999999988,3.1451382999999997,-3.7503653,1.2973832,-0.111315124,-0.09750178,0.90748435,0.3931602,-5.5021443,8.983791,0.7401675999999999,-0.97489804,-0.23229182,0.637591,8.507994579800343,-0.8605569364070565,-0.6271754761575812,0.8516931339293617,11.568715,-1.3040346999999999,-3.2512984,2.3311574,0
-0.4199999999999988,3.0899978,-3.660566,1.304701,-0.112327635,-0.10204272,0.9084083000000001,0.38956985,-5.526016,8.975914999999999,0.72334886,-0.95703906,-0.29387290000000005,0.64809704,8.507994579800343,-0.8605569364070565,-0.6271754761575812,0.8516931339293617,11.568715,-1.3040346999999999,-3.2512984,2.3311574,0
-0.4099999999999988,3.0346167,-3.5708493999999997,1.3118495000000001,-0.11305206,-0.106610045,0.9093600000000001,0.38589948,-5.550285,8.967310000000001,0.7063385999999999,-0.94196856,-0.34585112,0.65808755,8.507994579800343,-0.8605569364070565,-0.6271754761575812,0.8516931339293617,11.568715,-1.3040346999999999,-3.2512984,2.3311574,0
-0.3999999999999988,2.978991,-3.4812224,1.318827,-0.11353344,-0.11119728,0.9103322,0.38215327,-5.574903,8.957951,0.68913895,-0.9292511999999998,-0.3897238,0.6675878000000001,9.757546852593624,-0.9943697801184228,-0.43824313303785456,0.8712877197370013,9.622404,-0.6951374,-2.3304152,1.5738032,0
-0.3899999999999988,2.9230994999999997,-3.3917002999999997,1.3256909,-0.11389925,-0.115818806,0.9113045,0.37833536,-5.603494599999999,8.946325,0.6836038000000001,-0.93940055,-0.39730087,0.67758346,9.757546852593624,-0.9943697801184228,-0.43824313303785456,0.8712877197370013,9.622404,-0.6951374,-2.3304152,1.5738032,0
-0.3799999999999988,2.8669202,-3.3022987999999995,1.3324982,-0.114252366,-0.12048618,0.9122596,0.3744495,-5.632428599999999,8.933796000000001,0.6778439,-0.94796777,-0.40369552,0.68708855,9.757546852593624,-0.9943697801184228,-0.43824313303785456,0.8712877197370013,9.622404,-0.6951374,-2.3304152,1.5738032,0
-0.3699999999999988,2.8104497999999998,-3.2130272,1.3392469,-0.11459461,-0.12519059999999999,0.91319567,0.37049896,-5.6616974,8.920349,0.6718494,-0.95519924,-0.40909192,0.6961273,9.757546852593624,-0.9943697801184228,-0.43824313303785456,0.8712877197370013,9.622404,-0.6951374,-2.3304152,1.5738032,0
-0.35999999999999877,2.753685,-3.123895,1.3459344,-0.114927545,-0.12992463,0.91411114,0.36648676,-5.691292,8.905975,0.66561043,-0.9613036,-0.41364625,0.7047225,9.757546852593624,-0.9943697801184228,-0.43824313303785456,0.8712877197370013,10.428598,-1.1283453,-2.0596733,1.8563720000000001,0
-0.34999999999999876,2.6966226000000004,-3.034911,1.3525581,-0.11525250000000001,-0.13468203,0.9150043,0.3624157,-5.721204,8.890666,0.6591173,-0.9664562,-0.41748965,0.712896,9.757546852593624,-0.9943697801184228,-0.43824313303785456,0.8712877197370013,10.428598,-1.1283453,-2.0596733,1.8563720000000001,0
-0.33999999999999875,2.6392596,-2.9460845,1.3591156999999998,-0.11557058,-0.13945748,0.9158738000000001,0.35828847,-5.7514234,8.8744135,0.6523602,-0.97080564,-0.42073312,0.7206683,9.757546852593624,-0.9943697801184228,-0.43824313303785456,0.8712877197370013,10.428598,-1.1283453,-2.0596733,1.8563720000000001,0
-0.32999999999999874,2.5815928,-2.8574257000000003,1.3656043,-0.115882725,-0.14424653,0.91671836,0.3541074,-5.7819405,8.857211999999999,0.6453297,-0.9744771000000001,-0.4234701,0.7280592,9.757546852593624,-0.9943697801184228,-0.43824313303785456,0.8712877197370013,10.428598,-1.1283453,-2.0596733,1.8563720000000001,0
-0.31999999999999873,2.5236194,-2.7689437999999997,1.3720212999999999,-0.116189696,-0.14904535,0.9175366,0.34987485,-5.812746499999999,8.839055,0.6380165,-0.97757643,-0.42577988,0.73508745,11.233550466651726,-1.0941444788380852,-0.09357664600543994,0.8811504318912096,12.335092999999999,-1.3617238999999999,-2.169691,2.3943956,0
-0.3099999999999987,2.4653134,-2.6806624,1.3784322,-0.11663285,-0.15383925,0.918306,0.34560799999999997,-5.848539,8.817053,0.6440988000000001,-0.9957780999999999,-0.3739863,0.74225485,11.233550466651726,-1.0941444788380852,-0.09357664600543994,0.8811504318912096,12.335092999999999,-1.3617238999999999,-2.169691,2.3943956,0
-0.2999999999999987,2.4066473999999998,-2.5926065,1.3849021000000001,-0.11732419599999999,-0.15861711,0.9190081,0.34132135,-5.8846870000000004,8.793967,0.6498231,-1.0111378,-0.33026844,0.74907047,11.233550466651726,-1.0941444788380852,-0.09357664600543994,0.8811504318912096,12.335092999999999,-1.3617238999999999,-2.169691,2.3943956,0
-0.2899999999999987,2.3476182999999997,-2.504787,1.3914274,-0.11822477,-0.16338061,0.9196478000000001,0.33701329999999996,-5.921227,8.769817999999999,0.6551679,-1.0240996,-0.29336718,0.75555164,11.233550466651726,-1.0941444788380852,-0.09357664600543994,0.8811504318912096,12.335092999999999,-1.3617238999999999,-2.169691,2.3943956,0
-0.2799999999999987,2.2882217999999996,-2.417214,1.3980042,-0.11930165400000001,-0.16813101,0.92022926,0.3326825,-5.9581865999999994,8.744622,0.66011316,-1.0350374,-0.26221943,0.7617148,12.329238466768606,-1.0120277979067345,0.2666677907983073,0.79210099136419,13.725504999999998,-1.7924042000000002,-2.4157941000000003,3.0900064,0
-0.2699999999999989,2.2284347999999996,-2.3299107999999995,1.4046783,-0.120647065,-0.17279260000000002,0.92074054,0.32836634,-5.99924,8.71584,0.67465013,-1.0314896,-0.17973904,0.7632058,12.329238466768606,-1.0120277979067345,0.2666677907983073,0.79210099136419,13.725504999999998,-1.7924042000000002,-2.4157941000000003,3.0900064,0
-0.2599999999999989,2.1682346000000003,-2.2429006,1.4114956,-0.122332595,-0.17730639999999998,0.92117256,0.32409722,-6.0408344000000005,8.685986,0.68870836,-1.028489,-0.11012163,0.7646236999999999,12.329238466768606,-1.0120277979067345,0.2666677907983073,0.79210099136419,13.725504999999998,-1.7924042000000002,-2.4157941000000003,3.0900064,0
-0.2499999999999989,2.1076155,-2.1561944,1.4184508,-0.12430479400000001,-0.18169546,0.9215319,0.31986672,-6.0830215999999995,8.655113,0.70226914,-1.025951,-0.05136124,0.765972,12.329238466768606,-1.0120277979067345,0.2666677907983073,0.79210099136419,13.725504999999998,-1.7924042000000002,-2.4157941000000003,3.0900064,0
-0.23999999999999888,2.0465715,-2.0698018,1.4255391000000002,-0.12651843,-0.185979,0.9218241,0.31566754,-6.125843,8.623274,0.71531516,-1.0238044,-0.0017647473000000002,0.7672542,12.492700865513642,-0.7377833152835881,0.4740135823354785,0.6348373570667495,15.232588,-2.2986157000000005,-2.6014442000000004,3.351975,0
-0.22999999999999865,1.9850931,-1.9837343,1.4327625,-0.1289737,-0.19004829,0.92205775,0.3115409,-6.169910400000001,8.590076,0.7292984,-0.97923636,0.07245901,0.76075643,12.492700865513642,-0.7377833152835881,0.4740135823354785,0.6348373570667495,15.232588,-2.2986157000000005,-2.6014442000000004,3.351975,0
-0.21999999999999864,1.9231706999999998,-1.8980029999999999,1.4401231,-0.13166887,-0.1938189,0.9222408000000001,0.30752274,-6.2146870000000005,8.556026,0.7427435,-0.9416124,0.13510376,0.7545776,12.492700865513642,-0.7377833152835881,0.4740135823354785,0.6348373570667495,15.232588,-2.2986157000000005,-2.6014442000000004,3.351975,0
-0.20999999999999863,1.8607968000000001,-1.8126162000000001,1.4476155000000002,-0.13456583,-0.19733804,0.92237616,0.30359959999999997,-6.2601986,8.521205,0.75565165,-0.90985066,0.18797567,0.74870193,12.492700865513642,-0.7377833152835881,0.4740135823354785,0.6348373570667495,15.232588,-2.2986157000000005,-2.6014442000000004,3.351975,0
-0.19999999999999862,1.7979641,-1.7275813000000002,1.4552344,-0.13763228,-0.20064539,0.92246604,0.2997597,-6.306466599999999,8.485681,0.768023,-0.8830377,0.23259938,0.74311453,11.790410496588569,-0.39837755242058814,0.4595127605532581,0.4546500891626011,14.267601,-2.1483314,-2.3675604,3.070161,0
-0.18999999999999884,1.734678,-1.6428945,1.4629433,-0.14079058,-0.20365378,0.9225343,0.296031,-6.35086,8.451547999999999,0.7736795,-0.80746984,0.26803038,0.72895956,11.790410496588569,-0.39837755242058814,0.4595127605532581,0.4546500891626011,14.267601,-2.1483314,-2.3675604,3.070161,0
-0.17999999999999883,1.6709445,-1.558552,1.4707063,-0.14397779,-0.20629655,0.9226009,0.29243875,-6.3959694,8.416888,0.77885145,-0.74368376,0.29792887,0.7154990999999999,11.790410496588569,-0.39837755242058814,0.4595127605532581,0.4546500891626011,14.267601,-2.1483314,-2.3675604,3.070161,0
-0.16999999999999882,1.6067562,-1.4745583999999998,1.4785187,-0.14718834,-0.20863189,0.92266244,0.28896916,-6.4417787,8.381777,0.7835619,-0.6898426,0.32315853,0.7026992,11.790410496588569,-0.39837755242058814,0.4595127605532581,0.4546500891626011,14.267601,-2.1483314,-2.3675604,3.070161,0
-0.1599999999999988,1.5421065,-1.3909178,1.4863758999999999,-0.15041739,-0.21070875,0.92271566,0.28561005,-6.4882746,8.346277,0.78783005,-0.6443958000000001,0.34444875,0.6905274,11.790410496588569,-0.39837755242058814,0.4595127605532581,0.4546500891626011,13.750059,-1.5808692,-2.607038,2.713775,0
-0.1499999999999988,1.4769883999999998,-1.307634,1.4942737,-0.15366073,-0.21256834,0.9227579,0.28235054,-6.535444999999999,8.310443,0.79167163,-0.6060349,0.36241475,0.6789528,11.790410496588569,-0.39837755242058814,0.4595127605532581,0.4546500891626011,13.750059,-1.5808692,-2.607038,2.713775,0
-0.1399999999999988,1.4113953000000001,-1.22471,1.5022078,-0.15691482,-0.21424533,0.9227869000000001,0.279181,-6.5832820000000005,8.274317,0.79509944,-0.5736549,0.37757573,0.66794616,11.790410496588569,-0.39837755242058814,0.4595127605532581,0.4546500891626011,13.750059,-1.5808692,-2.607038,2.713775,0
-0.12999999999999878,1.3453205,-1.1421485,1.5101742,-0.16017655,-0.21576889999999999,0.9228006,0.27609286,-6.631776299999999,8.237936999999999,0.79812354,-0.54632336,0.39036940000000003,0.6574797,11.790410496588569,-0.39837755242058814,0.4595127605532581,0.4546500891626011,13.750059,-1.5808692,-2.607038,2.713775,0
-0.11999999999999877,1.2787575,-1.0599519,1.5181687,-0.16344329999999999,-0.21716364,0.9227976000000001,0.2730785,-6.680922,8.201333,0.8007519000000001,-0.5232532999999999,0.40116554,0.64752674,11.058583253170529,-0.0020670066360972228,0.2877151015164492,0.2534547306520429,11.928246000000001,-0.30387309999999995,-1.850466,1.3127953,0
-0.10999999999999877,1.2117152,-0.9781110000000001,1.5261565000000001,-0.16660099,-0.21832664,0.9228158999999999,0.27016544,-6.7276163,8.16682,0.79676706,-0.4419623,0.38351282,0.6281895000000001,11.058583253170529,-0.0020670066360972228,0.2877151015164492,0.2534547306520429,11.928246000000001,-0.30387309999999995,-1.850466,1.3127953,0
