time-since-start [s],throttle_mpc,roll_mpc,pitch_mpc,yaw_mpc,throttle_nw,roll_nw,pitch_nw,yaw_nw,position_x [m],position_y [m],position_z [m],rotation_w [quaternion],rotation_x [quaternion],rotation_y [quaternion],rotation_z [quaternion],velocity_x [m/s],velocity_y [m/s],velocity_z [m/s],omega_x [rad/s],omega_y [rad/s],omega_z [rad/s],network_used
0.0,14.60543924390022,2.7424834269500566,-5.999999919293929,-1.605120259186717,14.449592,1.3096846,-5.1425233,0.50288963,16.429956,-10.012756,1.4330343,0.10688217,-0.30842707,0.44777423,0.8324345,-9.06163,-1.7260957,-1.1260267,1.8776939,-0.06632215,0.3568488,0
0.01,14.60543924390022,2.7424834269500566,-5.999999919293929,-1.605120259186717,13.543357,0.378715,-5.5547657,-0.54866874,16.339008,-10.0293665,1.4216086,0.10950453,-0.30476683,0.45578173,0.82908916,-9.127554,-1.5961407,-1.1596433,1.8746946,-0.8537776,0.27294558,0
0.02,14.60543924390022,2.7424834269500566,-5.999999919293929,-1.605120259186717,13.543357,0.378715,-5.5547657,-0.54866874,16.24742,-10.044684,1.4098313,0.11418995,-0.29816008,0.4632805,0.8266996,-9.189555,-1.4677145,-1.196186,1.9139509,-1.5603074,0.18941414,0
0.03,14.60543924390022,2.7424834269500566,-5.999999919293929,-1.605120259186717,13.543357,0.378715,-5.5547657,-0.54866874,16.155231,-10.058725,1.3976772,0.12083951,-0.28889462,0.47043502,0.8250021,-9.246902,-1.3407013,-1.2349404,1.9871762,-2.1968274,0.10638939,0
0.04,14.60543924390022,2.7424834269500566,-5.999999919293929,-1.605120259186717,13.580481,0.91155523,-5.651246,-0.08296171,16.062498,-10.071503,1.3851268,0.12935305,-0.27720925,0.47736016,0.82374144,-9.298962,-1.2150153,-1.2753625,2.0874968,-2.772673,0.02398854,0
0.05,14.60543924390022,2.7424834269500566,-5.999999919293929,-1.605120259186717,13.580481,0.91155523,-5.651246,-0.08296171,15.969271,-10.083024,1.3721682,0.1396003,-0.2633353,0.4841081,0.8226819,-9.345763,-1.0890204,-1.3163265,2.1894803,-3.2760854,-0.055952303,0
0.060000000000000005,14.60543924390022,2.7424834269500566,-5.999999919293929,-1.605120259186717,13.580481,0.91155523,-5.651246,-0.08296171,15.875601,-10.093277,1.3588016,0.15135807,-0.24757765,0.49062854,0.82163227,-9.387175,-0.96132344,-1.3569144,2.275523,-3.700994,-0.13197044,0
0.07,14.60543924390022,2.7424834269500566,-5.999999919293929,-1.605120259186717,13.580481,0.91155523,-5.651246,-0.08296171,15.781548,-10.102245,1.3450317,0.1644054,-0.23021965,0.49685544,0.82042944,-9.422541,-0.83206916,-1.3969531,2.348124,-4.0596395,-0.20425834,0
0.08,16.628311583583244,0.9404671548730386,-5.9999999379390285,-0.3605822472072383,15.432974,0.45987993,-5.669581,-0.0073898835,15.687173,-10.109915,1.3308647,0.17854759,-0.21150208,0.50273097,0.8189318,-9.451289,-0.7014798,-1.4363337,2.409389,-4.362354,-0.27299905,0
0.09,16.628311583583244,0.9404671548730386,-5.9999999379390285,-0.3605822472072383,15.432974,0.45987993,-5.669581,-0.0073898835,15.592529,-10.116181,1.3163486,0.19333956,-0.19168708,0.5076502,0.81741506,-9.475952,-0.5516376,-1.4667308,2.1802533,-4.6177096,-0.27729678,0
0.09999999999999999,16.628311583583244,0.9404671548730386,-5.9999999379390285,-0.3605822472072383,15.432974,0.45987993,-5.669581,-0.0073898835,15.497682,-10.120946,1.3015338,0.2084156,-0.1710007,0.51114535,0.8161203,-9.492252,-0.4011678,-1.4960015,1.9868575,-4.833247,-0.28138366,0
0.10999999999999999,16.628311583583244,0.9404671548730386,-5.9999999379390285,-0.3605822472072383,15.432974,0.45987993,-5.669581,-0.0073898835,15.402714,-10.124205,1.2864333,0.22371915,-0.14958347,0.51335496,0.81488734,-9.500006,-0.25066248,-1.5238725,1.8236275,-5.015177,-0.28526995,0
0.11999999999999998,16.628311583583244,0.9404671548730386,-5.9999999379390285,-0.3605822472072383,15.432974,0.45987993,-5.669581,-0.0073898835,15.307712,-10.12596,1.271062,0.23919515,-0.12755504,0.5143967,0.8135795,-9.499074,-0.10071245,-1.5501535,1.685858,-5.168738,-0.2889655,0
0.12999999999999998,20.899365496520247,-1.1367721781680586,-5.9999998576974365,0.8029059174161977,16.922983,-2.1947691,-5.219553,0.18469,15.212763,-10.126223,1.2554363,0.2547906,-0.10501812,0.5143709,0.8120811,-9.489364,0.048093155,-1.5747265,1.5695783,-5.298354,-0.29247975,0
0.13999999999999999,20.899365496520247,-1.1367721781680586,-5.9999998576974365,0.8029059174161977,16.922983,-2.1947691,-5.219553,0.18469,15.117976,-10.124815,1.23967,0.2702581,-0.0822041,0.5127057,0.8107627,-9.466106,0.23291944,-1.5781362,1.1476932,-5.4076543,-0.23872888,0
0.15,20.899365496520247,-1.1367721781680586,-5.9999998576974365,0.8029059174161977,16.922983,-2.1947691,-5.219553,0.18469,15.023478,-10.121574,1.2238828,0.2854031,-0.05930863,0.50896025,0.8099304,-9.432053,0.41465282,-1.5788647,0.7916009,-5.499948,-0.18761556,0
0.16,20.99999848949005,-2.13242051462937,-5.9999996802565665,1.1079637261958317,17.591064,-2.6027515,-4.804453,0.34232748,14.929371,-10.116536,1.2081034,0.30024344,-0.03636334,0.50338864,0.809402,-9.387549,0.5924053,-1.5765091,0.49103948,-5.577878,-0.1390104,0
0.17,20.99999848949005,-2.13242051462937,-5.9999996802565665,1.1079637261958317,17.591064,-2.6027515,-4.804453,0.34232748,14.835762,-10.109739,1.1923667,0.31474376,-0.013497191,0.4958833,0.8092305,-9.332699,0.76616555,-1.5702637,0.082131416,-5.6436667,-0.07782102,0
0.18000000000000002,20.99999848949005,-2.13242051462937,-5.9999996802565665,1.1079637261958317,17.591064,-2.6027515,-4.804453,0.34232748,14.742751,-10.101233,1.1767111,0.32887527,0.00918138,0.48636967,0.8094451,-9.268192,0.9342126,-1.5602522,-0.2630134,-5.699229,-0.019634234,0
0.19000000000000003,20.99999848949005,-2.13242051462937,-5.9999996802565665,1.1079637261958317,17.591064,-2.6027515,-4.804453,0.34232748,14.650431,-10.091077,1.1611756,0.3426473,0.031675875,0.47508875,0.80986434,-9.194536,1.0957139,-1.5461885,-0.55433977,-5.7461495,0.035697326,0
0.20000000000000004,20.999998899593912,-2.4367446769045324,-5.999998282544191,0.9306475531816547,17.170898,-4.0280457,-2.735581,0.43471262,14.558891,-10.079343,1.1458018,0.35605952,0.053988308,0.46224454,0.8103314,-9.11222,1.2498878,-1.5279149,-0.80024093,-5.78577,0.08831374,0
0.21000000000000005,20.999998899593912,-2.4367446769045324,-5.999998282544191,0.9306475531816547,17.170898,-4.0280457,-2.735581,0.43471262,14.468216,-10.066107,1.130632,0.36912978,0.07606467,0.44791338,0.81075954,-9.021736,1.3959966,-1.5053788,-1.055294,-5.819221,0.12964728,0
0.22000000000000006,20.999998899593912,-2.4367446769045324,-5.999998282544191,0.9306475531816547,17.170898,-4.0280457,-2.735581,0.43471262,14.378483,-10.051453,1.115709,0.38187113,0.097856864,0.43216732,0.81106704,-8.923611,1.533326,-1.478579,-1.2705786,-5.8474636,0.1689526,0
0.23000000000000007,20.999998899593912,-2.4367446769045324,-5.999998282544191,0.9306475531816547,17.170898,-4.0280457,-2.735581,0.43471262,14.289768,-10.035472,1.1010748,0.39426747,0.11937177,0.41516286,0.811137,-8.818383,1.6612018,-1.4475961,-1.4522958,-5.8713064,0.2063292,0
0.24000000000000007,20.999998899593912,-2.4367446769045324,-5.999998282544191,0.9306475531816547,16.771437,-4.838498,-0.89495176,0.96223366,14.202138,-10.018262,1.0867708,0.40629983,0.14061277,0.39703554,0.8108706,-8.706591,1.7789981,-1.4126024,-1.605681,-5.8914337,0.24187173,0
0.25000000000000006,20.999998899593912,-2.4367446769045324,-5.999998282544191,0.9306475531816547,16.771437,-4.838498,-0.89495176,0.96223366,14.115657,-9.9999275,1.0728357,0.41794798,0.16157994,0.37790376,0.81018513,-8.5887785,1.8861381,-1.3738512,-1.735152,-5.908423,0.27567017,0
0.26000000000000006,20.999998899593912,-2.4367446769045324,-5.999998282544191,0.9306475531816547,16.771437,-4.838498,-0.89495176,0.96223366,14.030382,-9.980577,1.0593057,0.4291911,0.18227054,0.35787144,0.80901194,-8.465495,1.9820962,-1.3316658,-1.8444384,-5.9227624,0.30781007,0
0.2700000000000001,20.999998899593912,-2.4367446769045324,-5.999998282544191,0.9306475531816547,16.771437,-4.838498,-0.89495176,0.96223366,13.946365,-9.960326,1.0462129,0.44000858,0.20267923,0.33703065,0.80729413,-8.337297,2.0663998,-1.2864312,-1.9366875,-5.9348645,0.3383729,0
0.2800000000000001,20.999996482030816,-2.5259915886588455,-2.1480066207847157,1.1932730886880163,16.68642,-4.8941946,1.7683487,1.3849422,13.863651,-9.939292,1.0335859,0.45038036,0.2227985,0.31546342,0.80498517,-8.204749,2.1386313,-1.2385855,-2.0145562,-5.9450774,0.36743596,0
0.2900000000000001,20.999996482030816,-2.5259915886588455,-2.1480066207847157,1.1932730886880163,16.68642,-4.8941946,1.7683487,1.3849422,13.782283,-9.917597,1.0214485,0.45980775,0.24138007,0.2939153,0.8024501,-8.068493,2.1985538,-1.1885955,-2.0943136,-5.3530006,0.40796003,0
0.3000000000000001,20.999996482030816,-2.5259915886588455,-2.1480066207847157,1.1932730886880163,16.68642,-4.8941946,1.7683487,1.3849422,13.702291,-9.895361,1.0098201,0.46797964,0.25746492,0.27303094,0.80010056,-7.9295306,2.2467027,-1.1368281,-2.161644,-4.8532557,0.44649556,0
0.3100000000000001,20.999996482030816,-2.5259915886588455,-2.1480066207847157,1.1932730886880163,16.68642,-4.8941946,1.7683487,1.3849422,13.623697,-9.872701,0.9987171,0.4751181,0.27143365,0.25273037,0.79794353,-7.7888303,2.283818,-1.0835454,-2.21848,-4.431443,0.4831401,0
0.3200000000000001,20.003079026342498,-2.1840109545669564,3.6596091219898628,1.5375602938119413,16.792198,-5.018116,4.929168,1.7287133,13.546516,-9.849721,0.9881537,0.48139805,0.2836066,0.23293665,0.79596716,-7.6471896,2.310557,-1.0289532,-2.2664552,-4.0754094,0.51798654,0
0.3300000000000001,20.003079026342498,-2.1840109545669564,3.6596091219898628,1.5375602938119413,16.792198,-5.018116,4.929168,1.7287133,13.47072,-9.826529,0.9781056,0.4863715,0.2924883,0.21480404,0.7948286,-7.512074,2.3268836,-0.9804797,-2.253909,-2.869207,0.5680173,0
0.34000000000000014,20.003079026342498,-2.1840109545669564,3.6596091219898628,1.5375602938119413,16.792198,-5.018116,4.929168,1.7287133,13.396273,-9.80321,0.9685486,0.48976922,0.29693827,0.19926783,0.795139,-7.3776965,2.3358138,-0.9306888,-2.2433257,-1.8511074,0.6155931,0
0.35000000000000014,20.003079026342498,-2.1840109545669564,3.6596091219898628,1.5375602938119413,16.792198,-5.018116,4.929168,1.7287133,13.323162,-9.779831,0.9594975,0.49192145,0.2976673,0.18594903,0.79676247,-7.244904,2.3392076,-0.8792409,-2.2343895,-0.9917765,0.6608343,0
0.36000000000000015,18.57247210782198,-1.7722747753164116,5.999999355930055,1.3433342231555252,16.819157,-5.071756,5.84021,1.5917438,13.2513685,-9.75644,0.9509707,0.49306828,0.29525948,0.17451079,0.7995321,-7.1143646,2.3386314,-0.8257835,-2.2268364,-0.2664547,0.7038555,0
0.37000000000000016,18.57247210782198,-1.7722747753164116,5.999999355930055,1.3433342231555252,16.819157,-5.071756,5.84021,1.5917438,13.1808195,-9.7330675,0.94293505,0.49319506,0.28952372,0.16525948,0.8035073,-6.995781,2.335703,-0.7809792,-2.1564085,0.7107834,0.7352349,0
0.38000000000000017,18.57247210782198,-1.7722747753164116,5.999999355930055,1.3433342231555252,16.819157,-5.071756,5.84021,1.5917438,13.111441,-9.709729,0.9353599,0.4922886,0.28031933,0.15841685,0.8086886,-6.8803706,2.331895,-0.7336209,-2.096927,1.5356214,0.76507455,0
0.3900000000000002,18.57247210782198,-1.7722747753164116,5.999999355930055,1.3433342231555252,16.819157,-5.071756,5.84021,1.5917438,13.043199,-9.686428,0.9282725,0.4904943,0.26815304,0.1535931,0.814812,-6.7686696,2.3286216,-0.68338394,-2.046685,2.231826,0.79344994,0
0.4000000000000002,17.032898861090736,-1.7165910456857127,5.999999771322746,0.6312492569692602,15.97717,-4.6339846,6.0975394,1.2346958,12.976052,-9.663152,0.92170286,0.4879121,0.25344682,0.15045363,0.82162666,-6.661185,2.3270602,-0.63003904,-2.0042434,2.8194573,0.8204329,0
0.4100000000000002,17.032898861090736,-1.7165910456857127,5.999999771322746,0.6312492569692602,15.97717,-4.6339846,6.0975394,1.2346958,12.909916,-9.639879,0.91561896,0.48467803,0.23655316,0.14875302,0.82885617,-6.5669284,2.328098,-0.5862815,-1.9596292,3.3154972,0.8111496,0
0.4200000000000002,17.032898861090736,-1.7165910456857127,5.999999771322746,0.6312492569692602,15.97717,-4.6339846,6.0975394,1.2346958,12.844698,-9.61658,0.9099875,0.4809056,0.21777026,0.14828165,0.83625275,-6.477426,2.3323538,-0.5395384,-1.9219271,3.7341747,0.80232185,0
0.4300000000000002,17.032898861090736,-1.7165910456857127,5.999999771322746,0.6312492569692602,15.97717,-4.6339846,6.0975394,1.2346958,12.78035,-9.59322,0.9048382,0.476626,0.19735523,0.14882326,0.84364116,-6.3931065,2.3404424,-0.48988017,-1.8900675,4.0875564,0.79392725,0
0.4400000000000002,17.032898861090736,-1.7165910456857127,5.999999771322746,0.6312492569692602,14.840711,-4.0323343,6.167012,0.7285714,12.716816,-9.569757,0.9001995,0.47186112,0.17553023,0.15019374,0.8508691,-6.3143897,2.352862,-0.4374589,-1.8631452,4.385824,0.7859446,0
0.45000000000000023,17.032898861090736,-1.7165910456857127,5.999999771322746,0.6312492569692602,14.840711,-4.0323343,6.167012,0.7285714,12.65404,-9.546146,0.8960978,0.46662664,0.15248881,0.1522364,0.8578059,-6.241686,2.3700063,-0.38250047,-1.8403959,4.637575,0.7783536,0
0.46000000000000024,17.032898861090736,-1.7165910456857127,5.999999771322746,0.6312492569692602,14.840711,-4.0323343,6.167012,0.7285714,12.59196,-9.52234,0.8925572,0.46093452,0.12840068,0.15481798,0.8643403,-6.1753883,2.392178,-0.32529682,-1.8211734,4.850063,0.7711351,0
0.47000000000000025,17.032898861090736,-1.7165910456857127,5.999999771322746,0.6312492569692602,14.840711,-4.0323343,6.167012,0.7285714,12.530509,-9.498286,0.8895984,0.45479426,0.10341554,0.15782502,0.87037855,-6.1158705,2.4195971,-0.26619777,-1.8049315,5.029411,0.7642709,0
0.48000000000000026,17.226725899526603,-1.2930821303892666,5.9999997434132135,0.6664612607562773,14.789841,-3.2970517,6.4976134,0.35798204,12.469619,-9.47393,0.88723844,0.44821423,0.0776662,0.16116095,0.87584203,-6.063482,2.4524097,-0.2056028,-1.7912084,5.1807885,0.7577434,0
0.49000000000000027,17.226725899526603,-1.2930821303892666,5.9999997434132135,0.6664612607562773,14.789841,-3.2970517,6.4976134,0.35798204,12.409218,-9.449217,0.88549906,0.44118696,0.051347386,0.16489209,0.88064086,-6.0180216,2.4911373,-0.14213997,-1.7135733,5.308587,0.7532642,0
0.5000000000000002,17.226725899526603,-1.2930821303892666,5.9999997434132135,0.6664612607562773,14.789841,-3.2970517,6.4976134,0.35798204,12.349232,-9.424089,0.8843975,0.43371415,0.024624504,0.16906764,0.8847044,-5.980316,2.5354722,-0.078124516,-1.648036,5.4164495,0.7490047,0
0.5100000000000002,17.226725899526603,-1.2930821303892666,5.9999997434132135,0.6664612607562773,14.789841,-3.2970517,6.4976134,0.35798204,12.289584,-9.39849,0.8839366,0.4258148,-0.0024298755,0.17358778,0.8879996,-5.950551,2.585434,-0.014093768,-1.592711,5.5074854,0.7449542,0
0.5200000000000002,17.74338973928803,-0.7874588502848134,5.999999505948054,0.771066575883961,15.79518,-2.3814344,6.563697,0.14982097,12.230194,-9.372362,0.8841137,0.41750512,-0.029748905,0.1783672,0.8904997,-5.9288898,2.6409836,0.049402453,-1.5460073,5.584319,0.7411026,0
0.5300000000000002,17.74338973928803,-0.7874588502848134,5.999999505948054,0.771066575883961,15.79518,-2.3814344,6.563697,0.14982097,12.170981,-9.345642,0.884945,0.40879604,-0.05718464,0.18351379,0.89215386,-5.915055,2.7038703,0.116615236,-1.427749,5.6491995,0.7425729,0
0.5400000000000003,17.74338973928803,-0.7874588502848134,5.999999505948054,0.771066575883961,15.79518,-2.3814344,6.563697,0.14982097,12.111864,-9.318265,0.88644004,0.399704,-0.08461341,0.18910979,0.8929249,-5.9097276,2.7723486,0.18209004,-1.3279276,5.7039537,0.7439711,0
0.5500000000000003,17.74338973928803,-0.7874588502848134,5.999999505948054,0.771066575883961,15.79518,-2.3814344,6.563697,0.14982097,12.052757,-9.290175,0.88857865,0.39024857,-0.11200835,0.19505224,0.89281297,-5.9129,2.8463063,0.24521819,-1.2436693,5.7501616,0.74530065,0
0.5600000000000003,17.693150079506356,-0.6215931484013372,5.999998889648666,0.5113302186962001,17.815159,-0.8447316,6.3528028,-0.17839402,11.993577,-9.261319,0.8913343,0.38044602,-0.13934192,0.20125292,0.8918195,-5.924549,2.9255812,0.30540302,-1.1725473,5.7891574,0.7465649,1
0.5700000000000003,17.693150079506356,-0.6215931484013372,5.999998889648666,0.5113302186962001,17.815159,-0.8447316,6.3528028,-0.17839402,11.934238,-9.231644,0.89467776,0.3704115,-0.16661862,0.20759876,0.8899081,-5.944713,3.0103061,0.3626877,-1.1212685,5.822096,0.70117694,1
0.5800000000000003,17.693150079506356,-0.6215931484013372,5.999998889648666,0.5113302186962001,17.815159,-0.8447316,6.3528028,-0.17839402,11.874656,-9.201097,0.898574,0.36025155,-0.19384013,0.21398883,0.88704777,-5.9732885,3.0999062,0.415864,-1.0779908,5.84989,0.65801615,1
0.5900000000000003,17.693150079506356,-0.6215931484013372,5.999998889648666,0.5113302186962001,17.815159,-0.8447316,6.3528028,-0.17839402,11.814744,-9.169629,0.9029791,0.34996685,-0.22097473,0.2203692,0.8832502,-6.0101943,3.1940918,0.4643797,-1.0414672,5.8733435,0.6169733,1
0.6000000000000003,16.767696966855063,-0.5890583796905103,4.981478484629635,0.2146747690578323,17.408497,-0.184953,5.764496,-0.34824648,11.754423,-9.137199,0.9078437,0.3395576,-0.24799122,0.22669347,0.8785278,-6.0553203,3.292546,0.50769955,-1.0106446,5.893134,0.5779443,1
0.6100000000000003,16.767696966855063,-0.5890583796905103,4.981478484629635,0.2146747690578323,17.408497,-0.184953,5.764496,-0.34824648,11.693615,-9.103776,0.91309786,0.32913232,-0.2746931,0.23311675,0.8728529,-6.1072927,3.3925993,0.5422094,-0.88169676,5.8731475,0.53249586,1
0.6200000000000003,16.767696966855063,-0.5890583796905103,4.981478484629635,0.2146747690578323,17.408497,-0.184953,5.764496,-0.34824648,11.63225,-9.069335,0.9186671,0.3187917,-0.30092683,0.2397594,0.86621606,-6.1668515,3.4962149,0.5706553,-0.7728693,5.856263,0.4892776,1
0.6300000000000003,16.767696966855063,-0.5890583796905103,4.981478484629635,0.2146747690578323,17.408497,-0.184953,5.764496,-0.34824648,11.570253,-9.033841,0.92448854,0.3085224,-0.32671976,0.24653693,0.85865456,-6.233665,3.6031075,0.5925852,-0.6810226,5.8419995,0.44818005,1
0.6400000000000003,16.767696966855063,-0.5890583796905103,4.981478484629635,0.2146747690578323,17.77976,-0.14458114,4.672654,-0.48240712,11.507553,-8.997262,0.9304949,0.29831064,-0.3520911,0.2533771,0.85020155,-6.307402,3.7129726,0.6075778,-0.60350853,5.8299513,0.40909916,0
0.6500000000000004,16.767696966855063,-0.5890583796905103,4.981478484629635,0.2146747690578323,17.77976,-0.14458114,4.672654,-0.48240712,11.4440975,-8.959592,0.93659526,0.28810722,-0.37681973,0.2600151,0.8410667,-6.3847666,3.8213294,0.6113688,-0.60118437,5.6976366,0.3995587,0
0.6600000000000004,16.767696966855063,-0.5890583796905103,4.981478484629635,0.2146747690578323,17.77976,-0.14458114,4.672654,-0.48240712,11.379837,-8.920828,0.9426974,0.27786726,-0.40073466,0.26625454,0.8314506,-6.468117,3.9317975,0.6079148,-0.59923124,5.5859566,0.3904864,0
0.6700000000000004,16.767696966855063,-0.5890583796905103,4.981478484629635,0.2146747690578323,17.77976,-0.14458114,4.672654,-0.48240712,11.314715,-8.88095,0.9487282,0.26758385,-0.42391384,0.27212965,0.82136554,-6.5571027,4.0439425,0.5970724,-0.59758997,5.4916925,0.38185924,0
0.6800000000000004,15.276703803359851,-0.781395033151558,0.6407579022643359,0.053881827713343156,17.79635,-0.8396665,2.620986,-0.54399455,11.248677,-8.839945,0.9546131,0.25725085,-0.44642124,0.27766836,0.81082076,-6.651382,4.1573515,0.5787132,-0.5962108,5.4121284,0.37365544,0
0.6900000000000004,15.276703803359851,-0.781395033151558,0.6407579022643359,0.053881827713343156,17.79635,-0.8396665,2.620986,-0.54399455,11.181715,-8.797852,0.960244,0.24733715,-0.4669451,0.2823898,0.8006513,-6.7417507,4.26145,0.5464161,-0.624861,4.668035,0.35796404,0
0.7000000000000004,15.276703803359851,-0.781395033151558,0.6407579022643359,0.053881827713343156,17.79635,-0.8396665,2.620986,-0.54399455,11.113829,-8.754715,0.9655201,0.23824976,-0.4845198,0.28596362,0.79164535,-6.83599,4.365871,0.50789255,-0.64908636,4.039984,0.34304264,0
0.7100000000000004,15.276703803359851,-0.781395033151558,0.6407579022643359,0.053881827713343156,17.79635,-0.8396665,2.620986,-0.54399455,11.044984,-8.710534,0.97038305,0.22989032,-0.4996486,0.28860343,0.7837153,-6.933524,4.4702396,0.4639152,-0.66956866,3.5098784,0.32885343,0
0.7200000000000004,13.917709989588003,-1.158482655160647,-5.260197059692394,-0.08804490335611072,17.01324,-1.0180129,-2.0233269,-0.598555,10.975148,-8.665311,0.97478193,0.2221668,-0.5127457,0.29048,0.7767593,-7.033897,4.5742846,0.41516793,-0.6868849,3.0624433,0.31536052,0
0.7300000000000004,13.917709989588003,-1.158482655160647,-5.260197059692394,-0.08804490335611072,17.01324,-1.0180129,-2.0233269,-0.598555,10.904343,-8.619096,0.978652,0.21562266,-0.5223708,0.2910914,0.77194643,-7.1275496,4.6685853,0.35836795,-0.76014024,1.7645266,0.29556528,0
0.7400000000000004,13.917709989588003,-1.158482655160647,-5.260197059692394,-0.08804490335611072,17.01324,-1.0180129,-2.0233269,-0.598555,10.832592,-8.571941,0.9819415,0.21069214,-0.52743304,0.2900733,0.7702471,-7.222849,4.7622046,0.29929873,-0.82204187,0.6690229,0.27674142,0
0.7500000000000004,13.917709989588003,-1.158482655160647,-5.260197059692394,-0.08804490335611072,17.01324,-1.0180129,-2.0233269,-0.598555,10.759882,-8.523855,0.98463523,0.20713623,-0.52868116,0.28771442,0.77124,-7.319266,4.855007,0.23942971,-0.8743456,-0.25563493,0.25884125,0
0.7600000000000005,13.318630486584295,-1.636407830718011,-5.9999994372675305,-0.1931603084059898,15.6748705,-1.3739672,-5.753356,-0.32303083,10.686204,-8.474845,0.9867316,0.20473894,-0.52671015,0.28423473,0.77451205,-7.416369,4.9469037,0.1800085,-0.918536,-1.036091,0.24181947,0
0.7700000000000005,13.318630486584295,-1.636407830718011,-5.9999994372675305,-0.1931603084059898,15.6748705,-1.3739672,-5.753356,-0.32303083,10.611575,-8.424939,0.988232,0.20330183,-0.52180874,0.2795876,0.7798812,-7.509594,5.033897,0.12037503,-1.0303904,-1.8102132,0.22047488,0
0.7800000000000005,13.318630486584295,-1.636407830718011,-5.9999994372675305,-0.1931603084059898,15.6748705,-1.3739672,-5.753356,-0.32303083,10.536012,-8.37417,0.9891474,0.2026506,-0.51420647,0.2737297,0.7871444,-7.6027956,5.119804,0.063157335,-1.1248366,-2.4636066,0.20017768,0
0.7900000000000005,13.318630486584295,-1.636407830718011,-5.9999994372675305,-0.1931603084059898,15.6748705,-1.3739672,-5.753356,-0.32303083,10.459518,-8.322548,0.98950636,0.20263937,-0.50425917,0.26681927,0.7959066,-7.6956596,5.2044578,0.009187509,-1.2045814,-3.0151005,0.1808765,0
0.8000000000000005,12.96451567732741,-2.0888146902904032,-5.999999731263384,0.1399294182053179,15.079813,-1.8367835,-5.852774,-0.48929527,10.3821,-8.270086,0.9893447,0.20314164,-0.49225965,0.2589849,0.80581677,-7.7878685,5.2876754,-0.04085733,-1.2719113,-3.4805868,0.1625224,0
0.8100000000000005,12.96451567732741,-2.0888146902904032,-5.999999731263384,0.1399294182053179,15.079813,-1.8367835,-5.852774,-0.48929527,10.303777,-8.21681,0.9886977,0.20392674,-0.4784782,0.25020656,0.8166205,-7.876679,5.367079,-0.08783139,-1.399268,-3.8735,0.16141376,0
0.8200000000000005,12.96451567732741,-2.0888146902904032,-5.999999731263384,0.1399294182053179,15.079813,-1.8367835,-5.852774,-0.48929527,10.224571,-8.16275,0.9876045,0.20480183,-0.4631394,0.2404729,0.82808864,-7.964257,5.444611,-0.13003577,-1.5067705,-4.205137,0.1603595,0
0.8300000000000005,12.96451567732741,-2.0888146902904032,-5.999999731263384,0.1399294182053179,15.079813,-1.8367835,-5.852774,-0.48929527,10.144498,-8.107925,0.98611444,0.20571695,-0.44640964,0.22989531,0.83996844,-8.050313,5.519982,-0.16715455,-1.5975137,-4.485053,0.159357,0
0.8400000000000005,12.96451567732741,-2.0888146902904032,-5.999999731263384,0.1399294182053179,14.359992,-2.2542052,-6.023975,-0.28840584,10.063572,-8.052358,0.98427963,0.20662944,-0.428433,0.21857011,0.85204244,-8.134543,5.592897,-0.19897117,-1.6741102,-4.7213154,0.15840371,0
0.8500000000000005,12.96451567732741,-2.0888146902904032,-5.999999731263384,0.1399294182053179,14.359992,-2.2542052,-6.023975,-0.28840584,9.981814,-7.996076,0.98215365,0.20750298,-0.40933606,0.20658134,0.864124,-8.216632,5.663062,-0.22535864,-1.7387655,-4.9207315,0.15749717,0
0.8600000000000005,12.96451567732741,-2.0888146902904032,-5.999999731263384,0.1399294182053179,14.359992,-2.2542052,-6.023975,-0.28840584,9.899248,-7.939107,0.9797912,0.2083069,-0.3892309,0.19400303,0.87605363,-8.296258,5.730187,-0.2462707,-1.7933412,-5.089048,0.1566351,0
0.8700000000000006,12.96451567732741,-2.0888146902904032,-5.999999731263384,0.1399294182053179,14.359992,-2.2542052,-6.023975,-0.28840584,9.815898,-7.8814836,0.977247,0.20901549,-0.36821774,0.1809009,0.8876952,-8.373098,5.7939887,-0.2617341,-1.8394084,-5.2311144,0.15581535,0
0.8800000000000006,14.027798779798772,-1.839326580142195,-5.999999671369699,-0.1391554365015665,14.512391,-1.9774058,-5.964533,-0.07900213,9.731796,-7.8232393,0.97457504,0.20960723,-0.34638685,0.1673337,0.8989327,-8.446832,5.854191,-0.27184126,-1.8782938,-5.3510246,0.15503584,1
0.8900000000000006,14.027798779798772,-1.839326580142195,-5.999999671369699,-0.1391554365015665,14.512391,-1.9774058,-5.964533,-0.07900213,9.646932,-7.764379,0.97188324,0.21010157,-0.32382816,0.15338846,0.9096506,-8.525536,5.917261,-0.26561788,-1.8937812,-5.4466887,0.14355153,1
0.9000000000000006,14.027798779798772,-1.839326580142195,-5.999999671369699,-0.1391554365015665,14.512391,-1.9774058,-5.964533,-0.07900213,9.561299,-7.7049103,0.96928185,0.2105167,-0.30062377,0.13914038,0.91975415,-8.600059,5.975751,-0.2538058,-1.9068542,-5.527434,0.13263075,1
0.9100000000000006,14.027798779798772,-1.839326580142195,-5.999999671369699,-0.1391554365015665,14.512391,-1.9774058,-5.964533,-0.07900213,9.474944,-7.6448803,0.96682537,0.21083458,-0.27684113,0.124623954,0.92918044,-8.670066,6.029421,-0.23669404,-1.9178886,-5.5955873,0.122245856,1
0.9200000000000006,15.109369203033657,-1.2495075562370117,-5.999999357558661,-0.5034375114855236,14.765199,-1.6030344,-5.842992,-0.10186905,9.387914,-7.5843387,0.9645651,0.21104015,-0.25254223,0.109871306,0.9378765,-8.735242,6.0780473,-0.21461666,-1.9272021,-5.653112,0.112370566,1
0.9300000000000006,15.109369203033657,-1.2495075562370117,-5.999999357558661,-0.5034375114855236,14.765199,-1.6030344,-5.842992,-0.10186905,9.30025,-7.5233335,0.96255964,0.21115558,-0.22779933,0.09506321,0.9457713,-8.796335,6.122194,-0.1857767,-1.876685,-5.682707,0.10185776,1
0.9400000000000006,15.109369203033657,-1.2495075562370117,-5.999999357558661,-0.5034375114855236,14.765199,-1.6030344,-5.842992,-0.10186905,9.212005,-7.4619136,0.9608641,0.21119648,-0.20267956,0.080349244,0.9528172,-8.851921,6.16089,-0.1526982,-1.8340449,-5.7076883,0.09186084,1
0.9500000000000006,15.109369203033657,-1.2495075562370117,-5.999999357558661,-0.5034375114855236,14.765199,-1.6030344,-5.842992,-0.10186905,9.123232,-7.4001346,0.9595187,0.21114321,-0.1772307,0.06571574,0.9590041,-8.901734,6.1940494,-0.11583881,-1.7980533,-5.7287755,0.082354456,1
0.9600000000000006,15.364861406390586,-0.5878557981409823,-5.999998627300112,-0.6411354467147041,14.48667,-1.2779274,-5.814725,-0.2884386,9.033991,-7.3380523,0.9585587,0.21097992,-0.15149723,0.051153027,0.9643231,-8.945541,6.2215943,-0.07567407,-1.7676731,-5.746575,0.07331458,1
0.9700000000000006,15.364861406390586,-0.5878557981409823,-5.999998627300112,-0.6411354467147041,14.48667,-1.2779274,-5.814725,-0.2884386,8.944346,-7.2757244,0.95800155,0.21073453,-0.12550543,0.036779564,0.968755,-8.982425,6.2430577,-0.03535677,-1.6913638,-5.7571793,0.05556325,1
0.9800000000000006,15.364861406390586,-0.5878557981409823,-5.999998627300112,-0.6411354467147041,14.48667,-1.2779274,-5.814725,-0.2884386,8.854363,-7.21321,0.9578593,0.2104294,-0.09928262,0.02269178,0.9722897,-9.0130205,6.258964,0.0072250683,-1.6269518,-5.7661333,0.03868297,1
0.9900000000000007,15.364861406390586,-0.5878557981409823,-5.999998627300112,-0.6411354467147041,14.48667,-1.2779274,-5.814725,-0.2884386,8.764107,-7.150564,0.95815206,0.21004604,-0.072870195,0.0088547785,0.9749317,-9.037163,6.2693405,0.05156786,-1.5725819,-5.7736936,0.022631014,1
1.0000000000000007,15.274673945631578,0.1893985302501792,-5.643966718115637,-0.8148500727808269,14.497799,-1.1145363,-4.7102427,-0.36514777,8.673642,-7.087842,0.9588949,0.20956965,-0.046306804,-0.004759404,0.9766848,-9.054721,6.274221,0.097163334,-1.5266882,-5.7800765,0.007366741,0
1.0100000000000007,15.274673945631578,0.1893985302501792,-5.643966718115637,-0.8148500727808269,14.497799,-1.1145363,-4.7102427,-0.36514777,8.583032,-7.0250983,0.96013707,0.20907569,-0.019572224,-0.017587505,0.9775452,-9.066174,6.273655,0.1513579,-1.259217,-5.7588153,-0.032979667,0
1.0200000000000007,15.274673945631578,0.1893985302501792,-5.643966718115637,-0.8148500727808269,14.497799,-1.1145363,-4.7102427,-0.36514777,8.492343,-6.962388,0.96192294,0.20861894,0.0073445626,-0.029181296,0.9775338,-9.070414,6.2676835,0.20580837,-1.0334494,-5.7408834,-0.071346276,0
1.0300000000000007,15.274673945631578,0.1893985302501792,-5.643966718115637,-0.8148500727808269,14.497799,-1.1145363,-4.7102427,-0.36514777,8.4016485,-6.8997626,0.96425235,0.20816302,0.03439665,-0.0397167,0.9766818,-9.06731,6.2566566,0.2600047,-0.8428824,-5.725758,-0.10783021,0
1.0400000000000007,15.274673945631578,0.1893985302501792,-5.643966718115637,-0.8148500727808269,14.279635,-0.23105209,-2.129591,-0.87981117,8.311023,-6.8372707,0.96712035,0.20767967,0.061541542,-0.049342226,0.9750113,-9.056778,6.2408857,0.31344953,-0.6820273,-5.7129984,-0.14252388,0
1.0500000000000007,15.274673945631578,0.1893985302501792,-5.643966718115637,-0.8148500727808269,14.279635,-0.23105209,-2.129591,-0.87981117,8.22054,-6.77496,0.97051704,0.20714715,0.08874028,-0.058182966,0.9725379,-9.038772,6.2206516,0.3656556,-0.54625064,-5.702234,-0.17551515,0
1.0600000000000007,15.274673945631578,0.1893985302501792,-5.643966718115637,-0.8148500727808269,14.279635,-0.23105209,-2.129591,-0.87981117,8.130274,-6.712873,0.9744276,0.20654888,0.115956746,-0.06634406,0.96927285,-9.013287,6.196209,0.41614443,-0.43164188,-5.693151,-0.20688751,0
1.0700000000000007,15.274673945631578,0.1893985302501792,-5.643966718115637,-0.8148500727808269,14.279635,-0.23105209,-2.129591,-0.87981117,8.040299,-6.65105,0.9788324,0.20587236,0.14315712,-0.073913716,0.965225,-8.980351,6.1677914,0.46444583,-0.33490044,-5.6854877,-0.23672041,0
1.0800000000000007,14.089223430250193,1.0652752890884039,-1.2150985794872982,-1.02057662099667,14.642606,0.44796023,-0.3333977,-1.3099099,7.9506917,-6.58953,0.9837073,0.20510823,0.17030956,-0.08096575,0.9604008,-8.940031,6.1356163,0.5100979,-0.2532406,-5.6790204,-0.2650894,1
1.0900000000000007,14.089223430250193,1.0652752890884039,-1.2150985794872982,-1.02057662099667,14.642606,0.44796023,-0.3333977,-1.3099099,7.861514,-6.5283422,0.98899454,0.20447434,0.1953799,-0.08701947,0.9552195,-8.8945055,6.1014223,0.54688275,-0.14390841,-4.8453875,-0.31635907,1
1.1000000000000008,14.089223430250193,1.0652752890884039,-1.2150985794872982,-1.02057662099667,14.642606,0.44796023,-0.3333977,-1.3099099,7.7728224,-6.467511,0.99463487,0.2041924,0.21679598,-0.09170813,0.9502076,-8.842965,6.0644226,0.580736,-0.051594898,-4.1417623,-0.36511287,1
1.1100000000000008,14.089223430250193,1.0652752890884039,-1.2150985794872982,-1.02057662099667,14.642606,0.44796023,-0.3333977,-1.3099099,7.684672,-6.4070616,1.0005997,0.20425172,0.2351507,-0.09524092,0.94547045,-8.78635,6.025172,0.6118338,0.026343428,-3.5478692,-0.41147432,1
1.1200000000000008,13.032940759336922,1.7944236175982653,4.677368015111464,-1.2694223151521757,15.041956,1.0801706,3.1823986,-1.371889,7.5971103,-6.347014,1.0068628,0.20463476,0.2509416,-0.09779299,0.94105756,-8.725432,5.9841256,0.6403945,0.09214016,-3.0465944,-0.4555608,0
1.1300000000000008,13.032940759336922,1.7944236175982653,4.677368015111464,-1.2694223151521757,15.041956,1.0801706,3.1823986,-1.371889,7.5101414,-6.287361,1.0133322,0.20537616,0.26282188,-0.098592296,0.9375632,-8.667973,5.9463544,0.65315056,0.35913396,-1.8433509,-0.4953834,0
1.1400000000000008,13.032940759336922,1.7944236175982653,4.677368015111464,-1.2694223151521757,15.041956,1.0801706,3.1823986,-1.371889,7.423758,-6.2280884,1.0199211,0.20650417,0.2697504,-0.09704636,0.93550664,-8.608348,5.908128,0.6644544,0.5832726,-0.8265347,-0.5333657,0
1.1500000000000008,13.032940759336922,1.7944236175982653,4.677368015111464,-1.2694223151521757,15.041956,1.0801706,3.1823986,-1.371889,7.337979,-6.169197,1.0266192,0.20797367,0.2725236,-0.09351647,0.93473655,-8.547443,5.8701315,0.67513245,0.77244854,0.031712368,-0.56948423,0
1.1600000000000008,12.502887164243527,2.3370229408675622,5.9999990650089465,-1.29173344482122,16.294008,1.5117465,4.583657,-2.4126658,7.252811,-6.110682,1.0334237,0.20973477,0.27179673,-0.08830186,0.93506175,-8.486032,5.8329744,0.6858145,0.93210953,0.7561201,-0.60383046,0
1.1700000000000008,12.502887164243527,2.3370229408675622,5.9999990650089465,-1.29173344482122,16.294008,1.5117465,4.583657,-2.4126658,7.168245,-6.052525,1.0403152,0.21172634,0.2676602,-0.08133658,0.93643695,-8.427265,5.798657,0.6925992,1.1515601,1.5737889,-0.63758606,0
1.1800000000000008,12.502887164243527,2.3370229408675622,5.9999990650089465,-1.29173344482122,16.294008,1.5117465,4.583657,-2.4126658,7.0842624,-5.9947023,1.0472792,0.21388558,0.26020008,-0.07257731,0.9387658,-8.369289,5.766246,0.70042336,1.3367655,2.2639494,-0.66968524,0
1.1900000000000008,12.502887164243527,2.3370229408675622,5.9999990650089465,-1.29173344482122,16.294008,1.5117465,4.583657,-2.4126658,7.0008535,-5.937192,1.0543287,0.21616144,0.24990542,-0.062285587,0.9417759,-8.312693,5.7362957,0.7097061,1.493065,2.8464866,-0.7002093,0
1.2000000000000008,12.252771329497207,2.744158431538866,5.9999995755467275,-0.8525526543194273,14.40367,1.481362,5.6932545,-2.8210666,6.9180017,-5.8799667,1.0614794,0.21850666,0.23718461,-0.05068396,0.9452138,-8.257995,5.7092996,0.7207395,1.6249665,3.3381844,-0.7292356,0
1.2100000000000009,12.252771329497207,2.744158431538866,5.9999995755467275,-0.8525526543194273,14.40367,1.481362,5.6932545,-2.8210666,6.8356805,-5.8229923,1.0687389,0.22078924,0.22241433,-0.03782194,0.9488694,-8.206699,5.6861787,0.7314762,1.7997155,3.753203,-0.7352868,0
1.2200000000000009,12.252771329497207,2.744158431538866,5.9999995755467275,-0.8525526543194273,14.40367,1.481362,5.6932545,-2.8210666,6.7538586,-5.7662306,1.0761156,0.22289503,0.2059124,-0.02375282,0.952551,-8.158092,5.666833,0.7441636,1.947184,4.103512,-0.74104106,0
1.2300000000000009,12.252771329497207,2.744158431538866,5.9999995755467275,-0.8525526543194273,14.40367,1.481362,5.6932545,-2.8210666,6.6725082,-5.7096415,1.0836288,0.22480854,0.18791893,-0.008660539,0.9560713,-8.112506,5.651667,0.7587689,2.07163,4.3992004,-0.746513,0
1.2400000000000009,12.252771329497207,2.744158431538866,5.9999995755467275,-0.8525526543194273,16.670116,1.6695253,4.0547266,-2.446348,6.5915976,-5.653182,1.0912973,0.22651619,0.16864084,0.007294601,0.9592691,-8.070248,5.6410375,0.77517396,2.1766474,4.648786,-0.7517164,0
1.2500000000000009,12.252771329497207,2.744158431538866,5.9999995755467275,-0.8525526543194273,16.670116,1.6695253,4.0547266,-2.446348,6.511091,-5.5968046,1.0991379,0.2280063,0.14825772,0.023972169,0.96200716,-8.03159,5.6352515,0.7931857,2.265269,4.8594565,-0.7566645,0
1.260000000000001,12.252771329497207,2.744158431538866,5.9999995755467275,-0.8525526543194273,16.670116,1.6695253,4.0547266,-2.446348,6.4309525,-5.540459,1.1071656,0.22926922,0.12692647,0.04124853,0.9641699,-7.996777,5.6345706,0.81254697,2.3400545,5.0372796,-0.76136976,0
1.270000000000001,12.252771329497207,2.744158431538866,5.9999995755467275,-0.8525526543194273,16.670116,1.6695253,4.0547266,-2.446348,6.351142,-5.484095,1.1153924,0.23029703,0.10478514,0.059014343,0.96566063,-7.966024,5.639211,0.832946,2.403164,5.187377,-0.76584405,0
1.280000000000001,13.19584467875493,2.4268251710568283,5.999999489537403,-0.91792015946857,15.692836,2.1411412,4.6266174,-1.0360876,6.271618,-5.4276567,1.123827,0.23108348,0.08195581,0.07717247,0.96639943,-7.9395156,5.649347,0.8540253,2.4564197,5.3140717,-0.77009887,0
1.290000000000001,13.19584467875493,2.4268251710568283,5.999999489537403,-0.91792015946857,15.692836,2.1411412,4.6266174,-1.0360876,6.1923456,-5.3710833,1.13252,0.2316413,0.058517106,0.09551428,0.9663306,-7.9157104,5.666315,0.88458663,2.4518836,5.4210324,-0.77735245,0
1.300000000000001,13.19584467875493,2.4268251710568283,5.999999489537403,-0.91792015946857,15.692836,2.1411412,4.6266174,-1.0360876,6.113287,-5.3143096,1.1415182,0.23197937,0.03454227,0.11386591,0.96541524,-7.896809,5.68939,0.91501075,2.4480462,5.5113134,-0.78425014,0
1.310000000000001,13.19584467875493,2.4268251710568283,5.999999489537403,-0.91792015946857,15.692836,2.1411412,4.6266174,-1.0360876,6.034392,-5.2572746,1.1508181,0.23208907,0.010126816,0.13219267,0.9636165,-7.8829427,5.7185774,0.944832,2.4447997,5.587515,-0.7908094,0
1.320000000000001,14.218935755926166,1.7933589126641,5.999999112553199,-0.9156633812386884,13.748798,1.5677115,4.048815,-0.92633563,5.9556103,-5.1999173,1.1604111,0.23196423,-0.014643547,0.15046167,0.96090525,-7.8742065,5.7538514,0.973568,2.4420526,5.651833,-0.7970468,0
1.330000000000001,14.218935755926166,1.7933589126641,5.999999112553199,-0.9156633812386884,13.748798,1.5677115,4.048815,-0.92633563,5.876891,-5.1421614,1.1703328,0.23159505,-0.03975042,0.1683988,0.9573009,-7.8703957,5.7983427,1.0104415,2.3409388,5.706173,-0.8028674,0
1.340000000000001,14.218935755926166,1.7933589126641,5.999999112553199,-0.9156633812386884,13.748798,1.5677115,4.048815,-0.92633563,5.7981825,-5.0839286,1.1806126,0.23096898,-0.06517057,0.18578458,0.95283246,-7.8722696,5.8491325,1.0451145,2.2555885,5.7520313,-0.8084023,0
1.350000000000001,14.218935755926166,1.7933589126641,5.999999112553199,-0.9156633812386884,13.748798,1.5677115,4.048815,-0.92633563,5.719426,-5.0251575,1.1912259,0.23008008,-0.09082411,0.20266289,0.9474922,-7.879884,5.905996,1.0770929,2.1835444,5.790732,-0.81366557,0
1.360000000000001,14.670248360065933,1.0735775848848166,5.999997691560756,-0.7250150042249207,13.65165,1.1872598,4.1800504,-0.84375215,5.640565,-4.9657884,1.2021435,0.22892557,-0.116639264,0.21906844,0.9412741,-7.8932533,5.9686966,1.1058853,2.1227314,5.8233924,-0.81867063,0
1.370000000000001,14.670248360065933,1.0735775848848166,5.999997691560756,-0.7250150042249207,13.65165,1.1872598,4.1800504,-0.84375215,5.561538,-4.9057536,1.2133508,0.22744736,-0.1426122,0.23476106,0.93424636,-7.912973,6.039138,1.1349242,1.9591137,5.851027,-0.81407493,0
1.380000000000001,14.670248360065933,1.0735775848848166,5.999997691560756,-0.7250150042249207,13.65165,1.1872598,4.1800504,-0.84375215,5.482285,-4.844987,1.2248275,0.22559138,-0.1687317,0.24955525,0.92647713,-7.9386215,6.1149626,1.1597385,1.8210105,5.8743377,-0.8097048,0
1.390000000000001,14.670248360065933,1.0735775848848166,5.999997691560756,-0.7250150042249207,13.65165,1.1872598,4.1800504,-0.84375215,5.4027457,-4.783437,1.2365295,0.2233652,-0.19492623,0.26354852,0.91796154,-7.97018,6.19578,1.1799089,1.7044431,5.894001,-0.80554897,0
1.400000000000001,14.198641555511108,0.2564484493329082,4.048072939367987,-0.5574285984700116,14.241782,0.93283457,4.3390007,-0.9460302,5.322861,-4.721055,1.2484082,0.22077869,-0.22113161,0.2768214,0.9086952,-8.00759,6.2812066,1.1950259,1.6060536,5.910587,-0.8015971,1
1.410000000000001,14.198641555511108,0.2564484493329082,4.048072939367987,-0.5574285984700116,14.241782,0.93283457,4.3390007,-0.9460302,5.24258,-4.6578107,1.2603954,0.21804468,-0.24671133,0.28924015,0.89884907,-8.049463,6.368232,1.2015702,1.5009639,5.6655464,-0.80868447,1
1.420000000000001,14.198641555511108,0.2564484493329082,4.048072939367987,-0.5574285984700116,14.241782,0.93283457,4.3390007,-0.9460302,5.161854,-4.593678,1.2724209,0.21535729,-0.2711772,0.3007166,0.8886243,-8.096563,6.4589043,1.2026541,1.4122797,5.4587126,-0.8154241,1
1.430000000000001,14.198641555511108,0.2564484493329082,4.048072939367987,-0.5574285984700116,14.241782,0.93283457,4.3390007,-0.9460302,5.0806317,-4.528622,1.2844293,0.21269955,-0.29467508,0.3113725,0.8780502,-8.148521,6.5527997,1.198159,1.33744,5.284128,-0.821833,1
1.440000000000001,14.198641555511108,0.2564484493329082,4.048072939367987,-0.5574285984700116,13.610551,0.41013876,3.2035937,-0.8401734,4.9988675,-4.4626126,1.2963644,0.21005607,-0.31732672,0.32130927,0.86714476,-8.204999,6.6495357,1.1879827,1.2742839,5.136765,-0.8279275,1
1.450000000000001,14.198641555511108,0.2564484493329082,4.048072939367987,-0.5574285984700116,13.610551,0.41013876,3.2035937,-0.8401734,4.91653,-4.395645,1.3081508,0.20748296,-0.33888343,0.33034274,0.85614365,-8.2629795,6.744357,1.1684182,1.1393604,4.83536,-0.82852834,1
1.460000000000001,14.198641555511108,0.2564484493329082,4.048072939367987,-0.5574285984700116,13.610551,0.41013876,3.2035937,-0.8401734,4.833595,-4.3277187,1.3197143,0.20502815,-0.3591674,0.33834615,0.8452713,-8.324614,6.8411736,1.1434547,1.025503,4.5809484,-0.8290998,1
1.470000000000001,14.198641555511108,0.2564484493329082,4.048072939367987,-0.5574285984700116,13.610551,0.41013876,3.2035937,-0.8401734,4.750026,-4.258816,1.3310018,0.20266682,-0.3783659,0.34547326,0.83451366,-8.389569,6.939639,1.11323,0.92942303,4.366202,-0.82964313,1
1.480000000000001,13.374606946564226,-0.544509885822784,-0.47856832823648127,-0.4845128558001651,13.263961,0.021366172,-0.57328045,-0.75806355,4.6657925,-4.1889215,1.3419611,0.20037712,-0.39663514,0.3518519,0.8238502,-8.457555,7.039457,1.0778688,0.84834456,4.1849375,-0.83015984,1
1.490000000000001,13.374606946564226,-0.544509885822784,-0.47856832823648127,-0.4845128558001651,13.263961,0.021366172,-0.57328045,-0.75806355,4.5808744,-4.118036,1.3525345,0.19860749,-0.41290092,0.35716963,0.8139393,-8.526468,7.137794,1.0360882,0.7189687,3.4429677,-0.826622,1
1.500000000000001,13.374606946564226,-0.544509885822784,-0.47856832823648127,-0.4845128558001651,13.263961,0.021366172,-0.57328045,-0.75806355,4.495256,-4.046163,1.3626685,0.19773112,-0.42636365,0.36121398,0.8053821,-8.597521,7.2369323,0.990093,0.6098347,2.8166962,-0.8232578,1
1.5100000000000011,13.374606946564226,-0.544509885822784,-0.47856832823648127,-0.4845128558001651,13.263961,0.021366172,-0.57328045,-0.75806355,4.4089184,-3.9732952,1.3723243,0.1976229,-0.43750197,0.36420912,0.79805285,-8.670216,7.3366694,0.9405761,0.51777506,2.2880816,-0.8200587,1
1.5200000000000011,12.694047453856834,-1.24083902998298,-5.999669564316065,-0.43281246434739473,11.961762,-1.3657774,-4.4450345,-0.27437007,4.321847,-3.8994277,1.3814701,0.19817153,-0.44670886,0.36633557,0.79181874,-8.74416,7.4368653,0.88814545,0.44011837,1.8418962,-0.8170166,0
1.5300000000000011,12.694047453856834,-1.24083902998298,-5.999669564316065,-0.43281246434739473,11.961762,-1.3657774,-4.4450345,-0.27437007,4.234025,-3.8245482,1.3900831,0.19985062,-0.45281354,0.36713064,0.78754944,-8.81978,7.5384684,0.8338958,0.25052452,0.69227993,-0.80474997,0
1.5400000000000011,12.694047453856834,-1.24083902998298,-5.999669564316065,-0.43281246434739473,11.961762,-1.3657774,-4.4450345,-0.27437007,4.1454597,-3.748671,1.3981385,0.2030001,-0.4548026,0.36606422,0.7860928,-8.892831,7.636387,0.7768916,0.037073128,-0.33155346,-0.7882992,0
1.5500000000000012,12.694047453856834,-1.24083902998298,-5.999669564316065,-0.43281246434739473,11.961762,-1.3657774,-4.4450345,-0.27437007,4.056173,-3.6718245,1.4056196,0.20734788,-0.45320395,0.36322954,0.7871955,-8.964595,7.732879,0.7194488,-0.16265681,-1.2153921,-0.77085537,0
1.5600000000000012,12.136059634049062,-1.9843317004074665,-5.9999994443576306,-0.08734141335646621,11.53787,-2.7874477,-6.261043,1.1510969,3.9661703,-3.5940135,1.4125319,0.21267782,-0.44853923,0.3588477,0.79044825,-9.0357685,7.829262,0.6632798,-0.33115226,-1.9614167,-0.7542675,0
1.5700000000000012,12.136059634049062,-1.9843317004074665,-5.9999994443576306,-0.08734141335646621,11.53787,-2.7874477,-6.261043,1.1510969,3.8754761,-3.5152614,1.4188831,0.21863674,-0.44129488,0.35290262,0.7955601,-9.102924,7.921122,0.60736525,-0.5892192,-2.5911171,-0.7215412,0
1.5800000000000012,12.136059634049062,-1.9843317004074665,-5.9999994443576306,-0.08734141335646621,11.53787,-2.7874477,-6.261043,1.1510969,3.7841158,-3.4355931,1.424689,0.22492559,-0.4318656,0.34538394,0.802253,-9.168959,8.012435,0.55430907,-0.80697316,-3.1226442,-0.69042087,0
1.5900000000000012,12.136059634049062,-1.9843317004074665,-5.9999994443576306,-0.08734141335646621,11.53787,-2.7874477,-6.261043,1.1510969,3.6921015,-3.3550155,1.4299812,0.23144354,-0.42053053,0.33648413,0.8101639,-9.23367,8.102901,0.50474006,-0.9907148,-3.5713024,-0.6608276,0
1.6000000000000012,12.121806045928867,-2.290892020961685,-5.9999996609141615,0.38924910620699116,13.119891,-3.2988362,-6.41443,1.4478256,3.5994475,-3.2735388,1.4347975,0.2381018,-0.40752208,0.3263643,0.81897426,-9.296862,8.192206,0.45915735,-1.1457596,-3.9500105,-0.63268644,0
1.6100000000000012,12.121806045928867,-2.290892020961685,-5.9999996609141615,0.38924910620699116,13.119891,-3.2988362,-6.41443,1.4478256,3.5061705,-3.1911771,1.4391792,0.24472484,-0.39304647,0.31508407,0.8284597,-9.358264,8.279915,0.4178794,-1.3243349,-4.2696743,-0.5825398,0
1.6200000000000012,12.121806045928867,-2.290892020961685,-5.9999996609141615,0.38924910620699116,13.119891,-3.2988362,-6.41443,1.4478256,3.4122887,-3.107947,1.4431713,0.25116163,-0.3772776,0.30270043,0.83842176,-9.417778,8.365761,0.38126117,-1.4750307,-4.539506,-0.5348538,0
1.6300000000000012,12.121806045928867,-2.290892020961685,-5.9999996609141615,0.38924910620699116,13.119891,-3.2988362,-6.41443,1.4478256,3.3178217,-3.0238695,1.4468213,0.25737306,-0.36035484,0.28933787,0.8486379,-9.475233,8.449359,0.34950355,-1.6022027,-4.767272,-0.48950782,0
1.6400000000000012,12.121806045928867,-2.290892020961685,-5.9999996609141615,0.38924910620699116,14.326189,-2.4545493,-5.853682,0.5455302,3.2227912,-2.938969,1.4501785,0.2633251,-0.34240016,0.275105,0.85891706,-9.530453,8.530327,0.32271963,-1.7095257,-4.959529,-0.446387,0
1.6500000000000012,12.121806045928867,-2.290892020961685,-5.9999996609141615,0.38924910620699116,14.326189,-2.4545493,-5.853682,0.5455302,3.1272206,-2.8532732,1.4532928,0.2689886,-0.32352132,0.2600973,0.869096,-9.583254,8.608283,0.30094352,-1.8000998,-5.121812,-0.40538207,0
1.6600000000000013,12.121806045928867,-2.290892020961685,-5.9999996609141615,0.38924910620699116,14.326189,-2.4545493,-5.853682,0.5455302,3.0311348,-2.7668147,1.4562144,0.2743386,-0.30381453,0.24439926,0.8790355,-9.633455,8.6828575,0.28413826,-1.8765414,-5.258793,-0.36638927,0
1.6700000000000013,12.121806045928867,-2.290892020961685,-5.9999996609141615,0.38924910620699116,14.326189,-2.4545493,-5.853682,0.5455302,2.9345608,-2.679629,1.4589924,0.2793541,-0.28336647,0.2280863,0.8886173,-9.680875,8.753689,0.27220294,-1.9410568,-5.374415,-0.32930988,0
1.6800000000000013,12.901007010254107,-1.9040423847547672,-5.999999583715692,0.38031100355131287,14.239824,-2.138912,-5.5052433,0.7957866,2.8375273,-2.5917552,1.4616746,0.28401756,-0.26225582,0.2112259,0.897741,-9.725338,8.820431,0.2649793,-1.9955088,-5.472008,-0.29404998,0
1.6900000000000013,12.901007010254107,-1.9040423847547672,-5.999999583715692,0.38031100355131287,14.239824,-2.138912,-5.5052433,0.7957866,2.7400513,-2.5032156,1.4643377,0.28835532,-0.24051054,0.19401835,0.90629035,-9.769324,8.886767,0.2683868,-1.9811407,-5.554394,-0.26095885,0
1.7000000000000013,12.901007010254107,-1.9040423847547672,-5.999999583715692,0.38031100355131287,14.239824,-2.138912,-5.5052433,0.7957866,2.6421528,-2.4140372,1.4670577,0.29238543,-0.21816222,0.17663139,0.9141755,-9.809768,8.948121,0.2763001,-1.969014,-5.6239276,-0.22949155,0
1.7100000000000013,12.901007010254107,-1.9040423847547672,-5.999999583715692,0.38031100355131287,14.239824,-2.138912,-5.5052433,0.7957866,2.5438685,-2.3242712,1.469878,0.29608425,-0.1952844,0.15907852,0.92135316,-9.846468,9.004241,0.28839353,-1.9587798,-5.6826153,-0.19956836,0
1.7200000000000013,13.93115494911462,-1.2520911628217561,-5.999999186933523,0.32918996396762024,13.884819,-1.5247722,-5.5076346,0.8834366,2.445237,-2.233971,1.4728386,0.29943332,-0.17194434,0.14137389,0.9277864,-9.87924,9.05489,0.3043088,-1.9501437,-5.732148,-0.1711135,1
1.7300000000000013,13.93115494911462,-1.2520911628217561,-5.999999186933523,0.32918996396762024,13.884819,-1.5247722,-5.5076346,0.8834366,2.3462865,-2.1431751,1.4760206,0.30236018,-0.14833358,0.12374351,0.93341434,-9.91011,9.103295,0.33260942,-1.883611,-5.6972065,-0.11936643,1
1.7400000000000013,13.93115494911462,-1.2520911628217561,-5.999999186933523,0.32918996396762024,13.884819,-1.5247722,-5.5076346,0.8834366,2.24705,-2.0519264,1.479502,0.3048048,-0.1246154,0.10637323,0.9382159,-9.936453,9.14548,0.36412376,-1.8274661,-5.667706,-0.07015858,1
1.7500000000000013,13.93115494911462,-1.2520911628217561,-5.999999186933523,0.32918996396762024,13.884819,-1.5247722,-5.5076346,0.8834366,2.1475732,-1.9602872,1.4833125,0.30677187,-0.10080971,0.08922208,0.942214,-9.958165,9.181373,0.39836335,-1.7800878,-5.6428,-0.023365386,1
1.7600000000000013,14.175949303426137,-0.48211020735512794,-5.9999983437749655,0.5023515497696266,14.032245,-0.7321194,-5.6476464,0.88208663,2.0479028,-1.8683208,1.4874771,0.30826733,-0.076936446,0.07225624,0.9454261,-9.975161,9.210917,0.43484357,-1.7401081,-5.621772,0.02113165,1
1.7700000000000014,14.175949303426137,-0.48211020735512794,-5.9999983437749655,0.5023515497696266,14.032245,-0.7321194,-5.6476464,0.88208663,1.9480858,-1.7760894,1.4920228,0.309324,-0.052864727,0.055731058,0.94784886,-9.987485,9.234333,0.4745294,-1.582758,-5.625848,0.063378975,1
1.7800000000000014,14.175949303426137,-0.48211020735512794,-5.9999983437749655,0.5023515497696266,14.032245,-0.7321194,-5.6476464,0.88208663,1.8481704,-1.6836559,1.496972,0.30996102,-0.02849473,0.039849263,0.949486,-9.994809,9.25137,0.5155021,-1.4499537,-5.6292796,0.10355319,1
1.7900000000000014,14.175949303426137,-0.48211020735512794,-5.9999983437749655,0.5023515497696266,14.032245,-0.7321194,-5.6476464,0.88208663,1.7482074,-1.5910834,1.5023354,0.31016853,-0.003888506,0.024514396,0.95035726,-9.996985,9.262127,0.5572762,-1.3378676,-5.6321697,0.14175606,1
1.8000000000000014,14.106033584225127,0.2818217845086558,-5.7655086428875215,0.5522764641464101,15.025364,0.030364254,-5.9999,1.2427247,1.6482488,-1.4984344,1.5081186,0.3099417,0.020898102,0.009645492,0.9504767,-9.9939,9.266701,0.59937185,-1.243268,-5.6346045,0.17808428,1
1.8100000000000014,14.106033584225127,0.2818217845086558,-5.7655086428875215,0.5522764641464101,15.025364,0.030364254,-5.9999,1.2427247,1.5483505,-1.4057704,1.5143719,0.30922857,0.046043217,-0.0045799073,0.9498612,-9.984857,9.265096,0.6512248,-1.0444453,-5.691585,0.2303265,1
1.8200000000000014,14.106033584225127,0.2818217845086558,-5.7655086428875215,0.5522764641464101,15.025364,0.030364254,-5.9999,1.2427247,1.448572,-1.3131541,1.5211407,0.30797163,0.071680255,-0.018025585,0.94852,-9.969885,9.257174,0.70240086,-0.87663645,-5.7396703,0.28000516,1
1.8300000000000014,14.106033584225127,0.2818217845086558,-5.7655086428875215,0.5522764641464101,15.025364,0.030364254,-5.9999,1.2427247,1.3489738,-1.2206479,1.5284158,0.30616614,0.09769985,-0.030809375,0.94644994,-9.94881,9.243143,0.752386,-0.7350048,-5.7802496,0.32724607,1
1.8400000000000014,14.106033584225127,0.2818217845086558,-5.7655086428875215,0.5522764641464101,15.187376,0.5766746,-5.913637,1.3586007,1.2496173,-1.1283116,1.5361826,0.30381313,0.12400526,-0.043029986,0.9436463,-9.921507,9.223211,0.80066687,-0.6154684,-5.8144965,0.3721689,0
1.8500000000000014,14.106033584225127,0.2818217845086558,-5.7655086428875215,0.5522764641464101,15.187376,0.5766746,-5.913637,1.3586007,1.1505554,-1.0361956,1.5443773,0.30099046,0.15045676,-0.05463563,0.9400969,-9.889956,9.1991625,0.83791417,-0.4755046,-5.8068256,0.38100684,0
1.8600000000000014,14.106033584225127,0.2818217845086558,-5.7655086428875215,0.5522764641464101,15.187376,0.5766746,-5.913637,1.3586007,1.0518386,-0.94434583,1.5529323,0.29777625,0.17693833,-0.065585345,0.93579936,-9.852464,9.170033,0.87262404,-0.3573697,-5.800355,0.3894111,0
1.8700000000000014,14.106033584225127,0.2818217845086558,-5.7655086428875215,0.5522764641464101,15.187376,0.5766746,-5.913637,1.3586007,0.95352656,-0.8528116,1.5618197,0.29417735,0.20340115,-0.07596931,0.93076104,-9.809043,9.136089,0.9043517,-0.25765923,-5.7948966,0.39740297,0
1.8800000000000014,12.844143916512486,0.7868386969090454,-1.0186734741320882,0.45460233340270456,14.024843,-0.44207492,-4.424573,0.78039134,0.855678,-0.7616398,1.5710076,0.2902025,0.2298007,-0.08586271,0.9249873,-9.759744,9.097592,0.9326652,-0.17350002,-5.7902927,0.40500268,0
1.8900000000000015,12.844143916512486,0.7868386969090454,-1.0186734741320882,0.45460233340270456,14.024843,-0.44207492,-4.424573,0.78039134,0.7583272,-0.6708556,1.5804048,0.2860042,0.25441083,-0.09459361,0.9189823,-9.709646,9.058692,0.9462353,-0.023923825,-5.046122,0.40743658,0
1.9000000000000015,12.844143916512486,0.7868386969090454,-1.0186734741320882,0.45460233340270456,14.024843,-0.44207492,-4.424573,0.78039134,0.66150105,-0.580477,1.5899206,0.28175846,0.275907,-0.10165492,0.91332006,-9.654893,9.016571,0.95640403,0.10235415,-4.41801,0.40975103,0
1.9100000000000015,12.844143916512486,0.7868386969090454,-1.0186734741320882,0.45460233340270456,14.024843,-0.44207492,-4.424573,0.78039134,0.56524324,-0.49053296,1.599522,0.27749565,0.2947902,-0.10732407,0.9080618,-9.59608,8.971875,0.9633664,0.2089634,-3.887857,0.4119519,0
1.9200000000000015,12.109771672044213,1.0082693657165271,5.311181509853065,0.27288821950176323,14.186558,0.13420628,1.145231,0.9904972,0.46959177,-0.40104648,1.6091778,0.27323288,0.31148025,-0.111832686,0.90322596,-9.533695,8.925134,0.9673384,0.2989675,-3.4403849,0.41404477,0
1.9300000000000015,12.109771672044213,1.0082693657165271,5.311181509853065,0.27288821950176323,14.186558,0.13420628,1.145231,0.9904972,0.37456882,-0.31202736,1.6188424,0.26926538,0.32414123,-0.114644915,0.89960265,-9.471019,8.878895,0.9644199,0.40231135,-2.0943797,0.4064861,0
1.9400000000000015,12.109771672044213,1.0082693657165271,5.311181509853065,0.27288821950176323,14.186558,0.13420628,1.145231,0.9904972,0.28017625,-0.22346951,1.628457,0.2658501,0.33125952,-0.11529175,0.8979412,-9.407254,8.832618,0.9582805,0.49650025,-0.9394638,0.3999304,0
1.9500000000000015,12.109771672044213,1.0082693657165271,5.311181509853065,0.27288821950176323,14.186558,0.13420628,1.145231,0.9904972,0.18642777,-0.13537514,1.6380053,0.2629218,0.33371326,-0.11412147,0.8980442,-9.342319,8.786296,0.95129764,0.57605654,0.0353394,0.3936964,0
1.9600000000000015,11.552070521521626,1.1173220341855425,5.999999440894954,0.18739012314805042,15.353406,0.97697455,4.0229917,0.4306381,0.093331404,-0.047741763,1.6474828,0.2604061,0.3322344,-0.11143109,0.8996619,-9.276938,8.740501,0.94426256,0.64325213,0.85811895,0.3877683,0
1.9700000000000015,11.552070521521626,1.1173220341855425,5.999999440894954,0.18739012314805042,15.353406,0.97697455,4.0229917,0.4306381,0.0008733794,0.039448723,1.6568716,0.25825164,0.32718664,-0.10734878,0.9026243,-9.214738,8.6977825,0.93363196,0.71699095,1.6600064,0.37793568,0
1.9800000000000015,11.552070521521626,1.1173220341855425,5.999999440894954,0.18739012314805042,15.353406,0.97697455,4.0229917,0.4306381,-0.09096588,0.1262187,1.6661595,0.25640318,0.3188741,-0.10198242,0.906739,-9.153271,8.656465,0.9241835,0.77926975,2.3368366,0.36858553,0
1.9900000000000015,11.552070521521626,1.1173220341855425,5.999999440894954,0.18739012314805042,15.353406,0.97697455,4.0229917,0.4306381,-0.18219635,0.2125842,1.6753609,0.2547825,0.30776745,-0.095527485,0.911723,-9.093056,8.616939,0.91639537,0.8318685,2.9081128,0.3596942,0
2.0000000000000013,,,,,14.544303,0.45616275,6.3628507,0.40298828,-0.27283293,0.29856485,1.6844944,0.2533191,0.2942599,-0.08814688,0.9173167,-9.034566,8.579552,0.9106268,0.8762905,3.3902965,0.3512392,0
2.010000000000001,,,,,14.544303,0.45616275,6.3628507,0.40298828,-0.36289886,0.384186,1.6935751,0.25197023,0.27866542,-0.080040805,0.9232818,-8.978984,8.545071,0.9058724,0.88708925,3.7972763,0.3434372,0
2.020000000000001,,,,,14.544303,0.45616275,6.3628507,0.40298828,-0.45242134,0.46947545,1.7026201,0.25069636,0.26125208,-0.07137595,0.92941016,-8.9259405,8.513249,0.90350777,0.8962208,4.140787,0.33601806,0
2.0300000000000007,,,,,14.544303,0.45616275,6.3628507,0.40298828,-0.5414277,0.5544609,1.7116537,0.2494452,0.24226601,-0.062234323,0.9355267,-8.875816,8.484306,0.9035972,0.9039421,4.430728,0.32896292,0
2.0400000000000005,,,,,14.544303,0.45616275,6.3628507,0.40298828,-0.62994885,0.63917214,1.7207004,0.24817285,0.2219194,-0.05268656,0.9414804,-8.828965,8.458438,0.90612906,0.9104703,4.6754527,0.322254,0
2.0500000000000003,,,,,14.828605,0.02283819,6.1928067,0.43975484,-0.7180193,0.7236408,1.7297843,0.24684295,0.2003963,-0.042793956,0.9471419,-8.785712,8.435818,0.9110253,0.9159892,4.8820124,0.31587428,1
2.06,,,,,14.828605,0.02283819,6.1928067,0.43975484,-0.8056163,0.8078704,1.7390863,0.24546821,0.1777653,-0.032966696,0.9523955,-8.734524,8.410792,0.949812,0.7766471,5.056337,0.32195312,1
2.07,,,,,14.828605,0.02283819,6.1928067,0.43975484,-0.89272875,0.8918719,1.7487897,0.2440451,0.1540959,-0.02353655,0.95715284,-8.688847,8.390199,0.99125993,0.6590405,5.2034783,0.3277337,1
2.0799999999999996,,,,,14.828605,0.02283819,6.1928067,0.43975484,-0.97941357,0.9756896,1.7589197,0.24252641,0.12953994,-0.014447022,0.96134835,-8.649085,8.374016,1.035079,0.5597795,5.327676,0.3332306,1
2.0899999999999994,,,,,16.783754,-0.07719375,3.1234207,-0.13772188,-1.065732,1.0593673,1.7694985,0.24087524,0.10423062,-0.0056508705,0.964926,-8.615594,8.362222,1.0809339,0.47600248,5.4325075,0.33845776,1
2.099999999999999,,,,,16.783754,-0.07719375,3.1234207,-0.13772188,-1.1517296,1.1429436,1.78064,0.23913758,0.07939002,0.0025831808,0.96773076,-8.585058,8.353768,1.1476347,0.3898887,5.072382,0.3150915,1
2.109999999999999,,,,,16.783754,-0.07719375,3.1234207,-0.13772188,-1.237458,1.2264585,1.7924557,0.23738995,0.056005068,0.010045245,0.9697461,-8.561699,8.34989,1.2156771,0.31717914,4.7684226,0.2928718,1
2.1199999999999988,,,,,16.783754,-0.07719375,3.1234207,-0.13772188,-1.3229872,1.309956,1.8049564,0.23564367,0.033862825,0.016851433,0.97110265,-8.545187,8.3502245,1.2845858,0.2557882,4.5118704,0.27174243,1
2.1299999999999986,,,,,12.764013,-0.5459224,0.11470949,-0.95216787,-1.4083843,1.3934765,1.818149,0.23390579,0.012780556,0.023100184,0.9719002,-8.535232,8.354454,1.3539615,0.20395473,4.29533,0.25164992,1
2.1399999999999983,,,,,12.764013,-0.5459224,0.11470949,-0.95216787,-1.4937189,1.4770488,1.8318355,0.23231344,-0.006273632,0.028412918,0.97220516,-8.5323925,8.360384,1.3833239,0.08726025,3.643342,0.19257824,1
2.149999999999998,,,,,12.764013,-0.5459224,0.11470949,-0.95216787,-1.5790465,1.560692,1.8458152,0.2310045,-0.022543496,0.03249563,0.97214806,-8.533736,8.368581,1.4125876,-0.011300782,3.0930417,0.1364052,1
2.159999999999998,,,,,12.764013,-0.5459224,0.11470949,-0.95216787,-1.6644061,1.6444265,1.8600864,0.2299778,-0.036461085,0.03553874,0.9718626,-8.538682,8.378591,1.4416343,-0.09454104,2.6285682,0.082988605,1
2.1699999999999977,,,,,15.803215,-0.84541315,-4.9661436,-0.83604777,-1.7498308,1.7282686,1.8746468,0.22922589,-0.04839343,0.0377026,0.97143775,-8.546736,8.390031,1.4704021,-0.16483778,2.2365348,0.032193176,1
2.1799999999999975,,,,,15.803215,-0.84541315,-4.9661436,-0.83604777,-1.835362,1.8122455,1.8896443,0.22879806,-0.056704003,0.038541246,0.97105604,-8.559915,8.405504,1.5290198,-0.2709171,1.1132861,-0.010411674,1
2.1899999999999973,,,,,15.803215,-0.84541315,-4.9661436,-0.83604777,-1.9210358,1.8963805,1.9052263,0.22873425,-0.060114857,0.037710443,0.97089857,-8.575045,8.421492,1.5874113,-0.3605099,0.1652125,-0.050925873,1
2.199999999999997,,,,,15.803215,-0.84541315,-4.9661436,-0.83604777,-2.0068653,1.9806744,1.9213921,0.2290001,-0.059392884,0.035469733,0.9709647,-8.590826,8.437186,1.645768,-0.43617168,-0.6350063,-0.08945203,1
2.209999999999997,,,,,13.786842,-1.5480024,-5.6436777,-1.1166648,-2.0928512,2.065121,1.938142,0.22955437,-0.05518228,0.032036368,0.9712016,-8.606164,8.451908,1.7042629,-0.50006247,-1.3104293,-0.1260877,1
2.2199999999999966,,,,,13.786842,-1.5480024,-5.6436777,-1.1166648,-2.178975,2.149699,1.955378,0.23038049,-0.04782703,0.027255572,0.971542,-8.618344,8.46338,1.7430106,-0.6636052,-1.9861627,-0.17469558,1
