time-since-start [s],throttle_mpc,roll_mpc,pitch_mpc,yaw_mpc,throttle_nw,roll_nw,pitch_nw,yaw_nw,position_x [m],position_y [m],position_z [m],rotation_w [quaternion],rotation_x [quaternion],rotation_y [quaternion],rotation_z [quaternion],velocity_x [m/s],velocity_y [m/s],velocity_z [m/s],omega_x [rad/s],omega_y [rad/s],omega_z [rad/s],network_used
0.0,10.2101275486034,5.999999777224428,-5.999999945598473,-4.72538459141007,11.999616,-1.2934366,-4.3286204,2.0141585,18.548475,-10.101478,1.8503116,-0.05892211,0.4714066,-0.26648182,-0.8386247,-11.501443,-2.293413,-0.9661508,0.90999645,0.28477803,0.7463818,0
0.01,10.2101275486034,5.999999777224428,-5.999999945598473,-4.72538459141007,9.825813,-3.412281,-5.717292,-0.07091285,18.432724,-10.123923,1.8405598,-0.05789038,0.4712724,-0.27170056,-0.83709604,-11.648134,-2.1957362,-0.98469377,0.81479067,0.19358316,0.5628657,0
0.02,10.2101275486034,5.999999777224428,-5.999999945598473,-4.72538459141007,9.825813,-3.412281,-5.717292,-0.07091285,18.315527,-10.145397,1.8306079,-0.0575245,0.47104487,-0.27609575,-0.83581024,-11.790908,-2.099183,-1.0061196,0.7356717,0.115373924,0.38396057,0
0.03,10.2101275486034,5.999999777224428,-5.999999945598473,-4.72538459141007,9.825813,-3.412281,-5.717292,-0.07091285,18.196915,-10.165907,1.8204309,-0.057849452,0.47073847,-0.27977577,-0.83473605,-11.930998,-2.0030665,-1.0295426,0.68711215,0.031148903,0.21099117,0
0.04,10.2101275486034,5.999999777224428,-5.999999945598473,-4.72538459141007,12.941726,-1.3633721,-5.960564,-1.6485174,18.076916,-10.185458,1.8100117,-0.058934983,0.47029442,-0.28289434,-0.8338589,-12.068811,-1.9071754,-1.0545435,0.67181516,-0.06563491,0.044212215,0
0.05,10.2101275486034,5.999999777224428,-5.999999945598473,-4.72538459141007,12.941726,-1.3633721,-5.960564,-1.6485174,17.95555,-10.204051,1.7993352,-0.060846794,0.46964902,-0.28559178,-0.8331656,-12.204213,-1.8115852,-1.0809871,0.68540287,-0.17384261,-0.116752855,0
0.060000000000000005,10.2101275486034,5.999999777224428,-5.999999945598473,-4.72538459141007,12.941726,-1.3633721,-5.960564,-1.6485174,17.83284,-10.22169,1.7883877,-0.063640855,0.4687426,-0.2879894,-0.8326418,-12.337052,-1.7163175,-1.1087422,0.7240404,-0.2923719,-0.2722494,0
0.07,10.2101275486034,5.999999777224428,-5.999999945598473,-4.72538459141007,12.941726,-1.3633721,-5.960564,-1.6485174,17.708817,-10.238379,1.7771564,-0.06736434,0.46751925,-0.2901914,-0.83227205,-12.467162,-1.6213517,-1.1376809,0.7843627,-0.4201634,-0.4225945,0
0.08,12.58698246179226,5.999999910978794,-5.999999987246722,-4.9743008320627675,14.145249,-1.5868922,-6.2819977,-2.0316339,17.583506,-10.254118,1.7656302,-0.072056524,0.46592608,-0.29228696,-0.8320391,-12.594367,-1.5266347,-1.1676791,0.86341614,-0.55620664,-0.5680793,0
0.09,12.58698246179226,5.999999910978794,-5.999999987246722,-4.9743008320627675,14.145249,-1.5868922,-6.2819977,-2.0316339,17.456861,-10.268853,1.7538409,-0.07783628,0.46385682,-0.29439002,-0.8319332,-12.733781,-1.4204243,-1.19033,0.9880316,-0.72901464,-0.7238146,0
0.09999999999999999,12.58698246179226,5.999999910978794,-5.999999987246722,-4.9743008320627675,14.145249,-1.5868922,-6.2819977,-2.0316339,17.328842,-10.282527,1.7418203,-0.0848141,0.46120644,-0.29660106,-0.83193934,-12.869406,-1.3142996,-1.2139118,1.1262133,-0.9079388,-0.8748609,0
0.10999999999999999,12.58698246179226,5.999999910978794,-5.999999987246722,-4.9743008320627675,14.145249,-1.5868922,-6.2819977,-2.0316339,17.199488,-10.295139,1.7295599,-0.09300635,0.45792687,-0.29896992,-0.83202755,-13.000973,-1.2080967,-1.2382702,1.2759268,-1.0921075,-1.0214554,0
0.11999999999999998,12.58698246179226,5.999999910978794,-5.999999987246722,-4.9743008320627675,14.145249,-1.5868922,-6.2819977,-2.0316339,17.068836,-10.306688,1.7170527,-0.10242341,0.45397115,-0.30153587,-0.8321634,-13.128208,-1.1016574,-1.2632552,1.4353813,-1.2807112,-1.1638173,0
0.12999999999999998,16.557776609781538,5.999999985723392,-6.0,-4.801369989450848,15.037803,0.1240731,-7.02288,-2.501028,16.936937,-10.317171,1.7042931,-0.113069944,0.4492929,-0.3043283,-0.8323074,-13.250833,-0.9948349,-1.288722,1.6030002,-1.4729997,-1.3021492,0
0.13999999999999999,16.557776609781538,5.999999985723392,-6.0,-4.801369989450848,15.037803,0.1240731,-7.02288,-2.501028,16.803745,-10.3265,1.6913333,-0.12520145,0.443531,-0.30760065,-0.8324583,-13.386777,-0.87084293,-1.3033148,1.9086508,-1.7997909,-1.4398875,0
0.15,16.557776609781538,5.999999985723392,-6.0,-4.801369989450848,15.037803,0.1240731,-7.02288,-2.501028,16.669226,-10.334586,1.6782255,-0.1390413,0.4363451,-0.31156224,-0.8325861,-13.516156,-0.74627733,-1.3182693,2.209792,-2.1188684,-1.5747294,0
0.16,20.36671145579784,6.0,-6.0,-4.29621174973228,19.204247,0.19602747,-7.7396216,-1.6161686,16.533447,-10.341422,1.6649674,-0.15453815,0.42771688,-0.31616476,-0.8325961,-13.6384325,-0.6208628,-1.3333287,2.5062606,-2.4305634,-1.7067394,0
0.17,20.36671145579784,6.0,-6.0,-4.29621174973228,19.204247,0.19602747,-7.7396216,-1.6161686,16.396418,-10.346928,1.6516067,-0.17194116,0.4171759,-0.32165727,-0.8324286,-13.765992,-0.48009512,-1.3388474,2.9711351,-2.9087484,-1.8266804,0
0.18000000000000002,20.36671145579784,6.0,-6.0,-4.29621174973228,19.204247,0.19602747,-7.7396216,-1.6161686,16.258162,-10.351022,1.6381911,-0.19145101,0.40427685,-0.32822558,-0.8319706,-13.883716,-0.3383537,-1.3441988,3.4159687,-3.364905,-1.9454303,0
0.19000000000000003,20.36671145579784,6.0,-6.0,-4.29621174973228,19.204247,0.19602747,-7.7396216,-1.6161686,16.118776,-10.353686,1.6247276,-0.21290253,0.38907066,-0.33569545,-0.83102673,-13.991917,-0.19386464,-1.3480254,3.8181438,-3.7766416,-2.0607839,0
0.20000000000000004,20.999999949960092,6.0,-6.0,-3.8493415074518302,22.385153,1.0683532,-9.001145,-1.6287085,15.978354,-10.354883,1.6112407,-0.23600061,0.37176564,-0.343804,-0.8293932,-14.090831,-0.044778716,-1.3488662,4.1576433,-4.124125,-2.170477,0
0.21000000000000005,20.999999949960092,6.0,-6.0,-3.8493415074518302,22.385153,1.0683532,-9.001145,-1.6287085,15.836981,-10.354543,1.5977767,-0.26039645,0.35257086,-0.35231808,-0.8268976,-14.182025,0.11348395,-1.3434093,4.4443073,-4.41731,-2.2528594,0
0.22000000000000006,20.999999949960092,6.0,-6.0,-3.8493415074518302,22.385153,1.0683532,-9.001145,-1.6287085,15.694754,-10.3526,1.584384,-0.28577575,0.3316701,-0.36104032,-0.82339376,-14.261311,0.27585894,-1.3345792,4.6863165,-4.664724,-2.3311992,0
0.23000000000000007,20.999999949960092,6.0,-6.0,-3.8493415074518302,22.385153,1.0683532,-9.001145,-1.6287085,15.551798,-10.349015,1.5710967,-0.31189853,0.30924624,-0.36978465,-0.8187464,-14.327693,0.4417158,-1.3223649,4.8906326,-4.873507,-2.4056947,0
0.24000000000000007,20.999999949960092,6.0,-6.0,-3.8493415074518302,22.703072,0.1722277,-9.16761,-0.64435387,15.408247,-10.343758,1.5579481,-0.33854777,0.28546554,-0.3783935,-0.8128428,-14.380305,0.6102496,-1.3068372,5.063129,-5.0496864,-2.476535,0
0.25000000000000006,20.999999949960092,6.0,-6.0,-3.8493415074518302,22.703072,0.1722277,-9.16761,-0.64435387,15.264242,-10.336805,1.544971,-0.36552632,0.26048082,-0.3867336,-0.80559146,-14.418418,0.78050715,-1.2881393,5.208766,-5.198351,-2.543899,0
0.26000000000000006,20.999999949960092,6.0,-6.0,-3.8493415074518302,22.703072,0.1722277,-9.16761,-0.64435387,15.119931,-10.328146,1.5321957,-0.39265466,0.23443373,-0.39469263,-0.79691976,-14.441443,0.95141274,-1.2664807,5.331729,-5.3237934,-2.6079574,0
0.2700000000000001,20.999999949960092,6.0,-6.0,-3.8493415074518302,22.703072,0.1722277,-9.16761,-0.64435387,14.975467,-10.317779,1.5196506,-0.41976842,0.20745638,-0.40217623,-0.7867724,-14.448941,1.1217928,-1.2421286,5.4355507,-5.42964,-2.6688724,0
0.2800000000000001,21.0,5.999999901550835,-5.999999973624798,-3.4440654939171,22.2579,-0.38724533,-8.594013,-0.15240611,14.831007,-10.305716,1.5073613,-0.44671687,0.17967273,-0.4091053,-0.7751095,-14.44063,1.2903998,-1.2154006,5.523213,-5.5189476,-2.7267985,0
0.2900000000000001,21.0,5.999999901550835,-5.999999973624798,-3.4440654939171,22.2579,-0.38724533,-8.594013,-0.15240611,14.686709,-10.291982,1.4953496,-0.4733227,0.15117908,-0.41542274,-0.7619283,-14.416383,1.4559344,-1.1866574,5.597306,-5.594227,-2.7619948,0
0.3000000000000001,21.0,5.999999901550835,-5.999999973624798,-3.4440654939171,22.2579,-0.38724533,-8.594013,-0.15240611,14.542734,-10.276613,1.4836338,-0.49942365,0.12206659,-0.42108107,-0.7472395,-14.376231,1.6170683,-1.1562972,5.6598687,-5.657743,-2.7954643,0
0.3100000000000001,21.0,5.999999901550835,-5.999999973624798,-3.4440654939171,22.2579,-0.38724533,-8.594013,-0.15240611,14.39924,-10.259661,1.4722278,-0.5249078,0.09244193,-0.42603275,-0.73104215,-14.320366,1.7724652,-1.1247492,5.712696,-5.711333,-2.8272913,0
0.3200000000000001,21.0,3.9221175339216114,-5.999999556802211,-0.7169313283590754,21.430481,-0.6920926,-7.649981,-0.07181294,14.25638,-10.241188,1.4611412,-0.54967207,0.062406726,-0.43023878,-0.7133449,-14.249128,1.9207996,-1.0924675,5.757304,-5.756546,-2.8575563,0
0.3300000000000001,21.0,3.9221175339216114,-5.999999556802211,-0.7169313283590754,21.430481,-0.6920926,-7.649981,-0.07181294,14.114307,-10.221274,1.4503794,-0.5733487,0.03237816,-0.43310758,-0.6947238,-14.1630745,2.0607758,-1.0598816,5.4714355,-5.793605,-2.7525153,0
0.34000000000000014,21.0,3.9221175339216114,-5.999999556802211,-0.7169313283590754,21.430481,-0.6920926,-7.649981,-0.07181294,13.9731655,-10.2000065,1.439944,-0.59568053,0.0027040085,-0.43421122,-0.67573553,-14.0632515,2.19118,-1.0271823,5.2301426,-5.825018,-2.6526287,0
0.35000000000000014,21.0,3.9221175339216114,-5.999999556802211,-0.7169313283590754,21.430481,-0.6920926,-7.649981,-0.07181294,13.833085,-10.177487,1.4298357,-0.6167243,-0.026624087,-0.4337377,-0.65636444,-13.950859,2.3109467,-0.99450415,5.0264726,-5.8516426,-2.5576434,0
0.36000000000000015,21.0,1.6619630354915236,-4.545526946980976,2.3817719689081205,19.407486,-1.5872074,-6.2236924,1.0193845,13.694186,-10.153827,1.4200532,-0.63652295,-0.05561279,-0.4318446,-0.6365976,-13.827091,2.4191518,-0.96201706,4.8545566,-5.874206,-2.4673193,0
0.37000000000000016,21.0,1.6619630354915236,-4.545526946980976,2.3817719689081205,19.407486,-1.5872074,-6.2236924,1.0193845,13.556644,-10.129096,1.4106605,-0.6546272,-0.08346627,-0.42871082,-0.61701226,-13.680112,2.524494,-0.9171688,4.4340596,-5.589557,-2.2485,0
0.38000000000000017,21.0,1.6619630354915236,-4.545526946980976,2.3817719689081205,19.407486,-1.5872074,-6.2236924,1.0193845,13.420603,-10.103392,1.4016956,-0.6707463,-0.10959329,-0.42454594,-0.5982057,-13.527578,2.6139297,-0.8764448,4.0786653,-5.349834,-2.0351002,0
0.3900000000000002,21.0,1.6619630354915236,-4.545526946980976,2.3817719689081205,19.407486,-1.5872074,-6.2236924,1.0193845,13.286105,-10.076869,1.3931174,-0.6851154,-0.1342769,-0.41949907,-0.58017904,-13.371387,2.688302,-0.8398557,3.7782927,-5.147945,-1.8269888,0
0.4000000000000002,21.0,0.7147678246577177,-2.179105383530956,2.856529997529148,18.54438,-1.861709,-4.6166368,1.245329,13.153187,-10.049672,1.3848883,-0.6979478,-0.1577531,-0.4136397,-0.5629259,-13.211872,2.748924,-0.8063775,3.5061803,-4.9961195,-1.6255909,0
0.4100000000000002,21.0,0.7147678246577177,-2.179105383530956,2.856529997529148,18.54438,-1.861709,-4.6166368,1.245329,13.02191,-10.021924,1.3770075,-0.70924526,-0.179403,-0.40712717,-0.54683965,-13.043386,2.7985892,-0.7704418,3.0348818,-4.5929275,-1.4158604,0
0.4200000000000002,21.0,0.7147678246577177,-2.179105383530956,2.856529997529148,18.54438,-1.861709,-4.6166368,1.245329,12.892317,-9.993744,1.3694652,-0.7190295,-0.19877888,-0.40023395,-0.53225636,-12.875485,2.8355722,-0.7386379,2.63936,-4.25036,-1.2113242,0
0.4300000000000002,21.0,0.7147678246577177,-2.179105383530956,2.856529997529148,18.54438,-1.861709,-4.6166368,1.245329,12.7644,-9.96525,1.3622243,-0.72750765,-0.21628612,-0.39308083,-0.5190768,-12.708112,2.8614757,-0.70989645,2.3235111,-3.9432619,-1.0132093,0
0.4400000000000002,21.0,0.7147678246577177,-2.179105383530956,2.856529997529148,17.339857,-2.378475,-2.6867423,1.3308467,12.638156,-9.936547,1.3552614,-0.7348053,-0.23227738,-0.3858412,-0.5071838,-12.54032,2.8776176,-0.68278176,2.073266,-3.667719,-0.82332015,0
0.45000000000000023,21.0,0.7147678246577177,-2.179105383530956,2.856529997529148,17.339857,-2.378475,-2.6867423,1.3308467,12.5135975,-9.907728,1.3485664,-0.741071,-0.24702987,-0.37855455,-0.4964744,-12.371436,2.8849046,-0.6563063,1.8619397,-3.435237,-0.64274883,0
0.46000000000000024,21.0,0.7147678246577177,-2.179105383530956,2.856529997529148,17.339857,-2.378475,-2.6867423,1.3308467,12.390732,-9.878879,1.342133,-0.74644274,-0.26076725,-0.37121063,-0.4868538,-12.201936,2.8839507,-0.63045615,1.6834848,-3.2390795,-0.47103822,0
0.47000000000000025,21.0,0.7147678246577177,-2.179105383530956,2.856529997529148,17.339857,-2.378475,-2.6867423,1.3308467,12.269561,-9.850077,1.3359551,-0.7510319,-0.27367482,-0.36379564,-0.47823244,-12.032204,2.8752902,-0.6052195,1.5327928,-3.0735672,-0.3077535,0
0.48000000000000026,20.99999999032907,-0.1554527592687433,-0.09943549245618388,2.9166455437995644,16.216936,-2.7641265,-0.7903938,1.4566407,12.150086,-9.821398,1.3300266,-0.75492865,-0.2859058,-0.35629413,-0.47052675,-11.8625555,2.8593848,-0.58058953,1.4055482,-2.9339077,-0.1524812,0
0.49000000000000027,20.99999999032907,-0.1554527592687433,-0.09943549245618388,2.9166455437995644,16.216936,-2.7641265,-0.7903938,1.4566407,12.032309,-9.792913,1.3243413,-0.75801635,-0.29693878,-0.34915805,-0.46403387,-11.69324,2.8367183,-0.5565618,1.162402,-2.4917336,-0.0018782541,0
0.5000000000000002,20.99999999032907,-0.1554527592687433,-0.09943549245618388,2.9166455437995644,16.216936,-2.7641265,-0.7903938,1.4566407,11.916221,-9.764685,1.3188934,-0.76023954,-0.30637962,-0.34275925,-0.45900282,-11.5244,2.8081877,-0.5331016,0.95708346,-2.1185653,0.14133458,0
0.5100000000000002,20.99999999032907,-0.1554527592687433,-0.09943549245618388,2.9166455437995644,16.216936,-2.7641265,-0.7903938,1.4566407,11.801819,-9.736767,1.3136777,-0.76173836,-0.31451172,-0.33697048,-0.45528898,-11.356101,2.7747154,-0.51015043,0.7837167,-1.8036284,0.27751988,0
0.5200000000000002,20.9999998279338,-0.9810757324712828,1.8566101758889326,3.1478725981373805,17.236225,-3.1151626,1.088912,1.5280049,11.689097,-9.709205,1.308689,-0.76262105,-0.32156911,-0.33167937,-0.45275962,-11.188363,2.737077,-0.48764172,0.637337,-1.5378325,0.4070225,0
0.5300000000000002,20.9999998279338,-0.9810757324712828,1.8566101758889326,3.1478725981373805,17.236225,-3.1151626,1.088912,1.5280049,11.57805,-9.682036,1.3039235,-0.7628106,-0.32714957,-0.32722756,-0.45168054,-11.021171,2.6960018,-0.4654975,0.38489735,-1.008503,0.5415168,0
0.5400000000000003,20.9999998279338,-0.9810757324712828,1.8566101758889326,3.1478725981373805,17.236225,-3.1151626,1.088912,1.5280049,11.468672,-9.6552925,1.2993782,-0.7622571,-0.3309464,-0.3238812,-0.45226058,-10.854411,2.6525514,-0.44358382,0.1717662,-0.56175005,0.66941136,0
0.5500000000000003,20.9999998279338,-0.9810757324712828,1.8566101758889326,3.1478725981373805,17.236225,-3.1151626,1.088912,1.5280049,11.360961,-9.62899,1.2950516,-0.7610639,-0.33326146,-0.32144457,-0.45430383,-10.687947,2.6077685,-0.42174798,-0.008166824,-0.18468648,0.79103017,0
0.5600000000000003,20.99999978810168,-2.607447235212017,4.284054768317978,3.2733375493859613,18.456432,-2.8286383,2.629922,1.6248877,11.254914,-9.603139,1.2909435,-0.75930613,-0.33434355,-0.31974873,-0.45763454,-10.521657,2.5625296,-0.39984462,-0.16006407,0.13356298,0.90668106,0
0.5700000000000003,20.99999978810168,-2.607447235212017,4.284054768317978,3.2733375493859613,18.456432,-2.8286383,2.629922,1.6248877,11.150529,-9.577738,1.2870554,-0.7569378,-0.33346248,-0.31908092,-0.46263957,-10.355431,2.5176768,-0.37770697,-0.54217,0.7805649,1.0228136,0
0.5800000000000003,20.99999978810168,-2.607447235212017,4.284054768317978,3.2733375493859613,18.456432,-2.8286383,2.629922,1.6248877,11.047805,-9.552777,1.2833914,-0.7539053,-0.3300381,-0.3196479,-0.46960294,-10.189172,2.474522,-0.3549973,-0.8647056,1.3266567,1.1332475,0
0.5900000000000003,20.99999978810168,-2.607447235212017,4.284054768317978,3.2733375493859613,18.456432,-2.8286383,2.629922,1.6248877,10.946744,-9.528236,1.2799587,-0.75023437,-0.32445648,-0.32120398,-0.47823054,-10.022834,2.4343808,-0.331363,-1.1369458,1.7875837,1.2382624,0
0.6000000000000003,20.99999983079919,-3.442501494170695,5.523826496593027,3.0497068277823773,17.926128,-2.7886662,4.2739253,1.5002235,10.847346,-9.504077,1.2767682,-0.74593073,-0.31703734,-0.32353753,-0.4882603,-9.856445,2.3983672,-0.30651417,-1.3667235,2.1766334,1.3381242,0
0.6100000000000003,20.99999983079919,-3.442501494170695,5.523826496593027,3.0497068277823773,17.926128,-2.7886662,4.2739253,1.5002235,10.749612,-9.480252,1.2738333,-0.7409427,-0.3075438,-0.32667947,-0.4997011,-9.690115,2.3674796,-0.28020522,-1.6910406,2.6982527,1.422112,0
0.6200000000000003,20.99999983079919,-3.442501494170695,5.523826496593027,3.0497068277823773,17.926128,-2.7886662,4.2739253,1.5002235,10.653541,-9.456706,1.2711699,-0.73520005,-0.29578695,-0.33062905,-0.51251864,-9.524049,2.3428707,-0.25216052,-1.9647497,3.1385446,1.5019785,0
0.6300000000000003,20.99999983079919,-3.442501494170695,5.523826496593027,3.0497068277823773,17.926128,-2.7886662,4.2739253,1.5002235,10.559129,-9.433371,1.2687966,-0.7286678,-0.28207806,-0.33517584,-0.5264335,-9.35856,2.3256178,-0.22215766,-2.1957402,3.5101943,1.5779259,0
0.6400000000000003,20.99999983079919,-3.442501494170695,5.523826496593027,3.0497068277823773,17.332045,-2.6913369,5.536056,1.3349913,10.466367,-9.410167,1.2667339,-0.72131073,-0.2666816,-0.34014076,-0.5411987,-9.194056,2.3166208,-0.19006123,-2.3906734,3.823907,1.6501465,0
0.6500000000000004,20.99999983079919,-3.442501494170695,5.523826496593027,3.0497068277823773,17.332045,-2.6913369,5.536056,1.3349913,10.375242,-9.387008,1.2650028,-0.7130966,-0.24982436,-0.34537205,-0.5565961,-9.031032,2.3166213,-0.15581508,-2.5551722,4.0887175,1.7188233,0
0.6600000000000004,20.99999983079919,-3.442501494170695,5.523826496593027,3.0497068277823773,17.332045,-2.6913369,5.536056,1.3349913,10.285739,-9.363801,1.263625,-0.70399845,-0.23170245,-0.35074162,-0.5724339,-8.870051,2.3262148,-0.119434215,-2.693984,4.312252,1.7841301,0
0.6700000000000004,20.99999983079919,-3.442501494170695,5.523826496593027,3.0497068277823773,17.332045,-2.6913369,5.536056,1.3349913,10.197832,-9.340449,1.2626214,-0.69399536,-0.21248668,-0.35614192,-0.5885431,-8.711741,2.3458624,-0.08099662,-2.8111157,4.500947,1.8462323,0
0.6800000000000004,20.999999792460542,-3.6730323076658933,5.546495463297152,2.575025690512956,17.69642,-2.0434625,6.2433906,1.1819104,10.111493,-9.316849,1.2620118,-0.6830726,-0.19232702,-0.36148265,-0.60477483,-8.55677,2.3758993,-0.04063518,-2.9099507,4.6602345,1.905287,0
0.6900000000000004,20.999999792460542,-3.6730323076658933,5.546495463297152,2.575025690512956,17.69642,-2.0434625,6.2433906,1.1819104,10.026684,-9.292895,1.2618147,-0.67127097,-0.17126626,-0.36664918,-0.62099254,-8.405846,2.4165452,0.0014753565,-3.0292265,4.7982335,1.9381512,0
0.7000000000000004,20.999999792460542,-3.6730323076658933,5.546495463297152,2.575025690512956,17.69642,-2.0434625,6.2433906,1.1819104,9.943359,-9.268482,1.2620467,-0.6586286,-0.14934832,-0.37154478,-0.63707,-8.259731,2.4679215,0.045149785,-3.1298747,4.9147344,1.9694028,0
0.7100000000000004,20.999999792460542,-3.6730323076658933,5.546495463297152,2.575025690512956,17.69642,-2.0434625,6.2433906,1.1819104,9.861469,-9.2435,1.2627224,-0.64513713,-0.12669985,-0.37612486,-0.65289783,-8.119211,2.5300457,0.090168655,-3.214803,5.0130863,1.9991207,0
0.7200000000000004,20.9999995948366,-3.498143874098029,4.811704837987116,2.0341057902014827,16.748856,-1.6151298,5.977594,0.9894118,9.780954,-9.217843,1.2638538,-0.6307947,-0.10343384,-0.38035285,-0.6683798,-7.9850636,2.6028306,0.13627191,-3.2864656,5.0961175,2.0273807,0
0.7300000000000004,20.9999995948366,-3.498143874098029,4.811704837987116,2.0341057902014827,16.748856,-1.6151298,5.977594,0.9894118,9.701745,-9.191406,1.2654505,-0.61575925,-0.07986864,-0.38407135,-0.68333817,-7.8580422,2.6860662,0.18317147,-3.3194194,5.051719,2.0277107,0
0.7400000000000004,20.9999995948366,-3.498143874098029,4.811704837987116,2.0341057902014827,16.748856,-1.6151298,5.977594,0.9894118,9.623767,-9.164087,1.2675189,-0.60018754,-0.0562689,-0.3871701,-0.69764477,-7.738808,2.779314,0.23058921,-3.3472428,5.0142517,2.0280244,0
0.7500000000000004,20.9999995948366,-3.498143874098029,4.811704837987116,2.0341057902014827,16.748856,-1.6151298,5.977594,0.9894118,9.546941,-9.135789,1.2700629,-0.58408165,-0.032656092,-0.38968444,-0.7112864,-7.6279554,2.8820472,0.2782467,-3.3707352,4.9826326,2.028323,0
0.7600000000000005,20.99999785013127,-2.866246906456245,3.5846184540323067,1.4237209706244318,16.542664,-1.2828897,5.495573,0.90293497,9.471178,-9.106417,1.2730836,-0.5674465,-0.00905114,-0.39164427,-0.7242496,-7.526037,2.9937105,0.32585698,-3.3905702,4.9559503,2.0286067,0
0.7700000000000005,20.99999785013127,-2.866246906456245,3.5846184540323067,1.4237209706244318,16.542664,-1.2828897,5.495573,0.90293497,9.396387,-9.075887,1.2765789,-0.5505428,0.014055157,-0.3929887,-0.73638654,-7.4335237,3.1136885,0.37313396,-3.308428,4.742264,1.9989247,0
0.7800000000000005,20.99999785013127,-2.866246906456245,3.5846184540323067,1.4237209706244318,16.542664,-1.2828897,5.495573,0.90293497,9.3224745,-9.044118,1.2805443,-0.5336209,0.036273893,-0.3936994,-0.7476188,-7.3506227,3.241156,0.4198377,-3.2391512,4.5618796,1.9706992,0
0.7900000000000005,20.99999785013127,-2.866246906456245,3.5846184540323067,1.4237209706244318,16.542664,-1.2828897,5.495573,0.90293497,9.249342,-9.011041,1.284973,-0.5166699,0.057724927,-0.3938534,-0.7580236,-7.27743,3.3752792,0.46576315,-3.1807244,4.4096065,1.9438587,0
0.8000000000000005,18.433538261163303,-1.9353415007041042,1.839422602881993,0.8339536201756036,15.454581,-1.1698617,4.6612253,0.36375564,9.176892,-8.976592,1.2898563,-0.4996782,0.07850988,-0.39351264,-0.76766264,-7.2140183,3.5152898,0.51072276,-3.1314476,4.2810645,1.9183354,0
0.8100000000000005,18.433538261163303,-1.9353415007041042,1.839422602881993,0.8339536201756036,15.454581,-1.1698617,4.6612253,0.36375564,9.104994,-8.940805,1.2950968,-0.4830038,0.09802203,-0.39266938,-0.7764728,-7.1669354,3.6426992,0.53721213,-2.944304,3.9006279,1.8651245,0
0.8200000000000005,18.433538261163303,-1.9353415007041042,1.839422602881993,0.8339536201756036,15.454581,-1.1698617,4.6612253,0.36375564,9.0335245,-8.903725,1.300597,-0.4669701,0.11579475,-0.39135313,-0.78445745,-7.1280966,3.7738366,0.5626763,-2.786448,3.5794678,1.8145245,0
0.8300000000000005,18.433538261163303,-1.9353415007041042,1.839422602881993,0.8339536201756036,15.454581,-1.1698617,4.6612253,0.36375564,8.962404,-8.865317,1.3063468,-0.45151207,0.13209718,-0.38965282,-0.79174364,-7.097083,3.9079778,0.5871267,-2.6532938,3.3083491,1.7664076,0
0.8400000000000005,18.433538261163303,-1.9353415007041042,1.839422602881993,0.8339536201756036,14.127331,-0.57615507,3.778726,-0.0074487478,8.891557,-8.825557,1.3123361,-0.4365674,0.1471575,-0.38763645,-0.79843074,-7.073518,4.0445166,0.61058676,-2.540974,3.079476,1.7206517,0
0.8500000000000005,18.433538261163303,-1.9353415007041042,1.839422602881993,0.8339536201756036,14.127331,-0.57615507,3.778726,-0.0074487478,8.820909,-8.78442,1.3185552,-0.42207792,0.16116868,-0.38535592,-0.8045966,-7.057061,4.1829386,0.6330853,-2.4462273,2.8862662,1.6771412,0
0.8600000000000005,18.433538261163303,-1.9353415007041042,1.839422602881993,0.8339536201756036,14.127331,-0.57615507,3.778726,-0.0074487478,8.750391,-8.741893,1.3249946,-0.4079906,0.17429358,-0.3828509,-0.81030273,-7.047414,4.322805,0.6546521,-2.3663032,2.723163,1.6357658,0
0.8700000000000006,18.433538261163303,-1.9353415007041042,1.839422602881993,0.8339536201756036,14.127331,-0.57615507,3.778726,-0.0074487478,8.679938,-8.697961,1.3316451,-0.39425755,0.18666942,-0.38015163,-0.815598,-7.04431,4.463737,0.6753153,-2.2988818,2.585475,1.5964206,0
0.8800000000000006,15.95210137866969,-0.8908189145273303,0.15452982683985547,0.35737677895177006,13.909449,-0.84019405,2.5230281,1.3303003,8.609483,-8.652616,1.3384979,-0.3808362,0.19841163,-0.37728128,-0.8205214,-7.0475154,4.605404,0.6950995,-2.2420068,2.4692426,1.5590062,0
0.8900000000000006,15.95210137866969,-0.8908189145273303,0.15452982683985547,0.35737677895177006,13.909449,-0.84019405,2.5230281,1.3303003,8.538972,-8.605947,1.3454653,-0.3680787,0.20892943,-0.3743393,-0.8250677,-7.0555153,4.728374,0.6982876,-2.0308416,2.1085572,1.5000418,0
0.9000000000000006,15.95210137866969,-0.8908189145273303,0.15452982683985547,0.35737677895177006,13.909449,-0.84019405,2.5230281,1.3303003,8.468357,-8.558048,1.3524615,-0.3562819,0.21777162,-0.37142515,-0.8292661,-7.068229,4.851445,0.70087194,-1.8526918,1.8040696,1.443971,0
0.9100000000000006,15.95210137866969,-0.8908189145273303,0.15452982683985547,0.35737677895177006,13.909449,-0.84019405,2.5230281,1.3303003,8.397594,-8.508919,1.3594811,-0.34533173,0.22521389,-0.36854935,-0.83318436,-7.0851107,4.97439,0.7029986,-1.7023923,1.5470254,1.3906516,0
0.9200000000000006,13.796030292132848,0.08472115230658239,-1.4504384955161411,-0.015558893258562335,12.210161,-0.7691677,1.2080684,0.55815244,8.326643,-8.458562,1.3665203,-0.3351268,0.23148721,-0.3657152,-0.8368729,-7.105694,5.0970364,0.70479953,-1.5755872,1.3300334,1.3399485,0
0.9300000000000006,13.796030292132848,0.08472115230658239,-1.4504384955161411,-0.015558893258562335,12.210161,-0.7691677,1.2080684,0.55815244,8.255485,-8.407063,1.373509,-0.32594335,0.23613515,-0.3630269,-0.84036463,-7.126308,5.202732,0.6929318,-1.3162448,0.89670414,1.2734334,0
0.9400000000000006,13.796030292132848,0.08472115230658239,-1.4504384955161411,-0.015558893258562335,12.210161,-0.7691677,1.2080684,0.55815244,8.18411,-8.354509,1.380379,-0.31800324,0.23881188,-0.3605755,-0.8436991,-7.1491513,5.3079557,0.68108124,-1.0974388,0.53089577,1.2101822,0
0.9500000000000006,13.796030292132848,0.08472115230658239,-1.4504384955161411,-0.015558893258562335,12.210161,-0.7691677,1.2080684,0.55815244,8.112496,-8.300905,1.3871313,-0.31114656,0.23984213,-0.35833684,-0.8469111,-7.1736426,5.4126396,0.6694351,-0.912829,0.22208929,1.1500348,0
0.9600000000000006,12.750252655553988,0.7461092093124524,-2.7330897530996814,-0.3393182317605998,10.8803425,0.02638118,0.24875481,-0.07286379,8.040632,-8.246258,1.3937689,-0.30523357,0.23949681,-0.35628447,-0.85002065,-7.1992874,5.5167456,0.6581523,-0.75706726,-0.038595412,1.0928388,0
0.9700000000000006,12.750252655553988,0.7461092093124524,-2.7330897530996814,-0.3393182317605998,10.8803425,0.02638118,0.24875481,-0.07286379,7.9685154,-8.190604,1.4002689,-0.3003897,0.23755474,-0.3544263,-0.85306257,-7.223899,5.613413,0.64160836,-0.5359413,-0.44505388,1.0238034,0
0.9800000000000006,12.750252655553988,0.7461092093124524,-2.7330897530996814,-0.3393182317605998,10.8803425,0.02638118,0.24875481,-0.07286379,7.8961544,-8.133995,1.4066006,-0.29675844,0.23376682,-0.35280603,-0.8560463,-7.248392,5.7084894,0.6248553,-0.3358026,-0.80172324,0.95691454,0
0.9900000000000007,12.750252655553988,0.7461092093124524,-2.7330897530996814,-0.3393182317605998,10.8803425,0.02638118,0.24875481,-0.07286379,7.8235497,-8.076438,1.4127688,-0.294188,0.22840644,-0.35139534,-0.85895586,-7.2725086,5.8029704,0.60890406,-0.1669365,-1.1028062,0.893308,0
1.0000000000000007,12.368818928470684,0.9464105914408607,-3.356006999449513,-0.5924042204979498,10.066793,-0.15406866,-0.025530089,-0.24673733,7.7507076,-8.017938,1.4187819,-0.29253304,0.22172526,-0.3501552,-0.86177355,-7.295807,5.896845,0.59387934,-0.024452489,-1.3569639,0.83282274,0
1.0100000000000007,12.368818928470684,0.9464105914408607,-3.356006999449513,-0.5924042204979498,10.066793,-0.15406866,-0.025530089,-0.24673733,7.6776414,-7.958516,1.4246372,-0.2917999,0.21370633,-0.34903908,-0.86449647,-7.3172355,5.9873066,0.5773633,0.12704673,-1.6686368,0.7628864,0
1.0200000000000007,12.368818928470684,0.9464105914408607,-3.356006999449513,-0.5924042204979498,10.066793,-0.15406866,-0.025530089,-0.24673733,7.6043687,-7.8981934,1.4303328,-0.29198635,0.2043457,-0.3480044,-0.86711,-7.337092,6.0771317,0.56194055,0.25487357,-1.9317287,0.6963819,0
1.0300000000000007,12.368818928470684,0.9464105914408607,-3.356006999449513,-0.5924042204979498,10.066793,-0.15406866,-0.025530089,-0.24673733,7.5309067,-7.836976,1.43588,-0.29296416,0.19385515,-0.3470225,-0.86957896,-7.3550076,6.1662774,0.5476876,0.36273083,-2.15381,0.6331408,0
1.0400000000000007,12.368818928470684,0.9464105914408607,-3.356006999449513,-0.5924042204979498,10.204544,-0.96556157,0.059933644,-0.07088557,7.4572763,-7.774871,1.4412905,-0.2946231,0.18241306,-0.346068,-0.8718713,-7.3706684,6.2546935,0.5346489,0.45374116,-2.341272,0.573003,0
1.0500000000000007,12.368818928470684,0.9464105914408607,-3.356006999449513,-0.5924042204979498,10.204544,-0.96556157,0.059933644,-0.07088557,7.383502,-7.7118855,1.4465771,-0.29686832,0.17017,-0.34511888,-0.8739589,-7.3838034,6.342324,0.5228412,0.53053874,-2.4995103,0.5158161,0
1.0600000000000007,12.368818928470684,0.9464105914408607,-3.356006999449513,-0.5924042204979498,10.204544,-0.96556157,0.059933644,-0.07088557,7.30961,-7.648028,1.4517516,-0.29961833,0.15725343,-0.34415635,-0.87581754,-7.394182,6.4291058,0.5122578,0.5953455,-2.63308,0.46143538,0
1.0700000000000007,12.368818928470684,0.9464105914408607,-3.356006999449513,-0.5924042204979498,10.204544,-0.96556157,0.059933644,-0.07088557,7.2356286,-7.583307,1.4568262,-0.30280286,0.14377135,-0.3431646,-0.8774269,-7.401609,6.5149693,0.5028718,0.6500354,-2.7458253,0.4097232,0
1.0800000000000007,12.19235224358002,0.7089150784346158,-3.321223145638917,-0.7361930258709957,10.751449,-1.512853,-0.33472377,0.14569506,7.1615887,-7.5177317,1.461813,-0.30636135,0.12981547,-0.34213054,-0.8787701,-7.405917,6.599839,0.4946397,0.69618946,-2.840993,0.3605485,0
1.0900000000000007,12.19235224358002,0.7089150784346158,-3.321223145638917,-0.7361930258709957,10.751449,-1.512853,-0.33472377,0.14569506,7.0875216,-7.4513197,1.4667164,-0.3102406,0.11551141,-0.34096223,-0.8798592,-7.4069557,6.682439,0.48620844,0.6980895,-2.9159086,0.30673108,0
1.1000000000000008,12.19235224358002,0.7089150784346158,-3.321223145638917,-0.7361930258709957,10.751449,-1.512853,-0.33472377,0.14569506,7.013461,-7.384087,1.4715407,-0.31439883,0.10096475,-0.33958694,-0.88070416,-7.4046965,6.7638803,0.47880802,0.699691,-2.9791405,0.25555453,0
1.1100000000000008,12.19235224358002,0.7089150784346158,-3.321223145638917,-0.7361930258709957,10.751449,-1.512853,-0.33472377,0.14569506,6.93944,-7.316046,1.476296,-0.31880227,0.08622061,-0.3380215,-0.8812901,-7.399075,6.8440604,0.47238025,0.7010423,-3.03251,0.20688918,0
1.1200000000000008,12.022223949460798,0.13406152213379355,-2.8735031434528886,-0.7726179844859716,11.0904,-1.814346,-0.5051062,0.18390974,6.8654914,-7.24721,1.4809914,-0.3234208,0.07131742,-0.33628058,-0.8816052,-7.3900385,6.922877,0.4668574,0.7021835,-3.0775557,0.16061187,0
1.1300000000000008,12.022223949460798,0.13406152213379355,-2.8735031434528886,-0.7726179844859716,11.0904,-1.814346,-0.5051062,0.18390974,6.79165,-7.1775985,1.4856293,-0.3281569,0.05652234,-0.33423316,-0.88170636,-7.3777385,6.9991484,0.46086416,0.613491,-3.0457613,0.114818014,0
1.1400000000000008,12.022223949460798,0.13406152213379355,-2.8735031434528886,-0.7726179844859716,11.0904,-1.814346,-0.5051062,0.18390974,6.717948,-7.107232,1.4902112,-0.33293843,0.04205098,-0.33178055,-0.881649,-7.3621206,7.0738673,0.45563757,0.5386365,-3.018919,0.07127126,0
1.1500000000000008,12.022223949460798,0.13406152213379355,-2.8735031434528886,-0.7726179844859716,11.0904,-1.814346,-0.5051062,0.18390974,6.6444187,-7.0361266,1.4947445,-0.33777323,0.027863609,-0.32897845,-0.8814226,-7.343281,7.146931,0.45112744,0.47546127,-2.9962575,0.029861383,0
1.1600000000000008,11.730303838037926,-0.7045742547543341,-2.0877385138552,-0.658573800636898,11.063627,-2.4837682,-0.55301756,0.35977516,6.571093,-6.964299,1.4992361,-0.34266573,0.013926236,-0.325874,-0.8810176,-7.321305,7.2182455,0.44728068,0.42214334,-2.977126,-0.009516518,0
1.1700000000000008,11.730303838037926,-0.7045742547543341,-2.0877385138552,-0.658573800636898,11.063627,-2.4837682,-0.55301756,0.35977516,6.4980006,-6.891776,1.5036807,-0.3475012,0.0005977836,-0.3223212,-0.8805403,-7.296901,7.286036,0.44174415,0.2463741,-2.838431,-0.041365948,0
1.1800000000000008,11.730303838037926,-0.7045742547543341,-2.0877385138552,-0.658573800636898,11.063627,-2.4837682,-0.55301756,0.35977516,6.425165,-6.8185844,1.508073,-0.35219622,-0.011838178,-0.31821242,-0.8800898,-7.2697606,7.3519588,0.436793,0.09802356,-2.7213588,-0.07165252,0
1.1900000000000008,11.730303838037926,-0.7045742547543341,-2.0877385138552,-0.658573800636898,11.063627,-2.4837682,-0.55301756,0.35977516,6.3526134,-6.744744,1.5124187,-0.35679218,-0.0235108,-0.31363526,-0.87964714,-7.24012,7.4159493,0.4324256,-0.02718583,-2.62254,-0.10045291,0
1.2000000000000008,11.375059440545249,-1.504601824464077,-1.051600162146451,-0.4279295529478253,11.747303,-3.5212753,-0.881342,1.1746421,6.2803698,-6.670273,1.5167238,-0.36132085,-0.03453009,-0.30866274,-0.87919384,-7.2081833,7.477954,0.42863795,-0.13286406,-2.5391288,-0.12784007,0
1.2100000000000009,11.375059440545249,-1.504601824464077,-1.051600162146451,-0.4279295529478253,11.747303,-3.5212753,-0.881342,1.1746421,6.2084513,-6.595201,1.5209793,-0.36566743,-0.044517916,-0.30322486,-0.87884,-7.1751833,7.536112,0.4225556,-0.34678882,-2.3071287,-0.14256555,0
1.2200000000000009,11.375059440545249,-1.504601824464077,-1.051600162146451,-0.4279295529478253,11.747303,-3.5212753,-0.881342,1.1746421,6.136872,-6.5195575,1.5251769,-0.36974666,-0.053180337,-0.2972738,-0.8786849,-7.1404667,7.592295,0.4170671,-0.52735025,-2.111308,-0.15656845,0
1.2300000000000009,11.375059440545249,-1.504601824464077,-1.051600162146451,-0.4279295529478253,11.747303,-3.5212753,-0.881342,1.1746421,6.065647,-6.4433618,1.5293227,-0.37361768,-0.060717676,-0.29089397,-0.8786942,-7.104349,7.646511,0.41221377,-0.67975235,-1.9460257,-0.16988422,0
1.2400000000000009,11.375059440545249,-1.504601824464077,-1.051600162146451,-0.4279295529478253,12.135724,-4.0323167,-0.41621143,1.8677919,5.9947886,-6.366634,1.5334233,-0.3773268,-0.06729976,-0.28415486,-0.8788349,-7.067099,7.698767,0.40803117,-0.80838674,-1.8065197,-0.18254659,0
1.2500000000000009,11.375059440545249,-1.504601824464077,-1.051600162146451,-0.4279295529478253,12.135724,-4.0323167,-0.41621143,1.8677919,5.9243083,-6.289393,1.5374856,-0.38091007,-0.073070504,-0.27711383,-0.8790766,-7.028944,7.7490716,0.40454835,-0.91696036,-1.6887704,-0.1945876,0
1.260000000000001,11.375059440545249,-1.504601824464077,-1.051600162146451,-0.4279295529478253,12.135724,-4.0323167,-0.41621143,1.8677919,5.8542123,-6.2116585,1.5415168,-0.38439557,-0.078151844,-0.26981843,-0.87939173,-6.9900775,7.797431,0.40178764,-1.008602,-1.589385,-0.20603776,0
1.270000000000001,11.375059440545249,-1.504601824464077,-1.051600162146451,-0.4279295529478253,12.135724,-4.0323167,-0.41621143,1.8677919,5.7845087,-6.133451,1.5455239,-0.38780513,-0.08264711,-0.26230812,-0.8797559,-6.950666,7.84385,0.39976475,-1.0859525,-1.5054997,-0.21692605,0
1.280000000000001,10.994993493667092,-2.011418288438329,-0.16571606950149184,-0.11863279243374153,12.373583,-4.101181,-0.6160713,2.4492557,5.715201,-6.0547886,1.5495147,-0.39115557,-0.08664383,-0.25461584,-0.8801479,-6.9108515,7.8883324,0.39848927,-1.1512402,-1.4346973,-0.22728005,0
1.290000000000001,10.994993493667092,-2.011418288438329,-0.16571606950149184,-0.11863279243374153,12.373583,-4.101181,-0.6160713,2.4492557,5.646286,-5.975698,1.5534801,-0.3943549,-0.08983427,-0.24672654,-0.8806471,-6.8721156,7.929465,0.39470923,-1.2853509,-1.2367849,-0.2219487,0
1.300000000000001,10.994993493667092,-2.011418288438329,-0.16571606950149184,-0.11863279243374153,12.373583,-4.101181,-0.6160713,2.4492557,5.577759,-5.8962054,1.5574114,-0.3973299,-0.09197896,-0.23863055,-0.8813192,-6.83335,7.968783,0.39168805,-1.3985529,-1.0697408,-0.21687897,0
1.310000000000001,10.994993493667092,-2.011418288438329,-0.16571606950149184,-0.11863279243374153,12.373583,-4.101181,-0.6160713,2.4492557,5.5096188,-5.816329,1.5613166,-0.40011612,-0.093238294,-0.23035978,-0.8821266,-6.7947807,8.006341,0.38945463,-1.494106,-0.92874986,-0.21205801,0
1.320000000000001,10.700958624253555,-2.373776314377782,0.6144391501668295,0.20658292942823192,12.649791,-4.405202,-0.48784515,2.8069842,5.441862,-5.736085,1.5652033,-0.40274155,-0.09374782,-0.22194041,-0.8830359,-6.756599,8.042187,0.38802907,-1.5747617,-0.8097485,-0.2074736,0
1.330000000000001,10.700958624253555,-2.373776314377782,0.6144391501668295,0.20658292942823192,12.649791,-4.405202,-0.48784515,2.8069842,5.3744793,-5.6554956,1.5690669,-0.40513802,-0.09329666,-0.21338828,-0.88409483,-6.719991,8.075451,0.38481888,-1.6993296,-0.5876528,-0.18715572,0
1.340000000000001,10.700958624253555,-2.373776314377782,0.6144391501668295,0.20658292942823192,12.649791,-4.405202,-0.48784515,2.8069842,5.3074594,-5.574581,1.5729026,-0.40724888,-0.091723755,-0.20471664,-0.8853392,-6.684168,8.107173,0.38243324,-1.8044813,-0.40019706,-0.16783486,0
1.350000000000001,10.700958624253555,-2.373776314377782,0.6144391501668295,0.20658292942823192,12.649791,-4.405202,-0.48784515,2.8069842,5.2407928,-5.493357,1.5767184,-0.40910888,-0.089201935,-0.19594158,-0.8867238,-6.6493573,8.13743,0.38089114,-1.8932424,-0.2419781,-0.14946206,0
1.360000000000001,10.70881102093395,-2.57020789669174,1.156645534807902,0.5255710829509742,12.770042,-4.565943,-0.27883768,2.8961382,5.1744685,-5.4118376,1.5805231,-0.41074553,-0.0858772,-0.18707627,-0.8882088,-6.615753,8.166289,0.38020042,-1.9681671,-0.10843533,-0.13199082,0
1.370000000000001,10.70881102093395,-2.57020789669174,1.156645534807902,0.5255710829509742,12.770042,-4.565943,-0.27883768,2.8961382,5.108474,-5.3300357,1.5843256,-0.41211247,-0.081655025,-0.17814748,-0.8898081,-6.583507,8.193832,0.3804321,-2.0620396,0.08881818,-0.099724084,0
1.380000000000001,10.70881102093395,-2.57020789669174,1.156645534807902,0.5255710829509742,12.770042,-4.565943,-0.27883768,2.8961382,5.0427938,-5.247965,1.5881345,-0.41316882,-0.07646694,-0.16917649,-0.8915284,-6.5528493,8.2201185,0.3815121,-2.141282,0.25530764,-0.06904066,0
1.390000000000001,10.70881102093395,-2.57020789669174,1.156645534807902,0.5255710829509742,12.770042,-4.565943,-0.27883768,2.8961382,4.9774113,-5.165637,1.5919585,-0.41394183,-0.070461996,-0.16016579,-0.8933272,-6.523974,8.245223,0.38342905,-2.2081738,0.3958317,-0.039862894,0
1.400000000000001,11.126042814567406,-2.604487206069497,1.5783106987334563,0.7981185745683058,13.214352,-4.636114,-0.19597535,2.931607,4.912308,-5.0830636,1.5958058,-0.41445374,-0.06376625,-0.15111761,-0.89516747,-6.4970474,8.26921,0.38616052,-2.264639,0.5144407,-0.012116878,0
1.410000000000001,11.126042814567406,-2.604487206069497,1.5783106987334563,0.7981185745683058,13.214352,-4.636114,-0.19597535,2.931607,4.847469,-5.000252,1.5997041,-0.41466814,-0.056334537,-0.14208955,-0.8970433,-6.4712515,8.293027,0.39363328,-2.3176541,0.6802911,0.027641607,0
1.420000000000001,11.126042814567406,-2.604487206069497,1.5783106987334563,0.7981185745683058,13.214352,-4.636114,-0.19597535,2.931607,4.782875,-4.9172063,1.6036811,-0.41455334,-0.048136786,-0.13312742,-0.8989465,-6.447801,8.31582,0.40187633,-2.362408,0.82027775,0.06544914,0
1.430000000000001,11.126042814567406,-2.604487206069497,1.5783106987334563,0.7981185745683058,13.214352,-4.636114,-0.19597535,2.931607,4.718504,-4.8339386,1.6077442,-0.41413203,-0.039291933,-0.12421749,-0.90084416,-6.4268517,8.337665,0.41083804,-2.4001873,0.9384349,0.10140144,0
1.440000000000001,11.126042814567406,-2.604487206069497,1.5783106987334563,0.7981185745683058,14.317638,-4.7813287,-0.74546635,3.2531784,4.6543283,-4.7504563,1.6119002,-0.41342318,-0.029900815,-0.11534856,-0.9027077,-6.4085345,8.358618,0.42045823,-2.4320774,1.038167,0.13558955,0
1.450000000000001,11.126042814567406,-2.604487206069497,1.5783106987334563,0.7981185745683058,14.317638,-4.7813287,-0.74546635,3.2531784,4.590323,-4.6667686,1.6161554,-0.4124428,-0.020048983,-0.106511705,-0.9045129,-6.3929625,8.378727,0.43066946,-2.4589956,1.1223476,0.16810004,0
1.460000000000001,11.126042814567406,-2.604487206069497,1.5783106987334563,0.7981185745683058,14.317638,-4.7813287,-0.74546635,3.2531784,4.5264597,-4.5828843,1.6205152,-0.41120464,-0.009809099,-0.097699866,-0.90623873,-6.38023,8.3980255,0.44139785,-2.4817166,1.1934024,0.19901523,0
1.470000000000001,11.126042814567406,-2.604487206069497,1.5783106987334563,0.7981185745683058,14.317638,-4.7813287,-0.74546635,3.2531784,4.4627085,-4.498811,1.6249847,-0.40972057,0.0007570542,-0.08890763,-0.90786743,-6.370419,8.416537,0.45256427,-2.5008943,1.2533783,0.22841342,0
1.480000000000001,11.714949413339584,-2.4926390583300866,1.697358088060066,0.9833591348294091,14.134233,-4.4688663,-0.8795512,2.8501022,4.399041,-4.4145565,1.6295677,-0.40800107,0.011596881,-0.08013096,-0.9093839,-6.363596,8.434279,0.46408507,-2.5170808,1.3040029,0.25636902,0
1.490000000000001,11.714949413339584,-2.4926390583300866,1.697358088060066,0.9833591348294091,14.134233,-4.4688663,-0.8795512,2.8501022,4.3354273,-4.3301234,1.6342963,-0.4060316,0.022688875,-0.07142741,-0.91078043,-6.3596168,8.452166,0.4816889,-2.513311,1.3652885,0.29204264,0
1.500000000000001,11.714949413339584,-2.4926390583300866,1.697358088060066,0.9833591348294091,14.134233,-4.4688663,-0.8795512,2.8501022,4.2718377,-4.245516,1.639202,-0.40380007,0.03401343,-0.062843315,-0.9120519,-6.3588886,8.469282,0.4994751,-2.5101283,1.4170196,0.32596576,0
1.5100000000000011,11.714949413339584,-2.4926390583300866,1.697358088060066,0.9833591348294091,14.134233,-4.4688663,-0.8795512,2.8501022,4.2082386,-4.160741,1.6442862,-0.40131816,0.045531526,-0.05436107,-0.9131894,-6.36145,8.485652,0.517343,-2.5074408,1.4606861,0.35822424,0
1.5200000000000011,12.677756617945949,-2.2952384021761802,1.4745031218304183,1.1049506763921757,14.248598,-4.225139,-1.1777807,2.56463,4.1445975,-4.0758057,1.6495489,-0.39859647,0.057209775,-0.04596627,-0.9141851,-6.367328,8.501292,0.53519094,-2.5051708,1.4975454,0.3888998,0
1.5300000000000011,12.677756617945949,-2.2952384021761802,1.4745031218304183,1.1049506763921757,14.248598,-4.225139,-1.1777807,2.56463,4.080877,-3.9907115,1.655037,-0.39563978,0.068905994,-0.037684944,-0.9150412,-6.3772936,8.517437,0.5624366,-2.4724653,1.4939036,0.42403662,0
1.5400000000000011,12.677756617945949,-2.2952384021761802,1.4745031218304183,1.1049506763921757,14.248598,-4.225139,-1.1777807,2.56463,4.017039,-3.90546,1.6607966,-0.39245293,0.080506206,-0.029538399,-0.91576546,-6.3908343,8.532799,0.58944523,-2.4448586,1.4908324,0.45744926,0
1.5500000000000012,12.677756617945949,-2.2952384021761802,1.4745031218304183,1.1049506763921757,14.248598,-4.225139,-1.1777807,2.56463,3.9530475,-3.8200586,1.6668247,-0.38904494,0.0920219,-0.02150948,-0.9163585,-6.407906,8.547371,0.6161159,-2.4215555,1.4882426,0.48922235,0
1.5600000000000012,13.026747550435626,-1.8787686927438842,0.9425548776337419,1.0780905799309946,14.576378,-4.0355268,-1.7684116,2.5097084,3.888868,-3.7345154,1.6731174,-0.3854242,0.103462495,-0.013583915,-0.91681993,-6.4284673,8.561145,0.6423503,-2.401885,1.486059,0.51943636,0
1.5700000000000012,13.026747550435626,-1.8787686927438842,0.9425548776337419,1.0780905799309946,14.576378,-4.0355268,-1.7684116,2.5097084,3.824463,-3.6488369,1.6796869,-0.3816225,0.11457675,-0.0058206473,-0.91717076,-6.4531245,8.574462,0.6714638,-2.320302,1.401286,0.5468497,0
1.5800000000000012,13.026747550435626,-1.8787686927438842,0.9425548776337419,1.0780905799309946,14.576378,-4.0355268,-1.7684116,2.5097084,3.759794,-3.5630293,1.6865445,-0.37767038,0.12516743,0.0017331291,-0.91743934,-6.481169,8.586916,0.69996166,-2.2514424,1.3297334,0.5729179,0
1.5900000000000012,13.026747550435626,-1.8787686927438842,0.9425548776337419,1.0780905799309946,14.576378,-4.0355268,-1.7684116,2.5097084,3.6948287,-3.4771016,1.693684,-0.37357295,0.1353143,0.009104467,-0.9176329,-6.5124483,8.598479,0.72778475,-2.1933224,1.2693394,0.5977068,0
1.6000000000000012,13.122245674685836,-1.374016433186959,0.3094719405414002,0.9556010594901999,15.154598,-3.790686,-2.6044757,2.674389,3.6295345,-3.3910627,1.7010981,-0.36933482,0.14508452,0.016316421,-0.91775584,-6.546828,8.609124,0.7548786,-2.144267,1.2183638,0.62127936,0
1.6100000000000012,13.122245674685836,-1.374016433186959,0.3094719405414002,0.9556010594901999,15.154598,-3.790686,-2.6044757,2.674389,3.5638804,-3.304922,1.7087836,-0.3650003,0.15422787,0.02329861,-0.9178483,-6.5844455,8.618896,0.7821099,-2.024101,1.0766497,0.63768464,0
1.6200000000000012,13.122245674685836,-1.374016433186959,0.3094719405414002,0.9556010594901999,15.154598,-3.790686,-2.6044757,2.674389,3.4978359,-3.2186885,1.7167375,-0.36061057,0.1625511,0.029995881,-0.91795266,-6.624827,8.627684,0.80855227,-1.922681,0.95703113,0.6532849,0
1.6300000000000012,13.122245674685836,-1.374016433186959,0.3094719405414002,0.9556010594901999,15.154598,-3.790686,-2.6044757,2.674389,3.431375,-3.1323717,1.724952,-0.3561648,0.17018272,0.036447283,-0.91807175,-6.667745,8.635455,0.8342114,-1.8370824,0.8560633,0.6681196,0
1.6400000000000012,13.122245674685836,-1.374016433186959,0.3094719405414002,0.9556010594901999,15.625703,-3.429242,-3.4022217,2.7964191,3.3644729,-3.0459824,1.7334192,-0.351662,0.17723091,0.04268625,-0.91820514,-6.713008,8.642186,0.8590942,-1.7648377,0.7708379,0.6822264,0
1.6500000000000012,13.122245674685836,-1.374016433186959,0.3094719405414002,0.9556010594901999,15.625703,-3.429242,-3.4022217,2.7964191,3.2971075,-2.9595315,1.7421312,-0.34710145,0.18378666,0.04874137,-0.9183502,-6.76045,8.647854,0.8832071,-1.7038636,0.6989002,0.69564104,0
1.6600000000000013,13.122245674685836,-1.374016433186959,0.3094719405414002,0.9556010594901999,15.625703,-3.429242,-3.4022217,2.7964191,3.2292573,-2.873029,1.7510806,-0.34248257,0.18992652,0.054637086,-0.91850317,-6.8099294,8.652439,0.9065552,-1.6524019,0.6381785,0.7083974,0
1.6700000000000013,13.122245674685836,-1.374016433186959,0.3094719405414002,0.9556010594901999,15.625703,-3.429242,-3.4022217,2.7964191,3.1609025,-2.7864861,1.7602597,-0.33780506,0.19571483,0.060394306,-0.91865975,-6.8613234,8.655924,0.9291422,-1.6089689,0.5869242,0.72052765,0
1.6800000000000013,12.951022291391308,-0.846616097378966,-0.36712085062515365,0.7703356799421521,15.291559,-3.0741055,-3.7849934,2.5075479,3.0920248,-2.699914,1.7696608,-0.33306888,0.20120569,0.06603088,-0.918815,-6.914527,8.658293,0.95097,-1.572312,0.543661,0.73206276,0
1.6900000000000013,12.951022291391308,-0.846616097378966,-0.36712085062515365,0.7703356799421521,15.291559,-3.0741055,-3.7849934,2.5075479,3.0226102,-2.613324,1.7792686,-0.32832035,0.20612466,0.07146251,-0.91902727,-6.968713,8.659515,0.9704919,-1.4590731,0.40167734,0.7339408,0
1.7000000000000013,12.951022291391308,-0.846616097378966,-0.36712085062515365,0.7703356799421521,15.291559,-3.0741055,-3.7849934,2.5075479,2.9526458,-2.5267274,1.7890682,-0.3236008,0.21025836,0.07662303,-0.919349,-7.0243783,8.659607,0.9893277,-1.3635038,0.2818277,0.7357267,0
1.7100000000000013,12.951022291391308,-0.846616097378966,-0.36712085062515365,0.7703356799421521,15.291559,-3.0741055,-3.7849934,2.5075479,2.8821182,-2.4401357,1.7990531,-0.31890327,0.21373053,0.08155131,-0.91976583,-7.0813193,8.658554,1.0075432,-1.2828474,0.18066184,0.73742497,0
1.7200000000000013,11.994153680200993,-0.35532666416756065,-1.2654590286314933,0.524901436725717,14.061823,-2.7460117,-4.012377,2.059199,2.8110156,-2.3535604,1.8092172,-0.31422177,0.21664509,0.08628054,-0.9202636,-7.139364,8.656345,1.0251956,-1.2147764,0.09526676,0.7390399,0
1.7300000000000013,11.994153680200993,-0.35532666416756065,-1.2654590286314933,0.524901436725717,14.061823,-2.7460117,-4.012377,2.059199,2.7393494,-2.267012,1.8195127,-0.3095904,0.21869457,0.09077698,-0.9209157,-7.193987,8.65322,1.0338308,-1.0806444,-0.116865695,0.7285321,0
1.7400000000000013,11.994153680200993,-0.35532666416756065,-1.2654590286314933,0.524901436725717,14.061823,-2.7460117,-4.012377,2.059199,2.6671336,-2.1805,1.8298926,-0.30503926,0.21964028,0.09501479,-0.92178154,-7.249234,8.648989,1.0421059,-0.96744835,-0.29592812,0.71853983,0
1.7500000000000013,11.994153680200993,-0.35532666416756065,-1.2654590286314933,0.524901436725717,14.061823,-2.7460117,-4.012377,2.059199,2.5943632,-2.094036,1.840354,-0.30055737,0.21965475,0.099031076,-0.92282706,-7.3048615,8.643622,1.0501316,-0.87192047,-0.4470758,0.70903796,0
1.7600000000000013,11.119039719348299,0.08724909301786618,-1.9407209890184498,0.26472034086463164,13.116324,-2.5788739,-4.458872,1.8384992,2.5210357,-2.0076313,1.8508947,-0.29613498,0.21888287,0.1028575,-0.9240209,-7.360662,8.637101,1.0580015,-0.7913024,-0.57466036,0.7000024,0
1.7700000000000014,11.119039719348299,0.08724909301786618,-1.9407209890184498,0.26472034086463164,13.116324,-2.5788739,-4.458872,1.8384992,2.4471703,-1.921295,1.8614751,-0.29180372,0.21714105,0.1064439,-0.9254026,-7.412374,8.629971,1.058076,-0.65420634,-0.7876252,0.678643,0
1.7800000000000014,11.119039719348299,0.08724909301786618,-1.9407209890184498,0.26472034086463164,13.116324,-2.5788739,-4.458872,1.8384992,2.372789,-1.8350357,1.8720565,-0.2875905,0.21428931,0.10975134,-0.92699856,-7.4638352,8.621741,1.0581965,-0.53851,-0.9673916,0.6583317,0
1.7900000000000014,11.119039719348299,0.08724909301786618,-1.9407209890184498,0.26472034086463164,13.116324,-2.5788739,-4.458872,1.8384992,2.2978952,-1.748864,1.8826398,-0.28348055,0.21049818,0.112820074,-0.92876303,-7.514817,8.612405,1.0584674,-0.4408721,-1.1191344,0.6390171,0
1.8000000000000014,10.567752996340541,0.38794947143518344,-2.274240602958172,0.02855881595098701,13.602946,-2.6402326,-5.174606,1.8496959,2.2224948,-1.6627913,1.8932269,-0.2794608,0.20591104,0.11568427,-0.93065536,-7.5651245,8.601954,1.0589733,-0.35847348,-1.2472217,0.62065023,0
1.8100000000000014,10.567752996340541,0.38794947143518344,-2.274240602958172,0.02855881595098701,13.602946,-2.6402326,-5.174606,1.8496959,2.1466079,-1.576826,1.9037958,-0.275556,0.2004874,0.1183039,-0.93267244,-7.6121287,8.590966,1.0548809,-0.24203113,-1.4073328,0.5915961,0
1.8200000000000014,10.567752996340541,0.38794947143518344,-2.274240602958172,0.02855881595098701,13.602946,-2.6402326,-5.174606,1.8496959,2.0702555,-1.4909757,1.9143257,-0.27178726,0.19420053,0.12064841,-0.93480575,-7.658137,8.578932,1.0511523,-0.14376178,-1.5424862,0.5639677,0
1.8300000000000014,10.567752996340541,0.38794947143518344,-2.274240602958172,0.02855881595098701,13.602946,-2.6402326,-5.174606,1.8496959,1.9934489,-1.405251,1.9248203,-0.26813886,0.18718019,0.12275741,-0.9370142,-7.702971,8.5658655,1.0478505,-0.06082794,-1.6565713,0.53769505,0
1.8400000000000014,10.567752996340541,0.38794947143518344,-2.274240602958172,0.02855881595098701,13.674474,-1.8655448,-5.340367,1.1807308,1.9162006,-1.319662,1.9352844,-0.26459724,0.17953591,0.12466445,-0.9392624,-7.746478,8.551785,1.0450205,0.009164097,-1.7528719,0.5127116,0
1.8500000000000014,10.567752996340541,0.38794947143518344,-2.274240602958172,0.02855881595098701,13.674474,-1.8655448,-5.340367,1.1807308,1.8385245,-1.2342187,1.9457225,-0.2611507,0.17136024,0.12639786,-0.9415198,-7.7885237,8.536706,1.0426924,0.06823425,-1.8341603,0.4889541,0
1.8600000000000014,10.567752996340541,0.38794947143518344,-2.274240602958172,0.02855881595098701,13.674474,-1.8655448,-5.340367,1.1807308,1.7604357,-1.1489311,1.9561399,-0.25778908,0.16273148,0.12798165,-0.9437605,-7.8289914,8.520647,1.0408832,0.11808751,-1.9027766,0.4663624,0
1.8700000000000014,10.567752996340541,0.38794947143518344,-2.274240602958172,0.02855881595098701,13.674474,-1.8655448,-5.340367,1.1807308,1.6819506,-1.063809,1.966542,-0.25450358,0.15371598,0.12943606,-0.9459628,-7.8677793,8.503628,1.0395986,0.16016254,-1.960696,0.44487923,0
1.8800000000000014,10.258292986632483,0.5291866956344811,-2.244644753629663,-0.16766390162111366,12.852105,-1.8807067,-4.3821406,1.4228209,1.6030862,-0.97886175,1.9769337,-0.25128663,0.14437002,0.1307782,-0.9481083,-7.904798,8.485668,1.0388352,0.19567314,-2.0095856,0.42445028,0
1.8900000000000015,10.258292986632483,0.5291866956344811,-2.244644753629663,-0.16766390162111366,12.852105,-1.8807067,-4.3821406,1.4228209,1.5238662,-0.8940961,1.987306,-0.2481642,0.13473536,0.13196935,-0.95018154,-7.9389386,8.467341,1.0357168,0.24765582,-2.0462337,0.39539507,0
1.9000000000000015,10.258292986632483,0.5291866956344811,-2.244644753629663,-0.16766390162111366,12.852105,-1.8807067,-4.3821406,1.4228209,1.4443139,-0.8095179,1.9976497,-0.24515912,0.12484767,0.13297975,-0.9521693,-7.971214,8.44816,1.0330805,0.29153103,-2.0771697,0.3677656,0
1.9100000000000015,10.258292986632483,0.5291866956344811,-2.244644753629663,-0.16766390162111366,12.852105,-1.8807067,-4.3821406,1.4228209,1.3644484,-0.7251357,2.0079694,-0.24226086,0.11474293,0.13383466,-0.9540608,-8.001559,8.428161,1.030908,0.3285635,-2.1032841,0.34149194,0
1.9200000000000015,9.891021707189662,0.4672826315263804,-2.1621950032054,-0.3137986559974638,12.233414,-1.5842649,-3.9511828,0.91752356,1.2842896,-0.6409575,2.0182695,-0.2394602,0.104451835,0.13455534,-0.955847,-8.029919,8.407379,1.0291758,0.35982087,-2.1253278,0.3165075,0
1.9300000000000015,9.891021707189662,0.4672826315263804,-2.1621950032054,-0.3137986559974638,12.233414,-1.5842649,-3.9511828,0.91752356,1.203862,-0.5569869,2.028537,-0.23676829,0.09403567,0.13517737,-0.9575099,-8.055301,8.386618,1.0243899,0.37653765,-2.1310813,0.28557816,0
1.9400000000000015,9.891021707189662,0.4672826315263804,-2.1621950032054,-0.3137986559974638,12.233414,-1.5842649,-3.9511828,0.91752356,1.1231905,-0.4732275,2.0387588,-0.23419628,0.08354436,0.13573015,-0.9590359,-8.078693,8.36516,1.019966,0.39064932,-2.1359384,0.25616658,0
1.9500000000000015,9.891021707189662,0.4672826315263804,-2.1621950032054,-0.3137986559974638,12.233414,-1.5842649,-3.9511828,0.91752356,1.0422951,-0.38968605,2.0489378,-0.23173621,0.07298697,0.13622168,-0.9604243,-8.100072,8.343033,1.0158669,0.40256184,-2.1400383,0.22819822,0
1.9600000000000015,9.648350302716706,0.4041422429177669,-1.623602760968489,-0.3971820553445521,12.276572,-1.9277378,-3.7665389,0.8826584,0.96119595,-0.3063691,2.0590773,-0.22938082,0.062371437,0.1366586,-0.96167487,-8.119418,8.32026,1.0120534,0.41261816,-2.1434994,0.20160228,0
1.9700000000000015,9.648350302716706,0.4041422429177669,-1.623602760968489,-0.3971820553445521,12.276572,-1.9277378,-3.7665389,0.8826584,0.8799158,-0.22328013,2.069168,-0.22716157,0.051916584,0.13702226,-0.9627705,-8.136297,8.297439,1.0061651,0.41124612,-2.0624297,0.17221977,0
1.9800000000000015,9.648350302716706,0.4041422429177669,-1.623602760968489,-0.3971820553445521,12.276572,-1.9277378,-3.7665389,0.8826584,0.79847664,-0.14042225,2.0792012,-0.22510572,0.041796733,0.13729942,-0.96370596,-8.151226,8.274054,1.0004718,0.4100942,-1.9940023,0.14427906,0
1.9900000000000015,9.648350302716706,0.4041422429177669,-1.623602760968489,-0.3971820553445521,12.276572,-1.9277378,-3.7665389,0.8826584,0.7168978,-0.05780085,2.089178,-0.22320068,0.031958316,0.13750221,-0.9644963,-8.16426,8.250147,0.994932,0.4091269,-1.9362459,0.1177094,0
2.0000000000000013,,,,,12.682128,-2.176568,-3.387376,0.99495894,0.6351979,0.02457902,2.0991,-0.22143504,0.02235615,0.1376406,-0.9651537,-8.175443,8.225755,0.98950773,0.40831465,-1.8874964,0.09244353,0
2.010000000000001,,,,,12.682128,-2.176568,-3.387376,0.99495894,0.55339605,0.106715046,2.1089597,-0.21984191,0.013250888,0.13769273,-0.9656783,-8.184648,8.2013855,0.9824021,0.3930446,-1.7289793,0.06743745,0
2.020000000000001,,,,,12.682128,-2.176568,-3.387376,0.99495894,0.47151056,0.1886054,2.1187482,-0.21844861,0.0048473137,0.13764307,-0.9660802,-8.192201,8.17663,0.9753443,0.3801629,-1.5951822,0.043658424,0
2.0300000000000007,,,,,12.682128,-2.176568,-3.387376,0.99495894,0.38955727,0.2702465,2.1284666,-0.21723698,-0.0029650647,0.13750748,-0.96638024,-8.198221,8.151541,0.96830946,0.36929575,-1.4822497,0.021046236,0
2.0400000000000005,,,,,12.682128,-2.176568,-3.387376,0.99495894,0.30755103,0.35163525,2.1381145,-0.21619077,-0.010279588,0.13729894,-0.96659434,-8.202811,8.126162,0.9612777,0.36012766,-1.3869286,-0.00045636715,0
2.0500000000000003,,,,,12.875671,-2.4408715,-2.814844,1.2881919,0.22550565,0.43276888,2.1476922,-0.2152954,-0.017175063,0.13702822,-0.96673465,-8.206058,8.100528,0.95423293,0.35239258,-1.3064723,-0.02090382,1
2.06,,,,,12.875671,-2.4408715,-2.814844,1.2881919,0.14343028,0.51359755,2.1573658,-0.21425138,-0.024192845,0.13792111,-0.96668947,-8.208741,8.0651865,0.98028654,-0.079626925,-1.5381702,0.04300579,1
2.07,,,,,12.875671,-2.4408715,-2.814844,1.2881919,0.06133686,0.5940699,2.1672966,-0.2127908,-0.031782206,0.14098099,-0.9663509,-8.209667,8.029125,1.005785,-0.44778743,-1.737294,0.10410744,1
2.0799999999999996,,,,,12.875671,-2.4408715,-2.814844,1.2881919,-0.020756932,0.67417544,2.1774805,-0.2109494,-0.039851695,0.14587024,-0.96572965,-8.20881,7.991727,1.0308859,-0.7585246,-1.9053863,0.1622108,1
2.0899999999999994,,,,,13.151553,-2.9359293,-3.3241944,1.6974739,-0.10283311,0.75389844,2.1879125,-0.20875597,-0.048320748,0.15229873,-0.9648268,-8.206139,7.952564,1.0554107,-1.0207971,-2.0472796,0.217463,1
2.099999999999999,,,,,13.151553,-2.9359293,-3.3241944,1.6974739,-0.18487291,0.833215,2.1985993,-0.20616305,-0.057267725,0.16025597,-0.9636051,-8.201523,7.910384,1.0817904,-1.319327,-2.246518,0.29008758,1
2.109999999999999,,,,,13.151553,-2.9359293,-3.3241944,1.6974739,-0.26685685,0.9120972,2.209545,-0.20312509,-0.06674802,0.16971806,-0.96201885,-8.194954,7.8656406,1.1071821,-1.5712951,-2.4146986,0.35914844,1
2.1199999999999988,,,,,13.151553,-2.9359293,-3.3241944,1.6974739,-0.34876505,0.99051774,2.2207386,-0.19966635,-0.076665804,0.180439,-0.9600506,-8.186363,7.817994,1.131357,-1.7839668,-2.5566597,0.42482045,1
2.1299999999999986,,,,,13.285266,-2.8757403,-2.7925308,2.200814,-0.43057695,1.0684462,2.232167,-0.19580792,-0.086938314,0.1922094,-0.9576828,-8.17569,7.767179,1.1540827,-1.9634731,-2.6764855,0.48726994,1
2.1399999999999983,,,,,13.285266,-2.8757403,-2.7925308,2.200814,-0.51227087,1.145847,2.2438204,-0.19154899,-0.097283095,0.20479248,-0.95493704,-8.162762,7.712448,1.1763389,-2.105587,-2.6947427,0.57135403,1
2.149999999999998,,,,,13.285266,-2.8757403,-2.7925308,2.200814,-0.59382486,1.2226832,2.2556868,-0.18688723,-0.1074696,0.21799423,-0.9518413,-8.147713,7.6542053,1.1966851,-2.225545,-2.710153,0.6513122,1
2.159999999999998,,,,,13.285266,-2.8757403,-2.7925308,2.200814,-0.6752179,1.298919,2.2677464,-0.18183866,-0.11750124,0.23170698,-0.9483881,-8.130584,7.59239,1.2149186,-2.3268023,-2.723158,0.72734666,1
2.1699999999999977,,,,,13.148576,-2.2573895,-2.1243443,2.5858552,-0.7564295,1.3745186,2.279977,-0.17641853,-0.12737972,0.24583852,-0.94457096,-8.111406,7.5269723,1.2308394,-2.412275,-2.7341306,0.79965013,1
2.1799999999999975,,,,,13.148576,-2.2573895,-2.1243443,2.5858552,-0.8374402,1.4494495,2.2923489,-0.17063208,-0.136885,0.2600369,-0.94049346,-8.090432,7.4586797,1.2431155,-2.388019,-2.6391587,0.8872997,1
2.1899999999999973,,,,,13.148576,-2.2573895,-2.1243443,2.5858552,-0.91823155,1.5236804,2.3048306,-0.16448438,-0.14584129,0.27402666,-0.93626094,-8.06754,7.3869667,1.2528116,-2.3675544,-2.558991,0.9706483,1
2.199999999999997,,,,,13.148576,-2.2573895,-2.1243443,2.5858552,-0.99878466,1.5971779,2.317396,-0.15798947,-0.15430866,0.2878371,-0.93186796,-8.042806,7.31199,1.2598474,-2.3502882,-2.4913187,1.049907,1
2.209999999999997,,,,,11.85921,-1.4159826,-1.2039658,3.025493,-1.0790814,1.6699097,2.330018,-0.15116093,-0.16233778,0.3014915,-0.9273077,-8.016292,7.233897,1.2641459,-2.3357198,-2.4341943,1.1252764,1
2.2199999999999966,,,,,11.85921,-1.4159826,-1.2039658,3.025493,-1.1591151,1.7418762,2.3426313,-0.14401491,-0.16972677,0.31473446,-0.92271054,-7.990277,7.159215,1.2578259,-2.2186894,-2.2688026,1.21614,1
2.2299999999999964,,,,,11.85921,-1.4159826,-1.2039658,3.025493,-1.2388834,1.8130902,2.3551605,-0.1365702,-0.17625518,0.3272934,-0.9182384,-7.9632516,7.083366,1.2474023,-2.0980113,-2.1072648,1.3045095,1
