time-since-start [s],throttle_mpc,roll_mpc,pitch_mpc,yaw_mpc,throttle_nw,roll_nw,pitch_nw,yaw_nw,position_x [m],position_y [m],position_z [m],rotation_w [quaternion],rotation_x [quaternion],rotation_y [quaternion],rotation_z [quaternion],velocity_x [m/s],velocity_y [m/s],velocity_z [m/s],omega_x [rad/s],omega_y [rad/s],omega_z [rad/s],network_used
0.0,5.605038512389631,5.999998097066818,-5.999999889055123,-3.7289567442209295,12.897413,0.90331393,-3.0601249,-0.741326,19.27523,-9.437621,2.0794935,0.04212316,0.37861288,-0.27160698,-0.8838029,-10.215751,-3.4086874,0.6234132,0.96277606,0.033395592,-0.15465266,0
0.01,5.605038512389631,5.999998097066818,-5.999999889055123,-3.7289567442209295,14.022811,0.46385178,-2.4976275,-0.53956425,19.172623,-9.4714155,2.0856044,0.039291847,0.3788581,-0.27550772,-0.88262004,-10.305461,-3.3501496,0.59846675,0.9809794,-0.14025687,-0.2614378,0
0.02,5.605038512389631,5.999998097066818,-5.999999889055123,-3.7289567442209295,14.022811,0.46385178,-2.4976275,-0.53956425,19.069126,-9.504624,2.0914567,0.035706367,0.37848815,-0.27935982,-0.88171977,-10.393414,-3.2914774,0.5717691,1.0185807,-0.30909285,-0.3649726,0
0.03,5.605038512389631,5.999998097066818,-5.999999889055123,-3.7289567442209295,14.022811,0.46385178,-2.4976275,-0.53956425,18.96476,-9.537245,2.097034,0.031350102,0.3775214,-0.28324267,-0.88106084,-10.479445,-3.2326205,0.5434454,1.0726242,-0.47393376,-0.46542257,0
0.04,5.605038512389631,5.999998097066818,-5.999999889055123,-3.7289567442209295,12.184295,1.1885247,-3.432582,-0.6776909,18.859543,-9.569276,2.1023204,0.026210118,0.3759706,-0.28722245,-0.8806034,-10.563401,-3.173518,0.5136037,1.1405658,-0.6354229,-0.56294084,0
0.05,5.605038512389631,5.999998097066818,-5.999999889055123,-3.7289567442209295,12.184295,1.1885247,-3.432582,-0.6776909,18.753498,-9.600715,2.107301,0.020276818,0.3738438,-0.29135355,-0.8803082,-10.645134,-3.1141021,0.4823377,1.2202132,-0.79405856,-0.65766895,0
0.060000000000000005,5.605038512389631,5.999998097066818,-5.999999889055123,-3.7289567442209295,12.184295,1.1885247,-3.432582,-0.6776909,18.646648,-9.631557,2.1119623,0.013543652,0.3711449,-0.29568014,-0.88013697,-10.7245035,-3.0543041,0.44972858,1.3096772,-0.95022166,-0.74973804,0
0.07,5.605038512389631,5.999998097066818,-5.999999889055123,-3.7289567442209295,12.184295,1.1885247,-3.432582,-0.6776909,18.539017,-9.6618,2.116291,0.0060068583,0.36787456,-0.3002374,-0.88005084,-10.8013735,-2.994056,0.4158465,1.4073273,-1.1041982,-0.83926964,0
0.08,5.824797896750655,5.9999992766256565,-5.999999914822487,-4.284931426593395,13.722397,1.093466,-5.9400043,-0.95854205,18.43063,-9.691437,2.120275,-0.0023347281,0.3640307,-0.30505243,-0.8800107,-10.875612,-2.9332943,0.38075212,1.5117567,-1.2561975,-0.9263765,0
0.09,5.824797896750655,5.9999992766256565,-5.999999914822487,-4.284931426593395,13.722397,1.093466,-5.9400043,-0.95854205,18.321484,-9.72044,2.123927,-0.011403904,0.3597874,-0.30996686,-0.8799677,-10.952855,-2.8670335,0.34947634,1.5501034,-1.3346679,-1.0320408,0
0.09999999999999999,5.824797896750655,5.9999992766256565,-5.999999914822487,-4.284931426593395,13.722397,1.093466,-5.9400043,-0.95854205,18.21158,-9.7487755,2.1272614,-0.021136906,0.35529438,-0.3148472,-0.87988067,-11.027308,-2.7999501,0.3172137,1.6016189,-1.4200735,-1.1342326,0
0.10999999999999999,5.824797896750655,5.9999992766256565,-5.999999914822487,-4.284931426593395,13.722397,1.093466,-5.9400043,-0.95854205,18.100946,-9.776436,2.1302683,-0.031550284,0.35051176,-0.31974554,-0.8797207,-11.098876,-2.7320867,0.28397503,1.6645247,-1.51161,-1.2331471,0
0.11999999999999998,5.824797896750655,5.9999992766256565,-5.999999914822487,-4.284931426593395,13.722397,1.093466,-5.9400043,-0.95854205,17.989613,-9.803415,2.1329377,-0.042656396,0.3454016,-0.32470444,-0.87945706,-11.167457,-2.6634805,0.24977106,1.7372508,-1.6085283,-1.3289636,0
0.12999999999999998,8.030405016842009,5.999999616258076,-5.999999936912702,-4.248801568043221,13.88418,1.4750938,-5.914986,-0.7796819,17.877607,-9.829704,2.1352603,-0.054463685,0.3399276,-0.32975802,-0.8790575,-11.232948,-2.5941665,0.2146123,1.81841,-1.7101337,-1.421847,0
0.13999999999999999,8.030405016842009,5.999999616258076,-5.999999936912702,-4.248801568043221,13.88418,1.4750938,-5.914986,-0.7796819,17.76492,-9.855247,2.1372707,-0.06709483,0.33390468,-0.33506253,-0.8784866,-11.304034,-2.5142918,0.18726268,1.9713202,-1.8804647,-1.5159471,0
0.15,8.030405016842009,5.999999616258076,-5.999999936912702,-4.248801568043221,13.88418,1.4750938,-5.914986,-0.7796819,17.651539,-9.879988,2.1390016,-0.08065868,0.32715902,-0.34074858,-0.8776966,-11.371142,-2.4337964,0.15871117,2.125745,-2.049627,-1.6076984,0
0.16,10.917911200244964,5.9999997439135635,-5.999999950318974,-3.7088463259075937,12.509013,3.1363993,-5.1603527,-0.2958516,17.537508,-9.90392,2.1404412,-0.0951378,0.31967315,-0.34680194,-0.87663335,-11.434094,-2.3526654,0.12898788,2.2811358,-2.2174888,-1.6971881,0
0.17,10.917911200244964,5.9999997439135635,-5.999999950318974,-3.7088463259075937,12.509013,3.1363993,-5.1603527,-0.2958516,17.422836,-9.9269905,2.1416173,-0.11074187,0.31103638,-0.35351378,-0.8752259,-11.499553,-2.2613175,0.10599238,2.5902193,-2.5374415,-1.771702,0
0.18000000000000002,10.917911200244964,5.9999997439135635,-5.999999950318974,-3.7088463259075937,12.509013,3.1363993,-5.1603527,-0.2958516,17.307535,-9.949146,2.1425552,-0.12764649,0.30087152,-0.36111492,-0.8733719,-11.5594635,-2.1696503,0.08137238,2.8853366,-2.8417568,-1.8456217,0
0.19000000000000003,10.917911200244964,5.9999997439135635,-5.999999950318974,-3.7088463259075937,12.509013,3.1363993,-5.1603527,-0.2958516,17.191666,-9.970383,2.1432393,-0.1457792,0.28920957,-0.3694968,-0.8709639,-11.613495,-2.0775995,0.055186257,3.1674633,-3.1316676,-1.9188687,0
0.20000000000000004,14.16144214277407,5.999999777470538,-5.999999953872655,-2.8361601584276976,12.963292,3.6523046,-5.746519,-0.4821115,17.075289,-9.990697,2.1436536,-0.1650654,0.2760781,-0.3785513,-0.8678899,-11.661342,-1.9851792,0.027470183,3.4374948,-3.4082878,-1.9913746,0
0.21000000000000005,14.16144214277407,5.999999777470538,-5.999999953872655,-2.8361601584276976,12.963292,3.6523046,-5.746519,-0.4821115,16.958431,-10.0100155,2.1438353,-0.1856046,0.26108435,-0.38844678,-0.8639992,-11.709066,-1.8781576,0.00886466,3.836489,-3.8130844,-2.0328286,0
0.22000000000000006,14.16144214277407,5.999999777470538,-5.999999953872655,-2.8361601584276976,12.963292,3.6523046,-5.746519,-0.4821115,16.841133,-10.02825,2.1438315,-0.20736566,0.24400353,-0.39920658,-0.8591248,-11.74977,-1.7683514,-0.009639164,4.173329,-4.154685,-2.0722482,0
0.23000000000000007,14.16144214277407,5.999999777470538,-5.999999953872655,-2.8361601584276976,12.963292,3.6523046,-5.746519,-0.4821115,16.723463,-10.045373,2.1436427,-0.23009492,0.22509216,-0.4105371,-0.85314053,-11.782642,-1.6559544,-0.028145265,4.4577007,-4.442953,-2.1097336,0
0.24000000000000007,14.16144214277407,5.999999777470538,-5.999999953872655,-2.8361601584276976,13.808393,3.3531227,-5.869341,-0.32981932,16.605509,-10.061361,2.1432683,-0.25356534,0.20457716,-0.42218634,-0.845938,-11.806971,-1.5413065,-0.04679662,4.697779,-4.6862125,-2.1453798,0
0.25000000000000006,14.16144214277407,5.999999777470538,-5.999999953872655,-2.8361601584276976,13.808393,3.3531227,-5.869341,-0.32981932,16.487356,-10.076193,2.1427057,-0.2775728,0.18266164,-0.4339384,-0.83742774,-11.822148,-1.4248757,-0.06576992,4.9004655,-4.8914876,-2.1792767,0
0.26000000000000006,14.16144214277407,5.999999777470538,-5.999999953872655,-2.8361601584276976,13.808393,3.3531227,-5.869341,-0.32981932,16.3691,-10.089854,2.1419508,-0.3019331,0.15952893,-0.4456085,-0.8275383,-11.827665,-1.3072386,-0.085269764,5.0715857,-5.064709,-2.2115102,0
0.2700000000000001,14.16144214277407,5.999999777470538,-5.999999953872655,-2.8361601584276976,13.808393,3.3531227,-5.869341,-0.32981932,16.250837,-10.102336,2.1409974,-0.32647946,0.13534588,-0.4570386,-0.8162157,-11.823124,-1.1890624,-0.1055226,5.2160573,-5.2108793,-2.242162,0
0.2800000000000001,19.391512556815,5.999999656924516,-5.999999932703112,-1.1866698969460592,14.776564,1.6543474,-5.7723675,-0.025592305,16.132673,-10.113636,2.1398368,-0.35106048,0.110265315,-0.46809378,-0.8034214,-11.808234,-1.0710875,-0.12677075,5.338032,-5.334222,-2.2713096,0
0.2900000000000001,19.391512556815,5.999999656924516,-5.999999932703112,-1.1866698969460592,14.776564,1.6543474,-5.7723675,-0.025592305,16.014755,-10.123545,2.1385975,-0.37537566,0.08433227,-0.4786813,-0.7892053,-11.773429,-0.91090924,-0.12134509,5.441301,-5.438014,-2.218086,0
0.3000000000000001,19.391512556815,5.999999656924516,-5.999999932703112,-1.1866698969460592,14.776564,1.6543474,-5.7723675,-0.025592305,15.897256,-10.131864,2.1374025,-0.39915332,0.057585366,-0.48872018,-0.77363604,-11.724109,-0.75324184,-0.11798562,5.5284853,-5.525599,-2.1674743,0
0.3100000000000001,19.391512556815,5.999999656924516,-5.999999932703112,-1.1866698969460592,14.776564,1.6543474,-5.7723675,-0.025592305,15.780322,-10.138623,2.1362293,-0.42230383,0.030151878,-0.49811968,-0.7567211,-11.660331,-0.5992584,-0.11705889,5.602089,-5.5995097,-2.119346,0
0.3200000000000001,20.999999073465577,5.194177330256368,-5.999999789234659,0.1963859693126788,15.22968,0.6248441,-3.891139,0.30064088,15.664098,-10.143866,2.135052,-0.4447468,0.0021509607,-0.5068024,-0.73847586,-11.5822935,-0.45014232,-0.1189348,5.6642256,-5.661883,-2.0735793,0
0.3300000000000001,20.999999073465577,5.194177330256368,-5.999999789234659,0.1963859693126788,15.22968,0.6248441,-3.891139,0.30064088,15.548761,-10.147587,2.133879,-0.4662902,-0.026246468,-0.5144699,-0.71916956,-11.482732,-0.2952042,-0.11623955,5.591266,-5.714107,-1.9621913,0
0.34000000000000014,20.999999073465577,5.194177330256368,-5.999999789234659,0.1963859693126788,15.22968,0.6248441,-3.891139,0.30064088,15.434492,-10.1497965,2.1327147,-0.4867852,-0.054895516,-0.5208984,-0.6990644,-11.368763,-0.14805983,-0.11719287,5.5296817,-5.7582316,-1.8562694,0
0.35000000000000014,20.999999073465577,5.194177330256368,-5.999999789234659,0.1963859693126788,15.22968,0.6248441,-3.891139,0.30064088,15.321433,-10.150579,2.131522,-0.5062227,-0.0837257,-0.526127,-0.6781729,-11.241169,-0.00988197,-0.12199462,5.477695,-5.7955127,-1.7555449,0
0.36000000000000015,20.99999921160787,2.1626997411258997,-5.999999110620406,2.60320691610232,15.470987,-1.16492,-0.30676833,0.4744026,15.209712,-10.15003,2.1302612,-0.5245934,-0.11267024,-0.5301886,-0.656511,-11.10082,0.11824317,-0.13085328,5.4338083,-5.8270125,-1.6597631,0
0.37000000000000016,20.99999921160787,2.1626997411258997,-5.999999110620406,2.60320691610232,15.470987,-1.16492,-0.30676833,0.4744026,15.099504,-10.148215,2.1289182,-0.54164004,-0.1411228,-0.5327305,-0.63475037,-10.939328,0.24261528,-0.13866708,5.059429,-5.718035,-1.4626638,0
0.38000000000000017,20.99999921160787,2.1626997411258997,-5.999999110620406,2.60320691610232,15.470987,-1.16492,-0.30676833,0.4744026,14.990955,-10.145226,2.1274688,-0.5572863,-0.16863523,-0.53340507,-0.6135736,-10.7693205,0.35300368,-0.15204681,4.7095203,-5.6600094,-1.2722136,0
0.3900000000000002,20.99999921160787,2.1626997411258997,-5.999999110620406,2.60320691610232,15.470987,-1.16492,-0.30676833,0.4744026,14.884142,-10.141203,2.1258595,-0.57176965,-0.19535577,-0.53223336,-0.5929947,-10.592599,0.44927546,-0.17057593,4.379773,-5.6454906,-1.0880399,0
0.4000000000000002,20.999991101493034,-1.1608060587428364,-2.6051671969452164,3.081321285062189,15.917649,-2.0187376,1.2906185,0.839202,14.779122,-10.136289,2.1240408,-0.5852932,-0.22139809,-0.52922314,-0.57300705,-10.410793,0.53139836,-0.1938135,4.066696,-5.668047,-0.90980154,0
0.4100000000000002,20.999991101493034,-1.1608060587428364,-2.6051671969452164,3.081321285062189,15.917649,-2.0187376,1.2906185,0.839202,14.675965,-10.130612,2.1219788,-0.5974934,-0.24532966,-0.52462286,-0.5546038,-10.219994,0.6015865,-0.21917959,3.3141012,-5.127858,-0.71949404,0
0.4200000000000002,20.999991101493034,-1.1608060587428364,-2.6051671969452164,3.081321285062189,15.917649,-2.0187376,1.2906185,0.839202,14.57473,-10.124301,2.1196456,-0.6082112,-0.26606855,-0.51876295,-0.53867537,-10.026943,0.6587392,-0.24795476,2.6474607,-4.7033587,-0.53573555,0
0.4300000000000002,20.999991101493034,-1.1608060587428364,-2.6051671969452164,3.081321285062189,15.917649,-2.0187376,1.2906185,0.839202,14.47543,-10.117476,2.117011,-0.61785406,-0.28415662,-0.5117228,-0.5250245,-9.832821,0.70428514,-0.27919358,2.0574114,-4.372474,-0.35854542,0
0.4400000000000002,20.999991101493034,-1.1608060587428364,-2.6051671969452164,3.081321285062189,16.150797,-3.3868246,3.4455445,0.95406365,14.378081,-10.110249,2.1140585,-0.62667966,-0.30004287,-0.5036316,-0.51342154,-9.636628,0.73977387,-0.31140506,1.5560489,-4.096572,-0.1897502,0
0.45000000000000023,20.999991101493034,-1.1608060587428364,-2.6051671969452164,3.081321285062189,16.150797,-3.3868246,3.4455445,0.95406365,14.282703,-10.102712,2.1107821,-0.634831,-0.31410217,-0.49465954,-0.50362766,-9.438916,0.76606995,-0.34383762,1.1327913,-3.8638146,-0.02923774,0
0.46000000000000024,20.999991101493034,-1.1608060587428364,-2.6051671969452164,3.081321285062189,16.150797,-3.3868246,3.4455445,0.95406365,14.189306,-10.094955,2.107183,-0.6424105,-0.32664594,-0.48493823,-0.49542463,-9.240365,0.78386563,-0.3759447,0.77547574,-3.667443,0.12339828,0
0.47000000000000025,20.999991101493034,-1.1608060587428364,-2.6051671969452164,3.081321285062189,16.150797,-3.3868246,3.4455445,0.95406365,14.097897,-10.087062,2.103266,-0.64949244,-0.33793217,-0.4745678,-0.4886167,-9.041521,0.7937613,-0.40726984,0.47383267,-3.5017595,0.2685444,0
0.48000000000000026,18.35381762687815,-4.532926432511853,2.447686105661972,3.606310971442689,16.312815,-3.4721172,3.3956106,0.7964744,14.008475,-10.079106,2.0990412,-0.6561305,-0.34817454,-0.4636251,-0.48303056,-8.842839,0.7962728,-0.4374363,0.2191906,-3.36196,0.40656817,0
0.49000000000000027,18.35381762687815,-4.532926432511853,2.447686105661972,3.606310971442689,16.312815,-3.4721172,3.3956106,0.7964744,13.920913,-10.071157,2.0944784,-0.66188943,-0.3557244,-0.45283657,-0.47989693,-8.669672,0.7925888,-0.4748234,-0.5219614,-2.4562728,0.5635731,0
0.5000000000000002,18.35381762687815,-4.532926432511853,2.447686105661972,3.606310971442689,16.312815,-3.4721172,3.3956106,0.7964744,13.835079,-10.063268,2.0895512,-0.6664901,-0.35930383,-0.44281736,-0.48021242,-8.497346,0.784606,-0.5102747,-1.1475807,-1.6918408,0.7128811,0
0.5100000000000002,18.35381762687815,-4.532926432511853,2.447686105661972,3.606310971442689,16.312815,-3.4721172,3.3956106,0.7964744,13.750963,-10.055472,2.084282,-0.6701352,-0.35955557,-0.43344328,-0.4834924,-8.32612,0.7740233,-0.5431422,-1.6757227,-1.0466812,0.8548625,0
0.5200000000000002,15.708586778348561,-5.999999338125197,5.999999405937734,3.690931848372739,14.334943,-5.01333,4.9972763,1.2861078,13.668551,-10.047791,2.078699,-0.6729522,-0.3570023,-0.42458254,-0.4892993,-8.156205,0.7622597,-0.5728621,-2.1215582,-0.50216895,0.9898769,0
0.5300000000000002,15.708586778348561,-5.999999338125197,5.999999405937734,3.690931848372739,14.334943,-5.01333,4.9972763,1.2861078,13.587737,-10.04022,2.0727968,-0.674744,-0.35094547,-0.4165948,-0.49800205,-8.007151,0.75194937,-0.6071994,-2.7826092,0.45562726,1.1174302,0
0.5400000000000003,15.708586778348561,-5.999999338125197,5.999999405937734,3.690931848372739,14.334943,-5.01333,4.9972763,1.2861078,13.508395,-10.032746,2.0665646,-0.67524433,-0.3408352,-0.40982732,-0.50982106,-7.8619576,0.74342436,-0.63880587,-3.314339,1.2903461,1.2410746,0
0.5500000000000003,15.708586778348561,-5.999999338125197,5.999999405937734,3.690931848372739,14.334943,-5.01333,4.9972763,1.2861078,13.430485,-10.025341,2.0600317,-0.67440414,-0.32725585,-0.4041304,-0.52417636,-7.7207017,0.73810005,-0.6672754,-3.738857,2.0192344,1.3608321,0
0.5600000000000003,13.786229368616867,-5.99999979012502,5.999999815840855,2.2683913861761718,13.431988,-6.522169,4.957938,0.4467786,13.353972,-10.017968,2.0532339,-0.6721897,-0.31068042,-0.39930314,-0.5405508,-7.5820575,0.7371062,-0.69155914,-4.0922246,2.6394162,1.4751709,0
0.5700000000000003,13.786229368616867,-5.99999979012502,5.999999815840855,2.2683913861761718,13.431988,-6.522169,4.957938,0.4467786,13.27875,-10.010582,2.0461688,-0.6687014,-0.291424,-0.3951384,-0.5583688,-7.462679,0.7409217,-0.7208384,-4.390324,3.1631002,1.5140944,0
0.5800000000000003,13.786229368616867,-5.99999979012502,5.999999815840855,2.2683913861761718,13.431988,-6.522169,4.957938,0.4467786,13.20471,-10.00313,2.0388315,-0.6640279,-0.26975256,-0.39145276,-0.57711774,-7.346085,0.75015527,-0.745986,-4.6418743,3.6051538,1.551108,0
0.5900000000000003,13.786229368616867,-5.99999979012502,5.999999815840855,2.2683913861761718,13.431988,-6.522169,4.957938,0.4467786,13.131818,-9.995556,2.031263,-0.6581541,-0.2459627,-0.38804048,-0.596456,-7.2328386,0.7653798,-0.76698846,-4.854141,3.9783034,1.5863053,0
0.6000000000000003,17.052570069074378,-5.99999984001638,5.999999868342151,2.123649152058444,15.419444,-7.4940915,4.8893437,-0.7619119,13.0600395,-9.987799,2.0235052,-0.65106374,-0.22031714,-0.38472798,-0.6160847,-7.12356,0.787023,-0.7839114,-5.033256,4.2932916,1.6197754,0
0.6100000000000003,17.052570069074378,-5.99999984001638,5.999999868342151,2.123649152058444,15.419444,-7.4940915,4.8893437,-0.7619119,12.989456,-9.979759,2.0156984,-0.6427544,-0.19304457,-0.38137418,-0.63573104,-6.9941216,0.8220957,-0.7767294,-5.184373,4.5592093,1.6445006,0
0.6200000000000003,17.052570069074378,-5.99999984001638,5.999999868342151,2.123649152058444,15.419444,-7.4940915,4.8893437,-0.7619119,12.920135,-9.971328,2.0079868,-0.633228,-0.16435193,-0.37786227,-0.65515673,-6.8712697,0.86567533,-0.7649379,-5.3118834,4.7836823,1.6680125,0
0.6300000000000003,17.052570069074378,-5.99999984001638,5.999999868342151,2.123649152058444,15.419444,-7.4940915,4.8893437,-0.7619119,12.852005,-9.962418,2.0004144,-0.622481,-0.13443457,-0.37409317,-0.67416507,-6.7558737,0.9178206,-0.74888074,-5.4194736,4.973171,1.6903708,0
0.6400000000000003,17.052570069074378,-5.99999984001638,5.999999868342151,2.123649152058444,16.603388,-7.0884624,4.818724,-0.4752317,12.784989,-9.952943,1.9930222,-0.61051565,-0.10347189,-0.3699866,-0.6925847,-6.6487985,0.9784522,-0.7289761,-5.510254,5.133128,1.711632,0
0.6500000000000004,17.052570069074378,-5.99999984001638,5.999999868342151,2.123649152058444,16.603388,-7.0884624,4.818724,-0.4752317,12.718999,-9.94282,1.9858463,-0.5973402,-0.07162962,-0.36547846,-0.71026665,-6.5508842,1.047362,-0.70570827,-5.5868497,5.268157,1.7318498,0
0.6600000000000004,17.052570069074378,-5.99999984001638,5.999999868342151,2.123649152058444,16.603388,-7.0884624,4.818724,-0.4752317,12.653937,-9.931968,1.9789177,-0.58296865,-0.0390615,-0.36051863,-0.7270815,-6.462934,1.1242219,-0.67961985,-5.6514754,5.382144,1.7510755,0
0.6700000000000004,17.052570069074378,-5.99999984001638,5.999999868342151,2.123649152058444,16.603388,-7.0884624,4.818724,-0.4752317,12.589703,-9.920309,1.9722617,-0.56741995,-0.0059107402,-0.35506877,-0.74291664,-6.385699,1.208593,-0.65130293,-5.7060027,5.4783683,1.7693578,0
0.6800000000000004,20.911639137639042,-5.999999702742116,5.999999809177291,2.1090842524268214,17.980465,-5.0648723,5.5929856,0.33121407,12.526184,-9.907772,1.9658971,-0.55071807,0.027688779,-0.3491006,-0.75767475,-6.319865,1.2999352,-0.6213906,-5.7520075,5.5595984,1.7867429,0
0.6900000000000004,20.911639137639042,-5.999999702742116,5.999999809177291,2.1090842524268214,17.980465,-5.0648723,5.5929856,0.33121407,12.463326,-9.894179,1.9599828,-0.5328927,0.06161213,-0.34259436,-0.7712702,-6.2538643,1.4197218,-0.56136835,-5.7908196,5.6281743,1.8025602,0
0.7000000000000004,20.911639137639042,-5.999999702742116,5.999999809177291,2.1090842524268214,17.980465,-5.0648723,5.5929856,0.33121407,12.401052,-9.8793545,1.9546707,-0.51397735,0.09574178,-0.33553743,-0.78362924,-6.203242,1.5464058,-0.5010519,-5.8235645,5.6860647,1.8176014,0
0.7100000000000004,20.911639137639042,-5.999999702742116,5.999999809177291,2.1090842524268214,17.980465,-5.0648723,5.5929856,0.33121407,12.339206,-9.863231,1.9499598,-0.49400765,0.12996627,-0.32792336,-0.79468924,-6.168534,1.6790224,-0.44130686,-5.851191,5.7349358,1.8319045,0
0.7200000000000004,20.99999937664406,-5.848352215218417,5.999999533873186,0.5545539475141138,19.447025,-3.230033,5.586233,1.0813655,12.277625,-9.845757,1.9458398,-0.47302225,0.1641802,-0.31975096,-0.80439645,-6.150156,1.8165308,-0.3830089,-5.874498,5.7761927,1.8455057,0
0.7300000000000004,20.99999937664406,-5.848352215218417,5.999999533873186,0.5545539475141138,19.447025,-3.230033,5.586233,1.0813655,12.216145,-9.826885,1.942295,-0.45122948,0.198317,-0.31104046,-0.8125981,-6.1483884,1.9584252,-0.3263852,-5.8702226,5.8113422,1.7821584,0
0.7400000000000004,20.99999937664406,-5.848352215218417,5.999999533873186,0.5545539475141138,19.447025,-3.230033,5.586233,1.0813655,12.154599,-9.806581,1.9393011,-0.4288358,0.23231831,-0.30180264,-0.81917197,-6.1634398,2.1029835,-0.27298328,-5.866617,5.8409977,1.7219193,0
0.7500000000000004,20.99999937664406,-5.848352215218417,5.999999533873186,0.5545539475141138,19.447025,-3.230033,5.586233,1.0813655,12.092819,-9.784821,1.9368213,-0.40587893,0.2660976,-0.2920294,-0.8241193,-6.1953044,2.2490408,-0.22367837,-5.863578,5.866017,1.6646364,0
0.7600000000000005,20.99999956620769,-2.824224708410183,5.521163767049193,1.0637641608460824,20.83238,-2.3740194,4.8950076,0.6481307,12.030637,-9.761597,1.9348105,-0.38239622,0.29957157,-0.28171784,-0.82744455,-6.2438507,2.3954165,-0.17932233,-5.8610177,5.887122,1.6101642,1
0.7700000000000005,20.99999956620769,-2.824224708410183,5.521163767049193,1.0637641608460824,20.83238,-2.3740194,4.8950076,0.6481307,11.967888,-9.736919,1.9332095,-0.35898268,0.33178183,-0.2718693,-0.8289383,-6.3081813,2.5398178,-0.14182642,-5.3168836,5.733137,1.5629569,1
0.7800000000000005,20.99999956620769,-2.824224708410183,5.521163767049193,1.0637641608460824,20.83238,-2.3740194,4.8950076,0.6481307,11.904421,-9.710805,1.9319518,-0.33620787,0.36203977,-0.26333025,-0.8285819,-6.387522,2.682668,-0.110784054,-4.857649,5.6030416,1.5180662,1
0.7900000000000005,20.99999956620769,-2.824224708410183,5.521163767049193,1.0637641608460824,20.83238,-2.3740194,4.8950076,0.6481307,11.840092,-9.683272,1.9309696,-0.31405184,0.39062908,-0.25588208,-0.8266221,-6.4805694,2.8234334,-0.0867851,-4.470066,5.493132,1.4753783,1
0.8000000000000005,20.999999147734847,0.06391703881199431,1.7848153397643889,0.4928579746237048,20.95862,0.082039386,4.509737,1.0851552,11.774767,-9.654345,1.9301902,-0.2924801,0.4177813,-0.24933153,-0.8232541,-6.586154,2.961654,-0.07030184,-4.1429567,5.4002795,1.434785,0
0.8100000000000005,20.999999147734847,0.06391703881199431,1.7848153397643889,0.4928579746237048,20.95862,0.082039386,4.509737,1.0851552,11.708324,-9.624043,1.929541,-0.27220005,0.442403,-0.2439574,-0.81894505,-6.7040496,3.0980437,-0.06077333,-3.4862247,4.837169,1.3885645,0
0.8200000000000005,20.999999147734847,0.06391703881199431,1.7848153397643889,0.4928579746237048,20.95862,0.082039386,4.509737,1.0851552,11.640653,-9.592394,1.9289488,-0.25381306,0.46371755,-0.24002028,-0.81420803,-6.8317165,3.2314065,-0.058851,-2.9320261,4.361742,1.3446119,0
0.8300000000000005,20.999999147734847,0.06391703881199431,1.7848153397643889,0.4928579746237048,20.95862,0.082039386,4.509737,1.0851552,11.571662,-9.559426,1.9283396,-0.23711747,0.48231146,-0.2373252,-0.80921394,-6.967542,3.3618467,-0.06406453,-2.4643505,3.9603486,1.3028162,0
0.8400000000000005,20.999999147734847,0.06391703881199431,1.7848153397643889,0.4928579746237048,19.515148,0.9725937,3.1825676,0.7461874,11.501279,-9.525167,1.9276446,-0.22192112,0.4986641,-0.23569387,-0.80407274,-7.1102166,3.489541,-0.07595999,-2.0696864,3.6214643,1.2630713,0
0.8500000000000005,20.999999147734847,0.06391703881199431,1.7848153397643889,0.4928579746237048,19.515148,0.9725937,3.1825676,0.7461874,11.429439,-9.489645,1.9267989,-0.20804614,0.5131673,-0.23496647,-0.7988531,-7.2586727,3.6146994,-0.09411776,-1.7366343,3.3353567,1.2252767,0
0.8600000000000005,20.999999147734847,0.06391703881199431,1.7848153397643889,0.4928579746237048,19.515148,0.9725937,3.1825676,0.7461874,11.356089,-9.452882,1.925742,-0.19533113,0.5261414,-0.2350017,-0.79359597,-7.412039,3.7375398,-0.11816063,-1.4555738,3.0938091,1.1893365,0
0.8700000000000006,20.999999147734847,0.06391703881199431,1.7848153397643889,0.4928579746237048,19.515148,0.9725937,3.1825676,0.7461874,11.281184,-9.414901,1.9244167,-0.18363157,0.5378487,-0.235676,-0.7883238,-7.569603,3.8582747,-0.14775592,-1.2183872,2.8898835,1.1551602,0
0.8800000000000006,20.999998381794043,2.0296699796905946,-2.130849230255942,0.3788001095600908,18.547495,1.3293993,-0.7477567,0.07254703,11.204684,-9.375723,1.9227688,-0.17281926,0.54850423,-0.2368822,-0.78304714,-7.7307787,3.9771013,-0.1826142,-1.0182252,2.717721,1.1226609,0
0.8900000000000006,20.999998381794043,2.0296699796905946,-2.130849230255942,0.3788001095600908,18.547495,1.3293993,-0.7477567,0.07254703,11.126558,-9.335365,1.9207474,-0.16360122,0.5569385,-0.23887362,-0.77845544,-7.8949947,4.094258,-0.22236116,-0.54230744,1.9619504,1.0861595,0
0.9000000000000006,20.999998381794043,2.0296699796905946,-2.130849230255942,0.3788001095600908,18.547495,1.3293993,-0.7477567,0.07254703,11.046778,-9.293842,1.9183084,-0.15654777,0.562273,-0.24186745,-0.77513945,-8.0612955,4.2103286,-0.26595566,-0.14072698,1.323968,1.0514492,0
0.9100000000000006,20.999998381794043,2.0296699796905946,-2.130849230255942,0.3788001095600908,18.547495,1.3293993,-0.7477567,0.07254703,10.965328,-9.251161,1.9154189,-0.15136144,0.56504154,-0.2457197,-0.77294165,-8.22875,4.3259845,-0.31226864,0.19813144,0.78541905,1.0184422,0
0.9200000000000006,20.999991361982808,3.0722761941836647,-5.99999162972563,0.44910401686769064,17.521156,2.3751285,-3.6690152,0.06290834,10.882202,-9.207322,1.9120568,-0.14778167,0.5656733,-0.25029945,-0.7717018,-8.396608,4.441838,-0.36035213,0.48406765,0.33080882,0.98705477,0
0.9300000000000006,20.999991361982808,3.0722761941836647,-5.99999162972563,0.44910401686769064,17.521156,2.3751285,-3.6690152,0.06290834,10.797398,-9.162322,1.9082088,-0.14620148,0.5632565,-0.25558925,-0.7720366,-8.564178,4.55847,-0.40928802,0.88832116,-0.6562311,0.9606573,0
0.9400000000000006,20.999991361982808,3.0722761941836647,-5.99999162972563,0.44910401686769064,17.521156,2.3751285,-3.6690152,0.06290834,10.710924,-9.116148,1.9038734,-0.14691916,0.5570625,-0.26156288,-0.7743901,-8.730485,4.6766224,-0.45757955,1.2294052,-1.489394,0.93555516,0
0.9500000000000006,20.999991361982808,3.0722761941836647,-5.99999162972563,0.44910401686769064,17.521156,2.3751285,-3.6690152,0.06290834,10.622797,-9.068782,1.8990647,-0.14959016,0.5476369,-0.26808906,-0.7783597,-8.894527,4.7970014,-0.50374377,1.5171946,-2.1926672,0.9116849,0
0.9600000000000006,20.768090473503527,3.2610176237115485,-5.999999491215584,-0.10899302557064544,17.619087,2.2374916,-5.625918,-0.026760183,10.533044,-9.020199,1.89381,-0.15391359,0.53541774,-0.2750441,-0.783574,-9.055372,4.920172,-0.546574,1.7600203,-2.7862995,0.8889859,0
0.9700000000000006,20.768090473503527,3.2610176237115485,-5.999999491215584,-0.10899302557064544,17.619087,2.2374916,-5.625918,-0.026760183,10.441712,-8.970375,1.8881447,-0.15972172,0.5207692,-0.28233698,-0.7896666,-9.210395,5.045172,-0.5857656,1.994286,-3.2874017,0.8400148,0
0.9800000000000006,20.768090473503527,3.2610176237115485,-5.999999491215584,-0.10899302557064544,17.619087,2.2374916,-5.625918,-0.026760183,10.348854,-8.919284,1.8821119,-0.16686821,0.503995,-0.28987876,-0.79631245,-9.360491,5.1736846,-0.61997676,2.1919513,-3.710388,0.7934467,0
0.9900000000000007,20.768090473503527,3.2610176237115485,-5.999999491215584,-0.10899302557064544,17.619087,2.2374916,-5.625918,-0.026760183,10.254522,-8.86689,1.8757641,-0.1751375,0.48534468,-0.29756635,-0.8032564,-9.504794,5.3059077,-0.6486628,2.3587391,-4.0674334,0.7491637,0
1.0000000000000007,20.32652561361729,2.4191404269541787,-5.999999543734861,-0.21173921830333664,17.560358,2.4423988,-5.513073,-0.032787375,10.15878,-8.813153,1.869159,-0.18434192,0.46503106,-0.30530924,-0.81027746,-9.642461,5.441915,-0.67144024,2.4994764,-4.3688154,0.70705366,0
1.0100000000000007,20.32652561361729,2.4191404269541787,-5.999999543734861,-0.21173921830333664,17.560358,2.4423988,-5.513073,-0.032787375,10.061712,-8.758053,1.8623481,-0.19417447,0.4433065,-0.31274992,-0.81728953,-9.769923,5.5786695,-0.6897905,2.4869297,-4.623276,0.66196823,0
1.0200000000000007,20.32652561361729,2.4191404269541787,-5.999999543734861,-0.21173921830333664,17.560358,2.4423988,-5.513073,-0.032787375,9.96341,-8.701568,1.8553846,-0.20439088,0.42039573,-0.3196002,-0.8242249,-9.88946,5.7187743,-0.7019303,2.4763155,-4.8380494,0.61909515,0
1.0300000000000007,20.32652561361729,2.4191404269541787,-5.999999543734861,-0.21173921830333664,17.560358,2.4423988,-5.513073,-0.032787375,9.863955,-8.643667,1.8483311,-0.21492164,0.39643368,-0.32588172,-0.83093274,-10.000486,5.8618417,-0.70776945,2.4673388,-5.019324,0.57832587,0
1.0400000000000007,20.32652561361729,2.4191404269541787,-5.999999543734861,-0.21173921830333664,16.83077,1.7078018,-5.964422,-0.22585048,9.7634325,-8.584323,1.8412508,-0.22570287,0.37153965,-0.3316137,-0.8372861,-10.102444,6.0074406,-0.7073188,2.4597495,-5.1723247,0.53955716,0
1.0500000000000007,20.32652561361729,2.4191404269541787,-5.999999543734861,-0.21173921830333664,16.83077,1.7078018,-5.964422,-0.22585048,9.661939,-8.523511,1.834206,-0.23667589,0.34582007,-0.3368133,-0.8431779,-10.194805,6.155106,-0.7006791,2.4533346,-5.301461,0.5026908,0
1.0600000000000007,20.32652561361729,2.4191404269541787,-5.999999543734861,-0.21173921830333664,16.83077,1.7078018,-5.964422,-0.22585048,9.559571,-8.461215,1.8272579,-0.24778682,0.3193704,-0.3414961,-0.84851855,-10.277085,6.3043394,-0.68803126,2.4479144,-5.4104557,0.46763352,0
1.0700000000000007,20.32652561361729,2.4191404269541787,-5.999999543734861,-0.21173921830333664,16.83077,1.7078018,-5.964422,-0.22585048,9.456433,-8.397421,1.8204652,-0.25898618,0.2922769,-0.34567624,-0.85323346,-10.348841,6.4546165,-0.6696269,2.4433353,-5.502449,0.43429646,0
1.0800000000000007,20.196498219791156,1.1007020796256854,-5.99999915980906,-0.11598961821622185,17.996168,0.87624055,-6.0660634,-0.31478882,9.352632,-8.332121,1.8138839,-0.27022836,0.26461807,-0.34936664,-0.85726064,-10.409675,6.6053925,-0.6457804,2.439469,-5.5800934,0.4025953,0
1.0900000000000007,20.196498219791156,1.1007020796256854,-5.99999915980906,-0.11598961821622185,17.996168,0.87624055,-6.0660634,-0.31478882,9.24828,-8.265318,1.8075628,-0.28132764,0.236607,-0.35213086,-0.8607407,-10.458955,6.7551126,-0.6176518,2.2306125,-5.64567,0.37714818,0
1.1000000000000008,20.196498219791156,1.1007020796256854,-5.99999915980906,-0.11598961821622185,17.996168,0.87624055,-6.0660634,-0.31478882,9.143492,-8.1970215,1.8015474,-0.29215163,0.20843111,-0.3536285,-0.8637995,-10.496983,6.903988,-0.58472484,2.0543272,-5.701003,0.35294977,0
1.1100000000000008,20.196498219791156,1.1007020796256854,-5.99999915980906,-0.11598961821622185,17.996168,0.87624055,-6.0660634,-0.31478882,9.03838,-8.127244,1.7958839,-0.30272874,0.18012175,-0.35400122,-0.866368,-10.523757,7.051249,-0.54726905,1.9055343,-5.747694,0.32993877,0
1.1200000000000008,19.369421706777306,-0.29852255288547347,-5.999956294165781,-0.12419006292187547,17.376535,-0.0662847,-6.0847106,-0.25306422,8.933056,-8.056005,1.7906164,-0.31307688,0.15170744,-0.3533705,-0.86838704,-10.539292,7.196171,-0.50560373,1.7799473,-5.7870936,0.30805695,0
1.1300000000000008,19.369421706777306,-0.29852255288547347,-5.999956294165781,-0.12419006292187547,17.376535,-0.0662847,-6.0847106,-0.25306422,8.827634,-7.9833603,1.7857558,-0.32312804,0.1233926,-0.35135502,-0.87000644,-10.54348,7.3322315,-0.4659481,1.4557372,-5.820375,0.28684652,0
1.1400000000000008,19.369421706777306,-0.29852255288547347,-5.999956294165781,-0.12419006292187547,17.376535,-0.0662847,-6.0847106,-0.25306422,8.722222,-7.909373,1.7813094,-0.33284613,0.09535093,-0.34766302,-0.87135017,-10.537218,7.464574,-0.42279235,1.1820899,-5.8484473,0.26667684,0
1.1500000000000008,19.369421706777306,-0.29852255288547347,-5.999956294165781,-0.12419006292187547,17.376535,-0.0662847,-6.0847106,-0.25306422,8.616924,-7.8340836,1.7773112,-0.34227684,0.067564435,-0.34251186,-0.8723338,-10.520824,7.592423,-0.37634847,0.95111996,-5.8721275,0.2474969,0
1.1600000000000008,18.075121074689733,-1.5883629128005574,-2.873193508273297,-0.08035665731417757,16.136162,-1.7080712,-3.986025,-0.10724981,8.511839,-7.757542,1.7737927,-0.3514504,0.040018395,-0.33608693,-0.87288356,-10.494602,7.715073,-0.32688028,0.75617224,-5.8921027,0.2292581,0
1.1700000000000008,18.075121074689733,-1.5883629128005574,-2.873193508273297,-0.08035665731417757,16.136162,-1.7080712,-3.986025,-0.10724981,8.407052,-7.6798415,1.7707329,-0.3599559,0.01397557,-0.32854775,-0.87309325,-10.461339,7.8241153,-0.28474516,0.390419,-5.4213643,0.21406521,0
1.1800000000000008,18.075121074689733,-1.5883629128005574,-2.873193508273297,-0.08035665731417757,16.136162,-1.7080712,-3.986025,-0.10724981,8.30264,-7.601079,1.7681055,-0.36752212,-0.0095584,-0.32007328,-0.8731485,-10.42022,7.927481,-0.24040708,0.08172616,-5.0240226,0.19961785,0
1.1900000000000008,18.075121074689733,-1.5883629128005574,-2.873193508273297,-0.08035665731417757,16.136162,-1.7080712,-3.986025,-0.10724981,8.198672,-7.5213118,1.7659315,-0.37434387,-0.0309469,-0.31082776,-0.8730946,-10.372254,8.025055,-0.19413449,-0.17880909,-4.688635,0.18587942,0
1.2000000000000008,16.65801809363074,-2.333678478505439,0.4766464987004142,0.16711120178811162,16.355364,-2.9038115,-0.065339126,0.40504825,8.095216,-7.440598,1.7642288,-0.38057357,-0.050502516,-0.30094323,-0.8729522,-10.318301,8.116765,-0.14613867,-0.39870015,-4.405541,0.17281516,1
1.2100000000000009,16.65801809363074,-2.333678478505439,0.4766464987004142,0.16711120178811162,16.355364,-2.9038115,-0.065339126,0.40504825,7.9922976,-7.359038,1.762944,-0.3859787,-0.067329556,-0.29049748,-0.87298197,-10.2648115,8.19444,-0.11062903,-0.7894192,-3.7287383,0.18421091,1
1.2200000000000009,16.65801809363074,-2.333678478505439,0.4766464987004142,0.16711120178811162,16.355364,-2.9038115,-0.065339126,0.40504825,7.889932,-7.2767267,1.762021,-0.39040807,-0.080737226,-0.279573,-0.87344205,-10.20775,8.267036,-0.073744886,-1.1192034,-3.1574805,0.19504747,1
1.2300000000000009,16.65801809363074,-2.333678478505439,0.4766464987004142,0.16711120178811162,16.355364,-2.9038115,-0.065339126,0.40504825,7.7881513,-7.1937137,1.7614738,-0.39406666,-0.091249816,-0.26826516,-0.8743099,-10.148197,8.334854,-0.035456784,-1.3975552,-2.6753075,0.20535226,1
1.2400000000000009,16.65801809363074,-2.333678478505439,0.4766464987004142,0.16711120178811162,16.354898,-4.4130206,1.9732941,0.6974682,7.686974,-7.110045,1.7613168,-0.3971111,-0.09931147,-0.25664508,-0.87554127,-10.087049,8.398161,0.0042876992,-1.6324947,-2.268326,0.2151514,0
1.2500000000000009,16.65801809363074,-2.333678478505439,0.4766464987004142,0.16711120178811162,16.354898,-4.4130206,1.9732941,0.6974682,7.5864186,-7.0257597,1.7615776,-0.39961,-0.10519138,-0.2450564,-0.8770366,-10.023912,8.458306,0.04811578,-1.7419068,-1.840262,0.21279405,0
1.260000000000001,16.65801809363074,-2.333678478505439,0.4766464987004142,0.16711120178811162,16.354898,-4.4130206,1.9732941,0.6974682,7.4864955,-6.940893,1.7622843,-0.40162355,-0.109123506,-0.23377426,-0.87871456,-9.960561,8.514468,0.09347293,-1.8342453,-1.4789516,0.21055236,0
1.270000000000001,16.65801809363074,-2.333678478505439,0.4766464987004142,0.16711120178811162,16.354898,-4.4130206,1.9732941,0.6974682,7.387205,-6.855483,1.7634522,-0.4032474,-0.111406885,-0.22275454,-0.88054496,-9.8975315,8.566987,0.14034487,-1.9121752,-1.1739852,0.2084207,0
1.280000000000001,15.790582333650763,-2.3139014972156593,3.6963928314544185,0.36935277394459487,15.458712,-3.1497765,3.08472,0.49158204,7.2885413,-6.7695646,1.7650963,-0.40455598,-0.1122941,-0.21195751,-0.88249505,-9.835278,8.616151,0.18872127,-1.9779446,-0.9165762,0.20639361,1
1.290000000000001,15.790582333650763,-2.3139014972156593,3.6963928314544185,0.36935277394459487,15.458712,-3.1497765,3.08472,0.49158204,7.1904726,-6.6831875,1.7671785,-0.40539083,-0.11095288,-0.20147765,-0.88473356,-9.778643,8.658926,0.22794953,-2.160772,-0.29262048,0.2203879,1
1.300000000000001,15.790582333650763,-2.3139014972156593,3.6963928314544185,0.36935277394459487,15.458712,-3.1497765,3.08472,0.49158204,7.0929623,-6.5963945,1.7696604,-0.40563008,-0.10673196,-0.19138509,-0.88737994,-9.723854,8.699315,0.26864153,-2.3150842,0.23403177,0.23369549,1
1.310000000000001,15.790582333650763,-2.3139014972156593,3.6963928314544185,0.36935277394459487,15.458712,-3.1497765,3.08472,0.49158204,6.995987,-6.509208,1.7725567,-0.4053674,-0.10007141,-0.18161206,-0.89032525,-9.6716385,8.737782,0.31086257,-2.445327,0.6785552,0.24635006,1
1.320000000000001,14.789896106620882,-1.8274164218164595,5.341957590606777,0.45189482549758314,14.67581,-2.632123,4.899917,0.57208776,6.8995185,-6.421644,1.7758828,-0.4046718,-0.09134268,-0.17209882,-0.8934642,-9.622618,8.774706,0.3546411,-2.5552535,1.0537575,0.25838366,1
1.330000000000001,14.789896106620882,-1.8274164218164595,5.341957590606777,0.45189482549758314,14.67581,-2.632123,4.899917,0.57208776,6.80351,-6.333727,1.7796184,-0.40344387,-0.080295525,-0.16327156,-0.8967313,-9.579646,8.808635,0.39269847,-2.5673583,1.6535362,0.2737772,1
1.340000000000001,14.789896106620882,-1.8274164218164595,5.341957590606777,0.45189482549758314,14.67581,-2.632123,4.899917,0.57208776,6.7079115,-6.2454734,1.7837416,-0.4016068,-0.06674569,-0.15546298,-0.90004855,-9.540827,8.841963,0.43214312,-2.5775688,2.159781,0.28841537,1
1.350000000000001,14.789896106620882,-1.8274164218164595,5.341957590606777,0.45189482549758314,14.67581,-2.632123,4.899917,0.57208776,6.612677,-6.1568875,1.7882657,-0.39923155,-0.051073622,-0.14849837,-0.9033012,-9.506713,8.875203,0.47284946,-2.58618,2.5870783,0.30233523,1
1.360000000000001,14.121734504080177,-0.9425797149686262,5.812761576253585,0.3906455870884494,13.678244,-1.9833081,5.7323174,0.49804884,6.5177584,-6.0679684,1.7932024,-0.39637026,-0.033603605,-0.1422293,-0.90638363,-9.477784,8.908769,0.51464957,-2.5934408,2.9477403,0.31557205,0
1.370000000000001,14.121734504080177,-0.9425797149686262,5.812761576253585,0.3906455870884494,13.678244,-1.9833081,5.7323174,0.49804884,6.423097,-5.9787164,1.7985351,-0.3930128,-0.014545822,-0.13728918,-0.9091095,-9.455324,8.941739,0.55200577,-2.3360898,3.394586,0.31925595,0
1.380000000000001,14.121734504080177,-0.9425797149686262,5.812761576253585,0.3906455870884494,13.678244,-1.9833081,5.7323174,0.49804884,6.3286324,-5.8891287,1.8042442,-0.38917062,0.0059185415,-0.13417408,-0.9113218,-9.438492,8.975918,0.5898768,-2.1188598,3.7717395,0.32275906,0
1.390000000000001,14.121734504080177,-0.9425797149686262,5.812761576253585,0.3906455870884494,13.678244,-1.9833081,5.7323174,0.49804884,6.2343073,-5.7991915,1.810333,-0.3849021,0.027569469,-0.1325817,-0.91296846,-9.427474,9.011823,0.62789756,-1.9354955,4.09007,0.32609028,0
1.400000000000001,13.217478722771501,-0.013223611580878274,4.06641440507011,0.3222299588597125,12.598427,-1.2344842,2.9965057,0.4392746,6.1400623,-5.708885,1.8168012,-0.38024932,0.050215807,-0.13225523,-0.9140003,-9.422433,9.049864,0.6656891,-1.7807165,4.358752,0.32925802,0
1.410000000000001,13.217478722771501,-0.013223611580878274,4.06641440507011,0.3222299588597125,12.598427,-1.2344842,2.9965057,0.4392746,6.0458374,-5.618199,1.8236011,-0.37536895,0.072912835,-0.13305333,-0.91437286,-9.4233885,9.087755,0.6942008,-1.5050663,4.3132215,0.32891312,0
1.420000000000001,13.217478722771501,-0.013223611580878274,4.06641440507011,0.3222299588597125,12.598427,-1.2344842,2.9965057,0.4392746,5.9515753,-5.5271215,1.830682,-0.37041244,0.094904326,-0.13486207,-0.914111,-9.42982,9.128077,0.7217995,-1.272405,4.2747827,0.32858518,0
1.430000000000001,13.217478722771501,-0.013223611580878274,4.06641440507011,0.3222299588597125,12.598427,-1.2344842,2.9965057,0.4392746,5.8572226,-5.435629,1.8380331,-0.36539668,0.11629043,-0.13751581,-0.91326344,-9.441464,9.170911,0.74818707,-1.0760287,4.2423296,0.32827333,0
1.440000000000001,13.217478722771501,-0.013223611580878274,4.06641440507011,0.3222299588597125,12.608491,-0.8388862,2.5376258,0.7555395,5.7627287,-5.3436947,1.8456407,-0.36033124,0.13715425,-0.14087346,-0.91186833,-9.458092,9.216312,0.77309066,-0.9102784,4.2149315,0.32797676,0
1.450000000000001,13.217478722771501,-0.013223611580878274,4.06641440507011,0.3222299588597125,12.608491,-0.8388862,2.5376258,0.7555395,5.668044,-5.251293,1.8534888,-0.35522035,0.15756442,-0.14481477,-0.9099559,-9.479496,9.264312,0.7962571,-0.7703774,4.1918,0.32769477,0
1.460000000000001,13.217478722771501,-0.013223611580878274,4.06641440507011,0.3222299588597125,12.608491,-0.8388862,2.5376258,0.7555395,5.573123,-5.158399,1.8615589,-0.35006475,0.1775773,-0.14923744,-0.90755075,-9.505496,9.314919,0.8174488,-0.652295,4.1722713,0.3274266,0
1.470000000000001,13.217478722771501,-0.013223611580878274,4.06641440507011,0.3222299588597125,12.608491,-0.8388862,2.5376258,0.7555395,5.477919,-5.064986,1.8698301,-0.34486282,0.197239,-0.15405442,-0.90467286,-9.535925,9.368128,0.8364412,-0.5526279,4.1557846,0.32717162,0
1.480000000000001,12.517654713245257,0.5385187576816727,1.0783579015909026,0.34277483105684897,11.860063,-0.15017864,-1.398167,0.87713027,5.3823895,-4.9710283,1.8782794,-0.3396113,0.21658692,-0.15919162,-0.90133876,-9.570633,9.423911,0.8530208,-0.4685047,4.1418657,0.32692912,0
1.490000000000001,12.517654713245257,0.5385187576816727,1.0783579015909026,0.34277483105684897,11.860063,-0.15017864,-1.398167,0.87713027,5.2865024,-4.876515,1.8868518,-0.334551,0.23450342,-0.16438416,-0.89780897,-9.6073675,9.479115,0.8610829,-0.31136018,3.6641464,0.32770666,0
1.500000000000001,12.517654713245257,0.5385187576816727,1.0783579015909026,0.34277483105684897,11.860063,-0.15017864,-1.398167,0.87713027,5.1902304,-4.7814384,1.8954927,-0.32990244,0.25012416,-0.16943477,-0.8943677,-9.647496,9.536474,0.86674786,-0.17873767,3.2609224,0.32844606,0
1.5100000000000011,12.517654713245257,0.5385187576816727,1.0783579015909026,0.34277483105684897,11.860063,-0.15017864,-1.398167,0.87713027,5.0935426,-4.6857786,1.904179,-0.32562745,0.26381636,-0.1743739,-0.89104486,-9.690523,9.595764,0.87014437,-0.06681052,2.9205763,0.3291492,0
1.5200000000000011,11.755719603846233,0.7094402908639098,-3.147072469354747,0.4592552284251136,11.550911,0.43061855,-4.0978723,0.7991353,4.996412,-4.5895176,1.9128883,-0.32168692,0.27588794,-0.17922485,-0.8878521,-9.73603,9.6568,0.87140197,0.027650585,2.6333036,0.3298178,1
1.5300000000000011,11.755719603846233,0.7094402908639098,-3.147072469354747,0.4592552284251136,11.550911,0.43061855,-4.0978723,0.7991353,4.898833,-4.4926605,1.921564,-0.31836188,0.28477353,-0.18333411,-0.8854026,-9.780005,9.714657,0.8633628,0.09282575,1.5857277,0.3526478,1
1.5400000000000011,11.755719603846233,0.7094402908639098,-3.147072469354747,0.4592552284251136,11.550911,0.43061855,-4.0978723,0.7991353,4.8008075,-4.3952208,1.930151,-0.31588137,0.28925,-0.18618086,-0.8842452,-9.8251,9.773396,0.85391015,0.14569703,0.6993876,0.37455708,1
1.5500000000000012,11.755719603846233,0.7094402908639098,-3.147072469354747,0.4592552284251136,11.550911,0.43061855,-4.0978723,0.7991353,4.7023287,-4.29719,1.93864,-0.31412894,0.2900186,-0.18798159,-0.8842368,-9.870685,9.832678,0.84384435,0.190313,-0.048729002,0.39539126,1
1.5600000000000012,11.667022356782624,0.5334825510617038,-5.999984716414711,0.5381969784178089,11.778945,1.0045992,-5.3057647,0.60910374,4.603394,-4.1985664,1.9470277,-0.31299046,0.2876586,-0.18891063,-0.88521284,-9.916162,9.892142,0.8337115,0.22795925,-0.68017817,0.4152031,1
1.5700000000000012,11.667022356782624,0.5334825510617038,-5.999984716414711,0.5381969784178089,11.778945,1.0045992,-5.3057647,0.60910374,4.504003,-4.0993423,1.9553244,-0.3125364,0.2821536,-0.18915324,-0.8870913,-9.961887,9.952656,0.8257305,0.3492792,-1.4015009,0.42471784,1
1.5800000000000012,11.667022356782624,0.5334825510617038,-5.999984716414711,0.5381969784178089,11.778945,1.0045992,-5.3057647,0.60910374,4.404161,-3.9995148,1.9635454,-0.31280795,0.27350584,-0.18885581,-0.88976336,-10.00636,10.012767,0.81864065,0.4516561,-2.0103378,0.4337657,1
1.5900000000000012,11.667022356782624,0.5334825510617038,-5.999984716414711,0.5381969784178089,11.778945,1.0045992,-5.3057647,0.60910374,4.3038826,-3.8990893,1.9717017,-0.31366304,0.2621804,-0.18809225,-0.8930273,-10.049003,10.072227,0.812844,0.53804636,-2.5242305,0.4423696,1
1.6000000000000012,11.613382904484952,0.05864901652646869,-5.9999969090399645,0.5257090014915882,11.575516,0.71821576,-5.4406834,0.23574482,4.2031894,-3.7980735,1.979808,-0.3149757,0.24856684,-0.18692079,-0.8966967,-10.0893135,10.130807,0.808643,0.6109456,-2.9579852,0.45055133,1
1.6100000000000012,11.613382904484952,0.05864901652646869,-5.9999969090399645,0.5257090014915882,11.575516,0.71821576,-5.4406834,0.23574482,4.1021094,-3.696482,1.9878726,-0.31665906,0.23298979,-0.18525662,-0.90062326,-10.126198,10.187297,0.80459934,0.6277652,-3.34516,0.44001073,1
1.6200000000000012,11.613382904484952,0.05864901652646869,-5.9999969090399645,0.5257090014915882,11.575516,0.71821576,-5.4406834,0.23574482,4.000676,-3.5943317,1.9959064,-0.31864357,0.21572572,-0.18303174,-0.9046698,-10.159977,10.242475,0.80248016,0.64194065,-3.6719558,0.42998734,1
1.6300000000000012,11.613382904484952,0.05864901652646869,-5.9999969090399645,0.5257090014915882,11.575516,0.71821576,-5.4406834,0.23574482,3.8989217,-3.4916375,2.0039291,-0.3208495,0.19701448,-0.18031202,-0.9086957,-10.19032,10.29611,0.8023618,0.65388846,-3.9477887,0.4204558,1
1.6400000000000012,11.613382904484952,0.05864901652646869,-5.9999969090399645,0.5257090014915882,11.651229,-0.07705444,-5.6107726,0.4256794,3.7968826,-3.3884156,2.0119607,-0.32320762,0.17706178,-0.17715319,-0.91257995,-10.21693,10.347983,0.80425435,0.6639595,-4.1806064,0.411392,1
1.6500000000000012,11.613382904484952,0.05864901652646869,-5.9999969090399645,0.5257090014915882,11.651229,-0.07705444,-5.6107726,0.4256794,3.6945963,-3.2846832,2.0200245,-0.32559428,0.15608163,-0.17329384,-0.9162945,-10.239703,10.398204,0.80878186,0.5484606,-4.403671,0.41209313,1
1.6600000000000013,11.613382904484952,0.05864901652646869,-5.9999969090399645,0.5257090014915882,11.651229,-0.07705444,-5.6107726,0.4256794,3.5921028,-3.1804597,2.0281432,-0.32791084,0.13425656,-0.16852836,-0.9198083,-10.258288,10.446147,0.8152243,0.45096445,-4.5919433,0.41275978,1
1.6700000000000013,11.613382904484952,0.05864901652646869,-5.9999969090399645,0.5257090014915882,11.651229,-0.07705444,-5.6107726,0.4256794,3.4894452,-3.0757694,2.0363352,-0.33013418,0.11170969,-0.16297668,-0.9230224,-10.272544,10.491523,0.82347566,0.36866477,-4.7508516,0.41339374,1
1.6800000000000013,11.858124329341992,-0.5192843720436835,-5.999994949431146,0.5716637239499343,12.902978,-1.0304972,-5.6933985,0.16209894,3.3866673,-2.9706392,2.0446184,-0.3322427,0.08854901,-0.1567416,-0.92585385,-10.282347,10.534074,0.83338517,0.29919308,-4.884975,0.41399658,0
1.6900000000000013,11.858124329341992,-0.5192843720436835,-5.999994949431146,0.5716637239499343,12.902978,-1.0304972,-5.6933985,0.16209894,3.283813,-2.8650951,2.0530174,-0.33420873,0.06478118,-0.1496969,-0.92827696,-10.287685,10.574254,0.84671175,0.17162439,-5.058895,0.42173332,0
1.7000000000000013,11.858124329341992,-0.5192843720436835,-5.999994949431146,0.5716637239499343,12.902978,-1.0304972,-5.6933985,0.16209894,3.1809294,-2.759166,2.0615568,-0.33600578,0.040419687,-0.1417463,-0.93025464,-10.288297,10.611017,0.8613358,0.063942745,-5.205688,0.42909044,0
1.7100000000000013,11.858124329341992,-0.5192843720436835,-5.999994949431146,0.5716637239499343,12.902978,-1.0304972,-5.6933985,0.16209894,3.0780635,-2.6528873,2.070248,-0.33761585,0.015564069,-0.13301302,-0.93170816,-10.284111,10.644083,0.87702316,-0.026952395,-5.329585,0.43608657,0
1.7200000000000013,12.003221500858283,-1.0466698405021808,-5.804276896923844,0.7258784546278144,12.907979,-1.7415706,-5.6676006,0.5997477,2.9752638,-2.5462978,2.0791001,-0.33902204,-0.009696847,-0.12360343,-0.9325725,-10.275075,10.673206,0.8935027,-0.103677966,-5.4341574,0.44273934,1
1.7300000000000013,12.003221500858283,-1.0466698405021808,-5.804276896923844,0.7258784546278144,12.907979,-1.7415706,-5.6676006,0.5997477,2.8725843,-2.4394262,2.0881705,-0.34019905,-0.03499384,-0.113198675,-0.93285865,-10.259951,10.70037,0.9206667,-0.35906848,-5.470638,0.45044377,1
1.7400000000000013,12.003221500858283,-1.0466698405021808,-5.804276896923844,0.7258784546278144,12.907979,-1.7415706,-5.6676006,0.5997477,2.7700825,-2.3323069,2.0975142,-0.34114295,-0.060025487,-0.10155418,-0.9325794,-10.239683,10.722695,0.94805944,-0.5746336,-5.5014205,0.4577702,1
1.7500000000000013,12.003221500858283,-1.0466698405021808,-5.804276896923844,0.7258784546278144,12.907979,-1.7415706,-5.6676006,0.5997477,2.667808,-2.22499,2.1071315,-0.34186405,-0.0848083,-0.088856466,-0.9316867,-10.214457,10.739898,0.97536,-0.7565838,-5.527394,0.46473706,1
1.7600000000000013,11.537407773586052,-1.4298598202456523,-2.128327001640897,0.9067389929900934,13.602301,-2.3429575,-5.6999297,0.81153834,2.56581,-2.1175275,2.11702,-0.3423667,-0.10935286,-0.07526577,-0.9301404,-10.184451,10.751744,1.0022273,-0.91016126,-5.5493093,0.4713621,0
1.7700000000000014,11.537407773586052,-1.4298598202456523,-2.128327001640897,0.9067389929900934,13.602301,-2.3429575,-5.6999297,0.81153834,2.4641168,-2.0099778,2.1271074,-0.34250998,-0.1323967,-0.061518177,-0.9281016,-10.153565,10.757431,1.0151309,-0.9913013,-5.0158477,0.4927262,0
1.7800000000000014,11.537407773586052,-1.4298598202456523,-2.128327001640897,0.9067389929900934,13.602301,-2.3429575,-5.6999297,0.81153834,2.362751,-1.9023949,2.1373196,-0.34222683,-0.15295452,-0.048209775,-0.92582965,-10.119085,10.758435,1.0271162,-1.0597779,-4.565576,0.5130419,0
1.7900000000000014,11.537407773586052,-1.4298598202456523,-2.128327001640897,0.9067389929900934,13.602301,-2.3429575,-5.6999297,0.81153834,2.261746,-1.7948241,2.1476462,-0.34160835,-0.17140672,-0.035276312,-0.9234057,-10.081512,10.755056,1.0380385,-1.117566,-4.185522,0.53236073,0
1.8000000000000014,11.242049292999077,-1.4699651670313474,1.6776247994016213,1.0907438348809309,13.021268,-2.1950333,-2.6439366,1.4171753,2.1611302,-1.687308,2.1580763,-0.34072265,-0.18807545,-0.022661453,-0.9208807,-10.0412655,10.747553,1.0477962,-1.1663326,-3.8647346,0.55073154,0
1.8100000000000014,11.242049292999077,-1.4699651670313474,1.6776247994016213,1.0907438348809309,13.021268,-2.1950333,-2.6439366,1.4171753,2.060923,-1.5798849,2.168584,-0.33958063,-0.20182979,-0.010815542,-0.9186031,-9.999843,10.736492,1.0536134,-1.213941,-3.000445,0.5772301,0
1.8200000000000014,11.242049292999077,-1.4699651670313474,1.6776247994016213,1.0907438348809309,13.021268,-2.1950333,-2.6439366,1.4171753,1.9611388,-1.4725891,2.1791449,-0.33822602,-0.2118037,-8.934527e-05,-0.9169194,-9.956849,10.722185,1.0583932,-1.2541041,-2.270938,0.60242844,0
1.8300000000000014,11.242049292999077,-1.4699651670313474,1.6776247994016213,1.0907438348809309,13.021268,-2.1950333,-2.6439366,1.4171753,1.8617895,-1.3654506,2.1897492,-0.33673522,-0.21860003,0.009697311,-0.9158211,-9.91291,10.705142,1.0623554,-1.2879826,-1.655195,0.6263902,0
1.8400000000000014,11.242049292999077,-1.4699651670313474,1.6776247994016213,1.0907438348809309,12.331194,-2.0668628,0.8851685,1.349778,1.762882,-1.2584944,2.2003899,-0.33515695,-0.22272216,0.018697219,-0.91526717,-9.868546,10.685787,1.0657197,-1.3165574,-1.1354744,0.64917624,0
1.8500000000000014,11.242049292999077,-1.4699651670313474,1.6776247994016213,1.0907438348809309,12.331194,-2.0668628,0.8851685,1.349778,1.6644186,-1.1517416,2.2110622,-0.33352086,-0.22459055,0.027039194,-0.9151999,-9.824182,10.664469,1.0686916,-1.3406564,-0.6968022,0.6708441,0
1.8600000000000014,11.242049292999077,-1.4699651670313474,1.6776247994016213,1.0907438348809309,12.331194,-2.0668628,0.8851685,1.349778,1.5663972,-1.0452107,2.221763,-0.33184385,-0.22455685,0.034831375,-0.9155543,-9.780182,10.641475,1.0714549,-1.3609788,-0.32653877,0.6914487,0
1.8700000000000014,11.242049292999077,-1.4699651670313474,1.6776247994016213,1.0907438348809309,12.331194,-2.0668628,0.8851685,1.349778,1.4688127,-0.9389171,2.2324913,-0.3301343,-0.22291552,0.04216427,-0.9162648,-9.736847,10.617044,1.0741689,-1.3781153,-0.014015898,0.7110422,0
1.8800000000000014,11.136763174542208,-1.4272914100194627,5.192150380764867,1.0987878103503057,11.913476,-2.3903809,2.9936404,1.4505031,1.3716571,-0.8328741,2.2432468,-0.32839513,-0.21991348,0.049113445,-0.9172685,-9.694435,10.591374,1.0769674,-1.3925643,0.24977088,0.7296743,0
1.8900000000000015,11.136763174542208,-1.4272914100194627,5.192150380764867,1.0987878103503057,11.913476,-2.3903809,2.9936404,1.4505031,1.274918,-0.727092,2.2540267,-0.32669237,-0.21447231,0.055265777,-0.9188135,-9.653601,10.564917,1.0790427,-1.3983576,1.020513,0.7477868,0
1.9000000000000015,11.136763174542208,-1.4272914100194627,5.192150380764867,1.0987878103503057,11.913476,-2.3903809,2.9936404,1.4505031,1.1785793,-0.62157786,2.2648296,-0.32507965,-0.20574081,0.060297996,-0.921063,-9.6144495,10.537837,1.0816216,-1.4032049,1.6710597,0.7650105,0
1.9100000000000015,11.136763174542208,-1.4272914100194627,5.192150380764867,1.0987878103503057,11.913476,-2.3903809,2.9936404,1.4505031,1.0826215,-0.51633584,2.2756622,-0.3235303,-0.19421339,0.06438689,-0.9238304,-9.577517,10.510551,1.084979,-1.4072582,2.220155,0.781389,0
1.9200000000000015,11.106262438636373,-1.2897570468562911,5.999989272765957,1.0499160502420848,11.522831,-2.3940048,5.2555,1.6377523,0.9870198,-0.41136625,2.2865329,-0.32201204,-0.18030523,0.06767902,-0.9269394,-9.543269,10.483412,1.0893118,-1.4106449,2.6836202,0.7969638,0
1.9300000000000015,11.106262438636373,-1.2897570468562911,5.999989272765957,1.0499160502420848,11.522831,-2.3940048,5.2555,1.6377523,0.89174503,-0.3066657,2.2974508,-0.3205083,-0.16408443,0.070139855,-0.9302849,-9.512215,10.4567995,1.0944655,-1.3920864,3.2008045,0.80937624,0
1.9400000000000015,11.106262438636373,-1.2897570468562911,5.999989272765957,1.0499160502420848,11.522831,-2.3940048,5.2555,1.6377523,0.7967634,-0.20222759,2.3084261,-0.31899798,-0.14562154,0.07174606,-0.9337484,-9.484694,10.430967,1.100811,-1.3763862,3.6373339,0.8211796,0
1.9500000000000015,11.106262438636373,-1.2897570468562911,5.999989272765957,1.0499160502420848,11.522831,-2.3940048,5.2555,1.6377523,0.70203763,-0.09804261,2.3194711,-0.31744137,-0.1252457,0.07262424,-0.9371602,-9.46111,10.406218,1.1083735,-1.3631024,4.005786,0.8324038,0
1.9600000000000015,11.016892557808225,-1.2151863221703068,5.999989009290868,0.8685645668199615,12.356601,-1.6569145,3.5194507,1.2803562,0.6075264,0.0059013907,2.3305976,-0.31580135,-0.103239335,0.07288018,-0.9403715,-9.441822,10.382808,1.1171052,-1.3518625,4.3167777,0.8430771,0
1.9700000000000015,11.016892557808225,-1.2151863221703068,5.999989009290868,0.8685645668199615,12.356601,-1.6569145,3.5194507,1.2803562,0.5131847,0.10961982,2.3418126,-0.31406257,-0.079857245,0.07257222,-0.9432496,-9.42726,10.361136,1.1260264,-1.3306956,4.579284,0.84432775,0
1.9800000000000015,11.016892557808225,-1.2151863221703068,5.999989009290868,0.8685645668199615,12.356601,-1.6569145,3.5194507,1.2803562,0.41896456,0.21313012,2.3531215,-0.31221384,-0.055319984,0.07175111,-0.94568115,-9.417538,10.341209,1.1358306,-1.3128073,4.8008513,0.8455171,0
1.9900000000000015,11.016892557808225,-1.2151863221703068,5.999989009290868,0.8685645668199615,12.356601,-1.6569145,3.5194507,1.2803562,0.32481655,0.3164506,2.3645318,-0.31022945,-0.02980936,0.070488594,-0.94757545,-9.412876,10.323193,1.1463052,-1.2976902,4.9878635,0.846648,0
2.0000000000000013,,,,,12.275467,-1.4461263,1.7314146,0.949638,0.230689,0.41960105,2.376049,-0.30808696,-0.0034848074,0.06884542,-0.9488569,-9.413466,10.307226,1.1571975,-1.2849145,5.1457105,0.8477234,0
2.010000000000001,,,,,12.275467,-1.4461263,1.7314146,0.949638,0.13652946,0.5226046,2.38766,-0.30576164,0.023035046,0.06704202,-0.9494648,-9.419263,10.293813,1.1650245,-1.2792652,5.081695,0.83774406,0
2.020000000000001,,,,,12.275467,-1.4461263,1.7314146,0.949638,0.04228584,0.6254844,2.399349,-0.303248,0.049247995,0.065257914,-0.94939744,-9.430269,10.282476,1.1726813,-1.2745048,5.027662,0.82825434,0
2.0300000000000007,,,,,12.275467,-1.4461263,1.7314146,0.949638,-0.052093618,0.7282611,2.411112,-0.3005539,0.07518143,0.06348565,-0.9486746,-9.446421,10.273176,1.1798751,-1.2704934,4.982054,0.81923026,0
2.0400000000000005,,,,,12.275467,-1.4461263,1.7314146,0.949638,-0.14666003,0.8309548,2.4229436,-0.29768586,0.10085662,0.06171923,-0.94731236,-9.467648,10.265868,1.1863227,-1.2671134,4.9435577,0.81064904,0
2.0500000000000003,,,,,12.045317,-1.2123183,1.9329083,1.1770012,-0.24146378,0.93358517,2.4348347,-0.2946493,0.12628956,0.059953824,-0.9453238,-9.493874,10.260508,1.1917489,-1.2642655,4.911064,0.80248886,1
2.06,,,,,12.045317,-1.2123183,1.9329083,1.1770012,-0.3365735,1.0361689,2.4468389,-0.2913273,0.1504345,0.05849279,-0.9429079,-9.528903,10.256581,1.2088174,-1.2559755,4.4466114,0.8208663,1
2.07,,,,,12.045317,-1.2123183,1.9329083,1.1770012,-0.4320593,1.138723,2.4590056,-0.28764027,0.17247635,0.057572573,-0.94031864,-9.569007,10.25449,1.2242687,-1.249004,4.05459,0.8383419,1
2.0799999999999996,,,,,12.045317,-1.2123183,1.9329083,1.1770012,-0.52796954,1.2412641,2.471318,-0.28363973,0.19273758,0.05709937,-0.9376242,-9.613738,10.25393,1.2379984,-1.243143,3.7237048,0.85495996,1
2.0899999999999994,,,,,11.842229,-1.0527709,-3.9452074,0.6690471,-0.62434864,1.3438059,2.4837592,-0.27936652,0.21149082,0.056994047,-0.9348671,-9.66271,10.254642,1.2499367,-1.2382162,3.444421,0.87076265,1
2.099999999999999,,,,,11.842229,-1.0527709,-3.9452074,0.6690471,-0.7212344,1.4463601,2.4963055,-0.27479342,0.22678,0.057812203,-0.9325856,-9.714834,10.25631,1.2587258,-1.2137145,2.2971172,0.86133695,1
2.109999999999999,,,,,11.842229,-1.0527709,-3.9452074,0.6690471,-0.8186547,1.5489333,2.5089278,-0.26993543,0.23704253,0.059961163,-0.93131584,-9.769608,10.258326,1.2655977,-1.1880612,1.3236518,0.85190123,1
2.1199999999999988,,,,,11.842229,-1.0527709,-3.9452074,0.6690471,-0.9166332,1.6515257,2.5216138,-0.2648522,0.24307592,0.0632145,-0.931005,-9.826327,10.260062,1.271437,-1.166504,0.5019948,0.8429285,1
2.1299999999999986,,,,,11.868074,-0.6643145,-5.5200233,0.83983773,-1.0151854,1.7541319,2.5343547,-0.25957876,0.24554662,0.06738398,-0.93154925,-9.884224,10.260999,1.2766365,-1.1483876,-0.19152771,0.83439606,1
2.1399999999999983,,,,,11.868074,-0.6643145,-5.5200233,0.83983773,-1.11432,1.8567415,2.5471468,-0.25411096,0.24438193,0.07232317,-0.93299156,-9.942745,10.260696,1.281784,-1.0724452,-1.0224626,0.8346631,1
2.149999999999998,,,,,11.868074,-0.6643145,-5.5200233,0.83983773,-1.2140393,1.9593401,2.559991,-0.2484323,0.23954435,0.07790266,-0.9353234,-10.001018,10.258738,1.2870545,-1.008416,-1.72382,0.834917,1
2.159999999999998,,,,,11.868074,-0.6643145,-5.5200233,0.83983773,-1.3143371,2.0619092,2.5728898,-0.24254276,0.23158807,0.083999194,-0.9383405,-10.058331,10.254762,1.2928003,-0.95443153,-2.3158066,0.83515847,1
2.1699999999999977,,,,,11.879311,-1.1574515,-5.72668,0.6955686,-1.4152005,2.1644275,2.5858498,-0.23643896,0.22097635,0.090508714,-0.9418455,-10.114063,10.248482,1.2992886,-0.90891594,-2.8154778,0.83538806,1
2.1799999999999975,,,,,11.879311,-1.1574515,-5.72668,0.6955686,-1.5166112,2.26687,2.598879,-0.23008291,0.20806485,0.097552486,-0.94564956,-10.167714,10.239649,1.3068027,-0.94744235,-3.2694948,0.8285271,1
2.1899999999999973,,,,,11.879311,-1.1574515,-5.72668,0.6955686,-1.6185457,2.3692107,2.611989,-0.22344773,0.1931527,0.1052217,-0.9495737,-10.218734,10.228019,1.3153428,-0.9800018,-3.652705,0.82200277,1
2.199999999999997,,,,,11.879311,-1.1574515,-5.72668,0.6955686,-1.7209752,2.4714203,2.6251895,-0.21654513,0.17652509,0.11339406,-0.9534608,-10.266676,10.213375,1.3249338,-1.0075179,-3.9761508,0.81579864,1
