time-since-start [s],throttle_mpc,roll_mpc,pitch_mpc,yaw_mpc,throttle_nw,roll_nw,pitch_nw,yaw_nw,position_x [m],position_y [m],position_z [m],rotation_w [quaternion],rotation_x [quaternion],rotation_y [quaternion],rotation_z [quaternion],velocity_x [m/s],velocity_y [m/s],velocity_z [m/s],omega_x [rad/s],omega_y [rad/s],omega_z [rad/s],network_used
0.0,5.605038512389634,5.999998097066818,-5.999999889055123,-3.7289567442209326,12.861304,0.8111854,-2.8727202,-0.672089,19.27523,-9.437621,2.0794935,0.04212316,0.37861288,-0.27160698,-0.8838029,-10.215751,-3.4086874,0.6234132,0.96277606,0.033395592,-0.15465266,0
0.01,5.605038512389634,5.999998097066818,-5.999999889055123,-3.7289567442209326,14.034612,0.3724779,-2.313857,-0.48106605,19.172623,-9.4714155,2.0856044,0.039291847,0.3788581,-0.27550772,-0.88262004,-10.305461,-3.3501496,0.59846675,0.9809794,-0.14025687,-0.2614378,0
0.02,5.605038512389634,5.999998097066818,-5.999999889055123,-3.7289567442209326,14.034612,0.3724779,-2.313857,-0.48106605,19.069126,-9.504624,2.0914567,0.035706367,0.37848815,-0.27935982,-0.88171977,-10.393414,-3.2914774,0.5717691,1.0185807,-0.30909285,-0.3649726,0
0.03,5.605038512389634,5.999998097066818,-5.999999889055123,-3.7289567442209326,14.034612,0.3724779,-2.313857,-0.48106605,18.96476,-9.537245,2.097034,0.031350102,0.3775214,-0.28324267,-0.88106084,-10.479445,-3.2326205,0.5434454,1.0726242,-0.47393376,-0.46542257,0
0.04,5.605038512389634,5.999998097066818,-5.999999889055123,-3.7289567442209326,12.188559,1.0656118,-3.243185,-0.66467524,18.859543,-9.569276,2.1023204,0.026210118,0.3759706,-0.28722245,-0.8806034,-10.563401,-3.173518,0.5136037,1.1405658,-0.6354229,-0.56294084,0
0.05,5.605038512389634,5.999998097066818,-5.999999889055123,-3.7289567442209326,12.188559,1.0656118,-3.243185,-0.66467524,18.753498,-9.600715,2.107301,0.020276818,0.3738438,-0.29135355,-0.8803082,-10.645134,-3.1141021,0.4823377,1.2202132,-0.79405856,-0.65766895,0
0.060000000000000005,5.605038512389634,5.999998097066818,-5.999999889055123,-3.7289567442209326,12.188559,1.0656118,-3.243185,-0.66467524,18.646648,-9.631557,2.1119623,0.013543652,0.3711449,-0.29568014,-0.88013697,-10.7245035,-3.0543041,0.44972858,1.3096772,-0.95022166,-0.74973804,0
0.07,5.605038512389634,5.999998097066818,-5.999999889055123,-3.7289567442209326,12.188559,1.0656118,-3.243185,-0.66467524,18.539017,-9.6618,2.116291,0.0060068583,0.36787456,-0.3002374,-0.88005084,-10.8013735,-2.994056,0.4158465,1.4073273,-1.1041982,-0.83926964,0
0.08,5.8247978967506775,5.9999992766256565,-5.999999914822487,-4.284931426593377,13.845653,1.064297,-5.998807,-0.9872647,18.43063,-9.691437,2.120275,-0.0023347281,0.3640307,-0.30505243,-0.8800107,-10.875612,-2.9332943,0.38075212,1.5117567,-1.2561975,-0.9263765,0
0.09,5.8247978967506775,5.9999992766256565,-5.999999914822487,-4.284931426593377,13.845653,1.064297,-5.998807,-0.9872647,18.321484,-9.72044,2.123927,-0.011403904,0.3597874,-0.30996686,-0.8799677,-10.952855,-2.8670335,0.34947634,1.5501034,-1.3346679,-1.0320408,0
0.09999999999999999,5.8247978967506775,5.9999992766256565,-5.999999914822487,-4.284931426593377,13.845653,1.064297,-5.998807,-0.9872647,18.21158,-9.7487755,2.1272614,-0.021136906,0.35529438,-0.3148472,-0.87988067,-11.027308,-2.7999501,0.3172137,1.6016189,-1.4200735,-1.1342326,0
0.10999999999999999,5.8247978967506775,5.9999992766256565,-5.999999914822487,-4.284931426593377,13.845653,1.064297,-5.998807,-0.9872647,18.100946,-9.776436,2.1302683,-0.031550284,0.35051176,-0.31974554,-0.8797207,-11.098876,-2.7320867,0.28397503,1.6645247,-1.51161,-1.2331471,0
0.11999999999999998,5.8247978967506775,5.9999992766256565,-5.999999914822487,-4.284931426593377,13.845653,1.064297,-5.998807,-0.9872647,17.989613,-9.803415,2.1329377,-0.042656396,0.3454016,-0.32470444,-0.87945706,-11.167457,-2.6634805,0.24977106,1.7372508,-1.6085283,-1.3289636,0
0.12999999999999998,8.030405016842002,5.999999616258076,-5.999999936912702,-4.248801568043218,14.110981,1.4761946,-5.962276,-0.88974243,17.877607,-9.829704,2.1352603,-0.054463685,0.3399276,-0.32975802,-0.8790575,-11.232948,-2.5941665,0.2146123,1.81841,-1.7101337,-1.421847,0
0.13999999999999999,8.030405016842002,5.999999616258076,-5.999999936912702,-4.248801568043218,14.110981,1.4761946,-5.962276,-0.88974243,17.76492,-9.855247,2.1372707,-0.06709483,0.33390468,-0.33506253,-0.8784866,-11.304034,-2.5142918,0.18726268,1.9713202,-1.8804647,-1.5159471,0
0.15,8.030405016842002,5.999999616258076,-5.999999936912702,-4.248801568043218,14.110981,1.4761946,-5.962276,-0.88974243,17.651539,-9.879988,2.1390016,-0.08065868,0.32715902,-0.34074858,-0.8776966,-11.371142,-2.4337964,0.15871117,2.125745,-2.049627,-1.6076984,0
0.16,10.91791120024497,5.9999997439135635,-5.999999950318974,-3.7088463259075937,12.760135,3.0757349,-5.3077965,-0.28710186,17.537508,-9.90392,2.1404412,-0.0951378,0.31967315,-0.34680194,-0.87663335,-11.434094,-2.3526654,0.12898788,2.2811358,-2.2174888,-1.6971881,0
0.17,10.91791120024497,5.9999997439135635,-5.999999950318974,-3.7088463259075937,12.760135,3.0757349,-5.3077965,-0.28710186,17.422836,-9.9269905,2.1416173,-0.11074187,0.31103638,-0.35351378,-0.8752259,-11.499553,-2.2613175,0.10599238,2.5902193,-2.5374415,-1.771702,0
0.18000000000000002,10.91791120024497,5.9999997439135635,-5.999999950318974,-3.7088463259075937,12.760135,3.0757349,-5.3077965,-0.28710186,17.307535,-9.949146,2.1425552,-0.12764649,0.30087152,-0.36111492,-0.8733719,-11.5594635,-2.1696503,0.08137238,2.8853366,-2.8417568,-1.8456217,0
0.19000000000000003,10.91791120024497,5.9999997439135635,-5.999999950318974,-3.7088463259075937,12.760135,3.0757349,-5.3077965,-0.28710186,17.191666,-9.970383,2.1432393,-0.1457792,0.28920957,-0.3694968,-0.8709639,-11.613495,-2.0775995,0.055186257,3.1674633,-3.1316676,-1.9188687,0
0.20000000000000004,14.161442142774069,5.999999777470538,-5.999999953872655,-2.8361601584276905,12.8798895,3.7527118,-5.6924696,-0.53154016,17.075289,-9.990697,2.1436536,-0.1650654,0.2760781,-0.3785513,-0.8678899,-11.661342,-1.9851792,0.027470183,3.4374948,-3.4082878,-1.9913746,0
0.21000000000000005,14.161442142774069,5.999999777470538,-5.999999953872655,-2.8361601584276905,12.8798895,3.7527118,-5.6924696,-0.53154016,16.958431,-10.0100155,2.1438353,-0.1856046,0.26108435,-0.38844678,-0.8639992,-11.709066,-1.8781576,0.00886466,3.836489,-3.8130844,-2.0328286,0
0.22000000000000006,14.161442142774069,5.999999777470538,-5.999999953872655,-2.8361601584276905,12.8798895,3.7527118,-5.6924696,-0.53154016,16.841133,-10.02825,2.1438315,-0.20736566,0.24400353,-0.39920658,-0.8591248,-11.74977,-1.7683514,-0.009639164,4.173329,-4.154685,-2.0722482,0
0.23000000000000007,14.161442142774069,5.999999777470538,-5.999999953872655,-2.8361601584276905,12.8798895,3.7527118,-5.6924696,-0.53154016,16.723463,-10.045373,2.1436427,-0.23009492,0.22509216,-0.4105371,-0.85314053,-11.782642,-1.6559544,-0.028145265,4.4577007,-4.442953,-2.1097336,0
0.24000000000000007,14.161442142774069,5.999999777470538,-5.999999953872655,-2.8361601584276905,13.650225,3.465554,-5.812983,-0.35512727,16.605509,-10.061361,2.1432683,-0.25356534,0.20457716,-0.42218634,-0.845938,-11.806971,-1.5413065,-0.04679662,4.697779,-4.6862125,-2.1453798,0
0.25000000000000006,14.161442142774069,5.999999777470538,-5.999999953872655,-2.8361601584276905,13.650225,3.465554,-5.812983,-0.35512727,16.487356,-10.076193,2.1427057,-0.2775728,0.18266164,-0.4339384,-0.83742774,-11.822148,-1.4248757,-0.06576992,4.9004655,-4.8914876,-2.1792767,0
0.26000000000000006,14.161442142774069,5.999999777470538,-5.999999953872655,-2.8361601584276905,13.650225,3.465554,-5.812983,-0.35512727,16.3691,-10.089854,2.1419508,-0.3019331,0.15952893,-0.4456085,-0.8275383,-11.827665,-1.3072386,-0.085269764,5.0715857,-5.064709,-2.2115102,0
0.2700000000000001,14.161442142774069,5.999999777470538,-5.999999953872655,-2.8361601584276905,13.650225,3.465554,-5.812983,-0.35512727,16.250837,-10.102336,2.1409974,-0.32647946,0.13534588,-0.4570386,-0.8162157,-11.823124,-1.1890624,-0.1055226,5.2160573,-5.2108793,-2.242162,0
0.2800000000000001,19.391512556814988,5.999999656924516,-5.999999932703112,-1.1866698969460603,14.398897,1.620938,-5.8602324,0.06977584,16.132673,-10.113636,2.1398368,-0.35106048,0.110265315,-0.46809378,-0.8034214,-11.808234,-1.0710875,-0.12677075,5.338032,-5.334222,-2.2713096,0
0.2900000000000001,19.391512556814988,5.999999656924516,-5.999999932703112,-1.1866698969460603,14.398897,1.620938,-5.8602324,0.06977584,16.014755,-10.123545,2.1385975,-0.37537566,0.08433227,-0.4786813,-0.7892053,-11.773429,-0.91090924,-0.12134509,5.441301,-5.438014,-2.218086,0
0.3000000000000001,19.391512556814988,5.999999656924516,-5.999999932703112,-1.1866698969460603,14.398897,1.620938,-5.8602324,0.06977584,15.897256,-10.131864,2.1374025,-0.39915332,0.057585366,-0.48872018,-0.77363604,-11.724109,-0.75324184,-0.11798562,5.5284853,-5.525599,-2.1674743,0
0.3100000000000001,19.391512556814988,5.999999656924516,-5.999999932703112,-1.1866698969460603,14.398897,1.620938,-5.8602324,0.06977584,15.780322,-10.138623,2.1362293,-0.42230383,0.030151878,-0.49811968,-0.7567211,-11.660331,-0.5992584,-0.11705889,5.602089,-5.5995097,-2.119346,0
0.3200000000000001,20.999999073465577,5.194177330256369,-5.999999789234659,0.1963859693126812,14.9728985,0.6226704,-3.6033766,0.3621322,15.664098,-10.143866,2.135052,-0.4447468,0.0021509607,-0.5068024,-0.73847586,-11.5822935,-0.45014232,-0.1189348,5.6642256,-5.661883,-2.0735793,0
0.3300000000000001,20.999999073465577,5.194177330256369,-5.999999789234659,0.1963859693126812,14.9728985,0.6226704,-3.6033766,0.3621322,15.548761,-10.147587,2.133879,-0.4662902,-0.026246468,-0.5144699,-0.71916956,-11.482732,-0.2952042,-0.11623955,5.591266,-5.714107,-1.9621913,0
0.34000000000000014,20.999999073465577,5.194177330256369,-5.999999789234659,0.1963859693126812,14.9728985,0.6226704,-3.6033766,0.3621322,15.434492,-10.1497965,2.1327147,-0.4867852,-0.054895516,-0.5208984,-0.6990644,-11.368763,-0.14805983,-0.11719287,5.5296817,-5.7582316,-1.8562694,0
0.35000000000000014,20.999999073465577,5.194177330256369,-5.999999789234659,0.1963859693126812,14.9728985,0.6226704,-3.6033766,0.3621322,15.321433,-10.150579,2.131522,-0.5062227,-0.0837257,-0.526127,-0.6781729,-11.241169,-0.00988197,-0.12199462,5.477695,-5.7955127,-1.7555449,0
0.36000000000000015,20.99999921160787,2.1626997411259024,-5.999999110620406,2.603206916102307,15.083737,-1.2206335,-0.31467503,0.40755635,15.209712,-10.15003,2.1302612,-0.5245934,-0.11267024,-0.5301886,-0.656511,-11.10082,0.11824317,-0.13085328,5.4338083,-5.8270125,-1.6597631,0
0.37000000000000016,20.99999921160787,2.1626997411259024,-5.999999110620406,2.603206916102307,15.083737,-1.2206335,-0.31467503,0.40755635,15.099504,-10.148215,2.1289182,-0.54164004,-0.1411228,-0.5327305,-0.63475037,-10.939328,0.24261528,-0.13866708,5.059429,-5.718035,-1.4626638,0
0.38000000000000017,20.99999921160787,2.1626997411259024,-5.999999110620406,2.603206916102307,15.083737,-1.2206335,-0.31467503,0.40755635,14.990955,-10.145226,2.1274688,-0.5572863,-0.16863523,-0.53340507,-0.6135736,-10.7693205,0.35300368,-0.15204681,4.7095203,-5.6600094,-1.2722136,0
0.3900000000000002,20.99999921160787,2.1626997411259024,-5.999999110620406,2.603206916102307,15.083737,-1.2206335,-0.31467503,0.40755635,14.884142,-10.141203,2.1258595,-0.57176965,-0.19535577,-0.53223336,-0.5929947,-10.592599,0.44927546,-0.17057593,4.379773,-5.6454906,-1.0880399,0
0.4000000000000002,20.999991101493034,-1.1608060587428328,-2.605167196945218,3.081321285062197,16.41976,-1.6881752,0.49232846,0.6483734,14.779122,-10.136289,2.1240408,-0.5852932,-0.22139809,-0.52922314,-0.57300705,-10.410793,0.53139836,-0.1938135,4.066696,-5.668047,-0.90980154,0
0.4100000000000002,20.999991101493034,-1.1608060587428328,-2.605167196945218,3.081321285062197,16.41976,-1.6881752,0.49232846,0.6483734,14.675965,-10.130612,2.1219788,-0.5974934,-0.24532966,-0.52462286,-0.5546038,-10.219994,0.6015865,-0.21917959,3.3141012,-5.127858,-0.71949404,0
0.4200000000000002,20.999991101493034,-1.1608060587428328,-2.605167196945218,3.081321285062197,16.41976,-1.6881752,0.49232846,0.6483734,14.57473,-10.124301,2.1196456,-0.6082112,-0.26606855,-0.51876295,-0.53867537,-10.026943,0.6587392,-0.24795476,2.6474607,-4.7033587,-0.53573555,0
0.4300000000000002,20.999991101493034,-1.1608060587428328,-2.605167196945218,3.081321285062197,16.41976,-1.6881752,0.49232846,0.6483734,14.47543,-10.117476,2.117011,-0.61785406,-0.28415662,-0.5117228,-0.5250245,-9.832821,0.70428514,-0.27919358,2.0574114,-4.372474,-0.35854542,0
0.4400000000000002,20.999991101493034,-1.1608060587428328,-2.605167196945218,3.081321285062197,16.317453,-2.968189,2.7175014,0.8718819,14.378081,-10.110249,2.1140585,-0.62667966,-0.30004287,-0.5036316,-0.51342154,-9.636628,0.73977387,-0.31140506,1.5560489,-4.096572,-0.1897502,0
0.45000000000000023,20.999991101493034,-1.1608060587428328,-2.605167196945218,3.081321285062197,16.317453,-2.968189,2.7175014,0.8718819,14.282703,-10.102712,2.1107821,-0.634831,-0.31410217,-0.49465954,-0.50362766,-9.438916,0.76606995,-0.34383762,1.1327913,-3.8638146,-0.02923774,0
0.46000000000000024,20.999991101493034,-1.1608060587428328,-2.605167196945218,3.081321285062197,16.317453,-2.968189,2.7175014,0.8718819,14.189306,-10.094955,2.107183,-0.6424105,-0.32664594,-0.48493823,-0.49542463,-9.240365,0.78386563,-0.3759447,0.77547574,-3.667443,0.12339828,0
0.47000000000000025,20.999991101493034,-1.1608060587428328,-2.605167196945218,3.081321285062197,16.317453,-2.968189,2.7175014,0.8718819,14.097897,-10.087062,2.103266,-0.64949244,-0.33793217,-0.4745678,-0.4886167,-9.041521,0.7937613,-0.40726984,0.47383267,-3.5017595,0.2685444,0
0.48000000000000026,18.353817626878147,-4.532926432511855,2.447686105661968,3.6063109714426864,16.957731,-3.3699734,3.0209424,1.0894922,14.008475,-10.079106,2.0990412,-0.6561305,-0.34817454,-0.4636251,-0.48303056,-8.842839,0.7962728,-0.4374363,0.2191906,-3.36196,0.40656817,0
0.49000000000000027,18.353817626878147,-4.532926432511855,2.447686105661968,3.6063109714426864,16.957731,-3.3699734,3.0209424,1.0894922,13.920913,-10.071157,2.0944784,-0.66188943,-0.3557244,-0.45283657,-0.47989693,-8.669672,0.7925888,-0.4748234,-0.5219614,-2.4562728,0.5635731,0
0.5000000000000002,18.353817626878147,-4.532926432511855,2.447686105661968,3.6063109714426864,16.957731,-3.3699734,3.0209424,1.0894922,13.835079,-10.063268,2.0895512,-0.6664901,-0.35930383,-0.44281736,-0.48021242,-8.497346,0.784606,-0.5102747,-1.1475807,-1.6918408,0.7128811,0
0.5100000000000002,18.353817626878147,-4.532926432511855,2.447686105661968,3.6063109714426864,16.957731,-3.3699734,3.0209424,1.0894922,13.750963,-10.055472,2.084282,-0.6701352,-0.35955557,-0.43344328,-0.4834924,-8.32612,0.7740233,-0.5431422,-1.6757227,-1.0466812,0.8548625,0
0.5200000000000002,15.708586778348565,-5.999999338125197,5.999999405937734,3.6909318483727374,14.907936,-4.8900423,5.093844,1.3524265,13.668551,-10.047791,2.078699,-0.6729522,-0.3570023,-0.42458254,-0.4892993,-8.156205,0.7622597,-0.5728621,-2.1215582,-0.50216895,0.9898769,0
0.5300000000000002,15.708586778348565,-5.999999338125197,5.999999405937734,3.6909318483727374,14.907936,-4.8900423,5.093844,1.3524265,13.587737,-10.04022,2.0727968,-0.674744,-0.35094547,-0.4165948,-0.49800205,-8.007151,0.75194937,-0.6071994,-2.7826092,0.45562726,1.1174302,0
0.5400000000000003,15.708586778348565,-5.999999338125197,5.999999405937734,3.6909318483727374,14.907936,-4.8900423,5.093844,1.3524265,13.508395,-10.032746,2.0665646,-0.67524433,-0.3408352,-0.40982732,-0.50982106,-7.8619576,0.74342436,-0.63880587,-3.314339,1.2903461,1.2410746,0
0.5500000000000003,15.708586778348565,-5.999999338125197,5.999999405937734,3.6909318483727374,14.907936,-4.8900423,5.093844,1.3524265,13.430485,-10.025341,2.0600317,-0.67440414,-0.32725585,-0.4041304,-0.52417636,-7.7207017,0.73810005,-0.6672754,-3.738857,2.0192344,1.3608321,0
0.5600000000000003,13.78622936861687,-5.99999979012502,5.999999815840855,2.268391386176165,14.196649,-6.5588083,5.0466223,0.21411815,13.353972,-10.017968,2.0532339,-0.6721897,-0.31068042,-0.39930314,-0.5405508,-7.5820575,0.7371062,-0.69155914,-4.0922246,2.6394162,1.4751709,0
0.5700000000000003,13.78622936861687,-5.99999979012502,5.999999815840855,2.268391386176165,14.196649,-6.5588083,5.0466223,0.21411815,13.27875,-10.010582,2.0461688,-0.6687014,-0.291424,-0.3951384,-0.5583688,-7.462679,0.7409217,-0.7208384,-4.390324,3.1631002,1.5140944,0
0.5800000000000003,13.78622936861687,-5.99999979012502,5.999999815840855,2.268391386176165,14.196649,-6.5588083,5.0466223,0.21411815,13.20471,-10.00313,2.0388315,-0.6640279,-0.26975256,-0.39145276,-0.57711774,-7.346085,0.75015527,-0.745986,-4.6418743,3.6051538,1.551108,0
0.5900000000000003,13.78622936861687,-5.99999979012502,5.999999815840855,2.268391386176165,14.196649,-6.5588083,5.0466223,0.21411815,13.131818,-9.995556,2.031263,-0.6581541,-0.2459627,-0.38804048,-0.596456,-7.2328386,0.7653798,-0.76698846,-4.854141,3.9783034,1.5863053,0
0.6000000000000003,17.052570069074374,-5.99999984001638,5.999999868342151,2.1236491520584475,15.353588,-7.659759,5.2087135,-1.7709376,13.0600395,-9.987799,2.0235052,-0.65106374,-0.22031714,-0.38472798,-0.6160847,-7.12356,0.787023,-0.7839114,-5.033256,4.2932916,1.6197754,0
0.6100000000000003,17.052570069074374,-5.99999984001638,5.999999868342151,2.1236491520584475,15.353588,-7.659759,5.2087135,-1.7709376,12.989456,-9.979759,2.0156984,-0.6427544,-0.19304457,-0.38137418,-0.63573104,-6.9941216,0.8220957,-0.7767294,-5.184373,4.5592093,1.6445006,0
0.6200000000000003,17.052570069074374,-5.99999984001638,5.999999868342151,2.1236491520584475,15.353588,-7.659759,5.2087135,-1.7709376,12.920135,-9.971328,2.0079868,-0.633228,-0.16435193,-0.37786227,-0.65515673,-6.8712697,0.86567533,-0.7649379,-5.3118834,4.7836823,1.6680125,0
0.6300000000000003,17.052570069074374,-5.99999984001638,5.999999868342151,2.1236491520584475,15.353588,-7.659759,5.2087135,-1.7709376,12.852005,-9.962418,2.0004144,-0.622481,-0.13443457,-0.37409317,-0.67416507,-6.7558737,0.9178206,-0.74888074,-5.4194736,4.973171,1.6903708,0
0.6400000000000003,17.052570069074374,-5.99999984001638,5.999999868342151,2.1236491520584475,16.76615,-7.230174,4.9393325,-1.13459,12.784989,-9.952943,1.9930222,-0.61051565,-0.10347189,-0.3699866,-0.6925847,-6.6487985,0.9784522,-0.7289761,-5.510254,5.133128,1.711632,0
0.6500000000000004,17.052570069074374,-5.99999984001638,5.999999868342151,2.1236491520584475,16.76615,-7.230174,4.9393325,-1.13459,12.718999,-9.94282,1.9858463,-0.5973402,-0.07162962,-0.36547846,-0.71026665,-6.5508842,1.047362,-0.70570827,-5.5868497,5.268157,1.7318498,0
0.6600000000000004,17.052570069074374,-5.99999984001638,5.999999868342151,2.1236491520584475,16.76615,-7.230174,4.9393325,-1.13459,12.653937,-9.931968,1.9789177,-0.58296865,-0.0390615,-0.36051863,-0.7270815,-6.462934,1.1242219,-0.67961985,-5.6514754,5.382144,1.7510755,0
0.6700000000000004,17.052570069074374,-5.99999984001638,5.999999868342151,2.1236491520584475,16.76615,-7.230174,4.9393325,-1.13459,12.589703,-9.920309,1.9722617,-0.56741995,-0.0059107402,-0.35506877,-0.74291664,-6.385699,1.208593,-0.65130293,-5.7060027,5.4783683,1.7693578,0
0.6800000000000004,20.911639137639035,-5.999999702742116,5.999999809177291,2.109084252426826,18.44759,-4.9613347,5.5806684,0.63694566,12.526184,-9.907772,1.9658971,-0.55071807,0.027688779,-0.3491006,-0.75767475,-6.319865,1.2999352,-0.6213906,-5.7520075,5.5595984,1.7867429,0
0.6900000000000004,20.911639137639035,-5.999999702742116,5.999999809177291,2.109084252426826,18.44759,-4.9613347,5.5806684,0.63694566,12.463326,-9.894179,1.9599828,-0.5328927,0.06161213,-0.34259436,-0.7712702,-6.2538643,1.4197218,-0.56136835,-5.7908196,5.6281743,1.8025602,0
0.7000000000000004,20.911639137639035,-5.999999702742116,5.999999809177291,2.109084252426826,18.44759,-4.9613347,5.5806684,0.63694566,12.401052,-9.8793545,1.9546707,-0.51397735,0.09574178,-0.33553743,-0.78362924,-6.203242,1.5464058,-0.5010519,-5.8235645,5.6860647,1.8176014,0
0.7100000000000004,20.911639137639035,-5.999999702742116,5.999999809177291,2.109084252426826,18.44759,-4.9613347,5.5806684,0.63694566,12.339206,-9.863231,1.9499598,-0.49400765,0.12996627,-0.32792336,-0.79468924,-6.168534,1.6790224,-0.44130686,-5.851191,5.7349358,1.8319045,0
0.7200000000000004,20.99999937664406,-5.848352215218424,5.999999533873186,0.5545539475141062,20.034628,-3.036529,5.558613,1.2422926,12.277625,-9.845757,1.9458398,-0.47302225,0.1641802,-0.31975096,-0.80439645,-6.150156,1.8165308,-0.3830089,-5.874498,5.7761927,1.8455057,0
0.7300000000000004,20.99999937664406,-5.848352215218424,5.999999533873186,0.5545539475141062,20.034628,-3.036529,5.558613,1.2422926,12.216145,-9.826885,1.942295,-0.45122948,0.198317,-0.31104046,-0.8125981,-6.1483884,1.9584252,-0.3263852,-5.8702226,5.8113422,1.7821584,0
0.7400000000000004,20.99999937664406,-5.848352215218424,5.999999533873186,0.5545539475141062,20.034628,-3.036529,5.558613,1.2422926,12.154599,-9.806581,1.9393011,-0.4288358,0.23231831,-0.30180264,-0.81917197,-6.1634398,2.1029835,-0.27298328,-5.866617,5.8409977,1.7219193,0
0.7500000000000004,20.99999937664406,-5.848352215218424,5.999999533873186,0.5545539475141062,20.034628,-3.036529,5.558613,1.2422926,12.092819,-9.784821,1.9368213,-0.40587893,0.2660976,-0.2920294,-0.8241193,-6.1953044,2.2490408,-0.22367837,-5.863578,5.866017,1.6646364,0
0.7600000000000005,20.99999956620769,-2.8242247084101817,5.52116376704919,1.0637641608460797,20.911125,-2.7984076,5.185999,0.5987587,12.030637,-9.761597,1.9348105,-0.38239622,0.29957157,-0.28171784,-0.82744455,-6.2438507,2.3954165,-0.17932233,-5.8610177,5.887122,1.6101642,1
0.7700000000000005,20.99999956620769,-2.8242247084101817,5.52116376704919,1.0637641608460797,20.911125,-2.7984076,5.185999,0.5987587,11.967888,-9.7369175,1.9332122,-0.35890067,0.3319418,-0.27176878,-0.8289427,-6.3084426,2.5403595,-0.14131838,-5.3831043,5.7784576,1.5605341,1
0.7800000000000005,20.99999956620769,-2.8242247084101817,5.52116376704919,1.0637641608460797,20.911125,-2.7984076,5.185999,0.5987587,11.904416,-9.710795,1.9319619,-0.335886,0.36263517,-0.26293993,-0.82857615,-6.3882356,2.6837034,-0.109832376,-4.979754,5.6866274,1.5133394,1
0.7900000000000005,20.99999956620769,-2.8242247084101817,5.52116376704919,1.0637641608460797,20.911125,-2.7984076,5.185999,0.5987587,11.8400755,-9.68325,1.930991,-0.3133439,0.39187562,-0.25503096,-0.82656384,-6.482041,2.8248491,-0.08551105,-4.6393332,5.609026,1.4684607,1
0.8000000000000005,20.999999142874227,0.11913890194807163,1.7361057122474797,0.49271815616335585,21.059338,-0.12926322,4.6401005,0.7206957,11.77473,-9.654307,1.9302254,-0.29125312,0.41984475,-0.24786611,-0.8230819,-6.5887713,2.9632585,-0.06888807,-4.3520246,5.543451,1.4257841,0
0.8100000000000005,20.999999142874227,0.11913890194807163,1.7361057122474797,0.49271815616335585,21.059338,-0.12926322,4.6401005,0.7206957,11.708255,-9.623994,1.929588,-0.27044693,0.4452438,-0.24186532,-0.8186068,-6.7077947,3.0990586,-0.05986089,-3.6540499,4.950455,1.3799983,0
0.8200000000000005,20.999999142874227,0.11913890194807163,1.7361057122474797,0.49271815616335585,21.059338,-0.12926322,4.6401005,0.7206957,11.640539,-9.592339,1.9290013,-0.25163862,0.4671486,-0.2374113,-0.81368643,-6.836888,3.2315688,-0.058642782,-3.065046,4.449796,1.3364592,0
0.8300000000000005,20.999999142874227,0.11913890194807163,1.7361057122474797,0.49271815616335585,21.059338,-0.12926322,4.6401005,0.7206957,11.571488,-9.559375,1.9283898,-0.23461688,0.4861827,-0.23429649,-0.80850846,-6.974343,3.3609195,-0.06473561,-2.567997,4.0271,1.2950565,0
0.8400000000000005,20.999999142874227,0.11913890194807163,1.7361057122474797,0.49271815616335585,19.773159,0.916961,3.4528425,0.3253093,11.501028,-9.525131,1.927683,-0.21917923,0.5028551,-0.23233049,-0.8031931,-7.1187754,3.4873176,-0.07765569,-2.1485438,3.6702302,1.2556854,0
0.8500000000000005,20.999999142874227,0.11913890194807163,1.7361057122474797,0.49271815616335585,19.773159,0.916961,3.4528425,0.3253093,11.429092,-9.489637,1.9268148,-0.20513776,0.5175812,-0.23134226,-0.7978147,-7.2690616,3.6110055,-0.09695452,-1.7945709,3.368938,1.2182465,0
0.8600000000000005,20.999999142874227,0.11913890194807163,1.7361057122474797,0.49271815616335585,19.773159,0.916961,3.4528425,0.3253093,11.355629,-9.45292,1.9257234,-0.19232158,0.53070027,-0.2311804,-0.7924169,-7.424288,3.7322347,-0.12222814,-1.4958545,3.1145706,1.1826446,0
0.8700000000000006,20.999999142874227,0.11913890194807163,1.7361057122474797,0.49271815616335585,19.773159,0.916961,3.4528425,0.3253093,11.280592,-9.415002,1.9243509,-0.18057752,0.5424897,-0.2317124,-0.787023,-7.583709,3.851248,-0.15312007,-1.2437675,2.8998218,1.1487896,0
0.8800000000000006,20.99999836032605,2.1730467456565674,-2.2796982357894264,0.39712298914047406,18.630192,1.1185343,-0.3768791,0.06044586,11.203942,-9.375904,1.9226427,-0.16976966,0.5531766,-0.23282322,-0.7816435,-7.746714,3.9682713,-0.18932001,-1.03103,2.718522,1.1165961,0
0.8900000000000006,20.99999836032605,2.1730467456565674,-2.2796982357894264,0.39712298914047406,18.630192,1.1185343,-0.3768791,0.06044586,11.125647,-9.335644,1.9205475,-0.16062266,0.56156826,-0.23478517,-0.7769921,-7.9127126,4.083573,-0.230432,-0.530744,1.9394288,1.0812914,0
0.9000000000000006,20.99999836032605,2.1730467456565674,-2.2796982357894264,0.39712298914047406,18.630192,1.1185343,-0.3768791,0.06044586,11.04568,-9.294237,1.9180211,-0.15372027,0.566769,-0.2378301,-0.77367896,-8.080727,4.1977844,-0.275375,-0.108597256,1.2817581,1.0477191,0
0.9100000000000006,20.99999836032605,2.1730467456565674,-2.2796982357894264,0.39712298914047406,18.630192,1.1185343,-0.3768791,0.06044586,10.964028,-9.25169,1.915031,-0.14875273,0.5693279,-0.24180171,-0.7715372,-8.249811,4.311627,-0.32297954,0.24761835,0.7265889,1.0157942,0
0.9200000000000006,20.999986402874008,3.2512510470652094,-5.999995423735218,0.44231439188949834,17.637484,2.0218835,-3.9224036,0.013961397,10.880683,-9.208004,1.9115556,-0.14544876,0.5696856,-0.2465582,-0.7703969,-8.419198,4.4257526,-0.37226465,0.5482034,0.25794828,0.9854358,0
0.9300000000000006,20.999986402874008,3.2512510470652094,-5.999995423735218,0.44231439188949834,17.637484,2.0218835,-3.9224036,0.013961397,10.795645,-9.163172,1.9075829,-0.14418358,0.56698596,-0.2520934,-0.7708348,-8.588187,4.5407786,-0.42229086,0.97035646,-0.7177204,0.95878464,0
0.9400000000000006,20.999986402874008,3.2512510470652094,-5.999995423735218,0.44231439188949834,17.637484,2.0218835,-3.9224036,0.013961397,10.708922,-9.117182,1.9031123,-0.14524093,0.56054324,-0.25838792,-0.77326024,-8.755807,4.657483,-0.47157398,1.32655,-1.5412875,0.9334412,0
0.9500000000000006,20.999986402874008,3.2512510470652094,-5.999995423735218,0.44231439188949834,17.637484,2.0218835,-3.9224036,0.013961397,10.620537,-9.070013,1.898159,-0.14827198,0.5508939,-0.26529652,-0.7772699,-8.921052,4.7766004,-0.51865333,1.6270938,-2.2364633,0.9093415,0
0.9600000000000006,20.822108133769504,3.44742347684501,-5.999999533411244,-0.14736422607719235,17.71502,2.2183757,-5.9155884,0.092611484,10.530514,-9.021639,1.892751,-0.15297218,0.5384684,-0.272684,-0.7824923,-9.082989,4.898717,-0.56234276,1.8806858,-2.823262,0.8864243,0
0.9700000000000006,20.822108133769504,3.44742347684501,-5.999999533411244,-0.14736422607719235,17.71502,2.2183757,-5.9155884,0.092611484,10.438898,-8.972032,1.8869247,-0.15917546,0.5236257,-0.28044957,-0.78856,-9.23938,5.0232186,-0.60219604,2.1251948,-3.3186011,0.83569604,0
0.9800000000000006,20.822108133769504,3.44742347684501,-5.999999533411244,-0.14736422607719235,17.71502,2.2183757,-5.9155884,0.092611484,10.345743,-8.921161,1.8807244,-0.16673684,0.50666505,-0.2884959,-0.7951472,-9.390702,5.1514745,-0.63703626,2.3315063,-3.7367246,0.787457,0
0.9900000000000007,20.822108133769504,3.44742347684501,-5.999999533411244,-0.14736422607719235,17.71502,2.2183757,-5.9155884,0.092611484,10.251104,-8.868988,1.8742031,-0.17543729,0.48783225,-0.2967126,-0.8019992,-9.536077,5.2836914,-0.6663336,2.5055923,-4.0896664,0.741585,0
1.0000000000000007,20.442726530262398,2.5473456809159885,-5.9999995798679,-0.2344832270039503,17.650064,2.4502883,-5.804001,-0.13087733,10.155045,-8.815473,1.8674182,-0.18508604,0.4673372,-0.305003,-0.80889547,-9.674643,5.4199443,-0.68971866,2.6524894,-4.387586,0.697964,0
1.0100000000000007,20.442726530262398,2.5473456809159885,-5.9999995798679,-0.2344832270039503,17.650064,2.4502883,-5.804001,-0.13087733,10.05765,-8.760588,1.8604225,-0.19536021,0.4454343,-0.31298685,-0.8157582,-9.8032,5.5576086,-0.7084268,2.6360686,-4.639127,0.65220857,0
1.0200000000000007,20.442726530262398,2.5473456809159885,-5.9999995798679,-0.2344832270039503,17.650064,2.4502883,-5.804001,-0.13087733,9.959009,-8.704308,1.8532709,-0.20600337,0.4223511,-0.32035798,-0.8225281,-9.923617,5.698861,-0.72092277,2.6221852,-4.8514338,0.60869837,0
1.0300000000000007,20.442726530262398,2.5473456809159885,-5.9999995798679,-0.2344832270039503,17.650064,2.4502883,-5.804001,-0.13087733,9.859207,-8.6466,1.8460257,-0.21694808,0.39822134,-0.3271396,-0.8290552,-10.035304,5.843292,-0.72712266,2.6104496,-5.0306273,0.5673232,0
1.0400000000000007,20.442726530262398,2.5473456809159885,-5.9999995798679,-0.2344832270039503,16.97756,1.7183329,-6.1554537,-0.25701964,9.758335,-8.587433,1.8387499,-0.22813201,0.37316352,-0.3333523,-0.8352129,-10.137699,5.990452,-0.72704375,2.6005316,-5.181871,0.5279783,0
1.0500000000000007,20.442726530262398,2.5473456809159885,-5.9999995798679,-0.2344832270039503,16.97756,1.7183329,-6.1554537,-0.25701964,9.656487,-8.526783,1.831506,-0.23949757,0.34728333,-0.33901447,-0.84089476,-10.230272,6.1398525,-0.72079295,2.5921516,-5.309524,0.49056405,0
1.0600000000000007,20.442726530262398,2.5473456809159885,-5.9999995798679,-0.2344832270039503,16.97756,1.7183329,-6.1554537,-0.25701964,9.553765,-8.46463,1.8243548,-0.25099164,0.32067567,-0.34414262,-0.8460117,-10.312534,6.2909746,-0.7085572,2.585073,-5.417266,0.45498577,0
1.0700000000000007,20.442726530262398,2.5473456809159885,-5.9999995798679,-0.2344832270039503,16.97756,1.7183329,-6.1554537,-0.25701964,9.450274,-8.400959,1.8173547,-0.2625651,0.29342648,-0.3487517,-0.8504895,-10.38404,6.443273,-0.69059426,2.5790946,-5.5082016,0.42115328,0
1.0800000000000007,20.36651169427374,1.1460987068172397,-5.999999253801486,-0.10049925746878048,18.731855,0.9015786,-6.097715,-0.23024984,9.346124,-8.335762,1.8105615,-0.27417263,0.2656139,-0.35285532,-0.8542666,-10.444394,6.5961804,-0.6672247,2.5740473,-5.5849524,0.38898098,0
1.0900000000000007,20.36651169427374,1.1460987068172397,-5.999999253801486,-0.10049925746878048,18.731855,0.9015786,-6.097715,-0.23024984,9.241427,-8.269039,1.8040252,-0.28561565,0.23746063,-0.35599223,-0.8574995,-10.493103,6.748514,-0.6392719,2.3512874,-5.6497717,0.36496204,0
1.1000000000000008,20.36651169427374,1.1460987068172397,-5.999999253801486,-0.10049925746878048,18.731855,0.9015786,-6.097715,-0.23024984,9.136301,-8.200795,1.7977926,-0.2967527,0.20916253,-0.3578033,-0.8603286,-10.530324,6.9000587,-0.6065422,2.163267,-5.7044663,0.3421217,0
1.1100000000000008,20.36651169427374,1.1460987068172397,-5.999999253801486,-0.10049925746878048,18.731855,0.9015786,-6.097715,-0.23024984,9.030861,-8.131044,1.7919099,-0.30761686,0.18074897,-0.35843855,-0.86268365,-10.556077,7.0500126,-0.5692975,2.004569,-5.7506185,0.32040215,0
1.1200000000000008,19.577187701508812,-0.3235492204095684,-5.999994546555404,-0.08618587375065513,18.134127,-0.053820472,-6.0928483,-0.18275099,8.9252205,-8.059804,1.7864212,-0.31822997,0.15224649,-0.35802653,-0.86450416,-10.570399,7.1976223,-0.5278498,1.8706211,-5.7895627,0.2997484,0
1.1300000000000008,19.577187701508812,-0.3235492204095684,-5.999994546555404,-0.08618587375065513,18.134127,-0.053820472,-6.0928483,-0.18275099,8.819493,-7.98713,1.7813387,-0.3285202,0.12386873,-0.35617027,-0.8659523,-10.573267,7.3365507,-0.48808643,1.5283761,-5.822466,0.28081048,0
1.1400000000000008,19.577187701508812,-0.3235492204095684,-5.999994546555404,-0.08618587375065513,18.134127,-0.053820472,-6.0928483,-0.18275099,8.713791,-7.9130855,1.7766716,-0.33844954,0.09579688,-0.35256627,-0.8671629,-10.565533,7.471698,-0.4447962,1.2395058,-5.8502192,0.2628019,0
1.1500000000000008,19.577187701508812,-0.3235492204095684,-5.999994546555404,-0.08618587375065513,18.134127,-0.053820472,-6.0928483,-0.18275099,8.608218,-7.837712,1.7724543,-0.3480684,0.06800872,-0.34744266,-0.8680475,-10.547547,7.602264,-0.39817277,0.9956867,-5.8736296,0.24567693,0
1.1600000000000008,18.293320941829545,-1.6686560974209157,-3.1145779959863455,-0.042939007410131,16.810808,-1.5809132,-3.8140423,-0.062049806,8.502874,-7.761059,1.7687188,-0.35741052,0.04048565,-0.34099364,-0.8685284,-10.519644,7.727523,-0.3484636,0.78989303,-5.8933773,0.22939235,0
1.1700000000000008,18.293320941829545,-1.6686560974209157,-3.1145779959863455,-0.042939007410131,16.810808,-1.5809132,-3.8140423,-0.062049806,8.397846,-7.683222,1.7654454,-0.36609292,0.014408639,-0.3333415,-0.8687067,-10.4847,7.8390245,-0.30584353,0.40637115,-5.4600863,0.21602899,0
1.1800000000000008,18.293320941829545,-1.6686560974209157,-3.1145779959863455,-0.042939007410131,16.810808,-1.5809132,-3.8140423,-0.062049806,8.293207,-7.6042986,1.7626098,-0.3738646,-0.009281484,-0.32463372,-0.86876434,-10.441822,7.944678,-0.26091865,0.08267796,-5.0943522,0.20332137,0
1.1900000000000008,18.293320941829545,-1.6686560974209157,-3.1145779959863455,-0.042939007410131,16.810808,-1.5809132,-3.8140423,-0.062049806,8.189033,-7.5243487,1.7602339,-0.38091254,-0.030928098,-0.31504974,-0.8687301,-10.392008,8.044318,-0.2139376,-0.19052035,-4.7856426,0.19123729,0
1.2000000000000008,16.845307376508764,-2.4388859154560993,0.23514157387128065,0.21638556364138997,16.391426,-2.7641115,-0.20134085,0.4107672,8.085387,-7.4434333,1.7583373,-0.3873827,-0.05082666,-0.30473492,-0.8686122,-10.336113,8.137831,-0.16510189,-0.42110115,-4.5250664,0.17974618,1
1.2100000000000009,16.845307376508764,-2.4388859154560993,0.23514157387128065,0.21638556364138997,16.391426,-2.7641115,-0.20134085,0.4107672,7.9822965,-7.3616595,1.7568605,-0.39301953,-0.06806491,-0.29388237,-0.8686398,-10.281316,8.216098,-0.13002726,-0.7865423,-3.8508322,0.19108245,1
1.2200000000000009,16.845307376508764,-2.4388859154560993,0.23514157387128065,0.21638556364138997,16.391426,-2.7641115,-0.20134085,0.4107672,7.879773,-7.27913,1.7557417,-0.3976558,-0.0819389,-0.28266907,-0.8690531,-10.222883,8.289089,-0.09350664,-1.0949906,-3.281742,0.20186242,1
1.2300000000000009,16.845307376508764,-2.4388859154560993,0.23514157387128065,0.21638556364138997,16.391426,-2.7641115,-0.20134085,0.4107672,7.7778473,-7.1958957,1.7549952,-0.4015008,-0.09296427,-0.2711732,-0.8698386,-10.16187,8.357133,-0.055544183,-1.3553336,-2.8013988,0.21211345,1
1.2400000000000009,16.845307376508764,-2.4388859154560993,0.23514157387128065,0.21638556364138997,16.338318,-4.2105837,1.818175,0.6039719,7.676541,-7.112004,1.7546358,-0.40471488,-0.10157802,-0.2594513,-0.8709605,-10.099153,8.420522,-0.016114336,-1.5750722,-2.3959615,0.22186147,0
1.2500000000000009,16.845307376508764,-2.4388859154560993,0.23514157387128065,0.21638556364138997,16.338318,-4.2105837,1.818175,0.6039719,7.5758758,-7.0274916,1.7546973,-0.4073848,-0.10804445,-0.24773204,-0.87234867,-10.033706,8.481162,0.028663918,-1.709843,-1.9856616,0.22159277,0
1.260000000000001,16.845307376508764,-2.4388859154560993,0.23514157387128065,0.21638556364138997,16.338318,-4.2105837,1.818175,0.6039719,7.4758677,-6.9423943,1.7552145,-0.40958363,-0.11259301,-0.2361977,-0.8739417,-9.967914,8.537628,0.074986205,-1.8235872,-1.6393448,0.22133727,0
1.270000000000001,16.845307376508764,-2.4388859154560993,0.23514157387128065,0.21638556364138997,16.338318,-4.2105837,1.818175,0.6039719,7.3765173,-6.8567524,1.7562023,-0.41140315,-0.115517795,-0.2248226,-0.8757039,-9.902321,8.590233,0.122850806,-1.9195851,-1.3470333,0.2210943,0
1.280000000000001,15.968881560910152,-2.454342196426868,3.5162086310230682,0.4364274578870673,15.855863,-3.2122428,3.0382798,0.36861354,7.277819,-6.770602,1.7576765,-0.41291466,-0.11706722,-0.21358274,-0.8775982,-9.837393,8.639239,0.17225657,-2.0006053,-1.1003054,0.22086322,1
1.290000000000001,15.968881560910152,-2.454342196426868,3.5162086310230682,0.4364274578870673,15.855863,-3.2122428,3.0382798,0.36861354,7.1797466,-6.683993,1.7596089,-0.41395816,-0.116342105,-0.20264605,-0.8797938,-9.777335,8.682238,0.21445663,-2.1896498,-0.4549327,0.22811337,1
1.300000000000001,15.968881560910152,-2.454342196426868,3.5162086310230682,0.4364274578870673,15.855863,-3.2122428,3.0382798,0.36861354,7.082266,-6.5969663,1.7619709,-0.41441604,-0.11263777,-0.19214302,-0.8824129,-9.719074,8.722601,0.25818875,-2.3492038,0.08979751,0.23500773,1
1.310000000000001,15.968881560910152,-2.454342196426868,3.5162086310230682,0.4364274578870673,15.855863,-3.2122428,3.0382798,0.36861354,6.9853554,-6.5095477,1.7647781,-0.41438642,-0.10640914,-0.18199998,-0.8853453,-9.663371,8.760839,0.30352733,-2.4838667,0.5495806,0.24156381,1
1.320000000000001,14.914932332258983,-1.985922693503514,5.292849619180081,0.5350461041253303,15.058633,-2.536066,5.0696397,0.5232653,6.8889866,-6.4217553,1.768047,-0.4139411,-0.09804003,-0.17215179,-0.88848406,-9.610875,8.797373,0.35050988,-2.5975215,0.93766344,0.24779817,1
1.330000000000001,14.914932332258983,-1.985922693503514,5.292849619180081,0.5350461041253303,15.058633,-2.536066,5.0696397,0.5232653,6.7931123,-6.3336134,1.7717571,-0.412952,-0.08724699,-0.16311693,-0.8917683,-9.56462,8.830829,0.39175105,-2.5880551,1.5820217,0.2613154,1
1.340000000000001,14.914932332258983,-1.985922693503514,5.292849619180081,0.5350461041253303,15.058633,-2.536066,5.0696397,0.5232653,6.6976795,-6.24514,1.775887,-0.4113199,-0.07381969,-0.15530118,-0.89512414,-9.522573,8.863653,0.4344673,-2.5800576,2.1258934,0.27416936,1
1.350000000000001,14.914932332258983,-1.985922693503514,5.292849619180081,0.5350461041253303,15.058633,-2.536066,5.0696397,0.5232653,6.6026435,-6.15634,1.780451,-0.40912396,-0.058157574,-0.1484991,-0.8984334,-9.485311,8.896448,0.47852933,-2.5732994,2.5849495,0.28639254,1
1.360000000000001,14.158603382507094,-1.1291841403574103,5.893525805605369,0.4793336176285232,13.949853,-2.0576348,5.7611666,0.63506436,6.507955,-6.0672097,1.7854618,-0.40642172,-0.040600896,-0.14253579,-0.9015852,-9.453329,8.929704,0.52376467,-2.5675874,2.9724174,0.29801595,1
1.370000000000001,14.158603382507094,-1.1291841403574103,5.893525805605369,0.4793336176285232,13.949853,-2.0576348,5.7611666,0.63506436,6.4135475,-5.9777555,1.7908767,-0.40319666,-0.021270497,-0.13754734,-0.90446675,-9.429001,8.961319,0.55932844,-2.4881816,3.4073098,0.314555,1
1.380000000000001,14.158603382507094,-1.1291841403574103,5.893525805605369,0.4793336176285232,13.949853,-2.0576348,5.7611666,0.63506436,6.3193555,-5.8879795,1.7966504,-0.3994349,-0.00028014462,-0.13363267,-0.9069693,-9.41034,8.994159,0.59550554,-2.4211516,3.7743812,0.33028248,1
1.390000000000001,14.158603382507094,-1.1291841403574103,5.893525805605369,0.4793336176285232,13.949853,-2.0576348,5.7611666,0.63506436,6.2253203,-5.7978673,1.8027877,-0.39517573,0.02210785,-0.13060464,-0.9090045,-9.39767,9.028587,0.6319818,-2.3645678,4.084208,0.34523824,1
1.400000000000001,13.281909843654926,-0.12679158445644836,4.181420964236171,0.39763947280619943,12.283484,-1.560014,3.448349,0.4548108,6.1313806,-5.7074013,1.8092898,-0.39044857,0.045666136,-0.12830505,-0.9104953,-9.391266,9.064885,0.6684099,-2.3168008,4.3457184,0.3594601,0
1.410000000000001,13.281909843654926,-0.12679158445644836,4.181420964236171,0.39763947280619943,12.283484,-1.560014,3.448349,0.4548108,6.0374722,-5.616571,1.8161224,-0.38543057,0.06932526,-0.1270589,-0.9113137,-9.391294,9.101424,0.6979916,-1.9752696,4.320174,0.3613336,0
1.420000000000001,13.281909843654926,-0.12679158445644836,4.181420964236171,0.39763947280619943,12.283484,-1.560014,3.448349,0.4548108,5.943534,-5.5253654,1.8232472,-0.38030788,0.09223119,-0.12712732,-0.91142595,-9.397233,9.14011,0.7268011,-1.6870003,4.2986016,0.36311516,0
1.430000000000001,13.281909843654926,-0.12679158445644836,4.181420964236171,0.39763947280619943,12.283484,-1.560014,3.448349,0.4548108,5.8495083,-5.433761,1.8306547,-0.37510702,0.11449168,-0.12829894,-0.9108924,-9.408778,9.181083,0.75450265,-1.443687,4.280383,0.3648093,0
1.440000000000001,13.281909843654926,-0.12679158445644836,4.181420964236171,0.39763947280619943,11.986347,-0.895871,3.1365178,0.78495735,5.7553406,-5.3417354,1.8383323,-0.369844,0.13619603,-0.13039349,-0.90975976,-9.42566,9.224445,0.78079265,-1.2383188,4.2649975,0.3664203,0
1.450000000000001,13.281909843654926,-0.12679158445644836,4.181420964236171,0.39763947280619943,11.986347,-0.895871,3.1365178,0.78495735,5.660978,-5.2492642,1.8462647,-0.3645273,0.15741786,-0.13325751,-0.9080645,-9.447642,9.27027,0.8053921,-1.064978,4.252004,0.36795223,0
1.460000000000001,13.281909843654926,-0.12679158445644836,4.181420964236171,0.39763947280619943,11.986347,-0.895871,3.1365178,0.78495735,5.566371,-5.156322,1.8544335,-0.35916036,0.17821752,-0.13676044,-0.90583557,-9.474512,9.318602,0.8280408,-0.91866976,4.2410307,0.36940897,0
1.470000000000001,13.281909843654926,-0.12679158445644836,4.181420964236171,0.39763947280619943,11.986347,-0.895871,3.1365178,0.78495735,5.471472,-5.0628834,1.862818,-0.35374305,0.19864415,-0.14079124,-0.9030965,-9.506082,9.369463,0.8484942,-0.79517823,4.2317634,0.37079427,0
1.480000000000001,12.556809749501245,0.62865576510984,1.2411468943506268,0.4105460649841818,11.881557,-0.16385964,-0.54609567,1.089091,5.3762336,-4.9689245,1.8713951,-0.3482729,0.21873754,-0.14525552,-0.8998665,-9.542177,9.422851,0.8665204,-0.69094545,4.223937,0.3721116,0
1.490000000000001,12.556809749501245,0.62865576510984,1.2411468943506268,0.4105460649841818,11.881557,-0.16385964,-0.54609567,1.089091,5.280624,-4.8744335,1.8801084,-0.34299117,0.23737095,-0.14994018,-0.8963978,-9.580376,9.475667,0.8757353,-0.48504645,3.758822,0.3739976,0
1.500000000000001,12.556809749501245,0.62865576510984,1.2411468943506268,0.4105460649841818,11.881557,-0.16385964,-0.54609567,1.089091,5.1846137,-4.7794037,1.8889015,-0.3381207,0.2536737,-0.15468721,-0.8929697,-9.6221485,9.530643,0.88250804,-0.31127357,3.3662338,0.37579107,0
1.5100000000000011,12.556809749501245,0.62865576510984,1.2411468943506268,0.4105460649841818,11.881557,-0.16385964,-0.54609567,1.089091,5.0881705,-4.6838136,1.8977505,-0.33362538,0.2680184,-0.15949447,-0.8896183,-9.666971,9.587583,0.8869502,-0.16461451,3.0348632,0.37749648,0
1.5200000000000011,11.757356389265519,0.9520626041469131,-2.977087428828583,0.540821468608648,11.4337435,0.5089459,-3.7853355,1.0873543,4.9912653,-4.587645,1.9066329,-0.32946736,0.2807174,-0.16435783,-0.88636017,-9.714404,9.646329,0.8891764,-0.04083864,2.7551649,0.37911823,1
1.5300000000000011,11.757356389265519,0.9520626041469131,-2.977087428828583,0.540821468608648,11.4337435,0.5089459,-3.7853355,1.0873543,4.893893,-4.4909034,1.9154916,-0.32587162,0.29029086,-0.16866526,-0.8837928,-9.760201,9.702065,0.88182664,0.061203316,1.7512982,0.41240004,1
1.5400000000000011,11.757356389265519,0.9520626041469131,-2.977087428828583,0.540821468608648,11.4337435,0.5089459,-3.7853355,1.0873543,4.796059,-4.3936033,1.9242609,-0.3230067,0.29554412,-0.17184608,-0.88248974,-9.806672,9.758115,0.8718851,0.1312399,0.88788486,0.44552022,1
1.5500000000000012,11.757356389265519,0.9520626041469131,-2.977087428828583,0.540821468608648,11.4337435,0.5089459,-3.7853355,1.0873543,4.6977572,-4.2957387,1.9329267,-0.32076702,0.29715195,-0.17407075,-0.8823307,-9.853754,9.814803,0.8612074,0.19035019,0.15911976,0.47701523,1
1.5600000000000012,11.659853775757512,0.855453306222704,-5.9999440252764,0.6382087644422807,11.633611,1.212465,-5.345176,0.8151324,4.598984,-4.197306,1.9414842,-0.3190527,0.2956851,-0.17550372,-0.8831608,-9.900875,9.87178,0.8503214,0.24023432,-0.45599586,0.50696474,1
1.5700000000000012,11.659853775757512,0.855453306222704,-5.9999440252764,0.6382087644422807,11.633611,1.212465,-5.345176,0.8151324,4.4997373,-4.0982976,1.9499415,-0.31799084,0.29098034,-0.17631681,-0.88494277,-9.948335,9.929748,0.84122294,0.39211637,-1.2184069,0.5220866,1
1.5800000000000012,11.659853775757512,0.855453306222704,-5.9999440252764,0.6382087644422807,11.633611,1.212465,-5.345176,0.8151324,4.4000206,-3.9987116,1.9583113,-0.3176694,0.28292266,-0.17664541,-0.88760155,-9.994689,9.987435,0.83288616,0.52028495,-1.8619258,0.5364664,1
1.5900000000000012,11.659853775757512,0.855453306222704,-5.9999440252764,0.6382087644422807,11.633611,1.212465,-5.345176,0.8151324,4.299849,-3.898551,1.9666034,-0.3179431,0.27200946,-0.17655867,-0.8909261,-10.039334,10.044594,0.82574403,0.62844086,-2.4050937,0.5501406,1
1.6000000000000012,11.635585697953605,0.40008043533368964,-5.999996834127486,0.6101995566345783,11.839235,0.8250527,-5.5188694,0.27418032,4.199242,-3.7978222,1.9748315,-0.31868225,0.2586566,-0.17611016,-0.8947195,-10.081743,10.101001,0.8201264,0.7197075,-2.8635592,0.56314385,1
1.6100000000000012,11.635585697953605,0.40008043533368964,-5.999996834127486,0.6101995566345783,11.839235,0.8250527,-5.5188694,0.27418032,4.0982203,-3.6965292,1.9830203,-0.3198055,0.24321274,-0.17516357,-0.8988265,-10.122154,10.157424,0.8179377,0.7362578,-3.2776544,0.54896426,1
1.6200000000000012,11.635585697953605,0.40008043533368964,-5.999996834127486,0.6101995566345783,11.839235,0.8250527,-5.5188694,0.27418032,3.9968104,-3.594678,1.991197,-0.3212505,0.2259747,-0.17360872,-0.90310186,-10.159411,10.212622,0.81771785,0.75019854,-3.6271722,0.53548056,1
1.6300000000000012,11.635585697953605,0.40008043533368964,-5.999996834127486,0.6101995566345783,11.839235,0.8250527,-5.5188694,0.27418032,3.8950446,-3.492282,1.9993819,-0.3229361,0.20719694,-0.17151973,-0.907393,-10.19316,10.266346,0.819567,0.761942,-3.9221835,0.52265847,1
1.6400000000000012,11.635585697953605,0.40008043533368964,-5.999996834127486,0.6101995566345783,12.049477,0.14679784,-5.7054043,0.2908479,3.7929602,-3.3893569,2.0075955,-0.32479146,0.18709755,-0.16895908,-0.9115685,-10.22308,10.31837,0.8235127,0.7718358,-4.1711884,0.51046556,1
1.6500000000000012,11.635585697953605,0.40008043533368964,-5.999996834127486,0.6101995566345783,12.049477,0.14679784,-5.7054043,0.2908479,3.6905947,-3.2859163,2.0158682,-0.32671666,0.16588406,-0.16570804,-0.9155757,-10.2493515,10.369354,0.8313717,0.6744102,-4.410486,0.49968883,1
1.6600000000000013,11.635585697953605,0.40008043533368964,-5.999996834127486,0.6101995566345783,12.049477,0.14679784,-5.7054043,0.2908479,3.5879884,-3.181977,2.0242298,-0.32863334,0.14373474,-0.16159509,-0.9193622,-10.271231,10.418085,0.8412682,0.59216446,-4.6124587,0.48944098,1
1.6700000000000013,11.635585697953605,0.40008043533368964,-5.999996834127486,0.6101995566345783,12.049477,0.14679784,-5.7054043,0.2908479,3.4851859,-3.0775633,2.0327003,-0.33051202,0.12078548,-0.1567337,-0.9228253,-10.288539,10.464274,0.8530926,0.5227338,-4.7829285,0.47969598,1
1.6800000000000013,11.796056871722845,-0.1863366792987586,-5.99999531923868,0.6211907887367151,13.216247,-0.6271541,-5.840047,-0.1703303,3.3822339,-2.9727013,2.0412977,-0.33232567,0.097155355,-0.15122129,-0.925879,-10.301123,10.507661,0.8666864,0.46412194,-4.9268093,0.47042915,0
1.6900000000000013,11.796056871722845,-0.1863366792987586,-5.99999531923868,0.6211907887367151,13.216247,-0.6271541,-5.840047,-0.1703303,3.2791812,-2.8674247,2.0500271,-0.334017,0.07287793,-0.14498237,-0.92849386,-10.308687,10.5471525,0.8794702,0.362759,-5.0942016,0.47782707,0
1.7000000000000013,11.796056871722845,-0.1863366792987586,-5.99999531923868,0.6211907887367151,13.216247,-0.6271541,-5.840047,-0.1703303,3.176077,-2.7617695,2.0588915,-0.33553275,0.047988437,-0.13796085,-0.93063474,-10.311386,10.583394,0.89358026,0.27719575,-5.2354846,0.48486194,0
1.7100000000000013,11.796056871722845,-0.1863366792987586,-5.99999531923868,0.6211907887367151,13.216247,-0.6271541,-5.840047,-0.1703303,3.0729704,-2.6557689,2.0679026,-0.33685476,0.02258846,-0.13026126,-0.93222845,-10.309132,10.616134,0.9087708,0.20496912,-5.3547316,0.49155164,0
1.7200000000000013,11.88640874932022,-0.7429493704697275,-5.999515795763613,0.7473720396851946,13.391093,-1.3320335,-5.7238374,0.16965029,2.9699116,-2.5494595,2.0770698,-0.33796644,-0.003231349,-0.12197378,-0.93321484,-10.301857,10.64515,0.9247614,0.144,-5.4553795,0.4979131,0
1.7300000000000013,11.88640874932022,-0.7429493704697275,-5.999515795763613,0.7473720396851946,13.391093,-1.3320335,-5.7238374,0.16965029,2.8669512,-2.4428782,2.0864038,-0.33884084,-0.029316029,-0.112968616,-0.9335764,-10.289428,10.670435,0.9421236,0.0057524033,-5.540282,0.5101541,0
1.7400000000000013,11.88640874932022,-0.7429493704697275,-5.999515795763613,0.7473720396851946,13.391093,-1.3320335,-5.7238374,0.16965029,2.7641406,-2.336065,2.095913,-0.33945984,-0.055533778,-0.10314844,-0.9332967,-10.271928,10.6915455,0.9596666,-0.11094099,-5.6119385,0.52179444,0
1.7500000000000013,11.88640874932022,-0.7429493704697275,-5.999515795763613,0.7473720396851946,13.391093,-1.3320335,-5.7238374,0.16965029,2.66153,-2.2290623,2.105597,-0.33981973,-0.08183859,-0.09263045,-0.9323325,-10.249411,10.7082815,0.9770573,-0.20944083,-5.672416,0.5328636,0
1.7600000000000013,11.594254359792886,-1.2497468548659776,-2.3424517425545344,0.8887136719342681,12.892452,-2.1082206,-5.5345016,1.0883315,2.5591698,-2.1219146,2.1154525,-0.3399158,-0.10818723,-0.08151594,-0.93064886,-10.221944,10.720476,0.99394417,-0.29258418,-5.723458,0.5433896,0
1.7700000000000014,11.594254359792886,-1.2497468548659776,-2.3424517425545344,0.8887136719342681,12.892452,-2.1082206,-5.5345016,1.0883315,2.4571042,-2.0146697,2.1254587,-0.3396457,-0.13311362,-0.07020109,-0.9284356,-10.190466,10.727857,1.0071734,-0.44198194,-5.196249,0.5603348,0
1.7800000000000014,11.594254359792886,-1.2497468548659776,-2.3424517425545344,0.8887136719342681,12.892452,-2.1082206,-5.5345016,1.0883315,2.355375,-1.9073726,2.135592,-0.33898413,-0.1554695,-0.05901216,-0.9259783,-10.154799,10.730901,1.0193396,-0.5680645,-4.7512527,0.57644844,0
1.7900000000000014,11.594254359792886,-1.2497468548659776,-2.3424517425545344,0.8887136719342681,12.892452,-2.1082206,-5.5345016,1.0883315,2.254021,-1.8000658,2.1458414,-0.33802047,-0.17564777,-0.047933295,-0.923359,-10.11549,10.729852,1.0302992,-0.67446953,-4.375648,0.5917714,0
1.8000000000000014,11.345965971876666,-1.5420019339664648,1.603851830759837,1.0740200122180066,13.640459,-2.2090373,-2.4131894,1.5976102,2.1530762,-1.692789,2.1561937,-0.3368209,-0.19398116,-0.0369493,-0.92062867,-10.072996,10.724923,1.0399519,-0.7642672,-4.0586143,0.60634243,0
1.8100000000000014,11.345965971876666,-1.5420019339664648,1.603851830759837,1.0740200122180066,13.640459,-2.2090373,-2.4131894,1.5976102,2.0525656,-1.585579,2.1666245,-0.3353903,-0.20926355,-0.02646542,-0.9181618,-10.028734,10.716534,1.0459775,-0.8858548,-3.175617,0.6292915,0
1.8200000000000014,11.345965971876666,-1.5420019339664648,1.603851830759837,1.0740200122180066,13.640459,-2.2090373,-2.4131894,1.5976102,1.9525082,-1.4784689,2.1771095,-0.33376864,-0.22057213,-0.0167992,-0.9163316,-9.982497,10.705035,1.0508438,-0.98845077,-2.4303176,0.6511144,0
1.8300000000000014,11.345965971876666,-1.5420019339664648,1.603851830759837,1.0740200122180066,13.640459,-2.2090373,-2.4131894,1.5976102,1.85292,-1.3714874,2.1876383,-0.33203253,-0.22854246,-0.007818243,-0.91512895,-9.934976,10.6909,1.0547945,-1.0750185,-1.8012421,0.6718665,0
1.8400000000000014,11.345965971876666,-1.5420019339664648,1.603851830759837,1.0740200122180066,12.626251,-2.3852,1.0849732,1.540207,1.7538111,-1.2646587,2.198203,-0.33023015,-0.233705,0.00059031625,-0.91451025,-9.886738,10.674515,1.0580724,-1.14806,-1.2702662,0.69160026,0
1.8500000000000014,11.345965971876666,-1.5420019339664648,1.603851830759837,1.0740200122180066,12.626251,-2.3852,1.0849732,1.540207,1.655186,-1.1580037,2.2087984,-0.3283903,-0.23650259,0.008521879,-0.91441405,-9.838259,10.656199,1.0609044,-1.2096864,-0.82209146,0.7103657,0
1.8600000000000014,11.345965971876666,-1.5420019339664648,1.603851830759837,1.0740200122180066,12.626251,-2.3852,1.0849732,1.540207,1.5570455,-1.0515404,2.2194207,-0.32652876,-0.23730533,0.016056597,-0.9147714,-9.789933,10.63622,1.0634935,-1.2616802,-0.44380558,0.7282104,0
1.8700000000000014,11.345965971876666,-1.5420019339664648,1.603851830759837,1.0740200122180066,12.626251,-2.3852,1.0849732,1.540207,1.4593859,-0.94528425,2.2300682,-0.32465276,-0.23642294,0.023261491,-0.91551244,-9.742092,10.61479,1.0660161,-1.3055459,-0.12450963,0.7451794,0
1.8800000000000014,11.22462089837385,-1.658162067425691,5.266906224917367,1.1019055438744514,11.969213,-2.4445417,3.183516,1.5116253,1.3622011,-0.8392489,2.2407413,-0.32276395,-0.23411499,0.0301924,-0.9165704,-9.695017,10.592088,1.0686207,-1.3425534,0.14499526,0.76131576,0
1.8900000000000015,11.22462089837385,-1.658162067425691,5.266906224917367,1.1019055438744514,11.969213,-2.4445417,3.183516,1.5116253,1.2654796,-0.733445,2.2514358,-0.32091498,-0.22923924,0.036467433,-0.9182224,-9.64949,10.568555,1.0703831,-1.3921779,0.9437146,0.7780286,0
1.9000000000000015,11.22462089837385,-1.658162067425691,5.266906224917367,1.1019055438744514,11.969213,-2.4445417,3.183516,1.5116253,1.1692058,-0.6278802,2.2621505,-0.31914845,-0.22089374,0.04178816,-0.92065376,-9.6055565,10.544331,1.0726917,-1.4340158,1.617878,0.79392135,0
1.9100000000000015,11.22462089837385,-1.658162067425691,5.266906224917367,1.1019055438744514,11.969213,-2.4445417,3.183516,1.5116253,1.073361,-0.5225594,2.2728925,-0.31743944,-0.20959938,0.04630761,-0.92366403,-9.563794,10.519814,1.0758513,-1.4692866,2.1869092,0.8090342,0
1.9200000000000015,11.199544507301864,-1.6022515648022158,5.99999200846573,1.0787010663747334,11.694184,-2.7297637,5.2967257,1.4926738,0.9779209,-0.4174838,2.2836711,-0.31575677,-0.19579297,0.050152406,-0.9270636,-9.524711,10.495337,1.0800834,-1.4990191,2.6672034,0.82340556,0
1.9300000000000015,11.199544507301864,-1.6022515648022158,5.99999200846573,1.0787010663747334,11.694184,-2.7297637,5.2967257,1.4926738,0.8828557,-0.3126513,2.2944973,-0.31407976,-0.1795773,0.05331352,-0.9307325,-9.488847,10.471243,1.0853044,-1.5154226,3.186929,0.83593297,0
1.9400000000000015,11.199544507301864,-1.6022515648022158,5.99999200846573,1.0787010663747334,11.694184,-2.7297637,5.2967257,1.4926738,0.7881316,-0.20805684,2.305382,-0.3123834,-0.1610512,0.055787243,-0.9345407,-9.45658,10.447776,1.0918455,-1.52923,3.6256053,0.8478457,0
1.9500000000000015,11.199544507301864,-1.6022515648022158,5.99999200846573,1.0787010663747334,11.694184,-2.7297637,5.2967257,1.4926738,0.6937103,-0.10369274,2.316339,-0.310629,-0.14055163,0.057676587,-0.9383111,-9.428347,10.425204,1.0997396,-1.5408514,3.9958718,0.85917383,0
1.9600000000000015,11.119155674714062,-1.5519801812439828,5.999992107754406,0.8902712600805169,12.374773,-2.1281452,4.8641524,1.1487268,0.59954953,0.0004511103,2.3273811,-0.3087804,-0.118367754,0.059067182,-0.9418887,-9.404532,10.403758,1.1089431,-1.5506315,4.308397,0.86994606,0
1.9700000000000015,11.119155674714062,-1.5519801812439828,5.999992107754406,0.8902712600805169,12.374773,-2.1281452,4.8641524,1.1487268,0.5056026,0.1043877,2.338518,-0.30682477,-0.09475676,0.06000871,-0.94513386,-9.385616,10.383779,1.118567,-1.5509942,4.572199,0.8709435,0
1.9800000000000015,11.119155674714062,-1.5519801812439828,5.999992107754406,0.8902712600805169,12.374773,-2.1281452,4.8641524,1.1487268,0.41181993,0.20813179,2.3497562,-0.30475304,-0.06994159,0.060543787,-0.947928,-9.371718,10.365281,1.1292139,-1.551277,4.7948613,0.8718919,0
1.9900000000000015,11.119155674714062,-1.5519801812439828,5.999992107754406,0.8902712600805169,12.374773,-2.1281452,4.8641524,1.1487268,0.3181501,0.31169894,2.361105,-0.30253989,-0.044109568,0.060728665,-0.9501765,-9.363089,10.348408,1.1406668,-1.5514963,4.9828,0.8727938,0
2.0000000000000013,,,,,11.814896,-1.7602255,2.5193324,0.95703554,0.22453931,0.415106,2.3725712,-0.3001635,-0.017425057,0.060610615,-0.95180035,-9.359938,10.333278,1.152667,-1.5516645,5.14143,0.8736514,0
2.010000000000001,,,,,11.814896,-1.7602255,2.5193324,0.95703554,0.13093215,0.5183726,2.3841448,-0.29761934,0.009643971,0.06033565,-0.95272696,-9.36236,10.320323,1.1620723,-1.5537229,5.143347,0.8608756,0
2.020000000000001,,,,,11.814896,-1.7602255,2.5193324,0.95703554,0.037273098,0.6215187,2.3958125,-0.29491466,0.03671332,0.060023014,-0.95292914,-9.3703165,10.309162,1.1714118,-1.5554621,5.144964,0.84872663,0
2.0300000000000007,,,,,11.814896,-1.7602255,2.5193324,0.95703554,-0.05649318,0.72456205,2.4075718,-0.29204828,0.06376139,0.05967354,-0.9524078,-9.383801,10.299782,1.1803689,-1.556932,5.1463294,0.8371739,0
2.0400000000000005,,,,,11.814896,-1.7602255,2.5193324,0.95703554,-0.15042187,0.8275204,2.4194174,-0.28901935,0.090766855,0.05928809,-0.95116425,-9.402794,10.292159,1.1886282,-1.5581741,5.1474814,0.826188,0
2.0500000000000003,,,,,11.97925,-1.4729806,1.8532442,0.9494135,-0.24456786,0.93041116,2.431341,-0.28582725,0.11770866,0.05886751,-0.9492004,-9.427252,10.286271,1.1958761,-1.5592246,5.1484528,0.81574124,1
2.06,,,,,11.97925,-1.4729806,1.8532442,0.9494135,-0.3390008,1.0332493,2.4433858,-0.28236574,0.14330807,0.05874931,-0.9467208,-9.460227,10.28161,1.2128333,-1.5455221,4.6345673,0.8223006,1
2.07,,,,,11.97925,-1.4729806,1.8532442,0.9494135,-0.43379125,1.1360487,2.4555922,-0.2785699,0.16656591,0.05919835,-0.94400716,-9.498673,10.278513,1.228135,-1.5339942,4.200821,0.828538,1
2.0799999999999996,,,,,11.97925,-1.4729806,1.8532442,0.9494135,-0.52899134,1.2388237,2.4679427,-0.27449134,0.18784115,0.060117573,-0.9411458,-9.542087,10.276662,1.2416593,-1.5242966,3.8347173,0.83446944,1
2.0899999999999994,,,,,11.889236,-1.1876582,-4.3136573,0.60369945,-0.6246485,1.3415852,2.4804192,-0.27017057,0.20743766,0.06142513,-0.93819183,-9.5900345,10.275785,1.2533259,-1.5161391,3.5257063,0.8401098,1
2.099999999999999,,,,,11.889236,-1.1876582,-4.3136573,0.60369945,-0.7208107,1.4443417,2.493013,-0.2655392,0.22336996,0.06367103,-0.9357031,-9.642654,10.27558,1.2644149,-1.4877478,2.326693,0.83065253,1
2.109999999999999,,,,,11.889236,-1.1876582,-4.3136573,0.60369945,-0.8175088,1.5470968,2.5056953,-0.26059157,0.23395701,0.06720334,-0.9342587,-9.697358,10.275428,1.2718717,-1.4403791,1.29117,0.8195159,1
2.1199999999999988,,,,,11.889236,-1.1876582,-4.3136573,0.60369945,-0.914765,1.6498481,2.5184464,-0.25539544,0.24000627,0.07177912,-0.93381864,-9.754128,10.274686,1.2782302,-1.400498,0.4171313,0.8089257,1
2.1299999999999986,,,,,11.5393095,-0.42829025,-5.2825074,0.828021,-1.0125955,1.7525867,2.5312576,-0.24998455,0.24223293,0.077218264,-0.93427384,-9.812118,10.272834,1.2839042,-1.366919,-0.32060596,0.7988552,1
2.1399999999999983,,,,,11.5393095,-0.42829025,-5.2825074,0.828021,-1.1110004,1.8553,2.5441084,-0.2443956,0.24079497,0.08317403,-0.9356121,-9.868863,10.269544,1.2862257,-1.220137,-1.0943367,0.80028635,1
2.149999999999998,,,,,11.5393095,-0.42829025,-5.2825074,0.828021,-1.209972,1.9579713,2.5569823,-0.23864633,0.23584215,0.08935978,-0.9377849,-9.92533,10.264444,1.2886276,-1.0963072,-1.7474163,0.8016473,1
2.159999999999998,,,,,11.5393095,-0.42829025,-5.2825074,0.828021,-1.3095039,2.0605817,2.5698824,-0.23272778,0.22790784,0.09571624,-0.9406028,-9.980835,10.257289,1.291439,-0.99184066,-2.2986584,0.80294144,1
2.1699999999999977,,,,,10.994727,-0.81357926,-5.645802,0.2743563,-1.4095834,2.1631093,2.5828137,-0.2266303,0.21743801,0.10219326,-0.94388306,-10.034776,10.247882,1.2949098,-0.90371,-2.7639427,0.80417216,1
2.1799999999999975,,,,,10.994727,-0.81357926,-5.645802,0.2743563,-1.5101799,2.2655337,2.5957596,-0.22036168,0.20469728,0.10894138,-0.94745487,-10.084174,10.23662,1.294383,-0.88947296,-3.2133446,0.77817386,1
2.1899999999999973,,,,,10.994727,-0.81357926,-5.645802,0.2743563,-1.6112584,2.3678334,2.6087048,-0.21393722,0.18991023,0.11607741,-0.9511521,-10.1311035,10.222891,1.2947533,-0.87750274,-3.592665,0.75345147,1
2.199999999999997,,,,,10.994727,-0.81357926,-5.645802,0.2743563,-1.712792,2.4699829,2.6216583,-0.20735966,0.17337069,0.12351625,-0.9548233,-10.175134,10.206548,1.2960577,-0.8674365,-3.9128323,0.72994214,1
