time-since-start [s],throttle_mpc,roll_mpc,pitch_mpc,yaw_mpc,throttle_nw,roll_nw,pitch_nw,yaw_nw,position_x [m],position_y [m],position_z [m],rotation_w [quaternion],rotation_x [quaternion],rotation_y [quaternion],rotation_z [quaternion],velocity_x [m/s],velocity_y [m/s],velocity_z [m/s],omega_x [rad/s],omega_y [rad/s],omega_z [rad/s],network_used,gaze_2d_norm_x,gaze_2d_norm_y,gaze_2d_x,gaze_2d_y,gaze_3d_x,gaze_3d_y,gaze_3d_z,angle_rad,angle_deg,high_level_label
0.0,4.907897471380705,0.7362445855525627,-5.99999966049307,0.02546291650800521,9.637426,0.427851,-2.3363414,0.1465249,14.856034,-10.7925415,0.8713422,0.3052659,-0.39471748,0.059619658,0.8645556,-5.9740744,3.9981606,0.75258416,-0.046538033,0.05271335,-0.08257477,0,-0.011830521821975708,-0.38316370646158854,0.4940847390890121,0.30841814676920576,-0.8243454575093802,0.561109580036513,0.07490397769744295,0.0078463638809807,0.44956353490408313,0
0.01,4.907897471380705,0.7362445855525627,-5.99999966049307,0.02546291650800521,8.677891,0.30695072,-4.5136905,0.5947912,14.796137,-10.752478,0.8785471,0.30825755,-0.36747333,0.053668227,0.87581986,-6.0051403,4.0146194,0.68872005,0.73624456,-5.9999995,0.025462916,0,-0.011830521821975708,-0.38316370646158854,0.4940847390890121,0.30841814676920576,-0.8243454575093802,0.561109580036513,0.07490397769744295,0.0078463638809807,0.44956353490408313,0
0.02,4.907897471380705,0.7362445855525627,-5.99999966049307,0.02546291650800521,8.677891,0.30695072,-4.5136905,0.5947912,14.735937,-10.7122555,0.8851237,0.31096762,-0.33989346,0.04766777,0.88628405,-6.0344214,4.0299025,0.6269123,0.73624456,-5.9999995,0.025462916,0,-0.011830521821975708,-0.38316370646158854,0.4940847390890121,0.30841814676920576,-0.8243454575093802,0.561109580036513,0.07490397769744295,0.0078463638809807,0.44956353490408313,0
0.03,4.907897471380705,0.7362445855525627,-5.99999966049307,0.02546291650800521,8.677891,0.30695072,-4.5136905,0.5947912,14.675455,-10.671885,0.89109194,0.3133936,-0.3120031,0.04162377,0.8959387,-6.0618105,4.0439544,0.56702834,0.73624456,-5.9999995,0.025462916,0,-0.011830521821975708,-0.38316370646158854,0.4940847390890121,0.30841814676920576,-0.8243454575093802,0.561109580036513,0.07490397769744295,0.0078463638809807,0.44956353490408313,0
0.04,4.907897471380705,0.7362445855525627,-5.99999966049307,0.02546291650800521,8.179788,0.004934108,-3.9431732,0.7688091,14.614709,-10.631381,0.89647037,0.31553328,-0.28382775,0.035541747,0.90477484,-6.0872064,4.0567245,0.50892866,0.73624456,-5.9999995,0.025462916,0,-0.011830521821975708,-0.38316370646158854,0.4940847390890121,0.30841814676920576,-0.8243454575093802,0.561109580036513,0.07490397769744295,0.0078463638809807,0.44956353490408313,0
0.05,4.907897471380705,0.7362445855525627,-5.99999966049307,0.02546291650800521,8.179788,0.004934108,-3.9431732,0.7688091,14.553719,-10.590755,0.9012762,0.31738475,-0.25539312,0.029427258,0.91278446,-6.1105165,4.0681667,0.45246714,0.73624456,-5.9999995,0.025462916,0,-0.011830521821975708,-0.38316370646158854,0.4940847390890121,0.30841814676920576,-0.8243454575093802,0.561109580036513,0.07490397769744295,0.0078463638809807,0.44956353490408313,0
0.060000000000000005,4.907897471380705,0.7362445855525627,-5.99999966049307,0.02546291650800521,8.179788,0.004934108,-3.9431732,0.7688091,14.492505,-10.550022,0.90552485,0.31894627,-0.22672518,0.02328589,0.91996026,-6.131655,4.0782404,0.3974917,0.73624456,-5.9999995,0.025462916,0,-0.011830521821975708,-0.38316370646158854,0.4940847390890121,0.30841814676920576,-0.8243454575093802,0.561109580036513,0.07490397769744295,0.0078463638809807,0.44956353490408313,0
0.07,4.907897471380705,0.7362445855525627,-5.99999966049307,0.02546291650800521,8.179788,0.004934108,-3.9431732,0.7688091,14.431093,-10.509195,0.90923053,0.32021645,-0.19785011,0.017123248,0.9262957,-6.150545,4.0869093,0.34384486,0.73624456,-5.9999995,0.025462916,0,-0.12967514038085937,0.041294558842976885,0.4351624298095703,0.5206472794214885,-0.8702717409138234,0.4860571744328143,0.07984685434763159,-0.07713192216907983,-4.4193336060198245,0
0.08,9.052767222073287,0.46125827797669394,-5.999999307062262,0.1483653386408873,9.710725,-0.17557976,-0.02541975,0.39151537,14.369503,-10.468289,0.9124057,0.3211941,-0.16879432,0.010944964,0.9317849,-6.167116,4.0941424,0.29136425,0.73624456,-5.9999995,0.025462916,0,-0.12967514038085937,0.041294558842976885,0.4351624298095703,0.5206472794214885,-0.8702717409138234,0.4860571744328143,0.07984685434763159,-0.07713192216907983,-4.4193336060198245,0
0.09,9.052767222073287,0.46125827797669394,-5.999999307062262,0.1483653386408873,9.710725,-0.17557976,-0.02541975,0.39151537,14.307697,-10.427293,0.91525745,0.32107502,-0.14001977,0.00357948,0.936639,-6.1933503,4.104714,0.27924663,0.4612583,-5.9999995,0.14836533,0,-0.12967514038085937,0.041294558842976885,0.4351624298095703,0.5206472794214885,-0.8702717409138234,0.4860571744328143,0.07984685434763159,-0.07713192216907983,-4.4193336060198245,0
0.09999999999999999,9.052767222073287,0.46125827797669394,-5.999999307062262,0.1483653386408873,9.710725,-0.17557976,-0.02541975,0.39151537,14.245651,-10.386205,0.9179958,0.32066512,-0.1111184,-0.0037892452,0.9406447,-6.215246,4.112359,0.26863974,0.4612583,-5.9999995,0.14836533,0,-0.12967514038085937,0.041294558842976885,0.4351624298095703,0.5206472794214885,-0.8702717409138234,0.4860571744328143,0.07984685434763159,-0.07713192216907983,-4.4193336060198245,0
0.10999999999999999,9.052767222073287,0.46125827797669394,-5.999999307062262,0.1483653386408873,9.710725,-0.17557976,-0.02541975,0.39151537,14.183408,-10.345056,0.9206343,0.31996477,-0.08211637,-0.011154538,0.94379824,-6.232721,4.1170573,0.2592274,0.4612583,-5.9999995,0.14836533,0,-0.12967514038085937,0.041294558842976885,0.4351624298095703,0.5206472794214885,-0.8702717409138234,0.4860571744328143,0.07984685434763159,-0.07713192216907983,-4.4193336060198245,0
0.11999999999999998,9.052767222073287,0.46125827797669394,-5.999999307062262,0.1483653386408873,9.710725,-0.17557976,-0.02541975,0.39151537,14.121012,-10.303874,0.9231834,0.3189746,-0.053039968,-0.018509727,0.946097,-6.2457066,4.1187987,0.25068897,0.4612583,-5.9999995,0.14836533,0,-0.12967514038085937,0.041294558842976885,0.4351624298095703,0.5206472794214885,-0.8702717409138234,0.4860571744328143,0.07984685434763159,-0.07713192216907983,-4.4193336060198245,0
0.12999999999999998,12.155006036151129,0.16797355335338932,-5.999998579890909,0.16883612565248557,13.032945,-0.9725048,-1.0910325,0.6631094,14.058509,-10.26269,0.92565006,0.3176955,-0.023915516,-0.02584815,0.9475388,-6.2541513,4.1175833,0.24270079,0.4612583,-5.9999995,0.14836533,0,-0.12967514038085937,0.041294558842976885,0.4351624298095703,0.5206472794214885,-0.8702717409138234,0.4860571744328143,0.07984685434763159,-0.07713192216907983,-4.4193336060198245,0
0.13999999999999999,12.155006036151129,0.16797355335338932,-5.999998579890909,0.16883612565248557,13.032945,-0.9725048,-1.0910325,0.6631094,13.995936,-10.221539,0.9281929,0.3159973,0.004762113,-0.03455006,0.948119,-6.2594275,4.111891,0.26588562,0.16797355,-5.9999986,0.16883613,0,0.06473448753356933,-0.045986207326253255,0.5323672437667847,0.4770068963368734,-0.6407185982508478,0.5179028539615991,0.5667947703656944,0.09857228515814054,5.647775916521497,0
0.15,12.155006036151129,0.16797355335338932,-5.999998579890909,0.16883612565248557,13.032945,-0.9725048,-1.0910325,0.6631094,13.933341,-10.180466,0.93096715,0.3140143,0.03343545,-0.04322083,0.94784456,-6.2587485,4.1019897,0.28891268,0.16797355,-5.9999986,0.16883613,0,0.06473448753356933,-0.045986207326253255,0.5323672437667847,0.4770068963368734,-0.6407185982508478,0.5179028539615991,0.5667947703656944,0.09857228515814054,5.647775916521497,0
0.16,12.601547459564818,-0.021224434963457404,-2.9755385212446095,0.16204534682528196,12.851679,-0.25338125,3.2743306,0.5991806,13.870783,-10.139514,0.9339691,0.31174824,0.06207865,-0.05185264,0.94671583,-6.25211,4.087925,0.31134647,0.16797355,-5.9999986,0.16883613,0,0.06473448753356933,-0.045986207326253255,0.5323672437667847,0.4770068963368734,-0.6407185982508478,0.5179028539615991,0.5667947703656944,0.09857228515814054,5.647775916521497,0
0.17,12.601547459564818,-0.021224434963457404,-2.9755385212446095,0.16204534682528196,12.851679,-0.25338125,3.2743306,0.5991806,13.808318,-10.098723,0.93721324,0.31018177,0.0760811,-0.056635566,0.94593424,-6.2402563,4.0698485,0.3373897,-0.021224435,-2.9755385,0.16204534,0,0.06473448753356933,-0.045986207326253255,0.5323672437667847,0.4770068963368734,-0.6407185982508478,0.5179028539615991,0.5667947703656944,0.09857228515814054,5.647775916521497,0
0.18000000000000002,12.601547459564818,-0.021224434963457404,-2.9755385212446095,0.16204534682528196,12.851679,-0.25338125,3.2743306,0.5991806,13.745987,-10.058125,0.94071466,0.30854645,0.09006665,-0.061405916,0.94494265,-6.225434,4.04958,0.3627736,-0.021224435,-2.9755385,0.16204534,0,0.06473448753356933,-0.045986207326253255,0.5323672437667847,0.4770068963368734,-0.6407185982508478,0.5179028539615991,0.5667947703656944,0.09857228515814054,5.647775916521497,0
0.19000000000000003,12.601547459564818,-0.021224434963457404,-2.9755385212446095,0.16204534682528196,12.851679,-0.25338125,3.2743306,0.5991806,13.68382,-10.017738,0.9444661,0.30684263,0.1040322,-0.066162646,0.94374126,-6.207651,4.027142,0.38738915,-0.021224435,-2.9755385,0.16204534,0,0.06473448753356933,-0.045986207326253255,0.5323672437667847,0.4770068963368734,-0.6407185982508478,0.5179028539615991,0.5667947703656944,0.09857228515814054,5.647775916521497,0
0.20000000000000004,11.997430108273111,-0.0798506344529599,0.10665041520778056,0.1453479245688709,11.20658,-0.41451517,3.2514312,0.14501917,13.621844,-9.977589,0.94845945,0.30507067,0.11797466,-0.07090468,0.9423304,-6.1869197,4.0025597,0.41112813,-0.021224435,-2.9755385,0.16204534,0,0.041995186805725095,-0.25724711100260417,0.5209975934028626,0.3713764444986979,-0.4115826565490496,0.28718366461838696,0.8649423446706612,0.034997018230494614,2.005181440149742,0
0.21000000000000005,11.997430108273111,-0.0798506344529599,0.10665041520778056,0.1453479245688709,11.20658,-0.41451517,3.2514312,0.14501917,13.560082,-9.937687,0.9526574,0.3044706,0.117298774,-0.071203925,0.94258636,-6.1654935,3.9778895,0.428467,-0.07985064,0.10665041,0.14534792,0,0.041995186805725095,-0.25724711100260417,0.5209975934028626,0.3713764444986979,-0.4115826565490496,0.28718366461838696,0.8649423446706612,0.034997018230494614,2.005181440149742,0
0.22000000000000006,11.997430108273111,-0.0798506344529599,0.10665041520778056,0.1453479245688709,11.20658,-0.41451517,3.2514312,0.14501917,13.498533,-9.898031,0.95702887,0.30387023,0.11662278,-0.07150311,0.94284135,-6.1442246,3.9532137,0.44583374,-0.07985064,0.10665041,0.14534792,0,0.041995186805725095,-0.25724711100260417,0.5209975934028626,0.3713764444986979,-0.4115826565490496,0.28718366461838696,0.8649423446706612,0.034997018230494614,2.005181440149742,0
0.23000000000000007,11.997430108273111,-0.0798506344529599,0.10665041520778056,0.1453479245688709,11.20658,-0.41451517,3.2514312,0.14501917,13.437197,-9.858623,0.96157414,0.30326957,0.11594667,-0.07180222,0.9430954,-6.123113,3.9285316,0.46322805,-0.07985064,0.10665041,0.14534792,0,0.041995186805725095,-0.25724711100260417,0.5209975934028626,0.3713764444986979,-0.4115826565490496,0.28718366461838696,0.8649423446706612,0.034997018230494614,2.005181440149742,0
0.24000000000000007,11.997430108273111,-0.0798506344529599,0.10665041520778056,0.1453479245688709,11.930544,-0.12714262,3.189779,-0.17643422,13.376071,-9.819461,0.9662935,0.30266863,0.11527044,-0.072101265,0.94334847,-6.102159,3.9038434,0.4806497,-0.07985064,0.10665041,0.14534792,0,0.041995186805725095,-0.25724711100260417,0.5209975934028626,0.3713764444986979,-0.4115826565490496,0.28718366461838696,0.8649423446706612,0.034997018230494614,2.005181440149742,0
0.25000000000000006,11.997430108273111,-0.0798506344529599,0.10665041520778056,0.1453479245688709,11.930544,-0.12714262,3.189779,-0.17643422,13.315153,-9.780546,0.9711872,0.30206737,0.114594094,-0.07240024,0.9436006,-6.0813627,3.8791492,0.4980985,-0.07985064,0.10665041,0.14534792,0,0.041995186805725095,-0.25724711100260417,0.5209975934028626,0.3713764444986979,-0.4115826565490496,0.28718366461838696,0.8649423446706612,0.034997018230494614,2.005181440149742,0
0.26000000000000006,11.997430108273111,-0.0798506344529599,0.10665041520778056,0.1453479245688709,11.930544,-0.12714262,3.189779,-0.17643422,13.254442,-9.7418785,0.97625554,0.30146584,0.113917656,-0.072699144,0.94385177,-6.0607233,3.8544483,0.5155741,-0.07985064,0.10665041,0.14534792,0,0.041995186805725095,-0.25724711100260417,0.5209975934028626,0.3713764444986979,-0.4115826565490496,0.28718366461838696,0.8649423446706612,0.034997018230494614,2.005181440149742,0
0.2700000000000001,11.997430108273111,-0.0798506344529599,0.10665041520778056,0.1453479245688709,11.930544,-0.12714262,3.189779,-0.17643422,13.193937,-9.703457,0.9814987,0.300864,0.1132411,-0.07299797,0.94410217,-6.0402417,3.8297408,0.5330763,-0.07985064,0.10665041,0.14534792,0,0.05139702320098877,-0.2842650095621745,0.5256985116004944,0.35786749521891276,-0.40105433046421657,0.2758411764348308,0.8735371024741582,0.03741230163317155,2.143566985451127,0
0.2800000000000001,11.403952099247885,-0.12416542444184916,2.7406582007593316,0.12044948055382167,12.461392,-0.3372142,2.5805547,0.00044954382,13.133637,-9.665283,0.9869171,0.30026188,0.11256442,-0.07329673,0.9443517,-6.0199175,3.8050263,0.5506048,-0.07985064,0.10665041,0.14534792,0,0.05139702320098877,-0.2842650095621745,0.5256985116004944,0.35786749521891276,-0.40105433046421657,0.2758411764348308,0.8735371024741582,0.03741230163317155,2.143566985451127,0
0.2900000000000001,11.403952099247885,-0.12416542444184916,2.7406582007593316,0.12044948055382167,12.461392,-0.3372142,2.5805547,0.00044954382,13.073531,-9.627348,0.9924831,0.30073914,0.099382944,-0.06982942,0.9459404,-6.001656,3.7821343,0.56271696,-0.12416542,2.7406583,0.12044948,0,0.05139702320098877,-0.2842650095621745,0.5256985116004944,0.35786749521891276,-0.40105433046421657,0.2758411764348308,0.8735371024741582,0.03741230163317155,2.143566985451127,0
0.3000000000000001,11.403952099247885,-0.12416542444184916,2.7406582007593316,0.12044948055382167,12.461392,-0.3372142,2.5805547,0.00044954382,13.013594,-9.589635,0.9981739,0.30115965,0.08618273,-0.06634895,0.94735074,-5.9859734,3.760861,0.5755482,-0.12416542,2.7406583,0.12044948,0,0.05139702320098877,-0.2842650095621745,0.5256985116004944,0.35786749521891276,-0.40105433046421657,0.2758411764348308,0.8735371024741582,0.03741230163317155,2.143566985451127,0
0.3100000000000001,11.403952099247885,-0.12416542444184916,2.7406582007593316,0.12044948055382167,12.461392,-0.3372142,2.5805547,0.00044954382,12.953801,-9.552126,1.0039963,0.30152342,0.07296628,-0.06285597,0.9485826,-5.972883,3.7412188,0.58901477,-0.12416542,2.7406583,0.12044948,0,0.05139702320098877,-0.2842650095621745,0.5256985116004944,0.35786749521891276,-0.40105433046421657,0.2758411764348308,0.8735371024741582,0.03741230163317155,2.143566985451127,0
0.3200000000000001,11.073606969285917,-0.1314550636271793,5.61253755381334,0.09125933737207897,13.042895,-0.1636454,2.2690198,0.093922,12.894126,-9.514806,1.0099561,0.30183035,0.059736073,-0.059351135,0.94963557,-5.962398,3.7232196,0.6030323,-0.12416542,2.7406583,0.12044948,0,0.05139702320098877,-0.2842650095621745,0.5256985116004944,0.35786749521891276,-0.40105433046421657,0.2758411764348308,0.8735371024741582,0.03741230163317155,2.143566985451127,0
0.3300000000000001,11.073606969285917,-0.1314550636271793,5.61253755381334,0.09125933737207897,13.042895,-0.1636454,2.2690198,0.093922,12.834539,-9.477653,1.0160427,0.30298275,0.032841273,-0.051510032,0.9510362,-5.9557257,3.7080243,0.61440396,-0.13145506,5.6125374,0.09125934,0,0.05139702320098877,-0.2842650095621745,0.5256985116004944,0.35786749521891276,-0.40105433046421657,0.2758411764348308,0.8735371024741582,0.03741230163317155,2.143566985451127,0
0.34000000000000014,11.073606969285917,-0.1314550636271793,5.61253755381334,0.09125933737207897,13.042895,-0.1636454,2.2690198,0.093922,12.774994,-9.440634,1.0222464,0.30389634,0.005920588,-0.04362834,0.9516873,-5.9541955,3.6962657,0.6263896,-0.13145506,5.6125374,0.09125934,0,0.07826141357421874,-0.055614554087320967,0.5391307067871094,0.4721927229563395,-0.6434260760954262,0.49814106412553216,0.5812558514392134,0.10324919401512078,5.915743055193818,0
0.35000000000000014,11.073606969285917,-0.1314550636271793,5.61253755381334,0.09125933737207897,13.042895,-0.1636454,2.2690198,0.093922,12.715438,-9.403716,1.0285714,0.30457044,-0.02100476,-0.03571226,0.95158833,-5.9578147,3.6879766,0.638642,-0.13145506,5.6125374,0.09125934,0,0.07826141357421874,-0.055614554087320967,0.5391307067871094,0.4721927229563395,-0.6434260760954262,0.49814106412553216,0.5812558514392134,0.10324919401512078,5.915743055193818,0
0.36000000000000015,11.082472155598177,-0.11361029724680366,5.9287081179217,0.061725074969013485,12.494939,-0.1114073,1.6123928,0.9909997,12.65582,-9.366863,1.0350188,0.30500454,-0.047913555,-0.027768036,0.95073944,-5.9665756,3.6831787,0.6508129,-0.13145506,5.6125374,0.09125934,0,0.07826141357421874,-0.055614554087320967,0.5391307067871094,0.4721927229563395,-0.6434260760954262,0.49814106412553216,0.5812558514392134,0.10324919401512078,5.915743055193818,0
0.37000000000000016,11.082472155598177,-0.11361029724680366,5.9287081179217,0.061725074969013485,12.494939,-0.1114073,1.6123928,0.9909997,12.596089,-9.330041,1.0415865,0.30537292,-0.07625345,-0.019240946,0.94897974,-5.9805665,3.6819642,0.66262895,-0.1136103,5.928708,0.061725076,0,0.07826141357421874,-0.055614554087320967,0.5391307067871094,0.4721927229563395,-0.6434260760954262,0.49814106412553216,0.5812558514392134,0.10324919401512078,5.915743055193818,0
0.38000000000000017,11.082472155598177,-0.11361029724680366,5.9287081179217,0.061725074969013485,12.494939,-0.1114073,1.6123928,0.9909997,12.536192,-9.293213,1.0482686,0.30547285,-0.10452631,-0.010696939,0.9463858,-5.999904,3.684474,0.67360926,-0.1136103,5.928708,0.061725076,0,0.07826141357421874,-0.055614554087320967,0.5391307067871094,0.4721927229563395,-0.6434260760954262,0.49814106412553216,0.5812558514392134,0.10324919401512078,5.915743055193818,0
0.3900000000000002,11.082472155598177,-0.11361029724680366,5.9287081179217,0.061725074969013485,12.494939,-0.1114073,1.6123928,0.9909997,12.476074,-9.25634,1.0550547,0.30530423,-0.13270728,-0.0021435297,0.94295996,-6.024523,3.6906965,0.68337005,-0.1136103,5.928708,0.061725076,0,0.07826141357421874,-0.055614554087320967,0.5391307067871094,0.4721927229563395,-0.6434260760954262,0.49814106412553216,0.5812558514392134,0.10324919401512078,5.915743055193818,0
0.4000000000000002,11.04447026669212,-0.06807571178969805,3.841237363737973,0.03934423645566299,11.709432,-0.27213708,1.3068649,0.8859711,12.415684,-9.219386,1.0619305,0.3048672,-0.1607716,0.006411765,0.93870515,-6.0543385,3.7006068,0.69153184,-0.1136103,5.928708,0.061725076,0,-0.10842597961425782,0.03981600761413574,0.4457870101928711,0.5199080038070679,-0.8706338764538193,0.4651301415686799,0.16015806122482829,-0.05797218621319011,-3.3215615991622918,0
0.4100000000000002,11.04447026669212,-0.06807571178969805,3.841237363737973,0.03934423645566299,11.709432,-0.27213708,1.3068649,0.8859711,12.354972,-9.182316,1.0688776,0.30444846,-0.17887227,0.011977688,0.93550646,-6.088466,3.713645,0.6976523,-0.06807571,3.8412373,0.039344236,0,-0.10842597961425782,0.03981600761413574,0.4457870101928711,0.5199080038070679,-0.8706338764538193,0.4651301415686799,0.16015806122482829,-0.05797218621319011,-3.3215615991622918,0
0.4200000000000002,11.04447026669212,-0.06807571178969805,3.841237363737973,0.03934423645566299,11.709432,-0.27213708,1.3068649,0.8859711,12.293903,-9.145103,1.0758787,0.30391735,-0.19690694,0.017539194,0.93196255,-6.125828,3.7290232,0.7023348,-0.06807571,3.8412373,0.039344236,0,-0.10842597961425782,0.03981600761413574,0.4457870101928711,0.5199080038070679,-0.8706338764538193,0.4651301415686799,0.16015806122482829,-0.05797218621319011,-3.3215615991622918,0
0.4300000000000002,11.04447026669212,-0.06807571178969805,3.841237363737973,0.03934423645566299,11.709432,-0.27213708,1.3068649,0.8859711,12.232446,-9.107726,1.0829188,0.30327407,-0.21486895,0.023094224,0.9280747,-6.1663694,3.746717,0.70542747,-0.06807571,3.8412373,0.039344236,0,-0.10842597961425782,0.03981600761413574,0.4457870101928711,0.5199080038070679,-0.8706338764538193,0.4651301415686799,0.16015806122482829,-0.05797218621319011,-3.3215615991622918,0
0.4400000000000002,11.04447026669212,-0.06807571178969805,3.841237363737973,0.03934423645566299,10.754955,0.13908586,1.6103503,0.70226437,12.170566,-9.070161,1.0899813,0.3025189,-0.23275165,0.028640734,0.9238445,-6.2100315,3.766699,0.7067808,-0.06807571,3.8412373,0.039344236,0,-0.10842597961425782,0.03981600761413574,0.4457870101928711,0.5199080038070679,-0.8706338764538193,0.4651301415686799,0.16015806122482829,-0.05797218621319011,-3.3215615991622918,0
0.45000000000000023,11.04447026669212,-0.06807571178969805,3.841237363737973,0.03934423645566299,10.754955,0.13908586,1.6103503,0.70226437,12.108234,-9.032385,1.097048,0.30165207,-0.25054848,0.034176677,0.91927326,-6.256751,3.7889383,0.7062479,-0.06807571,3.8412373,0.039344236,0,-0.10842597961425782,0.03981600761413574,0.4457870101928711,0.5199080038070679,-0.8706338764538193,0.4651301415686799,0.16015806122482829,-0.05797218621319011,-3.3215615991622918,0
0.46000000000000024,11.04447026669212,-0.06807571178969805,3.841237363737973,0.03934423645566299,10.754955,0.13908586,1.6103503,0.70226437,12.045421,-8.994375,1.1040993,0.30067393,-0.26825282,0.039700005,0.91436285,-6.3064594,3.8134005,0.70368475,-0.06807571,3.8412373,0.039344236,0,-0.10842597961425782,0.03981600761413574,0.4457870101928711,0.5199080038070679,-0.8706338764538193,0.4651301415686799,0.16015806122482829,-0.05797218621319011,-3.3215615991622918,0
0.47000000000000025,11.04447026669212,-0.06807571178969805,3.841237363737973,0.03934423645566299,10.754955,0.13908586,1.6103503,0.70226437,11.982096,-8.95611,1.1111141,0.29958487,-0.2858582,0.045208685,0.90911496,-6.3590846,3.8400486,0.6989502,-0.06807571,3.8412373,0.039344236,0,-0.05458770275115967,-0.15255901336669922,0.4727061486244202,0.4237204933166504,-0.8503969479862339,0.5186713153158214,0.08834646299798604,0.0044204965694070175,0.2532757967790813,0
0.48000000000000026,11.0404008781633,-0.01653700335579277,2.3035274165652218,0.02719122970330288,10.411331,0.27102837,1.0563241,0.5804632,11.918229,-8.917567,1.1180702,0.29838523,-0.30335808,0.05070068,0.9035316,-6.4145503,3.8688414,0.6919062,-0.06807571,3.8412373,0.039344236,0,-0.05458770275115967,-0.15255901336669922,0.4727061486244202,0.4237204933166504,-0.8503969479862339,0.5186713153158214,0.08834646299798604,0.0044204965694070175,0.2532757967790813,0
0.49000000000000027,11.0404008781633,-0.01653700335579277,2.3035274165652218,0.02719122970330288,10.411331,0.27102837,1.0563241,0.5804632,11.853795,-8.878726,1.1249448,0.29763356,-0.31376204,0.05410047,0.90002257,-6.472341,3.899421,0.68276507,-0.016537003,2.3035274,0.02719123,0,-0.05458770275115967,-0.15255901336669922,0.4727061486244202,0.4237204933166504,-0.8503969479862339,0.5186713153158214,0.08834646299798604,0.0044204965694070175,0.2532757967790813,0
0.5000000000000002,11.0404008781633,-0.01653700335579277,2.3035274165652218,0.02719122970330288,10.411331,0.27102837,1.0563241,0.5804632,11.788775,-8.839574,1.1317203,0.2968424,-0.32412437,0.05749308,0.8963941,-6.531738,3.9312642,0.6721099,-0.016537003,2.3035274,0.02719123,0,-0.05458770275115967,-0.15255901336669922,0.4727061486244202,0.4237204933166504,-0.8503969479862339,0.5186713153158214,0.08834646299798604,0.0044204965694070175,0.2532757967790813,0
0.5100000000000002,11.0404008781633,-0.01653700335579277,2.3035274165652218,0.02719122970330288,10.411331,0.27102837,1.0563241,0.5804632,11.723155,-8.800097,1.1383817,0.29601187,-0.3344437,0.06087806,0.8926467,-6.5927095,3.964353,0.65989435,-0.016537003,2.3035274,0.02719123,0,-0.05458770275115967,-0.15255901336669922,0.4727061486244202,0.4237204933166504,-0.8503969479862339,0.5186713153158214,0.08834646299798604,0.0044204965694070175,0.2532757967790813,0
0.5200000000000002,10.94488007215219,0.06745419053064693,0.17798859999449299,0.016217359231108296,11.114867,0.63338876,0.5401946,0.46635604,11.656917,-8.760283,1.1449128,0.29514205,-0.34471866,0.06425496,0.8887808,-6.655224,3.9986699,0.64607275,-0.016537003,2.3035274,0.02719123,1,-0.05458770275115967,-0.15255901336669922,0.4727061486244202,0.4237204933166504,-0.8503969479862339,0.5186713153158214,0.08834646299798604,0.0044204965694070175,0.2532757967790813,0
0.5300000000000002,10.94488007215219,0.06745419053064693,0.17798859999449299,0.016217359231108296,11.114867,0.63338876,0.5401946,0.46635604,11.590045,-8.720119,1.1513019,0.2939844,-0.3460308,0.068669915,0.8883243,-6.7190976,4.0343056,0.63166404,0.63338876,0.5401946,0.46635604,1,-0.05458770275115967,-0.15255901336669922,0.4727061486244202,0.4237204933166504,-0.8503969479862339,0.5186713153158214,0.08834646299798604,0.0044204965694070175,0.2532757967790813,0
0.5400000000000003,10.94488007215219,0.06745419053064693,0.17798859999449299,0.016217359231108296,11.114867,0.63338876,0.5401946,0.46635604,11.522535,-8.679595,1.1575451,0.2928201,-0.34733507,0.073083304,0.8878476,-6.782923,4.070802,0.61692023,0.63338876,0.5401946,0.46635604,1,-0.04260287284851074,-0.2913773091634115,0.47869856357574464,0.35431134541829423,-0.843326570604987,0.5312483242707817,0.08108953860466989,0.021613276950026794,1.2383495506839195,0
0.5500000000000003,10.94488007215219,0.06745419053064693,0.17798859999449299,0.016217359231108296,11.114867,0.63338876,0.5401946,0.46635604,11.454387,-8.638701,1.1636392,0.2916491,-0.3486314,0.07749502,0.8873507,-6.846699,4.1081567,0.60183334,0.63338876,0.5401946,0.46635604,1,-0.04260287284851074,-0.2913773091634115,0.47869856357574464,0.35431134541829423,-0.843326570604987,0.5312483242707817,0.08108953860466989,0.021613276950026794,1.2383495506839195,0
0.5600000000000003,10.79216094894019,-0.013978877632318774,-1.2531519044834754,-0.04686545443627826,11.1618395,1.049928,0.75933486,0.5673171,11.385601,-8.597428,1.1695806,0.29047143,-0.34991983,0.08190498,0.8868336,-6.9104257,4.1463656,0.58639514,0.63338876,0.5401946,0.46635604,0,-0.04260287284851074,-0.2913773091634115,0.47869856357574464,0.35431134541829423,-0.843326570604987,0.5312483242707817,0.08108953860466989,0.021613276950026794,1.2383495506839195,0
0.5700000000000003,10.79216094894019,-0.013978877632318774,-1.2531519044834754,-0.04686545443627826,11.1618395,1.049928,0.75933486,0.5673171,11.316188,-8.555778,1.1753552,0.29116225,-0.3443958,0.07993937,0.8889463,-6.9719763,4.183745,0.5686773,-0.013978878,-1.2531519,-0.046865456,0,-0.04260287284851074,-0.2913773091634115,0.47869856357574464,0.35431134541829423,-0.843326570604987,0.5312483242707817,0.08108953860466989,0.021613276950026794,1.2383495506839195,0
0.5800000000000003,10.79216094894019,-0.013978877632318774,-1.2531519044834754,-0.04686545443627826,11.1618395,1.049928,0.75933486,0.5673171,11.246163,-8.513755,1.1809571,0.29184163,-0.3388582,0.07797063,0.89102405,-7.0327344,4.2204866,0.5518512,-0.013978878,-1.2531519,-0.046865456,0,-0.04260287284851074,-0.2913773091634115,0.47869856357574464,0.35431134541829423,-0.843326570604987,0.5312483242707817,0.08108953860466989,0.021613276950026794,1.2383495506839195,0
0.5900000000000003,10.79216094894019,-0.013978877632318774,-1.2531519044834754,-0.04686545443627826,11.1618395,1.049928,0.75933486,0.5673171,11.175535,-8.471369,1.1863952,0.29250956,-0.33330727,0.07599882,0.89306676,-7.092691,4.2565856,0.53590405,-0.013978878,-1.2531519,-0.046865456,0,-0.04260287284851074,-0.2913773091634115,0.47869856357574464,0.35431134541829423,-0.843326570604987,0.5312483242707817,0.08108953860466989,0.021613276950026794,1.2383495506839195,0
0.6000000000000003,10.676692283138408,0.030453341477687246,-1.3739552068049108,-0.071067942081782,10.682105,0.5516316,-0.85698766,0.40190077,11.104312,-8.428625,1.191678,0.29316595,-0.32774326,0.07402402,0.89507437,-7.1518364,4.2920346,0.5208228,-0.013978878,-1.2531519,-0.046865456,1,-0.01913136601448059,-0.26118438720703124,0.4904343169927597,0.3694078063964844,-0.8285946494122111,0.551817175842044,0.09449185896766765,0.04700313088322883,2.6930810235100293,0
0.6100000000000003,10.676692283138408,0.030453341477687246,-1.3739552068049108,-0.071067942081782,10.682105,0.5516316,-0.85698766,0.40190077,11.032504,-8.385531,1.1968099,0.29258403,-0.32294568,0.075894065,0.8968502,-7.209535,4.326735,0.50565314,0.5516316,-0.85698766,0.40190077,1,-0.01913136601448059,-0.26118438720703124,0.4904343169927597,0.3694078063964844,-0.8285946494122111,0.551817175842044,0.09449185896766765,0.04700313088322883,2.6930810235100293,0
0.6200000000000003,10.676692283138408,0.030453341477687246,-1.3739552068049108,-0.071067942081782,10.682105,0.5516316,-0.85698766,0.40190077,10.960124,-8.342091,1.2017931,0.29199335,-0.31813842,0.07776183,0.8985992,-7.266329,4.361481,0.49108675,0.5516316,-0.85698766,0.40190077,1,-0.01913136601448059,-0.26118438720703124,0.4904343169927597,0.3694078063964844,-0.8285946494122111,0.551817175842044,0.09449185896766765,0.04700313088322883,2.6930810235100293,0
0.6300000000000003,10.676692283138408,0.030453341477687246,-1.3739552068049108,-0.071067942081782,10.682105,0.5516316,-0.85698766,0.40190077,10.88718,-8.298302,1.2066337,0.2913939,-0.31332162,0.07962726,0.9003212,-7.3222103,4.396273,0.4771137,0.5516316,-0.85698766,0.40190077,1,-0.01913136601448059,-0.26118438720703124,0.4904343169927597,0.3694078063964844,-0.8285946494122111,0.551817175842044,0.09449185896766765,0.04700313088322883,2.6930810235100293,0
0.6400000000000003,10.676692283138408,0.030453341477687246,-1.3739552068049108,-0.071067942081782,11.296987,0.9638117,-0.34253874,0.7004001,10.813683,-8.254165,1.2113374,0.29078573,-0.30849537,0.0814903,0.90201616,-7.3771744,4.431113,0.46372396,0.5516316,-0.85698766,0.40190077,0,-0.01913136601448059,-0.26118438720703124,0.4904343169927597,0.3694078063964844,-0.8285946494122111,0.551817175842044,0.09449185896766765,0.04700313088322883,2.6930810235100293,0
0.6500000000000004,10.676692283138408,0.030453341477687246,-1.3739552068049108,-0.071067942081782,11.296987,0.9638117,-0.34253874,0.7004001,10.739639,-8.209681,1.2159103,0.29170617,-0.30227613,0.07951849,0.9039984,-7.4311733,4.465712,0.45098183,0.030453341,-1.3739552,-0.071067944,0,-0.01913136601448059,-0.26118438720703124,0.4904343169927597,0.3694078063964844,-0.8285946494122111,0.551817175842044,0.09449185896766765,0.04700313088322883,2.6930810235100293,0
0.6600000000000004,10.676692283138408,0.030453341477687246,-1.3739552068049108,-0.071067942081782,11.296987,0.9638117,-0.34253874,0.7004001,10.665061,-8.164854,1.22036,0.29261282,-0.2960426,0.07754291,0.9059378,-7.4842057,4.499635,0.43911254,0.030453341,-1.3739552,-0.071067944,0,-0.01913136601448059,-0.26118438720703124,0.4904343169927597,0.3694078063964844,-0.8285946494122111,0.551817175842044,0.09449185896766765,0.04700313088322883,2.6930810235100293,0
0.6700000000000004,10.676692283138408,0.030453341477687246,-1.3739552068049108,-0.071067942081782,11.296987,0.9638117,-0.34253874,0.7004001,10.589957,-8.119691,1.2246954,0.29350558,-0.289795,0.075563654,0.9078343,-7.536262,4.5328765,0.42809975,0.030453341,-1.3739552,-0.071067944,0,-0.006434345245361328,-0.13566421508789062,0.4967828273773193,0.4321678924560547,-0.8203002428321572,0.5696856623986752,0.050653308548272394,0.06551099010717287,3.7535032448642944,0
0.6800000000000004,10.482654059278847,-0.05121886292838722,-1.5622165552235496,-0.15010438023910647,10.617837,0.775678,-1.4461758,0.427683,10.5143385,-8.0742,1.2289249,0.29438445,-0.28353372,0.073580824,0.9096879,-7.5873327,4.565428,0.41792703,0.030453341,-1.3739552,-0.071067944,1,-0.006434345245361328,-0.13566421508789062,0.4967828273773193,0.4321678924560547,-0.8203002428321572,0.5696856623986752,0.050653308548272394,0.06551099010717287,3.7535032448642944,0
0.6900000000000004,10.482654059278847,-0.05121886292838722,-1.5622165552235496,-0.15010438023910647,10.617837,0.775678,-1.4461758,0.427683,10.438216,-8.028387,1.2330544,0.2940603,-0.27564672,0.07558394,0.9120495,-7.636942,4.5973344,0.4081134,0.775678,-1.4461758,0.427683,1,-0.006434345245361328,-0.13566421508789062,0.4967828273773193,0.4321678924560547,-0.8203002428321572,0.5696856623986752,0.050653308548272394,0.06551099010717287,3.7535032448642944,0
0.7000000000000004,10.482654059278847,-0.05121886292838722,-1.5622165552235496,-0.15010438023910647,10.617837,0.775678,-1.4461758,0.427683,10.361605,-7.9822545,1.23709,0.293715,-0.26773986,0.077581614,0.91434556,-7.6850405,4.6291533,0.39916328,0.775678,-1.4461758,0.427683,1,-0.006434345245361328,-0.13566421508789062,0.4967828273773193,0.4321678924560547,-0.8203002428321572,0.5696856623986752,0.050653308548272394,0.06551099010717287,3.7535032448642944,0
0.7100000000000004,10.482654059278847,-0.05121886292838722,-1.5622165552235496,-0.15010438023910647,10.617837,0.775678,-1.4461758,0.427683,10.28452,-7.935804,1.2410403,0.29334858,-0.2598138,0.07957371,0.91657585,-7.7316136,4.660883,0.39105088,0.775678,-1.4461758,0.427683,1,-0.006434345245361328,-0.13566421508789062,0.4967828273773193,0.4321678924560547,-0.8203002428321572,0.5696856623986752,0.050653308548272394,0.06551099010717287,3.7535032448642944,0
0.7200000000000004,10.2909835363876,-0.0446686969724882,-1.4438310388364919,-0.19581942176665845,10.539788,0.7570625,-1.5028919,0.46499443,10.206978,-7.8890367,1.2449137,0.29296106,-0.25186902,0.08156009,0.9187403,-7.776648,4.692522,0.3837501,0.775678,-1.4461758,0.427683,1,-0.006434345245361328,-0.13566421508789062,0.4967828273773193,0.4321678924560547,-0.8203002428321572,0.5696856623986752,0.050653308548272394,0.06551099010717287,3.7535032448642944,0
0.7300000000000004,10.2909835363876,-0.0446686969724882,-1.4438310388364919,-0.19581942176665845,10.539788,0.7570625,-1.5028919,0.46499443,10.128995,-7.8419547,1.2487147,0.29238015,-0.24365711,0.08341882,0.9209703,-7.8197985,4.7238197,0.3765729,0.7570625,-1.5028919,0.46499443,1,-0.006434345245361328,-0.13566421508789062,0.4967828273773193,0.4321678924560547,-0.8203002428321572,0.5696856623986752,0.050653308548272394,0.06551099010717287,3.7535032448642944,0
0.7400000000000004,10.2909835363876,-0.0446686969724882,-1.4438310388364919,-0.19581942176665845,10.539788,0.7570625,-1.5028919,0.46499443,10.050588,-7.7945604,1.2524478,0.29177696,-0.23542665,0.085271195,0.9231302,-7.8613634,4.7549796,0.3701784,0.7570625,-1.5028919,0.46499443,1,-0.011160134077072144,-0.09024508794148763,0.4944199329614639,0.45487745602925617,-0.8157566385970061,0.5682653795112843,0.10777553077489034,0.06446689209469536,3.6936808353513353,0
0.7500000000000004,10.2909835363876,-0.0446686969724882,-1.4438310388364919,-0.19581942176665845,10.539788,0.7570625,-1.5028919,0.46499443,9.971773,-7.7468553,1.2561209,0.29115152,-0.22717823,0.087117076,0.9252197,-7.9013295,4.7860003,0.36453873,0.7570625,-1.5028919,0.46499443,1,-0.011160134077072144,-0.09024508794148763,0.4944199329614639,0.45487745602925617,-0.8157566385970061,0.5682653795112843,0.10777553077489034,0.06446689209469536,3.6936808353513353,0
0.7600000000000005,9.991964885224673,-0.22710855840832422,-1.1557182320851218,-0.30920299223471115,10.467714,0.52221316,-1.7810631,0.31217623,9.892567,-7.6988406,1.2597412,0.29050392,-0.21891251,0.08895632,0.92723864,-7.9396834,4.816881,0.35962573,0.7570625,-1.5028919,0.46499443,1,-0.011160134077072144,-0.09024508794148763,0.4944199329614639,0.45487745602925617,-0.8157566385970061,0.5682653795112843,0.10777553077489034,0.06446689209469536,3.6936808353513353,0
0.7700000000000005,9.991964885224673,-0.22710855840832422,-1.1557182320851218,-0.30920299223471115,10.467714,0.52221316,-1.7810631,0.31217623,9.812985,-7.65052,1.2633127,0.29040748,-0.20974824,0.08912813,0.9293682,-7.9761343,4.8472805,0.35482198,0.52221316,-1.7810631,0.31217623,1,-0.011160134077072144,-0.09024508794148763,0.4944199329614639,0.45487745602925617,-0.8157566385970061,0.5682653795112843,0.10777553077489034,0.06446689209469536,3.6936808353513353,0
0.7800000000000005,9.991964885224673,-0.22710855840832422,-1.1557182320851218,-0.30920299223471115,10.467714,0.52221316,-1.7810631,0.31217623,9.733048,-7.6018972,1.2668403,0.2902854,-0.20056538,0.08929204,0.93141544,-8.010886,4.8771896,0.35082176,0.52221316,-1.7810631,0.31217623,1,-0.011160134077072144,-0.09024508794148763,0.4944199329614639,0.45487745602925617,-0.8157566385970061,0.5682653795112843,0.10777553077489034,0.06446689209469536,3.6936808353513353,0
0.7900000000000005,9.991964885224673,-0.22710855840832422,-1.1557182320851218,-0.30920299223471115,10.467714,0.52221316,-1.7810631,0.31217623,9.652773,-7.5529776,1.2703317,0.2901376,-0.19136475,0.08944805,0.93338025,-8.043924,4.906604,0.34759167,0.52221316,-1.7810631,0.31217623,1,-0.011160134077072144,-0.09024508794148763,0.4944199329614639,0.45487745602925617,-0.8157566385970061,0.5682653795112843,0.10777553077489034,0.06446689209469536,3.6936808353513353,0
0.8000000000000005,9.738907463177513,-0.34153833996037436,-0.43848792834187456,-0.37140948539713964,10.23257,0.4066023,-1.2123454,0.19267678,9.572176,-7.503766,1.2737945,0.28996408,-0.18214718,0.08959614,0.9352624,-8.075235,4.9355187,0.345098,0.52221316,-1.7810631,0.31217623,1,-0.05213953495025635,0.004531816244125366,0.4739302325248718,0.5022659081220627,-0.8367440790188583,0.5348806700103789,0.11731161526520414,0.020165955941668035,1.1554241653043442,0
0.8100000000000005,9.738907463177513,-0.34153833996037436,-0.43848792834187456,-0.37140948539713964,10.23257,0.4066023,-1.2123454,0.19267678,9.491277,-7.4542713,1.2772249,0.2899704,-0.1757983,0.08991346,0.9364441,-8.104335,4.9633665,0.34106228,0.4066023,-1.2123454,0.19267678,1,-0.05213953495025635,0.004531816244125366,0.4739302325248718,0.5022659081220627,-0.8367440790188583,0.5348806700103789,0.11731161526520414,0.020165955941668035,1.1554241653043442,0
0.8200000000000005,9.738907463177513,-0.34153833996037436,-0.43848792834187456,-0.37140948539713964,10.23257,0.4066023,-1.2123454,0.19267678,9.410093,-7.4044995,1.2806172,0.28996462,-0.16944207,0.09022702,0.9375867,-8.132241,4.990919,0.33747405,0.4066023,-1.2123454,0.19267678,1,-0.05213953495025635,0.004531816244125366,0.4739302325248718,0.5022659081220627,-0.8367440790188583,0.5348806700103789,0.11731161526520414,0.020165955941668035,1.1554241653043442,0
0.8300000000000005,9.738907463177513,-0.34153833996037436,-0.43848792834187456,-0.37140948539713964,10.23257,0.4066023,-1.2123454,0.19267678,9.328636,-7.3544536,1.283976,0.2899467,-0.16307877,0.09053681,0.9386902,-8.158949,5.018175,0.33431736,0.4066023,-1.2123454,0.19267678,1,-0.05213953495025635,0.004531816244125366,0.4739302325248718,0.5022659081220627,-0.8367440790188583,0.5348806700103789,0.11731161526520414,0.020165955941668035,1.1554241653043442,0
0.8400000000000005,9.738907463177513,-0.34153833996037436,-0.43848792834187456,-0.37140948539713964,10.430622,0.3213934,-0.819261,0.10535253,9.246918,-7.304137,1.2873051,0.28991666,-0.15670864,0.09084281,0.93975437,-8.184452,5.0451317,0.33157626,0.4066023,-1.2123454,0.19267678,1,-0.05213953495025635,0.004531816244125366,0.4739302325248718,0.5022659081220627,-0.8367440790188583,0.5348806700103789,0.11731161526520414,0.020165955941668035,1.1554241653043442,0
0.8500000000000005,9.738907463177513,-0.34153833996037436,-0.43848792834187456,-0.37140948539713964,10.430622,0.3213934,-0.819261,0.10535253,9.164948,-7.2535496,1.2906181,0.29004276,-0.15234385,0.09124704,0.9403938,-8.209356,5.0723553,0.33103827,0.3213934,-0.819261,0.10535253,1,-0.05213953495025635,0.004531816244125366,0.4739302325248718,0.5022659081220627,-0.8367440790188583,0.5348806700103789,0.11731161526520414,0.020165955941668035,1.1554241653043442,0
0.8600000000000005,9.738907463177513,-0.34153833996037436,-0.43848792834187456,-0.37140948539713964,10.430622,0.3213934,-0.819261,0.10535253,9.082734,-7.20269,1.2939268,0.29016316,-0.14797607,0.09164947,0.94101477,-8.2333975,5.09941,0.33076343,0.3213934,-0.819261,0.10535253,1,-0.05213953495025635,0.004531816244125366,0.4739302325248718,0.5022659081220627,-0.8367440790188583,0.5348806700103789,0.11731161526520414,0.020165955941668035,1.1554241653043442,0
0.8700000000000006,9.738907463177513,-0.34153833996037436,-0.43848792834187456,-0.37140948539713964,10.430622,0.3213934,-0.819261,0.10535253,9.000283,-7.1515613,1.2972342,0.29027784,-0.14360538,0.0920501,0.94161725,-8.256574,5.126295,0.33074397,0.3213934,-0.819261,0.10535253,1,-0.054228992462158204,0.04508673350016276,0.4728855037689209,0.5225433667500814,-0.8312181013248565,0.5350914624347176,0.15084294766205225,0.016337557320843743,0.936073082037407,0
0.8800000000000006,9.409266029904268,-0.3279774625371475,-0.35296839136374347,-0.44824320259375094,10.371279,0.28637978,-0.5003824,0.15916789,8.917605,-7.100165,1.3005426,0.2903868,-0.13923188,0.09244892,0.94220126,-8.278884,5.1530085,0.33097208,0.3213934,-0.819261,0.10535253,1,-0.054228992462158204,0.04508673350016276,0.4728855037689209,0.5225433667500814,-0.8312181013248565,0.5350914624347176,0.15084294766205225,0.016337557320843743,0.936073082037407,0
0.8900000000000006,9.409266029904268,-0.3279774625371475,-0.35296839136374347,-0.44824320259375094,10.371279,0.28637978,-0.5003824,0.15916789,8.834708,-7.0485024,1.3038516,0.29006633,-0.13638458,0.09318192,0.9426441,-8.300307,5.179452,0.33084172,0.28637978,-0.5003824,0.15916789,1,-0.054228992462158204,0.04508673350016276,0.4728855037689209,0.5225433667500814,-0.8312181013248565,0.5350914624347176,0.15084294766205225,0.016337557320843743,0.936073082037407,0
0.9000000000000006,9.409266029904268,-0.3279774625371475,-0.35296839136374347,-0.44824320259375094,10.371279,0.28637978,-0.5003824,0.15916789,8.7516,-6.996576,1.3071599,0.28974327,-0.13353604,0.09391409,0.9430786,-8.32115,5.205867,0.3308446,0.28637978,-0.5003824,0.15916789,1,-0.054228992462158204,0.04508673350016276,0.4728855037689209,0.5225433667500814,-0.8312181013248565,0.5350914624347176,0.15084294766205225,0.016337557320843743,0.936073082037407,0
0.9100000000000006,9.409266029904268,-0.3279774625371475,-0.35296839136374347,-0.44824320259375094,10.371279,0.28637978,-0.5003824,0.15916789,8.668287,-6.944385,1.310469,0.2894176,-0.13068631,0.094645426,0.9435045,-8.341409,5.232253,0.33097726,0.28637978,-0.5003824,0.15916789,1,-0.054228992462158204,0.04508673350016276,0.4728855037689209,0.5225433667500814,-0.8312181013248565,0.5350914624347176,0.15084294766205225,0.016337557320843743,0.936073082037407,0
0.9200000000000006,9.137674598652149,-0.24053166063704848,0.20277437046650432,-0.4697452097113696,10.271653,0.34306595,0.07780262,0.087935574,8.584774,-6.891931,1.3137801,0.28908935,-0.12783542,0.09537592,0.9439221,-8.361084,5.2586107,0.33123615,0.28637978,-0.5003824,0.15916789,0,-0.054228992462158204,0.04508673350016276,0.4728855037689209,0.5225433667500814,-0.8312181013248565,0.5350914624347176,0.15084294766205225,0.016337557320843743,0.936073082037407,0
0.9300000000000006,9.137674598652149,-0.24053166063704848,0.20277437046650432,-0.4697452097113696,10.271653,0.34306595,0.07780262,0.087935574,8.501078,-6.839229,1.3170356,0.2910548,-0.12936361,0.09423317,0.9432245,-8.378201,5.2817864,0.31985193,-0.24053167,0.20277438,-0.46974522,0,-0.054228992462158204,0.04508673350016276,0.4728855037689209,0.5225433667500814,-0.8312181013248565,0.5350914624347176,0.15084294766205225,0.016337557320843743,0.936073082037407,0
0.9400000000000006,9.137674598652149,-0.24053166063704848,0.20277437046650432,-0.4697452097113696,10.271653,0.34306595,0.07780262,0.087935574,8.417209,-6.786296,1.320177,0.29301786,-0.13089077,0.09308967,0.94251925,-8.395592,5.3048806,0.308435,-0.24053167,0.20277438,-0.46974522,0,-0.03846447706222534,0.1204656982421875,0.48076776146888733,0.5602328491210937,-0.8271009390802432,0.5532304907502906,0.09919707998107757,0.026012107770890136,1.4903839915114565,0
0.9500000000000006,9.137674598652149,-0.24053166063704848,0.20277437046650432,-0.4697452097113696,10.271653,0.34306595,0.07780262,0.087935574,8.333165,-6.7331324,1.3232039,0.2949786,-0.13241689,0.091945425,0.94180655,-8.413254,5.3278947,0.29698414,-0.24053167,0.20277438,-0.46974522,0,-0.03846447706222534,0.1204656982421875,0.48076776146888733,0.5602328491210937,-0.8271009390802432,0.5532304907502906,0.09919707998107757,0.026012107770890136,1.4903839915114565,0
0.9600000000000006,8.959448925135641,0.02536166510426573,-0.8417669025653077,-0.5109869333957338,10.366481,0.36650094,0.26162902,-0.003953213,8.248943,-6.679738,1.3261163,0.29693702,-0.13394193,0.09080045,0.9410863,-8.4311905,5.350829,0.28549805,-0.24053167,0.20277438,-0.46974522,0,-0.03846447706222534,0.1204656982421875,0.48076776146888733,0.5602328491210937,-0.8271009390802432,0.5532304907502906,0.09919707998107757,0.026012107770890136,1.4903839915114565,0
0.9700000000000006,8.959448925135641,0.02536166510426573,-0.8417669025653077,-0.5109869333957338,10.366481,0.36650094,0.26162902,-0.003953213,8.164543,-6.626118,1.3289056,0.29973695,-0.13017379,0.08932672,0.9408684,-8.448719,5.3731227,0.2723856,0.025361665,-0.8417669,-0.5109869,0,-0.03846447706222534,0.1204656982421875,0.48076776146888733,0.5602328491210937,-0.8271009390802432,0.5532304907502906,0.09919707998107757,0.026012107770890136,1.4903839915114565,0
0.9800000000000006,8.959448925135641,0.02536166510426573,-0.8417669025653077,-0.5109869333957338,10.366481,0.36650094,0.26162902,-0.003953213,8.07997,-6.572277,1.3315648,0.30252963,-0.12640247,0.08785082,0.94062775,-8.46564,5.395027,0.25949693,0.025361665,-0.8417669,-0.5109869,0,-0.03846447706222534,0.1204656982421875,0.48076776146888733,0.5602328491210937,-0.8271009390802432,0.5532304907502906,0.09919707998107757,0.026012107770890136,1.4903839915114565,0
0.9900000000000007,8.959448925135641,0.02536166510426573,-0.8417669025653077,-0.5109869333957338,10.366481,0.36650094,0.26162902,-0.003953213,7.995232,-6.518219,1.3340962,0.30531496,-0.1226281,0.086372785,0.9403643,-8.4819565,5.4165382,0.24682637,0.025361665,-0.8417669,-0.5109869,0,-0.03846447706222534,0.1204656982421875,0.48076776146888733,0.5602328491210937,-0.8271009390802432,0.5532304907502906,0.09919707998107757,0.026012107770890136,1.4903839915114565,0
1.0000000000000007,9.139138344054649,0.37903947465197124,-0.2793444665093262,-0.4446054184549588,9.958662,0.7355611,0.49395755,-0.02475726,7.9103336,-6.463948,1.3365021,0.3080929,-0.118850745,0.08489267,0.94007796,-8.497667,5.437651,0.23436825,0.025361665,-0.8417669,-0.5109869,1,-0.05502933025360107,0.13422904968261717,0.47248533487319944,0.5671145248413085,-0.8197131838001226,0.5613926924038664,0.11361576131771443,0.03125403855727482,1.7907245020709917,0
1.0100000000000007,9.139138344054649,0.37903947465197124,-0.2793444665093262,-0.4446054184549588,9.958662,0.7355611,0.49395755,-0.02475726,7.825272,-6.4094543,1.3388317,0.30843368,-0.12004877,0.08909546,0.9394249,-8.51469,5.4611607,0.23153065,0.7355611,0.49395755,-0.02475726,1,-0.05502933025360107,0.13422904968261717,0.47248533487319944,0.5671145248413085,-0.8197131838001226,0.5613926924038664,0.11361576131771443,0.03125403855727482,1.7907245020709917,0
1.0200000000000007,9.139138344054649,0.37903947465197124,-0.2793444665093262,-0.4446054184549588,9.958662,0.7355611,0.49395755,-0.02475726,7.7400403,-6.354721,1.3411319,0.30876842,-0.12124444,0.0932965,0.9387533,-8.531658,5.485527,0.2284876,0.7355611,0.49395755,-0.02475726,1,-0.05502933025360107,0.13422904968261717,0.47248533487319944,0.5671145248413085,-0.8197131838001226,0.5613926924038664,0.11361576131771443,0.03125403855727482,1.7907245020709917,0
1.0300000000000007,9.139138344054649,0.37903947465197124,-0.2793444665093262,-0.4446054184549588,9.958662,0.7355611,0.49395755,-0.02475726,7.654639,-6.299741,1.3434007,0.30909708,-0.12243772,0.0974957,0.9380633,-8.548569,5.510748,0.2252317,0.7355611,0.49395755,-0.02475726,1,-0.05502933025360107,0.13422904968261717,0.47248533487319944,0.5671145248413085,-0.8197131838001226,0.5613926924038664,0.11361576131771443,0.03125403855727482,1.7907245020709917,0
1.0400000000000007,9.139138344054649,0.37903947465197124,-0.2793444665093262,-0.4446054184549588,10.819652,0.8893939,0.63265544,0.013315564,7.5690694,-6.2445035,1.3456359,0.30941966,-0.1236286,0.10169299,0.9373549,-8.56542,5.536821,0.22175555,0.7355611,0.49395755,-0.02475726,0,-0.05502933025360107,0.13422904968261717,0.47248533487319944,0.5671145248413085,-0.8197131838001226,0.5613926924038664,0.11361576131771443,0.03125403855727482,1.7907245020709917,0
1.0500000000000007,9.139138344054649,0.37903947465197124,-0.2793444665093262,-0.4446054184549588,10.819652,0.8893939,0.63265544,0.013315564,7.483338,-6.189013,1.3477966,0.31187814,-0.12195838,0.102761924,0.9366421,-8.580697,5.5612855,0.21037626,0.37903947,-0.27934447,-0.4446054,0,-0.05502933025360107,0.13422904968261717,0.47248533487319944,0.5671145248413085,-0.8197131838001226,0.5613926924038664,0.11361576131771443,0.03125403855727482,1.7907245020709917,0
1.0600000000000007,9.139138344054649,0.37903947465197124,-0.2793444665093262,-0.4446054184549588,10.819652,0.8893939,0.63265544,0.013315564,7.397456,-6.1332774,1.3498436,0.31433332,-0.12028689,0.103829786,0.93591946,-8.595565,5.5858793,0.1990315,0.37903947,-0.27934447,-0.4446054,0,-0.05502933025360107,0.13422904968261717,0.47248533487319944,0.5671145248413085,-0.8197131838001226,0.5613926924038664,0.11361576131771443,0.03125403855727482,1.7907245020709917,0
1.0700000000000007,9.139138344054649,0.37903947465197124,-0.2793444665093262,-0.4446054184549588,10.819652,0.8893939,0.63265544,0.013315564,7.311428,-6.0772953,1.3517773,0.31678528,-0.11861413,0.10489655,0.935187,-8.6100235,5.6105995,0.18771993,0.37903947,-0.27934447,-0.4446054,0,-0.06485100269317627,0.10880274454752605,0.4675744986534119,0.5544013722737631,-0.8064418964772012,0.5775377084895241,0.12689232789623084,0.04396208189758699,2.518841751340212,0
1.0800000000000007,9.021117222390872,0.4406993200587295,-1.574975037015414,-0.48824597785936685,10.063893,0.88932353,0.051489316,0.04601539,7.225257,-6.021065,1.3535981,0.3192339,-0.116940126,0.105962224,0.9344447,-8.624071,5.6354446,0.17644021,0.37903947,-0.27934447,-0.4446054,0,-0.06485100269317627,0.10880274454752605,0.4675744986534119,0.5544013722737631,-0.8064418964772012,0.5775377084895241,0.12689232789623084,0.04396208189758699,2.518841751340212,0
1.0900000000000007,9.021117222390872,0.4406993200587295,-1.574975037015414,-0.48824597785936685,10.063893,0.88932353,0.051489316,0.04601539,7.1389494,-5.9645886,1.355301,0.32259554,-0.10913257,0.105218016,0.9343188,-8.637181,5.659854,0.16419005,0.4406993,-1.574975,-0.48824596,0,-0.06485100269317627,0.10880274454752605,0.4675744986534119,0.5544013722737631,-0.8064418964772012,0.5775377084895241,0.12689232789623084,0.04396208189758699,2.518841751340212,0
1.1000000000000008,9.021117222390872,0.4406993200587295,-1.574975037015414,-0.48824597785936685,10.063893,0.88932353,0.051489316,0.04601539,7.0525174,-5.90787,1.356883,0.3259337,-0.10131708,0.10446614,0.93412477,-8.648952,5.683747,0.15227862,0.4406993,-1.574975,-0.48824596,0,-0.06485100269317627,0.10880274454752605,0.4675744986534119,0.5544013722737631,-0.8064418964772012,0.5775377084895241,0.12689232789623084,0.04396208189758699,2.518841751340212,0
1.1100000000000008,9.021117222390872,0.4406993200587295,-1.574975037015414,-0.48824597785936685,10.063893,0.88932353,0.051489316,0.04601539,6.9659743,-5.850915,1.3583477,0.32924807,-0.0934942,0.103706665,0.93386275,-8.659381,5.7071114,0.14068425,0.4406993,-1.574975,-0.48824596,0,-0.06485100269317627,0.10880274454752605,0.4675744986534119,0.5544013722737631,-0.8064418964772012,0.5775377084895241,0.12689232789623084,0.04396208189758699,2.518841751340212,0
1.1200000000000008,9.249976109502063,0.6264022552219184,-0.9645706154006828,-0.42662544558773197,10.074251,0.9012959,0.709469,-0.15131128,6.879334,-5.793729,1.3596978,0.33253852,-0.08566451,0.10293963,0.9335327,-8.668471,5.7299337,0.12938517,0.4406993,-1.574975,-0.48824596,0,-0.06485100269317627,0.10880274454752605,0.4675744986534119,0.5544013722737631,-0.8064418964772012,0.5775377084895241,0.12689232789623084,0.04396208189758699,2.518841751340212,0
1.1300000000000008,9.249976109502063,0.6264022552219184,-0.9645706154006828,-0.42662544558773197,10.074251,0.9012959,0.709469,-0.15131128,6.7926083,-5.7363143,1.3609471,0.33528838,-0.08033871,0.10407501,0.93289655,-8.6765375,5.752944,0.12051283,0.62640226,-0.96457064,-0.42662546,0,-0.06485100269317627,0.10880274454752605,0.4675744986534119,0.5544013722737631,-0.8064418964772012,0.5775377084895241,0.12689232789623084,0.04396208189758699,2.518841751340212,0
1.1400000000000008,9.249976109502063,0.6264022552219184,-0.9645706154006828,-0.42662544558773197,10.074251,0.9012959,0.709469,-0.15131128,6.705807,-5.6786704,1.3621083,0.3380256,-0.07500988,0.10520647,0.9322253,-8.683551,5.7758484,0.11175654,0.62640226,-0.96457064,-0.42662546,0,-0.06128917217254639,0.10553249359130859,0.4693554139137268,0.5527662467956543,-0.7605215204351692,0.6149313543078768,0.20848608213513653,0.09299148943600155,5.328019875318269,0
1.1500000000000008,9.249976109502063,0.6264022552219184,-0.9645706154006828,-0.42662544558773197,10.074251,0.9012959,0.709469,-0.15131128,6.6189413,-5.6207976,1.3631825,0.3407501,-0.06967824,0.10633397,0.931519,-8.689515,5.79864,0.103105575,0.62640226,-0.96457064,-0.42662546,0,-0.06128917217254639,0.10553249359130859,0.4693554139137268,0.5527662467956543,-0.7605215204351692,0.6149313543078768,0.20848608213513653,0.09299148943600155,5.328019875318269,0
1.1600000000000008,9.468761301303083,0.6936340564015762,-0.6789733119608048,-0.3993321877483603,10.227509,0.91968477,0.07030853,-0.19111061,6.5320206,-5.562698,1.3641708,0.3434618,-0.064343974,0.107457474,0.9307776,-8.694427,5.82131,0.09454915,0.62640226,-0.96457064,-0.42662546,1,-0.06128917217254639,0.10553249359130859,0.4693554139137268,0.5527662467956543,-0.7605215204351692,0.6149313543078768,0.20848608213513653,0.09299148943600155,5.328019875318269,0
1.1700000000000008,9.468761301303083,0.6936340564015762,-0.6789733119608048,-0.3993321877483603,10.227509,0.91968477,0.07030853,-0.19111061,6.445053,-5.504359,1.3651209,0.3446055,-0.06319377,0.111795634,0.92992234,-8.698917,5.8465676,0.09545432,0.91968477,0.07030853,-0.19111061,1,-0.06128917217254639,0.10553249359130859,0.4693554139137268,0.5527662467956543,-0.7605215204351692,0.6149313543078768,0.20848608213513653,0.09299148943600155,5.328019875318269,0
1.1800000000000008,9.468761301303083,0.6936340564015762,-0.6789733119608048,-0.3993321877483603,10.227509,0.91968477,0.07030853,-0.19111061,6.3580437,-5.445763,1.3660793,0.34574157,-0.062042158,0.11613131,0.92904645,-8.702847,5.8725643,0.096191905,0.91968477,0.07030853,-0.19111061,1,-0.06128917217254639,0.10553249359130859,0.4693554139137268,0.5527662467956543,-0.7605215204351692,0.6149313543078768,0.20848608213513653,0.09299148943600155,5.328019875318269,0
1.1900000000000008,9.468761301303083,0.6936340564015762,-0.6789733119608048,-0.3993321877483603,10.227509,0.91968477,0.07030853,-0.19111061,6.270998,-5.3869047,1.3670442,0.34686998,-0.060889173,0.12046442,0.92814994,-8.706213,5.8992968,0.09675383,0.91968477,0.07030853,-0.19111061,1,-0.06128917217254639,0.10553249359130859,0.4693554139137268,0.5527662467956543,-0.7605215204351692,0.6149313543078768,0.20848608213513653,0.09299148943600155,5.328019875318269,0
1.2000000000000008,9.509482073300937,0.6041684898030103,-0.48306829652688443,-0.3629602556078748,10.799213,0.70282394,0.92616886,-0.016648525,6.1839213,-5.327775,1.3680136,0.34799066,-0.05973484,0.124794856,0.92723286,-8.709014,5.926762,0.09713202,0.91968477,0.07030853,-0.19111061,0,-0.045743160247802735,0.16038650512695313,0.4771284198760986,0.5801932525634765,-0.7389297058936404,0.6528462987234576,0.16665713303372343,0.12608508378049432,7.224143160175715,0
1.2100000000000009,9.509482073300937,0.6041684898030103,-0.48306829652688443,-0.3629602556078748,10.799213,0.70282394,0.92616886,-0.016648525,6.0968204,-5.268378,1.3689518,0.35015208,-0.056669973,0.1266458,0.9263602,-8.711017,5.9527707,0.090478845,0.6041685,-0.4830683,-0.36296025,0,-0.045743160247802735,0.16038650512695313,0.4771284198760986,0.5801932525634765,-0.7389297058936404,0.6528462987234576,0.16665713303372343,0.12608508378049432,7.224143160175715,0
1.2200000000000009,9.509482073300937,0.6041684898030103,-0.48306829652688443,-0.3629602556078748,10.799213,0.70282394,0.92616886,-0.016648525,6.009703,-5.2087193,1.3698232,0.35230714,-0.05360407,0.12849444,0.9254706,-8.712295,5.9789033,0.08380324,0.6041685,-0.4830683,-0.36296025,0,-0.045743160247802735,0.16038650512695313,0.4771284198760986,0.5801932525634765,-0.7389297058936404,0.6528462987234576,0.16665713303372343,0.12608508378049432,7.224143160175715,0
1.2300000000000009,9.509482073300937,0.6041684898030103,-0.48306829652688443,-0.3629602556078748,10.799213,0.70282394,0.92616886,-0.016648525,5.922577,-5.148799,1.3706279,0.35445577,-0.050537188,0.13034075,0.92456406,-8.712848,6.0051565,0.07710044,0.6041685,-0.4830683,-0.36296025,0,-0.045743160247802735,0.16038650512695313,0.4771284198760986,0.5801932525634765,-0.7389297058936404,0.6528462987234576,0.16665713303372343,0.12608508378049432,7.224143160175715,0
1.2400000000000009,9.509482073300937,0.6041684898030103,-0.48306829652688443,-0.3629602556078748,10.439109,0.52969694,0.9476088,-0.18134516,5.835449,-5.0886154,1.3713652,0.3565979,-0.04746939,0.13218468,0.9236407,-8.712675,6.031526,0.07036573,0.6041685,-0.4830683,-0.36296025,0,-0.045743160247802735,0.16038650512695313,0.4771284198760986,0.5801932525634765,-0.7389297058936404,0.6528462987234576,0.16665713303372343,0.12608508378049432,7.224143160175715,0
1.2500000000000009,9.509482073300937,0.6041684898030103,-0.48306829652688443,-0.3629602556078748,10.439109,0.52969694,0.9476088,-0.18134516,5.7483263,-5.0281677,1.372035,0.35873353,-0.044400718,0.13402618,0.9227005,-8.711777,6.0580072,0.06359435,0.6041685,-0.4830683,-0.36296025,0,-0.045743160247802735,0.16038650512695313,0.4771284198760986,0.5801932525634765,-0.7389297058936404,0.6528462987234576,0.16665713303372343,0.12608508378049432,7.224143160175715,0
1.260000000000001,9.509482073300937,0.6041684898030103,-0.48306829652688443,-0.3629602556078748,10.439109,0.52969694,0.9476088,-0.18134516,5.661216,-4.967455,1.3726369,0.3608626,-0.04133124,0.13586526,0.92174345,-8.710152,6.0845966,0.056781575,0.6041685,-0.4830683,-0.36296025,0,-0.045743160247802735,0.16038650512695313,0.4771284198760986,0.5801932525634765,-0.7389297058936404,0.6528462987234576,0.16665713303372343,0.12608508378049432,7.224143160175715,0
1.270000000000001,9.509482073300937,0.6041684898030103,-0.48306829652688443,-0.3629602556078748,10.439109,0.52969694,0.9476088,-0.18134516,5.5741253,-4.906476,1.3731705,0.36298513,-0.038261008,0.13770184,0.9207696,-8.7078,6.11129,0.049922682,0.6041685,-0.4830683,-0.36296025,0,-0.16216638565063476,0.11624917348225912,0.4189168071746826,0.5581245867411295,-0.7612361452769729,0.5953467492545201,0.25706376499991446,0.05177270966025782,2.9663577574889595,0
1.280000000000001,9.710999714428052,0.5394041371089561,-0.3748017115784759,-0.31181958521955333,10.53645,0.6635514,0.7640816,-0.30386895,5.4870625,-4.845229,1.3736353,0.36510098,-0.035190076,0.1395359,0.9197788,-8.7047205,6.1380825,0.04301294,0.6041685,-0.4830683,-0.36296025,0,-0.16216638565063476,0.11624917348225912,0.4189168071746826,0.5581245867411295,-0.7612361452769729,0.5953467492545201,0.25706376499991446,0.05177270966025782,2.9663577574889595,0
