time-since-start [s],throttle_mpc,roll_mpc,pitch_mpc,yaw_mpc,throttle_nw,roll_nw,pitch_nw,yaw_nw,position_x [m],position_y [m],position_z [m],rotation_w [quaternion],rotation_x [quaternion],rotation_y [quaternion],rotation_z [quaternion],velocity_x [m/s],velocity_y [m/s],velocity_z [m/s],omega_x [rad/s],omega_y [rad/s],omega_z [rad/s],network_used
0.0,11.217314572361682,5.999999837019976,-5.999999956136244,-4.436355866633755,8.736766,0.12666574,-3.5381484,-0.9277961,20.626408,-8.230616,2.044788,-0.13812575,-0.46158785,0.18039548,0.8575053,-10.338477,-7.58793,0.1962376,2.1898634,0.009198047,-0.62177753,0
0.01,11.217314572361682,5.999999837019976,-5.999999956136244,-4.436355866633755,16.787176,1.0728029,-6.290883,0.41361147,20.522308,-8.306336,2.0466914,-0.12997541,-0.46299756,0.1882668,0.8563266,-10.481424,-7.5557814,0.18397011,2.183696,-0.3279286,-0.75528467,0
0.02,11.217314572361682,5.999999837019976,-5.999999956136244,-4.436355866633755,16.787176,1.0728029,-6.290883,0.41361147,20.41679,-8.381721,2.0484579,-0.120912895,-0.46307755,0.19606397,0.85586107,-10.62178,-7.520747,0.16893049,2.2096567,-0.6437033,-0.8850305,0
0.03,11.217314572361682,5.999999837019976,-5.999999956136244,-4.436355866633755,16.787176,1.0728029,-6.290883,0.41361147,20.309883,-8.45674,2.050062,-0.110892,-0.46192464,0.20389065,0.85601234,-10.759197,-7.4827213,0.15152788,2.2625654,-0.94128567,-1.0111841,0
0.04,11.217314572361682,5.999999837019976,-5.999999956136244,-4.436355866633755,10.742704,-0.019439466,-5.491988,-1.0892885,20.201618,-8.531364,2.0514817,-0.099874996,-0.45961305,0.21183072,0.85668457,-10.893351,-7.4415917,0.13211402,2.3380148,-1.2233074,-1.133903,0
0.05,11.217314572361682,5.999999837019976,-5.999999956136244,-4.436355866633755,10.742704,-0.019439466,-5.491988,-1.0892885,20.092028,-8.605561,2.0526984,-0.08783193,-0.45619825,0.21995081,0.8577821,-11.023937,-7.3972487,0.11099032,2.4322546,-1.4919573,-1.2533344,0
0.060000000000000005,11.217314572361682,5.999999837019976,-5.999999956136244,-4.436355866633755,10.742704,-0.019439466,-5.491988,-1.0892885,19.981152,-8.679298,2.0536964,-0.07474008,-0.4517199,0.22830263,0.8592094,-11.15066,-7.3495927,0.08841423,2.542089,-1.7490542,-1.3696154,0
0.07,11.217314572361682,5.999999837019976,-5.999999956136244,-4.436355866633755,10.742704,-0.019439466,-5.491988,-1.0892885,19.86903,-8.752542,2.0544622,-0.060583487,-0.44620457,0.2369246,0.8608703,-11.273228,-7.29854,0.064604476,2.6647956,-1.996107,-1.4828748,0
0.08,14.532915620302292,5.999999939092787,-5.999999989627567,-3.9219025638874023,14.743804,0.13718906,-6.4350944,-0.30235177,19.755703,-8.825256,2.0549848,-0.045352545,-0.4396679,0.24584343,0.86266804,-11.391348,-7.244028,0.039745737,2.7980533,-2.2343667,-1.5932325,0
0.09,14.532915620302292,5.999999939092787,-5.999999989627567,-3.9219025638874023,14.743804,0.13718906,-6.4350944,-0.30235177,19.64115,-8.897374,2.055298,-0.028786687,-0.43176937,0.25545496,0.8645745,-11.518395,-7.178984,0.02273455,3.1010835,-2.626384,-1.6899709,0
0.09999999999999999,14.532915620302292,5.999999939092787,-5.999999989627567,-3.9219025638874023,14.743804,0.13718906,-6.4350944,-0.30235177,19.525356,-8.9688225,2.0554354,-0.010658846,-0.42217982,0.26608354,0.86651593,-11.6390915,-7.11006,0.0045733494,3.39658,-2.9970396,-1.785516,0
0.10999999999999999,14.532915620302292,5.999999939092787,-5.999999989627567,-3.9219025638874023,14.743804,0.13718906,-6.4350944,-0.30235177,19.408388,-9.039561,2.0553863,0.008981811,-0.41091853,0.27763677,0.86832184,-11.752977,-7.0370684,-0.014545021,3.684467,-3.3484094,-1.8798145,0
0.11999999999999998,14.532915620302292,5.999999939092787,-5.999999989627567,-3.9219025638874023,14.743804,0.13718906,-6.4350944,-0.30235177,19.29032,-9.1095495,2.055142,0.030081175,-0.3979967,0.29001865,0.86981755,-11.859585,-6.9599247,-0.034480043,3.964749,-3.682314,-1.9728216,0
0.12999999999999998,19.2582412835589,5.9999999653037435,-5.999999997487627,-3.311942601769695,16.92802,0.37241557,-7.6016207,-0.24609049,19.171225,-9.178745,2.0546944,0.052579217,-0.3834203,0.30312943,0.87082523,-11.958436,-6.8786507,-0.05514025,4.237492,-4.0003533,-2.0645003,0
0.13999999999999999,19.2582412835589,5.9999999653037435,-5.999999997487627,-3.311942601769695,16.92802,0.37241557,-7.6016207,-0.24609049,19.051037,-9.246976,2.054157,0.07637198,-0.3671351,0.3169231,0.8711708,-12.077763,-6.7663217,-0.05214256,4.5117636,-4.312745,-2.1257126,0
0.15,19.2582412835589,5.9999999653037435,-5.999999997487627,-3.311942601769695,16.92802,0.37241557,-7.6016207,-0.24609049,18.9297,-9.314045,2.0536566,0.10125976,-0.3491992,0.33125296,0.8706765,-12.188082,-6.6463246,-0.047741685,4.743316,-4.576371,-2.1839213,0
0.16,20.99999988049708,5.9999998992900245,-5.999999957275269,-2.6984333047304507,16.433098,2.3500528,-8.25342,0.34308118,18.80731,-9.379876,2.0532067,0.12704575,-0.3297745,0.34588993,0.8691766,-12.288328,-6.518874,-0.042005617,4.9388065,-4.7988415,-2.239274,0
0.17,20.99999988049708,5.9999998992900245,-5.999999957275269,-2.6984333047304507,16.433098,2.3500528,-8.25342,0.34308118,18.683931,-9.444338,2.052868,0.15348412,-0.30898246,0.36066186,0.8665421,-12.385564,-6.372215,-0.025565412,5.1039524,-4.986477,-2.261805,0
0.18000000000000002,20.99999988049708,5.9999998992900245,-5.999999957275269,-2.6984333047304507,16.433098,2.3500528,-8.25342,0.34308118,18.559645,-9.507297,2.052699,0.18034843,-0.2869341,0.37542132,0.8626713,-12.469708,-6.218504,-0.008016265,5.243386,-5.1448135,-2.2832305,0
0.19000000000000003,20.99999988049708,5.9999998992900245,-5.999999957275269,-2.6984333047304507,16.433098,2.3500528,-8.25342,0.34308118,18.434584,-9.5686865,2.0527103,0.20749334,-0.2637577,0.3900181,0.8574754,-12.539849,-6.058538,0.010383927,5.361111,-5.278425,-2.3036046,0
0.20000000000000004,21.0,4.903002829085214,-5.9999992086792,-1.1037217759300693,17.907242,1.3030457,-7.7886567,-0.2951414,18.308895,-9.62845,2.052909,0.2347847,-0.23957345,0.40432265,0.8508841,-12.595181,-5.8932557,0.029331889,5.460509,-5.3911724,-2.322979,0
0.21000000000000005,21.0,4.903002829085214,-5.9999992086792,-1.1037217759300693,17.907242,1.3030457,-7.7886567,-0.2951414,18.182732,-9.686538,2.053298,0.26183152,-0.21452408,0.41790083,0.8430791,-12.635049,-5.723739,0.04851127,5.3736367,-5.4857774,-2.2631497,0
0.22000000000000006,21.0,4.903002829085214,-5.9999992086792,-1.1037217759300693,17.907242,1.3030457,-7.7886567,-0.2951414,18.056248,-9.742915,2.0538793,0.28830862,-0.18874645,0.43042165,0.8342601,-12.659073,-5.5512786,0.06771371,5.3003297,-5.565665,-2.2062564,0
0.23000000000000007,21.0,4.903002829085214,-5.9999992086792,-1.1037217759300693,17.907242,1.3030457,-7.7886567,-0.2951414,17.929604,-9.797558,2.0546517,0.3141877,-0.16233808,0.44191992,0.82440215,-12.667048,-5.3772173,0.08674006,5.2384686,-5.633125,-2.1521547,0
0.24000000000000007,21.0,4.903002829085214,-5.9999992086792,-1.1037217759300693,16.985579,1.0545819,-6.697977,-0.4018168,17.80296,-9.850458,2.0556126,0.3394388,-0.13538751,0.45242444,0.81348836,-12.658889,-5.2028875,0.105353676,5.1862636,-5.6900916,-2.100708,0
0.25000000000000006,21.0,4.903002829085214,-5.9999992086792,-1.1037217759300693,16.985579,1.0545819,-6.697977,-0.4018168,17.67648,-9.901619,2.0567565,0.36403129,-0.10797602,0.46195856,0.8015088,-12.63462,-5.029605,0.12328695,5.1422067,-5.738197,-2.0517857,0
0.26000000000000006,21.0,4.903002829085214,-5.9999992086792,-1.1037217759300693,16.985579,1.0545819,-6.697977,-0.4018168,17.550322,-9.951057,2.0580752,0.38793418,-0.08017894,0.47054148,0.7884597,-12.594379,-4.858662,0.14024754,5.1050243,-5.7788205,-2.0052638,0
0.2700000000000001,21.0,4.903002829085214,-5.9999992086792,-1.1037217759300693,16.985579,1.0545819,-6.697977,-0.4018168,17.424648,-9.998803,2.0595572,0.4111167,-0.052066743,0.47818878,0.7743431,-12.538416,-4.691323,0.15592399,5.0736423,-5.8131256,-1.9610248,0
0.2800000000000001,20.99999999698697,3.3829332560610452,-4.145269664540978,-0.23575223303063955,17.475042,0.8066107,-4.960033,-0.3264107,17.29961,-10.0449,2.061188,0.43354866,-0.02370591,0.4849132,0.7591655,-12.46708,-4.528814,0.16999096,5.0471544,-5.8420963,-1.9189566,0
0.2900000000000001,20.99999999698697,3.3829332560610452,-4.145269664540978,-0.23575223303063955,17.475042,0.8066107,-4.960033,-0.3264107,17.175358,-10.0894,2.0629501,0.45476037,0.0040645357,0.49060884,0.74328923,-12.380906,-4.37228,0.18212453,4.788252,-5.5768948,-1.8363612,0
0.3000000000000001,20.99999999698697,3.3829332560610452,-4.145269664540978,-0.23575223303063955,17.475042,0.8066107,-4.960033,-0.3264107,17.052038,-10.132368,2.064823,0.47442532,0.030579517,0.49526593,0.7271153,-12.28095,-4.22256,0.19207194,4.5696354,-5.353138,-1.7578188,0
0.3100000000000001,20.99999999698697,3.3829332560610452,-4.145269664540978,-0.23575223303063955,17.475042,0.8066107,-4.960033,-0.3264107,16.929785,-10.173877,2.0667834,0.49270758,0.056019228,0.49901482,0.7106932,-12.168358,-4.0802875,0.19963679,4.385038,-5.164346,-1.6831306,0
0.3200000000000001,20.99999984464768,1.5254326704363492,-1.60076446844939,0.3118193793904642,15.942649,0.23939785,-2.5511274,-0.13265677,16.808712,-10.214002,2.068807,0.5097441,0.08053738,0.5019582,0.69405484,-12.044188,-3.945998,0.20465194,4.229167,-5.0050545,-1.6121073,0
0.3300000000000001,20.99999984464768,1.5254326704363492,-1.60076446844939,0.3118193793904642,15.942649,0.23939785,-2.5511274,-0.13265677,16.688934,-10.252825,2.070867,0.5251697,0.10321658,0.50419813,0.6777365,-11.909501,-3.8200684,0.20698899,3.808356,-4.4734797,-1.5176997,0
0.34000000000000014,20.99999984464768,1.5254326704363492,-1.60076446844939,0.3118193793904642,15.942649,0.23939785,-2.5511274,-0.13265677,16.57055,-10.290431,2.0729373,0.5387639,0.12335939,0.505894,0.66225874,-11.765735,-3.702328,0.20664927,3.4530153,-4.0249267,-1.4279246,0
0.35000000000000014,20.99999984464768,1.5254326704363492,-1.60076446844939,0.3118193793904642,15.942649,0.23939785,-2.5511274,-0.13265677,16.453648,-10.326898,2.074991,0.55081743,0.14138359,0.5071799,0.6475947,-11.61424,-3.5923939,0.2037039,3.1529658,-3.6464243,-1.3425549,0
0.36000000000000015,20.999998890211902,-0.46835621175035896,0.9156490490146518,1.348819638084073,15.636834,-0.47054592,-0.29569793,-0.10732551,16.338293,-10.362303,2.0770025,0.5615668,0.15764253,0.5081519,0.63369757,-11.456124,-3.4898741,0.19824243,2.899609,-3.3270292,-1.2613744,0
0.37000000000000016,20.999998890211902,-0.46835621175035896,0.9156490490146518,1.348819638084073,15.636834,-0.47054592,-0.29569793,-0.10732551,16.224548,-10.396718,2.0789475,0.57075197,0.17141768,0.5089341,0.62116313,-11.292372,-3.394296,0.19038758,2.3751462,-2.6647544,-1.1332912,0
0.38000000000000017,20.999998890211902,-0.46835621175035896,0.9156490490146518,1.348819638084073,15.636834,-0.47054592,-0.29569793,-0.10732551,16.112463,-10.430209,2.080803,0.5782084,0.1821804,0.509666,0.61051226,-11.124161,-3.304662,0.18041913,1.9322858,-2.1059103,-1.0114933,0
0.3900000000000002,20.999998890211902,-0.46835621175035896,0.9156490490146518,1.348819638084073,15.636834,-0.47054592,-0.29569793,-0.10732551,16.002077,-10.462829,2.0825496,0.5842278,0.19045588,0.5104118,0.60156757,-10.952536,-3.2198746,0.16865309,1.5583429,-1.6343343,-0.8956721,0
0.4000000000000002,20.99999889604687,-2.883655322740824,3.761449907144705,1.6482818135379158,18.51498,-1.2153082,1.5499582,-0.15362032,15.89342,-10.49462,2.0841708,0.58903986,0.19668105,0.5112047,0.5941528,-10.778304,-3.1389573,0.15537345,1.2426028,-1.2363912,-0.78553426,0
0.4100000000000002,20.99999889604687,-2.883655322740824,3.761449907144705,1.6482818135379158,18.51498,-1.2153082,1.5499582,-0.15362032,15.786516,-10.525618,2.0856528,0.59241784,0.19999434,0.51215506,0.5888462,-10.602166,-3.0609374,0.14086597,0.59955287,-0.45660228,-0.6661062,0
0.4200000000000002,20.99999889604687,-2.883655322740824,3.761449907144705,1.6482818135379158,18.51498,-1.2153082,1.5499582,-0.15362032,15.681379,-10.555843,2.0869856,0.59418905,0.19973499,0.51335514,0.5860982,-10.425061,-2.9842954,0.12558761,0.05662185,0.20144258,-0.5525386,0
0.4300000000000002,20.99999889604687,-2.883655322740824,3.761449907144705,1.6482818135379158,18.51498,-1.2153082,1.5499582,-0.15362032,15.578015,-10.585303,2.0881639,0.5945736,0.19649933,0.51477236,0.58555865,-10.247876,-2.9074943,0.10999253,-0.4017639,0.7567622,-0.44454366,0
0.4400000000000002,20.99999889604687,-2.883655322740824,3.761449907144705,1.6482818135379158,19.484701,-2.9501052,3.612064,0.33298665,15.47642,-10.613988,2.089186,0.5937345,0.19078037,0.51635677,0.5869048,-10.071357,-2.829231,0.09444916,-0.7887579,1.2254022,-0.34184813,0
0.45000000000000023,20.99999889604687,-2.883655322740824,3.761449907144705,1.6482818135379158,19.484701,-2.9501052,3.612064,0.33298665,15.376584,-10.641879,2.090054,0.5917945,0.18298705,0.518051,0.5898454,-9.896157,-2.7484114,0.07924655,-1.1154697,1.6209003,-0.24419186,0
0.46000000000000024,20.99999889604687,-2.883655322740824,3.761449907144705,1.6482818135379158,19.484701,-2.9501052,3.612064,0.33298665,15.278491,-10.668945,2.0907726,0.58884805,0.17346007,0.5197971,0.5941212,-9.722865,-2.6641297,0.06460273,-1.3912815,1.9546783,-0.15132762,0
0.47000000000000025,20.99999889604687,-2.883655322740824,3.761449907144705,1.6482818135379158,19.484701,-2.9501052,3.612064,0.33298665,15.182118,-10.695147,2.0913484,0.5849698,0.1624843,0.52153987,0.59950376,-9.552033,-2.5756462,0.05067363,-1.6241164,2.2363737,-0.063020274,0
0.48000000000000026,20.99999941325472,-4.609131796884051,5.005271314629961,1.5920590767060796,20.283947,-2.8064833,4.7332377,0.4733544,15.08744,-10.720442,2.091789,0.5802204,0.15029898,0.52322906,0.60579306,-9.384184,-2.482369,0.037561823,-1.8206656,2.474117,0.020953793,0
0.49000000000000027,20.99999941325472,-4.609131796884051,5.005271314629961,1.5920590767060796,20.283947,-2.8064833,4.7332377,0.4733544,14.994422,-10.744777,2.0921028,0.5744894,0.13639855,0.5246847,0.6132395,-9.219869,-2.3837829,0.025356472,-2.2556736,2.868731,0.09804838,0
0.5000000000000002,20.99999941325472,-4.609131796884051,5.005271314629961,1.5920590767060796,20.283947,-2.8064833,4.7332377,0.4733544,14.903027,-10.768096,2.0923002,0.56765795,0.12038765,0.52573043,0.6219954,-9.05992,-2.2791967,0.014279353,-2.6228676,3.2017753,0.17135993,0
0.5100000000000002,20.99999941325472,-4.609131796884051,5.005271314629961,1.5920590767060796,20.283947,-2.8064833,4.7332377,0.4733544,14.813205,-10.790338,2.0923932,0.5597597,0.102601856,0.5263273,0.6317603,-8.905245,-2.168003,0.004525859,-2.9328134,3.4828627,0.24107404,0
0.5200000000000002,20.999999771975308,-5.438212398970058,5.21917980512462,1.3794813292011925,20.712254,-3.3430285,5.6368113,0.8087986,14.7249,-10.811432,2.0923955,0.5508226,0.083327256,0.5264396,0.6422708,-8.756726,-2.049787,-0.003799558,-3.194432,3.7201035,0.30736727,0
0.5300000000000002,20.999999771975308,-5.438212398970058,5.21917980512462,1.3794813292011925,20.712254,-3.3430285,5.6368113,0.8087986,14.638046,-10.831307,2.092322,0.54086727,0.06255809,0.5258685,0.6534607,-8.615243,-1.9242983,-0.0106513435,-3.5445302,3.9536927,0.3599762,0
0.5400000000000003,20.999999771975308,-5.438212398970058,5.21917980512462,1.3794813292011925,20.712254,-3.3430285,5.6368113,0.8087986,14.5525675,-10.849892,2.0921881,0.5298985,0.04030687,0.52443886,0.66524136,-8.481781,-1.7913895,-0.015945308,-3.84003,4.1508503,0.4100036,0
0.5500000000000003,20.999999771975308,-5.438212398970058,5.21917980512462,1.3794813292011925,20.712254,-3.3430285,5.6368113,0.8087986,14.468379,-10.867109,2.0920088,0.51792234,0.016828042,0.5221556,0.677367,-8.357332,-1.6510669,-0.019650005,-4.0894437,4.3172626,0.45757613,0
0.5600000000000003,20.999999789682363,-5.419081920072749,4.458534953738396,1.0416950726170968,20.503529,-3.72856,5.9717298,0.76785666,14.385386,-10.882888,2.0918002,0.5049495,-0.007656963,0.5190245,0.68962324,-8.242836,-1.5035013,-0.021820799,-4.2999563,4.457727,0.5028143,0
0.5700000000000003,20.999999789682363,-5.419081920072749,4.458534953738396,1.0416950726170968,20.503529,-3.72856,5.9717298,0.76785666,14.303485,-10.897156,2.0915775,0.49118462,-0.03276108,0.51490855,0.70180684,-8.13916,-1.3490309,-0.022572156,-4.47456,4.457719,0.52925736,0
0.5800000000000003,20.999999789682363,-5.419081920072749,4.458534953738396,1.0416950726170968,20.503529,-3.72856,5.9717298,0.76785666,14.222563,-10.909846,2.0913537,0.47681057,-0.058160488,0.50971663,0.71376276,-8.047018,-1.1882253,-0.02199386,-4.6219306,4.45772,0.5544028,0
0.5900000000000003,20.999999789682363,-5.419081920072749,4.458534953738396,1.0416950726170968,20.503529,-3.72856,5.9717298,0.76785666,14.142502,-10.920901,2.0911417,0.46181518,-0.08376035,0.50351924,0.72538173,-7.967022,-1.0217673,-0.020204546,-4.7463155,4.4577284,0.5783144,0
0.6000000000000003,20.99999975929798,-4.61758786168406,3.2490223220173378,0.7121265957417201,20.453869,-3.7339158,4.6915307,0.9068845,14.063179,-10.930265,2.090953,0.44619456,-0.10947641,0.49637914,0.7365679,-7.899712,-0.8503965,-0.01737543,-4.8513,4.4577427,0.60105264,0
0.6100000000000003,20.99999975929798,-4.61758786168406,3.2490223220173378,0.7121265957417201,20.453869,-3.7339158,4.6915307,0.9068845,13.984463,-10.937895,2.090797,0.4302642,-0.13475536,0.48837847,0.7471275,-7.845506,-0.67492193,-0.013712546,-4.8147945,4.2692404,0.60650307,0
0.6200000000000003,20.99999975929798,-4.61758786168406,3.2490223220173378,0.7121265957417201,20.453869,-3.7339158,4.6915307,0.9068845,13.906223,-10.943752,2.0906813,0.41431025,-0.15916093,0.47962278,0.7569519,-7.804459,-0.49628252,-0.009396373,-4.783991,4.1101336,0.6116861,0
0.6300000000000003,20.99999975929798,-4.61758786168406,3.2490223220173378,0.7121265957417201,20.453869,-3.7339158,4.6915307,0.9068845,13.828329,-10.947812,2.090611,0.3982945,-0.1827822,0.47019303,0.76607454,-7.7764883,-0.31540608,-0.004599179,-4.758,3.9758396,0.6166148,0
0.6400000000000003,20.99999975929798,-4.61758786168406,3.2490223220173378,0.7121265957417201,20.539745,-3.7120304,3.9449568,0.9813953,13.750649,-10.950055,2.0905902,0.38218582,-0.20569414,0.46015623,0.774519,-7.7614884,-0.13316408,0.0004982982,-4.736069,3.862487,0.62130165,1
0.6500000000000004,20.99999975929798,-4.61758786168406,3.2490223220173378,0.7121265957417201,20.539745,-3.7120304,3.9449568,0.9813953,13.673055,-10.950493,2.0906098,0.36588418,-0.22802447,0.44996285,0.78209114,-7.7593684,0.045633383,0.0034078488,-4.576421,3.8753598,0.6389715,1
0.6600000000000004,20.99999975929798,-4.61758786168406,3.2490223220173378,0.7121265957417201,20.539745,-3.7120304,3.9449568,0.9813953,13.595419,-10.949142,2.090657,0.34932253,-0.24988596,0.43997547,0.78863925,-7.769587,0.22434935,0.005968493,-4.441667,3.8862207,0.65577435,1
0.6700000000000004,20.99999975929798,-4.61758786168406,3.2490223220173378,0.7121265957417201,20.539745,-3.7120304,3.9449568,0.9813953,13.517621,-10.946008,2.0907261,0.33252063,-0.2713137,0.4301266,0.7942352,-7.791905,0.40241474,0.007725018,-4.327925,3.8953843,0.6717527,1
0.6800000000000004,20.999999576104894,-3.4148758710522875,1.8894921802957525,0.3436580239148999,20.903442,-4.417111,3.4810271,0.839562,13.43954,-10.941098,2.0908072,0.31549457,-0.29233414,0.4203587,0.79893804,-7.8260775,0.5792739,0.008266051,-4.2319193,3.9031153,0.6869469,0
0.6900000000000004,20.999999576104894,-3.4148758710522875,1.8894921802957525,0.3436580239148999,20.903442,-4.417111,3.4810271,0.839562,13.361055,-10.93441,2.0908968,0.2987036,-0.31230822,0.41044527,0.80297816,-7.8728204,0.7582933,0.009444395,-4.104322,3.589194,0.67010164,0
0.7000000000000004,20.999999576104894,-3.4148758710522875,1.8894921802957525,0.3436580239148999,20.903442,-4.417111,3.4810271,0.839562,13.282045,-10.925942,2.0909903,0.28252846,-0.3307453,0.4002349,0.80659574,-7.930727,0.93490046,0.009052006,-3.9966524,3.324215,0.654083,0
0.7100000000000004,20.999999576104894,-3.4148758710522875,1.8894921802957525,0.3436580239148999,20.903442,-4.417111,3.4810271,0.839562,13.202404,-10.915724,2.0910726,0.26687354,-0.3478634,0.3897779,0.80984086,-7.9991074,1.1085458,0.007193089,-3.9057984,3.1005483,0.6388504,0
0.7200000000000004,20.99999753657153,-1.9603867523095184,0.30157968404350266,-0.06332010537171821,20.299713,-4.501105,2.501469,0.5340279,13.122029,-10.903785,2.0911293,0.25165614,-0.36384574,0.3791116,0.812748,-8.077343,1.2787576,0.0039549354,-3.8291333,2.9117527,0.6243652,0
0.7300000000000004,20.99999753657153,-1.9603867523095184,0.30157968404350266,-0.06332010537171821,20.299713,-4.501105,2.501469,0.5340279,13.040825,-10.890162,2.0911472,0.23730294,-0.3782094,0.3685673,0.81535435,-8.164805,1.44515,-0.0005689546,-3.5374825,2.5048943,0.59062034,0
0.7400000000000004,20.99999753657153,-1.9603867523095184,0.30157968404350266,-0.06332010537171821,20.299713,-4.501105,2.501469,0.5340279,12.958705,-10.874896,2.091114,0.22416657,-0.39060745,0.35843202,0.8177416,-8.260523,1.6075523,-0.006160264,-3.2913578,2.1614523,0.55853134,0
0.7500000000000004,20.99999753657153,-1.9603867523095184,0.30157968404350266,-0.06332010537171821,20.299713,-4.501105,2.501469,0.5340279,12.87559,-10.858026,2.0910208,0.21207736,-0.4013606,0.34866396,0.81997925,-8.363527,1.7659124,-0.0125709465,-3.0836506,1.8715434,0.52801687,0
0.7600000000000005,19.7019427913435,-0.327005549734426,-1.2580904620270141,-0.47575547124551065,16.990765,-2.8576741,-0.092377365,-0.4032903,12.791412,-10.839592,2.0908604,0.20088772,-0.41073552,0.33921975,0.82211316,-8.473011,1.9202216,-0.019577892,-2.908363,1.6268239,0.49899983,0
0.7700000000000005,19.7019427913435,-0.327005549734426,-1.2580904620270141,-0.47575547124551065,16.990765,-2.8576741,-0.092377365,-0.4032903,12.706146,-10.819682,2.0906,0.19099404,-0.41833237,0.33045372,0.8242083,-8.581097,2.0612447,-0.032567654,-2.505618,1.1771327,0.4511683,0
0.7800000000000005,19.7019427913435,-0.327005549734426,-1.2580904620270141,-0.47575547124551065,16.990765,-2.8576741,-0.092377365,-0.4032903,12.619777,-10.798379,2.090209,0.18271293,-0.4238638,0.32265508,0.82634676,-8.693582,2.198811,-0.045595508,-2.1657288,0.7975258,0.40568388,0
0.7900000000000005,19.7019427913435,-0.327005549734426,-1.2580904620270141,-0.47575547124551065,16.990765,-2.8576741,-0.092377365,-0.4032903,12.532264,-10.775717,2.089689,0.17581575,-0.42767897,0.3156897,0.82856464,-8.809541,2.3332822,-0.058336243,-1.8788824,0.47708273,0.3624314,0
0.8000000000000005,18.12182768866545,1.1417146897386485,-2.4280823835039356,-0.7642062321452776,17.119776,-1.4250277,-0.85277206,0.06867348,12.443577,-10.751723,2.0890443,0.1701057,-0.43006513,0.30943662,0.8308771,-8.928211,2.4649954,-0.07050396,-1.6367983,0.2065848,0.32130134,0
0.8100000000000005,18.12182768866545,1.1417146897386485,-2.4280823835039356,-0.7642062321452776,17.119776,-1.4250277,-0.85277206,0.06867348,12.353742,-10.726478,2.088247,0.16584133,-0.43078306,0.30418387,0.83330345,-9.039233,2.5839243,-0.088794544,-1.203411,-0.20415673,0.26803514,0
0.8200000000000005,18.12182768866545,1.1417146897386485,-2.4280823835039356,-0.7642062321452776,17.119776,-1.4250277,-0.85277206,0.06867348,12.26279,-10.700051,2.0872722,0.16322024,-0.42965716,0.3001541,0.8358596,-9.151331,2.7011185,-0.10602874,-0.83764684,-0.55088454,0.21738277,0
0.8300000000000005,18.12182768866545,1.1417146897386485,-2.4280823835039356,-0.7642062321452776,17.119776,-1.4250277,-0.85277206,0.06867348,12.170714,-10.67246,2.0861313,0.1620029,-0.4269857,0.29715553,0.83853245,-9.263754,2.8170712,-0.12193397,-0.52895105,-0.8435717,0.16921592,0
0.8400000000000005,18.12182768866545,1.1417146897386485,-2.4280823835039356,-0.7642062321452776,15.943275,-1.166859,-1.494771,-0.093888655,12.077516,-10.643712,2.0848389,0.1619848,-0.4230139,0.2950212,0.84129804,-9.375869,2.9322042,-0.13628134,-0.26841658,-1.0906382,0.12341261,0
0.8500000000000005,18.12182768866545,1.1417146897386485,-2.4280823835039356,-0.7642062321452776,15.943275,-1.166859,-1.494771,-0.093888655,11.983199,-10.613816,2.0834115,0.16299176,-0.41794407,0.29360682,0.8441275,-9.487139,3.0468705,-0.14888224,-0.048527338,-1.2991924,0.079856895,0
0.8600000000000005,18.12182768866545,1.1417146897386485,-2.4280823835039356,-0.7642062321452776,15.943275,-1.166859,-1.494771,-0.093888655,11.887777,-10.582774,2.0818677,0.16487563,-0.4119443,0.29278848,0.84699035,-9.597107,3.1613617,-0.15958434,0.13705982,-1.4752357,0.03843847,0
0.8700000000000006,18.12182768866545,1.1417146897386485,-2.4280823835039356,-0.7642062321452776,15.943275,-1.166859,-1.494771,-0.093888655,11.791264,-10.550588,2.0802267,0.16751038,-0.40515444,0.29246026,0.84985703,-9.705375,3.2759137,-0.16826752,0.29369736,-1.6238352,-0.0009475369,0
0.8800000000000006,17.245142954128216,2.0901286372188745,-2.968141034237682,-0.9520801349980499,15.515036,-1.5730621,-1.4509766,-0.71074736,11.693677,-10.517255,2.0785093,0.17078887,-0.3976917,0.29253212,0.8527,-9.811597,3.3907127,-0.17483994,0.42590258,-1.7492675,-0.03840087,0
0.8900000000000006,17.245142954128216,2.0901286372188745,-2.968141034237682,-0.9520801349980499,15.515036,-1.5730621,-1.4509766,-0.71074736,11.595066,-10.4828005,2.0767148,0.17485268,-0.38941064,0.2932046,0.8554629,-9.9104185,3.5003512,-0.18376547,0.68537647,-1.9393762,-0.083235376,0
0.9000000000000006,17.245142954128216,2.0901286372188745,-2.968141034237682,-0.9520801349980499,15.515036,-1.5730621,-1.4509766,-0.71074736,11.49548,-10.447247,2.0748415,0.17980637,-0.38019583,0.29462892,0.85808766,-10.006554,3.6106222,-0.19055982,0.90437984,-2.0998483,-0.12586984,0
0.9100000000000006,17.245142954128216,2.0901286372188745,-2.968141034237682,-0.9520801349980499,15.515036,-1.5730621,-1.4509766,-0.71074736,11.394947,-10.410585,2.072911,0.18551555,-0.37017816,0.29666725,0.86054665,-10.099572,3.721747,-0.19518769,1.0892268,-2.2353017,-0.1664122,0
0.9200000000000006,17.035306518628946,2.7322399727778732,-3.054133487787111,-1.2312275449868741,14.64181,-0.9898689,-1.9996316,-0.88755935,11.293502,-10.372808,2.0709453,0.19186582,-0.359468,0.29920244,0.862814,-10.189095,3.8338852,-0.19763799,1.2452457,-2.3496356,-0.20496513,0
0.9300000000000006,17.035306518628946,2.7322399727778732,-3.054133487787111,-1.2312275449868741,14.64181,-0.9898689,-1.9996316,-0.88755935,11.191185,-10.333911,2.06896,0.19889095,-0.3480892,0.30233762,0.86479366,-10.273725,3.9457808,-0.19911678,1.4770465,-2.4595807,-0.2553241,0
0.9400000000000006,17.035306518628946,2.7322399727778732,-3.054133487787111,-1.2312275449868741,14.64181,-0.9898689,-1.9996316,-0.88755935,11.088042,-10.293888,2.0669703,0.2066115,-0.3360633,0.30614612,0.8663992,-10.354167,4.0589504,-0.19852668,1.672698,-2.552385,-0.30321193,0
0.9500000000000006,17.035306518628946,2.7322399727778732,-3.054133487787111,-1.2312275449868741,14.64181,-0.9898689,-1.9996316,-0.88755935,10.9841175,-10.252726,2.0649965,0.21491916,-0.3234744,0.31049573,0.8676211,-10.430057,4.1735144,-0.19595908,1.8378396,-2.6307197,-0.34874994,0
0.9600000000000006,16.4296110043609,2.851602942195907,-2.8422666311660802,-1.359011997227139,13.637988,-0.34502587,-2.393613,-1.1774442,10.879457,-10.210412,2.0630577,0.22372128,-0.31039467,0.31527433,0.86845034,-10.501061,4.2895365,-0.19151661,1.9772297,-2.6968381,-0.39205334,0
0.9700000000000006,16.4296110043609,2.851602942195907,-2.8422666311660802,-1.359011997227139,13.637988,-0.34502587,-2.393613,-1.1774442,10.774126,-10.16695,2.0611537,0.23294006,-0.29695418,0.32044286,0.86883456,-10.564548,4.4028583,-0.18902604,2.113498,-2.7196176,-0.43950227,0
0.9800000000000006,16.4296110043609,2.851602942195907,-2.8422666311660802,-1.359011997227139,13.637988,-0.34502587,-2.393613,-1.1774442,10.668185,-10.12235,2.0592823,0.24250959,-0.28326157,0.32596624,0.8687335,-10.622802,4.517603,-0.18499501,2.228519,-2.7388427,-0.48462287,0
0.9900000000000007,16.4296110043609,2.851602942195907,-2.8422666311660802,-1.359011997227139,13.637988,-0.34502587,-2.393613,-1.1774442,10.561688,-10.076593,2.0574584,0.25237212,-0.26934576,0.331762,0.86815614,-10.675616,4.6337385,-0.17958793,2.3256063,-2.755067,-0.5275294,0
1.0000000000000007,16.03893479011468,2.5594634230613096,-2.399771154516773,-1.447886547365406,12.068419,0.21782616,-2.5558534,-1.17153,10.454692,-10.029671,2.0556948,0.26247773,-0.2552327,0.33776018,0.86710995,-10.722803,4.7512007,-0.17296717,2.407557,-2.768758,-0.5683306,0
1.0100000000000007,16.03893479011468,2.5594634230613096,-2.399771154516773,-1.447886547365406,12.068419,0.21782616,-2.5558534,-1.17153,10.347257,-9.981579,2.0539901,0.27270374,-0.24113438,0.3438455,0.86559635,-10.763228,4.867072,-0.16781223,2.4311914,-2.711292,-0.6114906,0
1.0200000000000007,16.03893479011468,2.5594634230613096,-2.399771154516773,-1.447886547365406,12.068419,0.21782616,-2.5558534,-1.17153,10.239446,-9.932324,2.0523415,0.28295437,-0.22722538,0.34992892,0.863629,-10.797972,4.984025,-0.1618111,2.4511435,-2.6627839,-0.65253276,0
1.0300000000000007,16.03893479011468,2.5594634230613096,-2.399771154516773,-1.447886547365406,12.068419,0.21782616,-2.5558534,-1.17153,10.131317,-9.881895,2.0507562,0.293225,-0.21347634,0.35599083,0.8612301,-10.8270235,5.1019254,-0.15513694,2.4679868,-2.6218371,-0.69156104,0
1.0400000000000007,16.03893479011468,2.5594634230613096,-2.399771154516773,-1.447886547365406,11.584388,0.2600982,-2.4952807,-1.1015327,10.022925,-9.830282,2.0492404,0.30351055,-0.19986282,0.36201432,0.85841805,-10.850376,5.2206326,-0.1479501,2.4822054,-2.5872726,-0.7286741,0
1.0500000000000007,16.03893479011468,2.5594634230613096,-2.399771154516773,-1.447886547365406,11.584388,0.2600982,-2.4952807,-1.1015327,9.914329,-9.777479,2.0477984,0.31380543,-0.18636456,0.36798486,0.85520834,-10.868027,5.3400006,-0.14040007,2.4942086,-2.558095,-0.7639661,0
1.0600000000000007,16.03893479011468,2.5594634230613096,-2.399771154516773,-1.447886547365406,11.584388,0.2600982,-2.4952807,-1.1015327,9.805585,-9.72348,2.0464332,0.32410374,-0.1729649,0.3738898,0.8516138,-10.879971,5.4598775,-0.13262706,2.5043418,-2.5334647,-0.7975263,0
1.0700000000000007,16.03893479011468,2.5594634230613096,-2.399771154516773,-1.447886547365406,11.584388,0.2600982,-2.4952807,-1.1015327,9.69675,-9.668281,2.0451462,0.33439913,-0.15965016,0.3797182,0.8476455,-10.886211,5.580106,-0.12476313,2.5128965,-2.512672,-0.82943964,0
1.0800000000000007,15.822364602464482,1.8990645071913625,-1.8005870315613886,-1.4728435276357525,12.118115,-0.59520257,-2.249068,-0.85631955,9.587881,-9.611878,2.043938,0.34468508,-0.1464093,0.38546067,0.84331274,-10.886755,5.700525,-0.11693348,2.5201185,-2.4951189,-0.8597871,0
1.0900000000000007,15.822364602464482,1.8990645071913625,-1.8005870315613886,-1.4728435276357525,12.118115,-0.59520257,-2.249068,-0.85631955,9.479034,-9.554279,2.0428,0.35482848,-0.1335291,0.39097124,0.8386943,-10.881706,5.8193436,-0.11068353,2.423279,-2.3868005,-0.8898699,0
1.1000000000000008,15.822364602464482,1.8990645071913625,-1.8005870315613886,-1.4728435276357525,12.118115,-0.59520257,-2.249068,-0.85631955,9.370266,-9.495492,2.0417233,0.3647308,-0.12124068,0.39614427,0.8338715,-10.871254,5.938026,-0.10467937,2.341538,-2.2953773,-0.9184766,0
1.1100000000000008,15.822364602464482,1.8990645071913625,-1.8005870315613886,-1.4728435276357525,12.118115,-0.59520257,-2.249068,-0.85631955,9.261628,-9.435519,2.0407052,0.37443137,-0.10946005,0.4010251,0.8288536,-10.855607,6.056423,-0.0990013,2.2725415,-2.2182143,-0.94567955,0
1.1200000000000008,15.165219453492519,0.9632441760820762,-1.1846454139180203,-1.3294763850451283,12.023232,-1.0211803,-1.7363839,-0.6585187,9.153172,-9.374365,2.039742,0.38396192,-0.09811546,0.40565088,0.82364666,-10.834947,6.1743984,-0.09371923,2.2143016,-2.153087,-0.9715476,0
1.1300000000000008,15.165219453492519,0.9632441760820762,-1.1846454139180203,-1.3294763850451283,12.023232,-1.0211803,-1.7363839,-0.6585187,9.044941,-9.3120575,2.0388079,0.39319918,-0.08748672,0.40984347,0.81839395,-10.810524,6.286947,-0.09316213,2.0192723,-2.0019588,-0.98911124,0
1.1400000000000008,15.165219453492519,0.9632441760820762,-1.1846454139180203,-1.3294763850451283,12.023232,-1.0211803,-1.7363839,-0.6585187,8.936976,-9.248628,2.0378768,0.40205362,-0.07779459,0.41347423,0.813228,-10.78181,6.3988595,-0.09303729,1.8546469,-1.8744137,-1.005813,0
1.1500000000000008,15.165219453492519,0.9632441760820762,-1.1846454139180203,-1.3294763850451283,12.023232,-1.0211803,-1.7363839,-0.6585187,8.829319,-9.184082,2.0369453,0.41059238,-0.06890198,0.41663587,0.80813414,-10.749145,6.5100484,-0.0933257,1.7156854,-1.7667718,-1.0216953,0
1.1600000000000008,14.785824891466454,0.005086031411150398,-0.7005182307218637,-1.1114446419699424,11.256538,-1.209891,-1.1905241,-0.16602625,8.722006,-9.118429,2.0360088,0.41887018,-0.060691796,0.41940448,0.8030965,-10.712815,6.6204433,-0.09400657,1.5983866,-1.6759273,-1.0367981,0
1.1700000000000008,14.785824891466454,0.005086031411150398,-0.7005182307218637,-1.1114446419699424,11.256538,-1.209891,-1.1905241,-0.16602625,8.615068,-9.051691,2.0350518,0.4268074,-0.053370092,0.4216199,0.7982628,-10.674089,6.7272463,-0.09747675,1.3500116,-1.5236486,-1.040461,0
1.1800000000000008,14.785824891466454,0.005086031411150398,-0.7005182307218637,-1.1114446419699424,11.256538,-1.209891,-1.1905241,-0.16602625,8.508534,-8.983889,2.0340586,0.43434638,-0.04709542,0.42316556,0.79376066,-10.63244,6.8331795,-0.101211,1.1403551,-1.3951426,-1.0439441,0
1.1900000000000008,14.785824891466454,0.005086031411150398,-0.7005182307218637,-1.1114446419699424,11.256538,-1.209891,-1.1905241,-0.16602625,8.402429,-8.915031,2.0330272,0.4415558,-0.04171068,0.42415527,0.7895447,-10.588238,6.9382205,-0.10510915,0.96338147,-1.286698,-1.0472565,0
1.2000000000000008,14.42449817577418,-0.8528998359997829,-0.3552363497586707,-0.8141638514703549,11.921402,-2.3277304,-0.53994894,-0.29034764,8.296778,-8.845128,2.0319562,0.44849154,-0.037082065,0.4246824,0.785573,-10.541798,7.042361,-0.109082244,0.8139958,-1.1951834,-1.0504062,0
1.2100000000000009,14.42449817577418,-0.8528998359997829,-0.3552363497586707,-0.8141638514703549,11.921402,-2.3277304,-0.53994894,-0.29034764,8.191594,-8.774201,2.030834,0.45509988,-0.03334345,0.4246188,0.7819661,-10.494591,7.1430745,-0.11534232,0.55414206,-1.064012,-1.0388138,0
1.2200000000000009,14.42449817577418,-0.8528998359997829,-0.3552363497586707,-0.8141638514703549,11.921402,-2.3277304,-0.53994894,-0.29034764,8.086892,-8.7022705,2.0296495,0.46133894,-0.030594269,0.42386973,0.77882254,-10.445845,7.242918,-0.121455655,0.33479652,-0.9533281,-1.0277902,0
1.2300000000000009,14.42449817577418,-0.8528998359997829,-0.3552363497586707,-0.8141638514703549,11.921402,-2.3277304,-0.53994894,-0.29034764,7.9826827,-8.629347,2.0284057,0.46726525,-0.02868251,0.42254898,0.7760752,-10.395908,7.3419104,-0.12728791,0.1496443,-0.85993105,-1.0173075,0
1.2400000000000009,14.42449817577418,-0.8528998359997829,-0.3552363497586707,-0.8141638514703549,11.997047,-2.8452258,-0.4432125,-0.017416429,7.878978,-8.555436,2.027105,0.47292474,-0.027479071,0.4207502,0.7736641,-10.3450775,7.440074,-0.13272533,-0.0066445693,-0.7811208,-1.0073392,0
1.2500000000000009,14.42449817577418,-0.8528998359997829,-0.3552363497586707,-0.8141638514703549,11.997047,-2.8452258,-0.4432125,-0.017416429,7.775784,-8.480548,2.0257528,0.47835505,-0.026874388,0.41855067,0.77153695,-10.293599,7.5374346,-0.13767256,-0.13856967,-0.7146187,-0.99785995,0
1.260000000000001,14.42449817577418,-0.8528998359997829,-0.3552363497586707,-0.8141638514703549,11.997047,-2.8452258,-0.4432125,-0.017416429,7.6731076,-8.40469,2.0243535,0.48358706,-0.026775522,0.41601437,0.7696482,-10.24169,7.634016,-0.14205033,-0.24992879,-0.65850246,-0.98884594,0
1.270000000000001,14.42449817577418,-0.8528998359997829,-0.3552363497586707,-0.8141638514703549,11.997047,-2.8452258,-0.4432125,-0.017416429,7.5709515,-8.327869,2.0229137,0.48864624,-0.027103674,0.4131944,0.7679586,-10.189528,7.7298417,-0.14579351,-0.34392792,-0.6111496,-0.98027426,0
1.280000000000001,14.024841321364004,-1.3711577458060087,-0.14567647092846256,-0.5115405287164079,12.261959,-3.2915642,-0.35920143,0.3523837,7.4693174,-8.250094,2.0214398,0.49355382,-0.027792051,0.41013482,0.7664342,-10.137272,7.8249326,-0.14884906,-0.42327332,-0.5711918,-0.9721232,0
1.290000000000001,14.024841321364004,-1.3711577458060087,-0.14567647092846256,-0.5115405287164079,12.261959,-3.2915642,-0.35920143,0.3523837,7.3681984,-8.171386,2.0199258,0.49825862,-0.028935742,0.4067562,0.76514715,-10.086513,7.9166956,-0.15382248,-0.57104576,-0.5047477,-0.9495223,0
1.300000000000001,14.024841321364004,-1.3711577458060087,-0.14567647092846256,-0.5115405287164079,12.261959,-3.2915642,-0.35920143,0.3523837,7.2675858,-8.091763,2.018366,0.5027166,-0.03060595,0.40299773,0.7641543,-10.035999,8.007793,-0.15801246,-0.6957819,-0.44868338,-0.92803043,0
1.310000000000001,14.024841321364004,-1.3711577458060087,-0.14567647092846256,-0.5115405287164079,12.261959,-3.2915642,-0.35920143,0.3523837,7.167476,-8.011231,2.0167685,0.5069535,-0.032718148,0.398918,0.763408,-9.985925,8.098254,-0.16135515,-0.80107236,-0.4013766,-0.9075932,0
1.320000000000001,13.869685423758895,-1.6087139584111003,-0.10631777667842221,-0.2342200569072371,12.478909,-3.6781073,-0.34755355,0.7097318,7.067865,-7.929799,2.0151417,0.5109911,-0.035200834,0.39456582,0.76286733,-9.936456,8.188102,-0.1638013,-0.88994867,-0.36145905,-0.8881588,0
1.330000000000001,13.869685423758895,-1.6087139584111003,-0.10631777667842221,-0.2342200569072371,12.478909,-3.6781073,-0.34755355,0.7097318,6.9687424,-7.8474765,2.01349,0.5148118,-0.038040776,0.38991874,0.76255155,-9.888281,8.276371,-0.16637969,-1.0020099,-0.32162598,-0.8560698,0
1.340000000000001,13.869685423758895,-1.6087139584111003,-0.10631777667842221,-0.2342200569072371,12.478909,-3.6781073,-0.34755355,0.7097318,6.870096,-7.7642736,2.0118175,0.5183985,-0.041222956,0.3849609,0.76247525,-9.841008,8.36407,-0.16798764,-1.0966005,-0.28801766,-0.8255555,0
1.350000000000001,13.869685423758895,-1.6087139584111003,-0.10631777667842221,-0.2342200569072371,12.478909,-3.6781073,-0.34755355,0.7097318,6.771918,-7.680197,2.0101337,0.52176887,-0.04468919,0.3797386,0.7625999,-9.794784,8.451213,-0.16858795,-1.1764443,-0.259661,-0.79653853,0
1.360000000000001,13.481177116227938,-1.558580662835551,-0.3423308203206909,0.027736132182480795,12.469169,-3.7627382,-0.95540255,1.0664706,6.674196,-7.595251,2.0084493,0.5249382,-0.0483904,0.3742908,0.76289225,-9.749734,8.537807,-0.1681553,-1.24384,-0.2357346,-0.76894534,0
1.370000000000001,13.481177116227938,-1.558580662835551,-0.3423308203206909,0.027736132182480795,12.469169,-3.7627382,-0.95540255,1.0664706,6.5769124,-7.5094543,2.0067604,0.5279314,-0.052190565,0.36861745,0.76333845,-9.707192,8.621446,-0.1694618,-1.2929256,-0.2523665,-0.7298519,0
1.380000000000001,13.481177116227938,-1.558580662835551,-0.3423308203206909,0.027736132182480795,12.469169,-3.7627382,-0.95540255,1.0664706,6.4800477,-7.422824,2.0050635,0.53076565,-0.055978257,0.36272043,0.7639293,-9.665965,8.704528,-0.1697271,-1.3343548,-0.26640892,-0.6926768,0
1.390000000000001,13.481177116227938,-1.558580662835551,-0.3423308203206909,0.027736132182480795,12.469169,-3.7627382,-0.95540255,1.0664706,6.383589,-7.3353662,2.0033693,0.5334433,-0.059748705,0.3566325,0.7646446,-9.626109,8.787025,-0.16893542,-1.3693217,-0.2782647,-0.6573259,0
1.400000000000001,13.232467702105941,-1.320412901643943,-0.520781644148993,0.22715056772288453,14.289248,-4.201548,-2.5465379,2.2405782,6.287521,-7.247086,2.0016885,0.5359672,-0.06349819,0.35038158,0.7654669,-9.587673,8.86891,-0.16707869,-1.3988346,-0.28827387,-0.62370974,0
1.410000000000001,13.232467702105941,-1.320412901643943,-0.520781644148993,0.22715056772288453,14.289248,-4.201548,-2.5465379,2.2405782,6.191827,-7.1579976,2.0000222,0.538353,-0.06710945,0.34402758,0.7663662,-9.551376,8.948656,-0.1660196,-1.3866109,-0.3245761,-0.5819578,0
1.420000000000001,13.232467702105941,-1.320412901643943,-0.520781644148993,0.22715056772288453,14.289248,-4.201548,-2.5465379,2.2405782,6.0964885,-7.0681148,1.9983716,0.5406122,-0.07048846,0.33762008,0.76732147,-9.516503,9.027737,-0.16392124,-1.3762898,-0.35521376,-0.5422547,0
1.430000000000001,13.232467702105941,-1.320412901643943,-0.520781644148993,0.22715056772288453,14.289248,-4.201548,-2.5465379,2.2405782,6.001492,-6.9774446,1.9967474,0.5427425,-0.07366422,0.3311669,0.7683309,-9.48304,9.106113,-0.16079433,-1.3675758,-0.38107085,-0.5044998,0
1.440000000000001,13.232467702105941,-1.320412901643943,-0.520781644148993,0.22715056772288453,14.330476,-3.6820812,-2.7833617,2.2642963,5.9068227,-6.885995,1.9951594,0.5447429,-0.07666168,0.32467476,0.7693921,-9.4509735,9.183751,-0.15665133,-1.3602184,-0.4028929,-0.4685975,0
1.450000000000001,13.232467702105941,-1.320412901643943,-0.520781644148993,0.22715056772288453,14.330476,-3.6820812,-2.7833617,2.2642963,5.8124676,-6.793772,1.9936178,0.5466133,-0.07950237,0.3181493,0.7705024,-9.420297,9.260621,-0.1515062,-1.354007,-0.42130962,-0.43445694,0
1.460000000000001,13.232467702105941,-1.320412901643943,-0.520781644148993,0.22715056772288453,14.330476,-3.6820812,-2.7833617,2.2642963,5.718412,-6.700785,1.9921327,0.5483546,-0.08220481,0.3115953,0.77165896,-9.391002,9.336694,-0.14537428,-1.3487631,-0.43685222,-0.40199167,0
1.470000000000001,13.232467702105941,-1.320412901643943,-0.520781644148993,0.22715056772288453,14.330476,-3.6820812,-2.7833617,2.2642963,5.6246424,-6.607041,1.9907137,0.54996836,-0.08478507,0.3050168,0.7728588,-9.363088,9.411945,-0.13827206,-1.3443362,-0.44996917,-0.37111947,0
1.480000000000001,13.182427435853825,-0.8992063993705709,-0.6859675442339256,0.36094257210735503,13.855146,-3.0822306,-2.1292217,1.4916788,5.531145,-6.512549,1.9893705,0.5514563,-0.08725703,0.2984172,0.7740988,-9.336551,9.486353,-0.13021709,-1.3405991,-0.46103895,-0.34176219,0
1.490000000000001,13.182427435853825,-0.8992063993705709,-0.6859675442339256,0.36094257210735503,13.855146,-3.0822306,-2.1292217,1.4916788,5.4379063,-6.417319,1.9881107,0.5528428,-0.08948361,0.29189515,0.77534145,-9.311476,9.559615,-0.12163447,-1.271761,-0.49616042,-0.30728027,0
1.500000000000001,13.182427435853825,-0.8992063993705709,-0.6859675442339256,0.36094257210735503,13.855146,-3.0822306,-2.1292217,1.4916788,5.3449116,-6.3213596,1.986941,0.5541473,-0.09135645,0.28553003,0.77656096,-9.287693,9.6319895,-0.11215272,-1.2136561,-0.5257983,-0.2744904,0
1.5100000000000011,13.182427435853825,-0.8992063993705709,-0.6859675442339256,0.36094257210735503,13.855146,-3.0822306,-2.1292217,1.4916788,5.2521486,-6.2246823,1.9858705,0.55536574,-0.0929255,0.27929848,0.77776974,-9.265126,9.70345,-0.101802,-1.1646112,-0.5508091,-0.2433095,0
1.5200000000000011,12.887016348838833,-0.38993108440616353,-0.8379464398680996,0.46113028686557184,14.055433,-2.5402892,-2.371316,1.4150596,5.1596055,-6.1272945,1.9849079,0.5564951,-0.09423333,0.27318063,0.7789771,-9.243708,9.773974,-0.09060914,-1.123214,-0.5719154,-0.21365869,0
1.5300000000000011,12.887016348838833,-0.38993108440616353,-0.8379464398680996,0.46113028686557184,14.055433,-2.5402892,-2.371316,1.4150596,5.067269,-6.029214,1.9840488,0.55755997,-0.095152,0.26728585,0.780148,-9.223825,9.841986,-0.08106809,-1.0088513,-0.61344063,-0.1805466,0
1.5400000000000011,12.887016348838833,-0.38993108440616353,-0.8379464398680996,0.46113028686557184,14.055433,-2.5402892,-2.371316,1.4150596,4.975126,-5.9304576,1.983289,0.5585801,-0.09558181,0.26170072,0.7812585,-9.204875,9.909045,-0.07076472,-0.9123219,-0.64848244,-0.14905933,0
1.5500000000000012,12.887016348838833,-0.38993108440616353,-0.8379464398680996,0.46113028686557184,14.055433,-2.5402892,-2.371316,1.4150596,4.883168,-5.8310366,1.982636,0.559547,-0.095594466,0.25637877,0.7823289,-9.186728,9.975138,-0.059732758,-0.830845,-0.6780535,-0.11911713,0
1.5600000000000012,12.501858754599956,0.08518454589269148,-1.1290126764286608,0.5378716798048139,15.5191145,-2.3653321,-3.3455396,1.7961245,4.791389,-5.7309594,1.9820968,0.560454,-0.09525079,0.25128037,0.783375,-9.169272,10.040251,-0.048000827,-0.76207364,-0.70300835,-0.090644225,0
1.5700000000000012,12.501858754599956,0.08518454589269148,-1.1290126764286608,0.5378716798048139,15.5191145,-2.3653321,-3.3455396,1.7961245,4.6997786,-5.630245,1.9816618,0.5613359,-0.09440218,0.24645647,0.7843782,-9.152911,10.102452,-0.038896605,-0.6299327,-0.769464,-0.059802778,0
1.5800000000000012,12.501858754599956,0.08518454589269148,-1.1290126764286608,0.5378716798048139,15.5191145,-2.3653321,-3.3455396,1.7961245,4.60833,-5.528914,1.9813209,0.56221867,-0.092933215,0.2419458,0.7853251,-9.136965,10.163661,-0.029159866,-0.51839715,-0.8255496,-0.030474728,0
1.5900000000000012,12.501858754599956,0.08518454589269148,-1.1290126764286608,0.5378716798048139,15.5191145,-2.3653321,-3.3455396,1.7961245,4.517039,-5.4269753,1.9810805,0.5630858,-0.09093641,0.23770049,0.78623354,-9.121277,10.2238455,-0.018810634,-0.42425406,-0.8728843,-0.0025858097,0
1.6000000000000012,12.240504973874136,0.3335565286345249,-1.0644435920065471,0.6161924436625063,15.3673725,-2.3872557,-3.4827368,1.9519656,4.425904,-5.3244405,1.9809468,0.5639239,-0.08849011,0.23367982,0.78711677,-9.105717,10.28298,-0.007867038,-0.3447917,-0.91283333,0.023934592,0
1.6100000000000012,12.240504973874136,0.3335565286345249,-1.0644435920065471,0.6161924436625063,15.3673725,-2.3872557,-3.4827368,1.9519656,4.3349233,-5.221326,1.9809139,0.56471723,-0.08562278,0.22994281,0.78796524,-9.090494,10.33983,0.0013603161,-0.23898564,-0.9364799,0.05299685,0
1.6200000000000012,12.240504973874136,0.3335565286345249,-1.0644435920065471,0.6161924436625063,15.3673725,-2.3872557,-3.4827368,1.9519656,4.2440953,-5.1176476,1.9809759,0.5654524,-0.08236032,0.22653462,0.7887726,-9.075161,10.395631,0.0111220125,-0.14968017,-0.9564354,0.08063302,0
1.6300000000000012,12.240504973874136,0.3335565286345249,-1.0644435920065471,0.6161924436625063,15.3673725,-2.3872557,-3.4827368,1.9519656,4.153421,-5.0134172,1.9811381,0.5661226,-0.07876071,0.22340429,0.7895519,-9.059607,10.450383,0.02138794,-0.07430223,-0.97327644,0.10691308,0
1.6400000000000012,12.240504973874136,0.3335565286345249,-1.0644435920065471,0.6161924436625063,16.015797,-2.515059,-4.171872,2.671977,4.062904,-4.9086437,1.9814053,0.5667226,-0.07487313,0.22050856,0.79031336,-9.043736,10.504088,0.032130796,-0.01067993,-0.98748964,0.13190356,0
1.6500000000000012,12.240504973874136,0.3335565286345249,-1.0644435920065471,0.6161924436625063,16.015797,-2.515059,-4.171872,2.671977,3.9725478,-4.8033385,1.9817823,0.5672486,-0.0707393,0.2178107,0.7910647,-9.02747,10.5567465,0.043325417,0.043019954,-0.9994853,0.15566775,0
1.6600000000000013,12.240504973874136,0.3335565286345249,-1.0644435920065471,0.6161924436625063,16.015797,-2.515059,-4.171872,2.671977,3.8823562,-4.697512,1.9822733,0.5676978,-0.06639467,0.21527955,0.7918115,-9.010738,10.608359,0.0549483,0.08834494,-1.0096098,0.17826584,0
1.6700000000000013,12.240504973874136,0.3335565286345249,-1.0644435920065471,0.6161924436625063,16.015797,-2.515059,-4.171872,2.671977,3.7923348,-4.5911746,1.9828826,0.5680687,-0.061869323,0.21288867,0.7925581,-8.993486,10.658924,0.066977255,0.12660074,-1.018155,0.19975503,0
1.6800000000000013,11.894028757616498,0.2946601030555811,-0.9251847117483216,0.7273397694116185,15.530887,-2.579443,-3.8781044,3.0744157,3.702489,-4.4843373,1.9836141,0.56836027,-0.057188865,0.2106156,0.7933075,-8.975664,10.708441,0.07939114,0.15888992,-1.0253674,0.22018972,0
1.6900000000000013,11.894028757616498,0.2946601030555811,-0.9251847117483216,0.7273397694116185,15.530887,-2.579443,-3.8781044,3.0744157,3.6128213,-4.377017,1.984456,0.5685489,-0.05242528,0.2084614,0.79406995,-8.957753,10.755538,0.08903035,0.18007742,-1.0097381,0.2450757,0
1.7000000000000013,11.894028757616498,0.2946601030555811,-0.9251847117483216,0.7273397694116185,15.530887,-2.579443,-3.8781044,3.0744157,3.523336,-4.2692304,1.9853959,0.5686156,-0.047636613,0.20642602,0.79485524,-8.93923,10.801632,0.09899934,0.19795986,-0.99654615,0.26874053,0
1.7100000000000013,11.894028757616498,0.2946601030555811,-0.9251847117483216,0.7273397694116185,15.530887,-2.579443,-3.8781044,3.0744157,3.4340389,-4.160988,1.986437,0.5685663,-0.042824265,0.20449033,0.7956643,-8.920078,10.846738,0.10927474,0.21305268,-0.98541164,0.29124415,0
1.7200000000000013,11.553679091283191,0.09472027175972662,-0.7872989145538426,0.8964775263371867,16.233803,-2.7732816,-4.318476,3.5272393,3.3449364,-4.0522995,1.9875822,0.5684065,-0.037989575,0.20263807,0.79649746,-8.900284,10.890871,0.11983512,0.2257911,-0.97601366,0.3126435,0
1.7300000000000013,11.553679091283191,0.09472027175972662,-0.7872989145538426,0.8964775263371867,16.233803,-2.7732816,-4.318476,3.5272393,3.2560322,-3.9431806,1.9888189,0.56811076,-0.033219032,0.20082386,0.7973807,-8.880425,10.932809,0.12754402,0.20536235,-0.94658417,0.3412924,0
1.7400000000000013,11.553679091283191,0.09472027175972662,-0.7872989145538426,0.8964775263371867,16.233803,-2.7732816,-4.318476,3.5272393,3.1673298,-3.8336465,1.9901338,0.56765836,-0.028580878,0.19901095,0.79833657,-8.85996,10.973832,0.13549523,0.1881186,-0.92174417,0.3685355,0
1.7500000000000013,11.553679091283191,0.09472027175972662,-0.7872989145538426,0.8964775263371867,16.233803,-2.7732816,-4.318476,3.5272393,3.078835,-3.7237067,1.9915293,0.56706035,-0.024051791,0.19719832,0.79936,-8.838913,11.01396,0.14367534,0.17356344,-0.9007782,0.39444178,0
1.7600000000000013,11.175091127948079,-0.3539686031611385,-0.8171369647574778,1.1066411840444366,16.996061,-3.2302032,-4.2458534,3.3555858,2.9905534,-3.6133702,1.993008,0.56632656,-0.019612245,0.19538496,0.800446,-8.81731,11.053208,0.15207203,0.16127752,-0.8830816,0.41907683,0
1.7700000000000014,11.175091127948079,-0.3539686031611385,-0.8171369647574778,1.1066411840444366,16.996061,-3.2302032,-4.2458534,3.3555858,2.902487,-3.502652,1.9945542,0.56544405,-0.015332881,0.19341993,0.80163974,-8.795904,11.09033,0.15718018,0.08094156,-0.8728177,0.45281583,0
1.7800000000000014,11.175091127948079,-0.3539686031611385,-0.8171369647574778,1.1066411840444366,16.996061,-3.2302032,-4.2458534,3.3555858,2.8146372,-3.3915665,1.9961525,0.5644009,-0.011268122,0.19118321,0.8029777,-8.774052,11.1266,0.16249736,0.013133027,-0.864154,0.4848992,0
1.7900000000000014,11.175091127948079,-0.3539686031611385,-0.8171369647574778,1.1066411840444366,16.996061,-3.2302032,-4.2458534,3.3555858,2.7270074,-3.2801228,1.997805,0.5632071,-0.0073812217,0.1887156,0.8044435,-8.751827,11.162006,0.16803467,-0.044101495,-0.85684055,0.5154082,0
1.8000000000000014,10.948100653772174,-1.0745955180964724,-0.4173510400390092,1.3858050199947072,16.628763,-3.161222,-4.1508884,3.710217,2.6396017,-3.1683295,1.9995141,0.5618711,-0.0036414037,0.18605156,0.8060222,-8.72929,11.196533,0.17380038,-0.09241094,-0.85066664,0.5444202,0
1.8100000000000014,10.948100653772174,-1.0745955180964724,-0.4173510400390092,1.3858050199947072,16.628763,-3.161222,-4.1508884,3.710217,2.5524201,-3.0561986,2.0012715,0.5603426,-0.00030742172,0.18307735,0.80777365,-8.706968,11.229491,0.17768826,-0.24558485,-0.7831519,0.5857072,0
1.8200000000000014,10.948100653772174,-1.0745955180964724,-0.4173510400390092,1.3858050199947072,16.628763,-3.161222,-4.1508884,3.710217,2.4654627,-2.9437425,2.0030687,0.55858,0.0024177562,0.17970346,0.80974615,-8.684548,11.261589,0.18182856,-0.37487176,-0.7261642,0.62496823,0
1.8300000000000014,10.948100653772174,-1.0745955180964724,-0.4173510400390092,1.3858050199947072,16.628763,-3.161222,-4.1508884,3.710217,2.378729,-2.8309698,2.0049088,0.5566017,0.0046328157,0.17598926,0.8119116,-8.662183,11.292838,0.18624312,-0.48399633,-0.6780609,0.66230273,0
1.8400000000000014,10.948100653772174,-1.0745955180964724,-0.4173510400390092,1.3858050199947072,16.794157,-3.409265,-3.9269025,3.91789,2.2922184,-2.7178888,2.0067945,0.5544232,0.006420735,0.1719849,0.81424475,-8.639996,11.323247,0.19094945,-0.57610255,-0.6374563,0.69780517,0
1.8500000000000014,10.948100653772174,-1.0745955180964724,-0.4173510400390092,1.3858050199947072,16.794157,-3.409265,-3.9269025,3.91789,2.2059283,-2.6045077,2.008729,0.55205727,0.007851248,0.16773278,0.81672305,-8.618094,11.352817,0.195961,-0.6538444,-0.6031806,0.7315656,0
1.8600000000000014,10.948100653772174,-1.0745955180964724,-0.4173510400390092,1.3858050199947072,16.794157,-3.409265,-3.9269025,3.91789,2.1198552,-2.4908352,2.010715,0.54951483,0.008982921,0.16326882,0.8193264,-8.596568,11.38155,0.20128743,-0.719462,-0.5742469,0.7636693,0
1.8700000000000014,10.948100653772174,-1.0745955180964724,-0.4173510400390092,1.3858050199947072,16.794157,-3.409265,-3.9269025,3.91789,2.0339952,-2.3768795,2.0127556,0.5468055,0.009864919,0.15862352,0.8220369,-8.57549,11.409445,0.20693511,-0.7748462,-0.54982203,0.79419774,0
1.8800000000000014,10.853072400908152,-1.7422484415777633,-0.18109808376117936,1.7111512143302,17.937384,-3.2070203,-4.536058,3.8883886,1.9483436,-2.262649,2.014855,0.5439375,0.010538485,0.1538227,0.8248389,-8.554923,11.4365,0.2129074,-0.8215925,-0.52920294,0.82322806,0
1.8900000000000015,10.853072400908152,-1.7422484415777633,-0.18109808376117936,1.7111512143302,17.937384,-3.2070203,-4.536058,3.8883886,1.862894,-2.1481533,2.0170105,0.5408731,0.010821271,0.14871845,0.8277812,-8.535104,11.46248,0.21830155,-0.96518373,-0.47502044,0.8667987,0
1.9000000000000015,10.853072400908152,-1.7422484415777633,-0.18109808376117936,1.7111512143302,17.937384,-3.2070203,-4.536058,3.8883886,1.7776392,-2.0334022,2.0192218,0.53757703,0.010571552,0.14319292,0.83089995,-8.515985,11.48761,0.2240367,-1.0863806,-0.42928103,0.9082313,0
1.9100000000000015,10.853072400908152,-1.7422484415777633,-0.18109808376117936,1.7111512143302,17.937384,-3.2070203,-4.536058,3.8883886,1.6925715,-1.918404,2.0214925,0.5340594,0.0098756505,0.13730739,0.8341639,-8.497702,11.511876,0.23012745,-1.1886754,-0.39066792,0.9476309,0
1.9200000000000015,10.744270073943465,-2.359750876345434,-0.014999383571012792,1.981321951834902,17.76408,-3.465786,-4.3235188,4.080088,1.607682,-1.8031676,2.0238256,0.5303288,0.0088060405,0.13111395,0.83754563,-8.480369,11.535259,0.23658155,-1.2750162,-0.35806984,0.98509705,0
1.9300000000000015,10.744270073943465,-2.359750876345434,-0.014999383571012792,1.981321951834902,17.76408,-3.465786,-4.3235188,4.080088,1.5229598,-1.687703,2.0262198,0.5263578,0.0072414945,0.12448428,0.8410698,-8.464255,11.557513,0.24235095,-1.4442044,-0.30472237,1.033982,0
1.9400000000000015,10.744270073943465,-2.359750876345434,-0.014999383571012792,1.981321951834902,17.76408,-3.465786,-4.3235188,4.080088,1.4383929,-1.5720205,2.0286736,0.52211875,0.0050899605,0.11731755,0.84475,-8.449344,11.578837,0.24849397,-1.5870059,-0.25968423,1.0804683,0
1.9500000000000015,10.744270073943465,-2.359750876345434,-0.014999383571012792,1.981321951834902,17.76408,-3.465786,-4.3235188,4.080088,1.3539683,-1.4561297,2.0311909,0.51761824,0.002446531,0.10969208,0.8485475,-8.435787,11.599193,0.2550151,-1.7075354,-0.22165956,1.1246735,0
1.9600000000000015,10.70620810511736,-2.7435524588386278,0.06455238651211738,2.110446393463509,17.756235,-3.429647,-4.4953036,4.058767,1.2696719,-1.3400402,2.0337753,0.5128623,-0.0006089455,0.10167469,0.8524283,-8.423716,11.618536,0.2619091,-1.8092662,-0.18955494,1.1667094,0
1.9700000000000015,10.70620810511736,-2.7435524588386278,0.06455238651211738,2.110446393463509,17.756235,-3.429647,-4.4953036,4.058767,1.1854883,-1.2237629,2.0364285,0.50783896,-0.0041134437,0.09320751,0.85638475,-8.413278,11.636758,0.2687898,-1.954993,-0.15009646,1.2130189,0
1.9800000000000015,10.70620810511736,-2.7435524588386278,0.06455238651211738,2.110446393463509,17.756235,-3.429647,-4.4953036,4.058767,1.1014004,-1.1073089,2.0391521,0.5025352,-0.008092258,0.08424715,0.8604041,-8.404565,11.653872,0.27601373,-2.0779915,-0.11677867,1.2570559,0
1.9900000000000015,10.70620810511736,-2.7435524588386278,0.06455238651211738,2.110446393463509,17.756235,-3.429647,-4.4953036,4.058767,1.0173905,-0.9906895,2.0419497,0.49695498,-0.012468022,0.07486645,0.8644509,-8.3977,11.669815,0.28355733,-2.1818058,-0.088644505,1.2989321,0
2.0000000000000013,,,,,17.490927,-3.671531,-4.2900796,4.0737157,0.9334396,-0.8739168,2.0448241,0.49110246,-0.017175714,0.06512784,0.868494,-8.392788,11.684529,0.29138747,-2.2694285,-0.06488638,1.3387532,0
2.010000000000001,,,,,17.490927,-3.671531,-4.2900796,4.0737157,0.8495283,-0.75700104,2.0477962,0.48494506,-0.02229571,0.05494611,0.87253207,-8.389818,11.698404,0.3030431,-2.4170988,-0.02482836,1.3900691,0
2.020000000000001,,,,,17.490927,-3.671531,-4.2900796,4.0737157,0.7656356,-0.63995355,2.0508857,0.47844994,-0.027887873,0.044256143,0.87655544,-8.389086,11.710866,0.31490555,-2.5417368,0.008998474,1.4388671,0
2.0300000000000007,,,,,17.490927,-3.671531,-4.2900796,4.0737157,0.6817385,-0.5227888,2.0540948,0.47162145,-0.033874318,0.03313544,0.8805271,-8.39071,11.721832,0.3269174,-2.6469347,0.037564974,1.4852705,0
2.0400000000000005,,,,,17.490927,-3.671531,-4.2900796,4.0737157,0.59781295,-0.4055223,2.0574243,0.4644645,-0.040189434,0.021650799,0.8844145,-8.394785,11.731223,0.3390112,-2.7357242,0.061690528,1.5293968,0
2.0500000000000003,,,,,18.389942,-4.0788107,-4.699195,4.2642784,0.5138341,-0.28817004,2.060875,0.45698443,-0.04677791,0.009859938,0.8881892,-8.4013815,11.738962,0.35111114,-2.8106644,0.082066715,1.5713577,1
2.06,,,,,18.389942,-4.0788107,-4.699195,4.2642784,0.4297435,-0.17072544,2.0648637,0.44900846,-0.05212924,-0.0029920184,0.8920007,-8.417355,11.749376,0.44589674,-2.9048254,-0.5609925,1.6942642,1
2.07,,,,,18.389942,-4.0788107,-4.699195,4.2642784,0.34547496,-0.053197034,2.069778,0.4403201,-0.05497233,-0.01767947,0.895982,-8.436842,11.755573,0.5362576,-3.028622,-1.1481687,1.8151057,1
2.0799999999999996,,,,,18.389942,-4.0788107,-4.699195,4.2642784,0.26099715,0.06436842,2.075574,0.43085593,-0.055587027,-0.034175973,0.9000585,-8.459106,11.756654,0.62224096,-3.176182,-1.6869187,1.9338709,1
2.0899999999999994,,,,,20.660244,-5.3452287,-5.842843,5.0622063,0.17628431,0.18191554,2.082217,0.42055944,-0.054233715,-0.05238135,0.9041265,-8.483833,11.75177,0.7062947,-3.316196,-2.157105,2.0482247,1
2.099999999999999,,,,,20.660244,-5.3452287,-5.842843,5.0622063,0.091290906,0.2993714,2.08985,0.40929887,-0.051105175,-0.0723809,0.90808797,-8.515087,11.738114,0.8194555,-3.555151,-2.6559756,2.1892383,1
2.109999999999999,,,,,20.660244,-5.3452287,-5.842843,5.0622063,0.0059783887,0.41664818,2.098587,0.39691657,-0.04630136,-0.094397314,0.9118128,-8.547558,11.715843,0.9270895,-3.8039382,-3.1242368,2.3275466,1
2.1199999999999988,,,,,20.660244,-5.3452287,-5.842843,5.0622063,-0.07966305,0.5336556,2.108376,0.3833488,-0.03996983,-0.118333176,0.9151193,-8.580884,11.684023,1.0303937,-4.04309,-3.5486572,2.4617128,1
2.1299999999999986,,,,,19.43989,-4.676595,-5.8230853,4.5401726,-0.16564173,0.6502917,2.1191876,0.3685734,-0.03231623,-0.14389601,0.9178252,-8.61491,11.641449,1.1315525,-4.2452607,-3.907111,2.5893197,1
2.1399999999999983,,,,,19.43989,-4.676595,-5.8230853,4.5401726,-0.2519514,0.76646066,2.1309392,0.35266298,-0.02345105,-0.1705101,0.9197853,-8.646977,11.590613,1.218299,-4.3117614,-4.2062874,2.6850486,1
2.149999999999998,,,,,19.43989,-4.676595,-5.8230853,4.5401726,-0.33857897,0.8820657,2.1435423,0.33569944,-0.01348262,-0.1976948,0.9208913,-8.678375,11.52864,1.3017297,-4.367952,-4.4587836,2.7760801,1
2.159999999999998,,,,,19.43989,-4.676595,-5.8230853,4.5401726,-0.42551404,0.99699455,2.15696,0.3177038,-0.0026038815,-0.22527108,0.9210376,-8.708361,11.455369,1.3811443,-4.415437,-4.671881,2.8626447,1
2.1699999999999977,,,,,19.339828,-4.475041,-5.607473,4.8362937,-0.5127388,1.1111342,2.171149,0.298706,0.00901603,-0.2530803,0.9201324,-8.736203,11.370794,1.4558173,-4.4555697,-4.851725,2.9449615,1
2.1799999999999975,,,,,19.339828,-4.475041,-5.607473,4.8362937,-0.6002276,1.2243745,2.1860535,0.27873203,0.021162972,-0.28088275,0.9181314,-8.761062,11.2755575,1.5241568,-4.45808,-4.969858,3.0377698,1
2.1899999999999973,,,,,19.339828,-4.475041,-5.607473,4.8362937,-0.687948,1.3366083,2.2016113,0.25781608,0.03364994,-0.30847928,0.9150076,-8.78241,11.169552,1.5863585,-4.4602365,-5.0695553,3.1260238,1
2.199999999999997,,,,,19.339828,-4.475041,-5.607473,4.8362937,-0.77586156,1.4477301,2.2177572,0.23600909,0.046374593,-0.33579087,0.9107104,-8.799609,11.05323,1.6417606,-4.4620924,-5.1536913,3.2099473,1
