time-since-start [s],throttle_mpc,roll_mpc,pitch_mpc,yaw_mpc,throttle_nw,roll_nw,pitch_nw,yaw_nw,position_x [m],position_y [m],position_z [m],rotation_w [quaternion],rotation_x [quaternion],rotation_y [quaternion],rotation_z [quaternion],velocity_x [m/s],velocity_y [m/s],velocity_z [m/s],omega_x [rad/s],omega_y [rad/s],omega_z [rad/s],network_used
0.0,10.735398671764965,5.999999621838848,-5.999999858210802,-0.862039308543485,13.927297,3.3653812,-4.63533,-1.3633205,19.423616,-9.862,1.6932483,-0.009531219,0.4309369,-0.19432898,-0.88115764,-10.75669,-4.6289062,0.48684448,1.8234191,-0.21483065,-0.2419816,0
0.01,10.735398671764965,5.999999621838848,-5.999999858210802,-0.862039308543485,16.303663,2.7209084,-5.835838,-1.2868779,19.315577,-9.908069,1.697971,-0.01564769,0.4284814,-0.20284423,-0.88034827,-10.850194,-4.5845137,0.45723566,2.300599,-0.94309,-0.25681075,0
0.02,10.735398671764965,5.999999621838848,-5.999999858210802,-0.862039308543485,16.303663,2.7209084,-5.835838,-1.2868779,19.206627,-9.953688,1.7023839,-0.0235325,0.42288014,-0.21327856,-0.88041514,-10.939067,-4.5391574,0.42494914,2.7511065,-1.605538,-0.27518308,0
0.03,10.735398671764965,5.999999621838848,-5.999999858210802,-0.862039308543485,16.303663,2.7209084,-5.835838,-1.2868779,19.096811,-9.998847,1.7064626,-0.03309846,0.41435486,-0.22546788,-0.88112354,-11.02294,-4.4923677,0.39051777,3.1760924,-2.2094343,-0.29665577,0
0.04,10.735398671764965,5.999999621838848,-5.999999858210802,-0.862039308543485,15.061452,2.7440805,-5.9873347,-0.78441375,18.986187,-10.043529,1.7101883,-0.044257842,0.40308723,-0.23924735,-0.8822259,-11.101486,-4.443795,0.35434625,3.5767841,-2.7611594,-0.3208306,0
0.05,10.735398671764965,5.999999621838848,-5.999999858210802,-0.862039308543485,15.061452,2.7440805,-5.9873347,-0.78441375,18.874802,-10.087715,1.7135451,-0.056918304,0.38923198,-0.2544485,-0.8834674,-11.174694,-4.3929915,0.31696975,3.9497097,-3.261586,-0.34694102,0
0.060000000000000005,10.735398671764965,5.999999621838848,-5.999999858210802,-0.862039308543485,15.061452,2.7440805,-5.9873347,-0.78441375,18.762705,-10.131376,1.7165297,-0.070921406,0.37300354,-0.2708336,-0.88458323,-11.243966,-4.338446,0.28009546,4.2692943,-3.6887825,-0.37221706,0
0.07,10.735398671764965,5.999999621838848,-5.999999858210802,-0.862039308543485,15.061452,2.7440805,-5.9873347,-0.78441375,18.649935,-10.17447,1.7191497,-0.0860567,0.35466933,-0.28811765,-0.8853202,-11.308999,-4.2797556,0.24402839,4.539046,-4.0493517,-0.39625275,0
0.08,14.836562986422157,5.999999706358809,-5.999999889968191,-0.8535331191675782,15.502474,3.191744,-6.054491,-0.58168256,18.536541,-10.216955,1.7214128,-0.1021332,0.33446583,-0.3060487,-0.88545763,-11.369182,-4.216857,0.20872352,4.7667375,-4.353684,-0.41910902,0
0.09,14.836562986422157,5.999999706358809,-5.999999889968191,-0.8535331191675782,15.502474,3.191744,-6.054491,-0.58168256,18.422464,-10.258665,1.7234472,-0.118978865,0.31260106,-0.3244075,-0.8848073,-11.444849,-4.1241693,0.19830649,4.95893,-4.610547,-0.44042635,0
0.09999999999999999,14.836562986422157,5.999999706358809,-5.999999889968191,-0.8535331191675782,15.502474,3.191744,-6.054491,-0.58168256,18.307673,-10.29942,1.7253811,-0.13643885,0.2892609,-0.3430025,-0.88321084,-11.512261,-4.025912,0.18855399,5.121158,-4.8273454,-0.46069765,0
0.10999999999999999,14.836562986422157,5.999999706358809,-5.999999889968191,-0.8535331191675782,15.502474,3.191744,-6.054491,-0.58168256,18.192251,-10.339166,1.7272196,-0.1543741,0.2646135,-0.36166593,-0.88053715,-11.5707245,-3.9223938,0.17916495,5.2580957,-5.0103273,-0.4799742,0
0.11999999999999998,14.836562986422157,5.999999706358809,-5.999999889968191,-0.8535331191675782,15.502474,3.191744,-6.054491,-0.58168256,18.076292,-10.377851,1.7289644,-0.17265855,0.23881227,-0.3802507,-0.87667936,-11.619615,-3.8140337,0.16978301,5.373685,-5.1647663,-0.4983049,0
0.12999999999999998,20.999991044633205,5.999998339058228,-5.999999787059988,-1.5490459907676437,18.619097,2.0033906,-5.3841968,-0.5793396,17.959894,-10.415431,1.730614,-0.19117749,0.21199815,-0.39862764,-0.8715524,-11.658382,-3.7013464,0.16000777,5.4712563,-5.2951145,-0.51573604,0
0.13999999999999999,20.999991044633205,5.999998339058228,-5.999999787059988,-1.5490459907676437,18.619097,2.0033906,-5.3841968,-0.5793396,17.843098,-10.451623,1.732344,-0.20990105,0.18433617,-0.41666543,-0.865073,-11.69826,-3.5365686,0.18575327,5.553498,-5.405252,-0.5664409,0
0.15,20.999991044633205,5.999998339058228,-5.999999787059988,-1.5490459907676437,18.619097,2.0033906,-5.3841968,-0.5793396,17.725983,-10.486146,1.7343229,-0.22880243,0.15598185,-0.43425003,-0.8571731,-11.722603,-3.3674657,0.20968065,5.6229224,-5.498205,-0.6146576,0
0.16,20.999999179957403,3.2079910253229253,-5.999999426172129,-0.4766893352701951,19.121477,0.61518145,-5.0667644,-0.75266325,17.608704,-10.518961,1.7365291,-0.24778487,0.12704787,-0.45129874,-0.84781516,-11.730992,-3.1950793,0.23112555,5.6815295,-5.576653,-0.6605083,0
0.17,20.999999179957403,3.2079910253229253,-5.999999426172129,-0.4766893352701951,19.121477,0.61518145,-5.0667644,-0.75266325,17.491419,-10.550041,1.7389346,-0.2665205,0.09786591,-0.4668212,-0.8375361,-11.723199,-3.0205708,0.24949281,5.295788,-5.6424766,-0.6514882,0
0.18000000000000002,20.999999179957403,3.2079910253229253,-5.999999426172129,-0.4766893352701951,19.121477,0.61518145,-5.0667644,-0.75266325,17.374292,-10.5793705,1.7415078,-0.2847834,0.068733506,-0.48007673,-0.82686156,-11.699442,-2.8453789,0.26463205,4.970205,-5.698066,-0.6429108,0
0.19000000000000003,20.999999179957403,3.2079910253229253,-5.999999426172129,-0.4766893352701951,19.121477,0.61518145,-5.0667644,-0.75266325,17.25748,-10.606952,1.7442161,-0.30262008,0.039695818,-0.49133232,-0.8157435,-11.660119,-2.6709216,0.27652678,4.6953993,-5.7450123,-0.63475424,0
0.20000000000000004,20.99999901028073,0.583675514702244,-4.5478473431819655,-0.1887089463913948,18.694473,-1.0401062,-3.1206048,-0.79798996,17.141138,-10.632796,1.7470269,-0.32005945,0.010788881,-0.50081146,-0.80413496,-11.605672,-2.4984937,0.2851288,4.4634514,-5.784659,-0.62699795,0
0.21000000000000005,20.99999901028073,0.583675514702244,-4.5478473431819655,-0.1887089463913948,18.694473,-1.0401062,-3.1206048,-0.79798996,17.025415,-10.656932,1.7499073,-0.3368026,-0.017168326,-0.50806355,-0.792553,-11.536675,-2.3292842,0.29042244,3.85856,-5.5914774,-0.605491,0
0.22000000000000006,20.99999901028073,0.583675514702244,-4.5478473431819655,-0.1887089463913948,18.694473,-1.0401062,-3.1206048,-0.79798996,16.910448,-10.679396,1.7528251,-0.35266438,-0.043519504,-0.512814,-0.7815083,-11.454253,-2.1643345,0.29273635,3.3479805,-5.4284773,-0.5850394,0
0.23000000000000007,20.99999901028073,0.583675514702244,-4.5478473431819655,-0.1887089463913948,18.694473,-1.0401062,-3.1206048,-0.79798996,16.796371,-10.700235,1.7557532,-0.36780193,-0.068464465,-0.5154608,-0.77093065,-11.359598,-2.004488,0.29249278,2.917008,-5.2909427,-0.5655913,0
0.24000000000000007,20.99999901028073,0.583675514702244,-4.5478473431819655,-0.1887089463913948,17.980217,-3.1339827,-0.84760433,-0.6420731,16.683294,-10.719504,1.7586676,-0.38233554,-0.09217952,-0.51632905,-0.7607407,-11.253766,-1.8504279,0.29006454,2.5532312,-5.174893,-0.54709756,0
0.25000000000000006,20.99999901028073,0.583675514702244,-4.5478473431819655,-0.1887089463913948,17.980217,-3.1339827,-0.84760433,-0.6420731,16.57133,-10.737266,1.7615482,-0.39635646,-0.1148187,-0.51568496,-0.7508574,-11.137702,-1.702718,0.28577176,2.2461734,-5.07697,-0.5295114,0
0.26000000000000006,20.99999901028073,0.583675514702244,-4.5478473431819655,-0.1887089463913948,17.980217,-3.1339827,-0.84760433,-0.6420731,16.460573,-10.753584,1.7643775,-0.40993342,-0.13651542,-0.513747,-0.7412029,-11.012252,-1.5618314,0.2798825,1.9869906,-4.9943423,-0.5127881,0
0.2700000000000001,20.99999901028073,0.583675514702244,-4.5478473431819655,-0.1887089463913948,17.980217,-3.1339827,-0.84760433,-0.6420731,16.351114,-10.768529,1.7671409,-0.42311764,-0.15738459,-0.5106947,-0.7317049,-10.878182,-1.4281712,0.27261546,1.7682186,-4.92462,-0.49688545,0
0.2800000000000001,20.999997388714384,-1.9363149225010006,-0.4189791445390692,-0.164426151446915,17.212267,-3.4091847,1.7833331,-0.33916757,16.243036,-10.782175,1.7698256,-0.43594664,-0.1775246,-0.5066761,-0.7222981,-10.736196,-1.3020864,0.26414394,1.5835567,-4.8657866,-0.48176315,0
0.2900000000000001,20.999997388714384,-1.9363149225010006,-0.4189791445390692,-0.164426151446915,17.212267,-3.4091847,1.7833331,-0.33916757,16.136414,-10.794599,1.7724202,-0.44780916,-0.19539429,-0.5018305,-0.7137603,-10.587067,-1.1837641,0.2546572,1.0348952,-4.1721263,-0.46619132,0
0.3000000000000001,20.999997388714384,-1.9363149225010006,-0.4189791445390692,-0.164426151446915,17.212267,-3.4091847,1.7833331,-0.33916757,16.031313,-10.805875,1.7749169,-0.45829603,-0.20980276,-0.49635795,-0.7068069,-10.432181,-1.0726571,0.24464865,0.57174927,-3.586679,-0.45138362,0
0.3100000000000001,20.999997388714384,-1.9363149225010006,-0.4189791445390692,-0.164426151446915,17.212267,-3.4091847,1.7833331,-0.33916757,15.927785,-10.816073,1.7773134,-0.46768567,-0.22129667,-0.49042886,-0.70126814,-10.272894,-0.9679924,0.23468716,0.18079181,-3.0925612,-0.43730253,0
0.3200000000000001,20.54930012582879,-4.3591951315154,5.323242627296629,0.2591520102791722,17.620264,-4.6982775,5.1389256,0.26287895,15.825867,-10.825254,1.7796125,-0.4761938,-0.23033482,-0.48416388,-0.6969722,-10.110285,-0.8690573,0.22528434,-0.14922768,-2.6755247,-0.42391244,0
0.3300000000000001,20.54930012582879,-4.3591951315154,5.323242627296629,0.2591520102791722,17.620264,-4.6982775,5.1389256,0.26287895,15.725569,-10.833483,1.781813,-0.4830763,-0.23526777,-0.47806948,-0.6947917,-9.948902,-0.7770436,0.21501675,-0.8053928,-1.427957,-0.3903943,0
0.34000000000000014,20.54930012582879,-4.3591951315154,5.323242627296629,0.2591520102791722,17.620264,-4.6982775,5.1389256,0.26287895,15.62689,-10.840808,1.783919,-0.4877712,-0.2348148,-0.47257107,-0.69542605,-9.786786,-0.6880635,0.20651335,-1.3593299,-0.37499803,-0.35852087,0
0.35000000000000014,20.54930012582879,-4.3591951315154,5.323242627296629,0.2591520102791722,17.620264,-4.6982775,5.1389256,0.26287895,15.529831,-10.847249,1.7859519,-0.4906377,-0.2298106,-0.4675977,-0.69843656,-9.625439,-0.6002334,0.20049672,-1.8269589,0.5137129,-0.3282115,0
0.36000000000000015,19.630237192562063,-5.782715740368778,5.99999938229182,-0.026193528251506663,18.906887,-5.6889086,6.1960044,1.1034229,15.434375,-10.852811,1.7879395,-0.49193606,-0.22094338,-0.46304813,-0.70339817,-9.466134,-0.5119606,0.19755761,-2.2217226,1.2637992,-0.2993894,0
0.37000000000000016,19.630237192562063,-5.782715740368778,5.99999938229182,-0.026193528251506663,18.906887,-5.6889086,6.1960044,1.1034229,15.340462,-10.857502,1.7898934,-0.49187705,-0.20829563,-0.45854613,-0.71021473,-9.317017,-0.42593524,0.19377592,-2.7769308,2.0024912,-0.2859836,0
0.38000000000000017,19.630237192562063,-5.782715740368778,5.99999938229182,-0.026193528251506663,18.906887,-5.6889086,6.1960044,1.1034229,15.24802,-10.86132,1.7918289,-0.49059987,-0.19194771,-0.45375228,-0.7187325,-9.172192,-0.3370825,0.19396743,-3.2455869,2.625961,-0.2732356,0
0.3900000000000002,19.630237192562063,-5.782715740368778,5.99999938229182,-0.026193528251506663,18.906887,-5.6889086,6.1960044,1.1034229,15.157,-10.864231,1.7937881,-0.48817614,-0.17242628,-0.4486058,-0.7284955,-9.032888,-0.24449345,0.19858332,-3.6411817,3.152182,-0.26111314,0
0.4000000000000002,19.581129071036138,-5.999883485334523,5.99999959343793,-0.3914556145000907,18.514763,-6.125572,6.659228,0.9683217,15.067339,-10.866195,1.7958168,-0.4846542,-0.15018073,-0.44304505,-0.7390986,-8.900285,-0.14749618,0.20788434,-3.975104,3.596325,-0.24958558,0
0.4100000000000002,19.581129071036138,-5.999883485334523,5.99999959343793,-0.3914556145000907,18.514763,-6.125572,6.659228,0.9683217,14.978965,-10.867166,1.7979609,-0.48011363,-0.12553675,-0.43695423,-0.75020134,-8.775833,-0.04589071,0.22168037,-4.2907887,3.9712472,-0.25654718,0
0.4200000000000002,19.581129071036138,-5.999883485334523,5.99999959343793,-0.3914556145000907,18.514763,-6.125572,6.659228,0.9683217,14.891792,-10.867095,1.8002666,-0.4746175,-0.09878081,-0.43023333,-0.76149815,-8.660315,0.06081659,0.24020116,-4.5572495,4.2876935,-0.26316717,0
0.4300000000000002,19.581129071036138,-5.999883485334523,5.99999959343793,-0.3914556145000907,18.514763,-6.125572,6.659228,0.9683217,14.805724,-10.865932,1.8027805,-0.46817672,-0.07022514,-0.42285252,-0.77270585,-8.554803,0.17269625,0.263262,-4.7821636,4.554785,-0.2694623,0
0.4400000000000002,19.581129071036138,-5.999883485334523,5.99999959343793,-0.3914556145000907,18.636547,-5.9106593,6.4410934,0.71836025,14.720656,-10.863626,1.8055464,-0.46080273,-0.040147148,-0.41478896,-0.78358066,-8.460303,0.2896582,0.29053453,-4.9720073,4.7802176,-0.27544856,0
0.45000000000000023,19.581129071036138,-5.999883485334523,5.99999959343793,-0.3914556145000907,18.636547,-5.9106593,6.4410934,0.71836025,14.6364765,-10.860123,1.8086042,-0.4525089,-0.0087951785,-0.40602714,-0.79391426,-8.377748,0.41146845,0.32156292,-5.1322517,4.970489,-0.28114107,0
0.46000000000000024,19.581129071036138,-5.999883485334523,5.99999959343793,-0.3914556145000907,18.636547,-5.9106593,6.4410934,0.71836025,14.553059,-10.85538,1.8119887,-0.44331092,0.023606956,-0.39655846,-0.8035291,-8.307978,0.5377652,0.35578007,-5.267511,5.131084,-0.28655422,0
0.47000000000000025,19.581129071036138,-5.999883485334523,5.99999959343793,-0.3914556145000907,18.636547,-5.9106593,6.4410934,0.71836025,14.47027,-10.849354,1.8157284,-0.4332273,0.056856394,-0.3863807,-0.8122751,-8.251742,0.66807413,0.3925233,-5.381681,5.26663,-0.29170176,0
0.48000000000000026,19.96558241071071,-4.387582394302161,5.999999372932205,-0.028706245267959486,19.224018,-5.56962,6.024372,1.0455923,14.387975,-10.842006,1.8198452,-0.4222792,0.09076832,-0.37549734,-0.82002604,-8.20968,0.8018231,0.43104956,-5.4780507,5.3810344,-0.29659674,0
0.49000000000000027,19.96558241071071,-4.387582394302161,5.999999372932205,-0.028706245267959486,19.224018,-5.56962,6.024372,1.0455923,14.30603,-10.833294,1.8243662,-0.41052404,0.12488802,-0.36445612,-0.8264649,-8.181733,0.9410591,0.47322255,-5.308021,5.4774833,-0.2834513,0
0.5000000000000002,19.96558241071071,-4.387582394302161,5.999999372932205,-0.028706245267959486,19.224018,-5.56962,6.024372,1.0455923,14.224288,-10.823178,1.8293093,-0.398053,0.15884776,-0.35372028,-0.8313859,-8.168849,1.0825765,0.51530516,-5.1645093,5.5589004,-0.27095088,0
0.5100000000000002,19.96558241071071,-4.387582394302161,5.999999372932205,-0.028706245267959486,19.224018,-5.56962,6.024372,1.0455923,14.142601,-10.811638,1.8346683,-0.38492918,0.19260539,-0.34318203,-0.8348402,-8.170976,1.2258008,0.55622613,-5.0433793,5.6276293,-0.2590639,0
0.5200000000000002,20.13833461421408,-2.129854009471389,5.999997076808155,0.30390360360414753,19.117882,-3.986089,5.7345285,0.77820027,14.060819,-10.798658,1.8404264,-0.3712049,0.22611709,-0.33275115,-0.8368716,-8.187993,1.3701233,0.5949696,-4.9411407,5.6856465,-0.2477602,0
0.5300000000000002,20.13833461421408,-2.129854009471389,5.999997076808155,0.30390360360414753,19.117882,-3.986089,5.7345285,0.77820027,13.97879,-10.784226,1.8465627,-0.3571093,0.25899658,-0.32312337,-0.83724815,-8.21992,1.5162032,0.6316989,-4.5028152,5.734519,-0.22068991,0
0.5400000000000003,20.13833461421408,-2.129854009471389,5.999997076808155,0.30390360360414753,19.117882,-3.986089,5.7345285,0.77820027,13.896372,-10.768333,1.8530457,-0.34287483,0.29095632,-0.31486726,-0.8358465,-8.2659445,1.6624277,0.6641319,-4.1328444,5.7757974,-0.19494794,0
0.5500000000000003,20.13833461421408,-2.129854009471389,5.999997076808155,0.30390360360414753,19.117882,-3.986089,5.7345285,0.77820027,13.813426,-10.750978,1.8598272,-0.32853574,0.32208392,-0.30773717,-0.8328406,-8.325289,1.8085078,0.69124496,-3.8205676,5.810661,-0.17046915,0
0.5600000000000003,18.631920891608587,0.4669393542170796,3.157631000378115,0.2073115116722686,17.184036,-1.7602865,4.1031365,0.69861996,13.729823,-10.732164,1.8668494,-0.3141113,0.35244623,-0.3015218,-0.8283718,-8.397211,1.9541341,0.71214235,-3.5569868,5.8401046,-0.14719155,0
0.5700000000000003,18.631920891608587,0.4669393542170796,3.157631000378115,0.2073115116722686,17.184036,-1.7602865,4.1031365,0.69861996,13.645472,-10.711952,1.8740039,-0.30034766,0.380847,-0.29655302,-0.8226801,-8.47461,2.0881686,0.7177106,-2.9295597,5.421681,-0.12979598,0
0.5800000000000003,18.631920891608587,0.4669393542170796,3.157631000378115,0.2073115116722686,17.184036,-1.7602865,4.1031365,0.69861996,13.560297,-10.690403,1.8811805,-0.2878945,0.40640837,-0.2931288,-0.8161029,-8.561498,2.2214055,0.7165835,-2.399962,5.068533,-0.113253996,0
0.5900000000000003,18.631920891608587,0.4669393542170796,3.157631000378115,0.2073115116722686,17.184036,-1.7602865,4.1031365,0.69861996,13.474213,-10.667525,1.8883122,-0.27661198,0.42959744,-0.2910256,-0.80884814,-8.656486,2.3538647,0.7086982,-1.9529413,4.770476,-0.09752374,0
0.6000000000000003,17.165789799736967,2.5571053038621914,-0.9187760243817232,0.43788424313920815,16.06568,0.85273075,2.721204,0.29225174,13.387143,-10.643327,1.8953313,-0.26636353,0.45079935,-0.29004487,-0.80106413,-8.758407,2.4856052,0.69405293,-1.5756224,4.5189137,-0.0825654,0
0.6100000000000003,17.165789799736967,2.5571053038621914,-0.9187760243817232,0.43788424313920815,16.06568,0.85273075,2.721204,0.29225174,13.299066,-10.617866,1.9021399,-0.25785977,0.46881244,-0.2902713,-0.7933883,-8.85769,2.606412,0.66673946,-0.9312334,3.6708581,-0.057026796,0
0.6200000000000003,17.165789799736967,2.5571053038621914,-0.9187760243817232,0.43788424313920815,16.06568,0.85273075,2.721204,0.29225174,13.209976,-10.591199,1.9086477,-0.25168264,0.48275733,-0.29179513,-0.78641975,-8.960961,2.7269235,0.6340275,-0.38730288,2.9550805,-0.03274138,0
0.6300000000000003,17.165789799736967,2.5571053038621914,-0.9187760243817232,0.43788424313920815,16.06568,0.85273075,2.721204,0.29225174,13.119839,-10.563327,1.9148048,-0.24752237,0.49333805,-0.2944486,-0.7801599,-9.066913,2.8475006,0.5967555,0.071827054,2.3509455,-0.009647643,0
0.6400000000000003,17.165789799736967,2.5571053038621914,-0.9187760243817232,0.43788424313920815,15.107203,1.6868347,-1.1796069,0.050412983,13.028633,-10.534247,1.9205697,-0.24509828,0.5011242,-0.29807562,-0.7745654,-9.174491,2.968504,0.5556677,0.4593749,1.8410379,0.012312876,0
0.6500000000000004,17.165789799736967,2.5571053038621914,-0.9187760243817232,0.43788424313920815,15.107203,1.6868347,-1.1796069,0.050412983,12.936346,-10.503954,1.9259074,-0.24416034,0.50657797,-0.3025348,-0.76956904,-9.282835,3.0902736,0.511412,0.7864989,1.4106593,0.033195786,0
0.6600000000000004,17.165789799736967,2.5571053038621914,-0.9187760243817232,0.43788424313920815,15.107203,1.6868347,-1.1796069,0.050412983,12.842976,-10.472438,1.930789,-0.24448836,0.51007587,-0.30770007,-0.76509345,-9.391239,3.213114,0.46454525,1.0626181,1.0474046,0.053053968,0
0.6700000000000004,17.165789799736967,2.5571053038621914,-0.9187760243817232,0.43788424313920815,15.107203,1.6868347,-1.1796069,0.050412983,12.748523,-10.439687,1.9351909,-0.24588999,0.5119259,-0.31346068,-0.7610596,-9.499109,3.3372893,0.4155407,1.2956839,0.74080354,0.07193771,0
0.6800000000000004,16.01750867455411,3.563521214013613,-4.758744899692132,0.7268316930985561,15.681488,2.2028654,-2.8571825,0.22217195,12.652995,-10.405685,1.9390938,-0.24819826,0.5123811,-0.31972006,-0.75739133,-9.6059475,3.4630227,0.36479735,1.4924083,0.48201954,0.08989482,0
0.6900000000000004,16.01750867455411,3.563521214013613,-4.758744899692132,0.7268316930985561,15.681488,2.2028654,-2.8571825,0.22217195,12.556442,-10.3704605,1.942467,-0.25194222,0.5103753,-0.32633412,-0.7546837,-9.70422,3.5819821,0.3096711,1.8154509,-0.33521926,0.1211495,0
0.7000000000000004,16.01750867455411,3.563521214013613,-4.758744899692132,0.7268316930985561,15.681488,2.2028654,-2.8571825,0.22217195,12.458918,-10.334039,1.9452864,-0.25753325,0.5050631,-0.33317178,-0.7533815,-9.800338,3.702802,0.25422066,2.0881352,-1.025004,0.1508705,0
0.7100000000000004,16.01750867455411,3.563521214013613,-4.758744899692132,0.7268316930985561,15.681488,2.2028654,-2.8571825,0.22217195,12.360445,-10.296398,1.9475536,-0.26466975,0.4969199,-0.3401651,-0.75319815,-9.893541,3.8256712,0.19937459,2.3183072,-1.6072137,0.17913309,0
0.7200000000000004,15.434758453685776,3.76771121959217,-5.999998017988961,0.845164211327415,15.013659,2.3988564,-5.923694,0.7805681,12.261059,-10.257519,1.9492786,-0.27308598,0.48633313,-0.34724778,-0.75387156,-9.983153,3.950703,0.14589612,2.5125914,-2.098627,0.20600882,0
0.7300000000000004,15.434758453685776,3.76771121959217,-5.999998017988961,0.845164211327415,15.013659,2.3988564,-5.923694,0.7805681,12.160812,-10.2174015,1.95047,-0.2827498,0.47321764,-0.35428748,-0.7553789,-10.065432,4.073306,0.09273761,2.7084627,-2.7069623,0.23737237,0
0.7400000000000004,15.434758453685776,3.76771121959217,-5.999998017988961,0.845164211327415,15.013659,2.3988564,-5.923694,0.7805681,12.059767,-10.176045,1.9511424,-0.29361114,0.45750582,-0.36115903,-0.7576572,-10.142972,4.1979904,0.042190295,2.8737931,-3.220428,0.26719686,0
0.7500000000000004,15.434758453685776,3.76771121959217,-5.999998017988961,0.845164211327415,15.013659,2.3988564,-5.923694,0.7805681,11.957972,-10.133433,1.9513248,-0.30542555,0.43951562,-0.36781156,-0.76043093,-10.215122,4.324635,-0.005166564,3.0133417,-3.6538203,0.2955579,0
0.7600000000000005,15.361843477498223,3.2950322922511686,-5.999998759753584,0.6920910659378557,14.443102,2.2768228,-5.9168983,0.6491609,11.855484,-10.089545,1.9510515,-0.31797805,0.41951615,-0.37419775,-0.76346016,-10.281278,4.4530334,-0.04889558,3.1311262,-4.0196276,0.3225272,0
0.7700000000000005,15.361843477498223,3.2950322922511686,-5.999998759753584,0.6920910659378557,14.443102,2.2768228,-5.9168983,0.6491609,11.752369,-10.044369,1.950359,-0.33101687,0.39780706,-0.38012284,-0.766605,-10.340604,4.582284,-0.08895727,3.1568031,-4.328423,0.3406618,0
0.7800000000000005,15.361843477498223,3.2950322922511686,-5.999998759753584,0.6920910659378557,14.443102,2.2768228,-5.9168983,0.6491609,11.648696,-9.997895,1.9492865,-0.34433615,0.37465054,-0.38543034,-0.7697482,-10.392965,4.712607,-0.12486953,3.178469,-4.5890636,0.3579065,0
0.7900000000000005,15.361843477498223,3.2950322922511686,-5.999998759753584,0.6920910659378557,14.443102,2.2768228,-5.9168983,0.6491609,11.544536,-9.950115,1.9478763,-0.35782066,0.35021207,-0.3901324,-0.7727301,-10.43798,4.843558,-0.15649948,3.1967494,-4.8090596,0.374305,0
0.8000000000000005,15.367177455925672,2.4003239936919223,-5.999998154924265,0.5970857639964244,13.756277,2.1274707,-5.95286,0.668469,11.439963,-9.901024,1.9461714,-0.371368,0.32463783,-0.39423934,-0.77541643,-10.475298,4.97466,-0.18380456,3.2121725,-4.99475,0.38989887,0
0.8100000000000005,15.367177455925672,2.4003239936919223,-5.999998154924265,0.5970857639964244,13.756277,2.1274707,-5.95286,0.668469,11.335056,-9.850622,1.944215,-0.3847848,0.2981984,-0.3974801,-0.7778349,-10.504642,5.105446,-0.20678756,3.085639,-5.15153,0.40006557,0
0.8200000000000005,15.367177455925672,2.4003239936919223,-5.999998154924265,0.5970857639964244,13.756277,2.1274707,-5.95286,0.668469,11.229898,-9.798917,1.9420502,-0.3979272,0.2711323,-0.39964595,-0.78001505,-10.525868,5.235285,-0.22551805,2.9788322,-5.2838573,0.40973338,0
0.8300000000000005,15.367177455925672,2.4003239936919223,-5.999998154924265,0.5970857639964244,13.756277,2.1274707,-5.95286,0.668469,11.124568,-9.74592,1.939719,-0.4107748,0.2435176,-0.40083033,-0.7818551,-10.538915,5.363583,-0.24008691,2.8886762,-5.395546,0.41892684,0
0.8400000000000005,15.367177455925672,2.4003239936919223,-5.999998154924265,0.5970857639964244,13.827404,1.3621844,-5.8801084,0.6742599,11.019149,-9.691651,1.9372622,-0.4233055,0.21542454,-0.40111363,-0.7832698,-10.543739,5.4897614,-0.25064406,2.8125749,-5.4898143,0.42766914,0
0.8500000000000005,15.367177455925672,2.4003239936919223,-5.999998154924265,0.5970857639964244,13.827404,1.3621844,-5.8801084,0.6742599,10.913721,-9.636134,1.9347191,-0.43549654,0.18691708,-0.40056533,-0.78418833,-10.540323,5.6132565,-0.25739208,2.7483368,-5.56938,0.43598247,0
0.8600000000000005,15.367177455925672,2.4003239936919223,-5.999998154924265,0.5970857639964244,13.827404,1.3621844,-5.8801084,0.6742599,10.80837,-9.579397,1.9321264,-0.44732496,0.15805395,-0.39924562,-0.78455174,-10.528676,5.7335224,-0.26058,2.6941125,-5.636536,0.44388783,0
0.8700000000000006,15.367177455925672,2.4003239936919223,-5.999998154924265,0.5970857639964244,13.827404,1.3621844,-5.8801084,0.6742599,10.703176,-9.521476,1.9295186,-0.45876822,0.12888968,-0.39720684,-0.7843118,-10.508833,5.8500314,-0.26049814,2.6483407,-5.6932178,0.4514053,0
0.8800000000000006,15.312798427233536,1.191085159294347,-5.403878349820126,0.4265514354022318,14.469281,0.8514496,-5.788734,0.5657124,10.598221,-9.46241,1.9269265,-0.46980456,0.09947528,-0.39449474,-0.78342915,-10.480862,5.9622765,-0.25747284,2.6097033,-5.741059,0.45855388,1
0.8900000000000006,15.312798427233536,1.191085159294347,-5.403878349820126,0.4265514354022318,14.469281,0.8514496,-5.788734,0.5657124,10.493575,-9.402278,1.9243478,-0.48033047,0.07022034,-0.3907063,-0.78211206,-10.446997,6.0634856,-0.25790283,2.3355265,-5.7485676,0.4638122,1
0.9000000000000006,15.312798427233536,1.191085159294347,-5.403878349820126,0.4265514354022318,14.469281,0.8514496,-5.788734,0.5657124,10.389304,-9.341158,1.921776,-0.490295,0.04146555,-0.38553837,-0.780545,-10.405954,6.159751,-0.2561111,2.1041062,-5.7548943,0.46881247,1
0.9100000000000006,15.312798427233536,1.191085159294347,-5.403878349820126,0.4265514354022318,14.469281,0.8514496,-5.788734,0.5657124,10.285479,-9.279101,1.9192324,-0.4997436,0.013160938,-0.37916216,-0.7786643,-10.35814,6.250639,-0.25231412,1.9087746,-5.7602253,0.4735674,1
0.9200000000000006,14.719103949167213,-0.05339142609561565,-2.4477100552597935,0.31784995642387215,14.0403805,-0.5467952,-4.1559343,0.5659726,10.182163,-9.216165,1.9167359,-0.50870794,-0.014735099,-0.37172315,-0.7764149,-10.303931,6.3357606,-0.24675252,1.7439039,-5.7647166,0.478089,0
0.9300000000000006,14.719103949167213,-0.05339142609561565,-2.4477100552597935,0.31784995642387215,14.0403805,-0.5467952,-4.1559343,0.5659726,10.079426,-9.1524,1.9143116,-0.51676184,-0.04102361,-0.36375853,-0.77392054,-10.242711,6.416198,-0.23788764,1.4634284,-5.247526,0.47022602,0
0.9400000000000006,14.719103949167213,-0.05339142609561565,-2.4477100552597935,0.31784995642387215,14.0403805,-0.5467952,-4.1559343,0.5659726,9.977327,-9.087861,1.911982,-0.5236435,-0.06476054,-0.35575232,-0.7713902,-10.176148,6.4906225,-0.22786325,1.2267239,-4.8109746,0.46274891,0
0.9500000000000006,14.719103949167213,-0.05339142609561565,-2.4477100552597935,0.31784995642387215,14.0403805,-0.5467952,-4.1559343,0.5659726,9.875919,-9.022607,1.9097571,-0.5295814,-0.08632562,-0.3477373,-0.7688752,-10.104979,6.559322,-0.21698356,1.026959,-4.4424896,0.4556387,0
0.9600000000000006,14.23562468105635,-1.3176649616344156,2.274254675328459,0.3061226408099828,13.910908,-1.0627557,-0.01390841,0.26239184,9.775242,-8.956693,1.9076444,-0.53475595,-0.10604379,-0.33973274,-0.7664015,-10.029818,6.6225677,-0.20548104,0.8583683,-4.1314588,0.44887736,0
0.9700000000000006,14.23562468105635,-1.3176649616344156,2.274254675328459,0.3061226408099828,13.910908,-1.0627557,-0.01390841,0.26239184,9.675321,-8.8901825,1.9056308,-0.53874373,-0.12247614,-0.3323826,-0.76437914,-9.953835,6.6788025,-0.19715197,0.51871073,-3.1325927,0.44187236,0
0.9800000000000006,14.23562468105635,-1.3176649616344156,2.274254675328459,0.3061226408099828,13.910908,-1.0627557,-0.01390841,0.26239184,9.576173,-8.823131,1.9037024,-0.54127765,-0.13451146,-0.32622898,-0.763216,-9.875434,6.731004,-0.18851706,0.23207638,-2.2894814,0.43521106,0
0.9900000000000007,14.23562468105635,-1.3176649616344156,2.274254675328459,0.3061226408099828,13.910908,-1.0627557,-0.01390841,0.26239184,9.477817,-8.755573,1.9018617,-0.54267025,-0.14284374,-0.3211258,-0.7628773,-9.795453,6.7801676,-0.1796095,-0.009812981,-1.5778378,0.42887667,0
1.0000000000000007,13.694572003876186,-1.8962289497562508,5.14094914244493,0.37670597957660945,14.310937,-2.2717454,4.4542847,0.8019567,9.380265,-8.687535,1.9001113,-0.54315525,-0.14805515,-0.3169319,-0.76329225,-9.714564,6.8271527,-0.17040347,-0.21394347,-0.9771625,0.4228531,1
1.0100000000000007,13.694572003876186,-1.8962289497562508,5.14094914244493,0.37670597957660945,14.310937,-2.2717454,4.4542847,0.8019567,9.283528,-8.619035,1.8984576,-0.54264337,-0.14977956,-0.31368953,-0.76465803,-9.63293,6.872984,-0.160265,-0.53508747,-0.13022579,0.44145584,1
1.0200000000000007,13.694572003876186,-1.8962289497562508,5.14094914244493,0.37670597957660945,14.310937,-2.2717454,4.4542847,0.8019567,9.187606,-8.550078,1.8969077,-0.541052,-0.14774962,-0.311413,-0.7671072,-9.55169,6.918347,-0.14963357,-0.8061302,0.58463913,0.45914575,1
1.0300000000000007,13.694572003876186,-1.8962289497562508,5.14094914244493,0.37670597957660945,14.310937,-2.2717454,4.4542847,0.8019567,9.092491,-8.480666,1.8954672,-0.53853685,-0.14254496,-0.30993658,-0.77045244,-9.471526,6.9641156,-0.13837628,-1.034885,1.1880287,0.47596756,1
1.0400000000000007,13.694572003876186,-1.8962289497562508,5.14094914244493,0.37670597957660945,14.664926,-2.6427984,5.366607,1.0062304,8.99817,-8.410792,1.8941427,-0.5352112,-0.13465111,-0.30911136,-0.77451074,-9.39303,7.011016,-0.12639177,-1.2279478,1.6973271,0.49196395,1
1.0500000000000007,13.694572003876186,-1.8962289497562508,5.14094914244493,0.37670597957660945,14.664926,-2.6427984,5.366607,1.0062304,8.904633,-8.340435,1.8929558,-0.5310438,-0.12412105,-0.30888128,-0.77921593,-9.314858,7.0608644,-0.1108725,-1.4488131,2.269455,0.51719916,1
1.0600000000000007,13.694572003876186,-1.8962289497562508,5.14094914244493,0.37670597957660945,14.664926,-2.6427984,5.366607,1.0062304,8.811864,-8.269568,1.8919282,-0.5259939,-0.11101587,-0.309184,-0.78448063,-9.23955,7.1131167,-0.09450472,-1.6352195,2.752366,0.541196,1
1.0700000000000007,13.694572003876186,-1.8962289497562508,5.14094914244493,0.37670597957660945,14.664926,-2.6427984,5.366607,1.0062304,8.7198305,-8.198164,1.8910686,-0.52012223,-0.09572451,-0.30988836,-0.7901123,-9.1676855,7.1682982,-0.07730226,-1.792541,3.1599734,0.5640154,1
1.0800000000000007,13.437762103274286,-2.183717359394376,5.999995116027829,0.2960956257011563,14.430254,-2.40107,5.784561,0.8332166,8.628496,-8.126191,1.8903849,-0.5134757,-0.07857799,-0.31088126,-0.79593945,-9.099801,7.2268105,-0.05933526,-1.9253137,3.504021,0.585715,1
1.0900000000000007,13.437762103274286,-2.183717359394376,5.999995116027829,0.2960956257011563,14.430254,-2.40107,5.784561,0.8332166,8.537813,-8.05362,1.8898748,-0.5060493,-0.05976876,-0.3122297,-0.8017812,-9.037403,7.2879643,-0.04259938,-1.9996736,3.8596258,0.59786,1
1.1000000000000008,13.437762103274286,-2.183717359394376,5.999995116027829,0.2960956257011563,14.430254,-2.40107,5.784561,0.8332166,8.447731,-7.980418,1.8895344,-0.49784204,-0.03946525,-0.31397834,-0.8074726,-8.97986,7.3529625,-0.025443243,-2.0624192,4.1597786,0.60940903,1
1.1100000000000008,13.437762103274286,-2.183717359394376,5.999995116027829,0.2960956257011563,14.430254,-2.40107,5.784561,0.8332166,8.358198,-7.9065466,1.8893665,-0.48889497,-0.01789978,-0.31600744,-0.8128956,-8.927591,7.4219966,-0.008123178,-2.1153638,4.4131265,0.62039137,1
1.1200000000000008,12.663192940425601,-1.7709577682758253,5.500615519953465,0.09305515260599267,14.010056,-2.0462894,4.960819,0.583359,8.269159,-7.831964,1.8893714,-0.4792436,0.0047255834,-0.31821555,-0.81794906,-8.880985,7.4951677,0.009072192,-2.1600373,4.6269684,0.6308348,0
1.1300000000000008,12.663192940425601,-1.7709577682758253,5.500615519953465,0.09305515260599267,14.010056,-2.0462894,4.960819,0.583359,8.1805315,-7.7566752,1.8894761,-0.4690361,0.028050426,-0.32067007,-0.82242787,-8.845353,7.563027,0.011757655,-2.0993347,4.7632747,0.60444576,0
1.1400000000000008,12.663192940425601,-1.7709577682758253,5.500615519953465,0.09305515260599267,14.010056,-2.0462894,4.960819,0.583359,8.092233,-7.6806903,1.8896042,-0.4584192,0.051781647,-0.32342473,-0.8261752,-8.815168,7.6344943,0.0137252305,-2.04809,4.878316,0.57935166,0
1.1500000000000008,12.663192940425601,-1.7709577682758253,5.500615519953465,0.09305515260599267,14.010056,-2.0462894,4.960819,0.583359,8.004208,-7.6039734,1.889747,-0.44741988,0.075844646,-0.32638156,-0.8291783,-8.790567,7.709483,0.014637636,-2.0048306,4.975411,0.55548894,0
1.1600000000000008,12.512056642461562,-1.394178436173309,3.794620107632047,-0.13894814195189537,12.864964,-1.7351353,3.0468574,0.37498292,7.916401,-7.5264893,1.8898922,-0.4360611,0.10017157,-0.32945722,-0.8314282,-8.771666,7.787869,0.014161176,-1.9683132,5.0573587,0.5327972,1
1.1700000000000008,12.512056642461562,-1.394178436173309,3.794620107632047,-0.13894814195189537,12.864964,-1.7351353,3.0468574,0.37498292,7.8287554,-7.448199,1.890032,-0.42466706,0.12386755,-0.3321779,-0.83304924,-8.75832,7.870757,0.013521499,-1.9318165,4.7438445,0.5250532,1
1.1800000000000008,12.512056642461562,-1.394178436173309,3.794620107632047,-0.13894814195189537,12.864964,-1.7351353,3.0468574,0.37498292,7.7412148,-7.369065,1.8901563,-0.41352174,0.14622156,-0.3342003,-0.8342228,-8.75068,7.9564843,0.011024735,-1.9010321,4.47922,0.5176892,1
1.1900000000000008,12.512056642461562,-1.394178436173309,3.794620107632047,-0.13894814195189537,12.864964,-1.7351353,3.0468574,0.37498292,7.653723,-7.289061,1.890246,-0.40258554,0.16742621,-0.33563137,-0.83501107,-8.748538,8.044615,0.00660532,-1.8750659,4.2558613,0.5106866,1
1.2000000000000008,11.403891432634907,-0.8373487181661011,-1.0793495795937063,-0.1899320143168204,12.480377,-1.6345123,-1.7927916,0.24635862,7.5662255,-7.2081656,1.8902817,-0.39182174,0.18764478,-0.33655855,-0.8354592,-8.751707,8.134772,0.00020893815,-1.8531636,4.0673327,0.5040276,0
1.2100000000000009,11.403891432634907,-0.8373487181661011,-1.0793495795937063,-0.1899320143168204,12.480377,-1.6345123,-1.7927916,0.24635862,7.478675,-7.1264014,1.8902026,-0.38184217,0.20561805,-0.33667263,-0.83580375,-8.759152,8.2178335,-0.016710501,-1.7183936,3.2887614,0.4721514,0
1.2200000000000009,11.403891432634907,-0.8373487181661011,-1.0793495795937063,-0.1899320143168204,12.480377,-1.6345123,-1.7927916,0.24635862,7.39103,-7.0438113,1.8899363,-0.37323865,0.22024785,-0.3358195,-0.836306,-8.770407,8.3002205,-0.036776602,-1.58073,2.6076326,0.43966275,0
1.2300000000000009,11.403891432634907,-0.8373487181661011,-1.0793495795937063,-0.1899320143168204,12.480377,-1.6345123,-1.7927916,0.24635862,7.3032556,-6.9603944,1.8894632,-0.36586884,0.23202145,-0.33420986,-0.83702356,-8.784989,8.383184,-0.058010273,-1.4645939,2.0327125,0.40876836,0
1.2400000000000009,11.403891432634907,-0.8373487181661011,-1.0793495795937063,-0.1899320143168204,12.233101,-1.1537412,-3.3443794,0.18845208,7.215321,-6.876146,1.8887732,-0.35957283,0.24139854,-0.33198947,-0.83798313,-8.802369,8.466399,-0.080100015,-1.3666162,1.5474404,0.37938994,0
1.2500000000000009,11.403891432634907,-0.8373487181661011,-1.0793495795937063,-0.1899320143168204,12.233101,-1.1537412,-3.3443794,0.18845208,7.1272006,-6.7910657,1.8878592,-0.35420638,0.24876368,-0.32927185,-0.83918595,-8.822097,8.549613,-0.10276423,-1.2839547,1.1378378,0.35145316,0
1.260000000000001,11.403891432634907,-0.8373487181661011,-1.0793495795937063,-0.1899320143168204,12.233101,-1.1537412,-3.3443794,0.18845208,7.0388727,-6.705154,1.8867168,-0.34964165,0.25443858,-0.32614604,-0.8406182,-8.843794,8.632631,-0.12575345,-1.2142137,0.79210573,0.32488725,0
1.270000000000001,11.403891432634907,-0.8373487181661011,-1.0793495795937063,-0.1899320143168204,12.233101,-1.1537412,-3.3443794,0.18845208,6.950319,-6.618414,1.8853438,-0.34576657,0.25869253,-0.32268238,-0.8422578,-8.867141,8.7153,-0.14884984,-1.1553715,0.5002847,0.29962495,0
1.280000000000001,11.745715540515983,-0.6808416239891557,-3.210175512018567,-0.25240675408183877,12.282484,-0.7589011,-5.4692073,-0.07612385,6.861525,-6.53085,1.8837401,-0.3424838,0.26175115,-0.3189368,-0.8440787,-8.891868,8.797493,-0.17186555,-1.1057237,0.25396857,0.27560225,0
1.290000000000001,11.745715540515983,-0.6808416239891557,-3.210175512018567,-0.25240675408183877,12.282484,-0.7589011,-5.4692073,-0.07612385,6.772474,-6.4424543,1.8819187,-0.34000325,0.26306435,-0.31471393,-0.84625554,-8.91849,8.881539,-0.1923539,-1.0393708,-0.2862333,0.2496927,0
1.300000000000001,11.745715540515983,-0.6808416239891557,-3.210175512018567,-0.25240675408183877,12.282484,-0.7589011,-5.4692073,-0.07612385,6.6831527,-6.353222,1.8798951,-0.33848128,0.26220244,-0.30986094,-0.8489198,-8.945866,8.96478,-0.21223868,-0.98339576,-0.74219537,0.22505453,0
1.310000000000001,11.745715540515983,-0.6808416239891557,-3.210175512018567,-0.25240675408183877,12.282484,-0.7589011,-5.4692073,-0.07612385,6.5935555,-6.263162,1.8776771,-0.3377654,0.25949985,-0.30447254,-0.85197955,-8.973591,9.047017,-0.23119158,-0.9361729,-1.1270543,0.20162538,0
1.320000000000001,11.389197765877242,-0.6746294330995166,-5.999994249494211,-0.17424804757786336,11.710015,-0.8358449,-5.8622174,-0.1295139,6.5036807,-6.172285,1.8752755,-0.33772385,0.25523627,-0.29862475,-0.85534704,-9.001323,9.128078,-0.24894336,-0.8963322,-1.4518975,0.1793459,1
1.330000000000001,11.389197765877242,-0.6746294330995166,-5.999994249494211,-0.17424804757786336,11.710015,-0.8358449,-5.8622174,-0.1295139,6.4135303,-6.080606,1.872702,-0.33852744,0.2487522,-0.29196963,-0.8592285,-9.028649,9.207541,-0.2654902,-0.8868398,-2.1396744,0.16419005,1
1.340000000000001,11.389197765877242,-0.6746294330995166,-5.999994249494211,-0.17424804757786336,11.710015,-0.8358449,-5.8622174,-0.1295139,6.32311,-5.9881406,1.8699721,-0.34028354,0.23952332,-0.28422302,-0.86374265,-9.05518,9.285334,-0.2801868,-0.8788504,-2.7201939,0.14977792,1
1.350000000000001,11.389197765877242,-0.6746294330995166,-5.999994249494211,-0.17424804757786336,11.710015,-0.8358449,-5.8622174,-0.1295139,6.232431,-5.894907,1.8671061,-0.34279874,0.22794682,-0.2755245,-0.8686852,-9.080435,9.361108,-0.29265955,-0.8721244,-3.2101822,0.136073,1
1.360000000000001,12.013093594006904,-0.8025764976046815,-5.999986378567594,-0.16537970023349094,11.739095,-1.0925659,-6.021937,-0.12472542,6.141507,-5.8009267,1.8641276,-0.34590548,0.21435761,-0.26598886,-0.8738699,-9.103993,9.434531,-0.30263883,-0.8664606,-3.6237576,0.12304054,1
1.370000000000001,12.013093594006904,-0.8025764976046815,-5.999986378567594,-0.16537970023349094,11.739095,-1.0925659,-6.021937,-0.12472542,6.0503573,-5.706225,1.8610637,-0.34945175,0.19902699,-0.255603,-0.8791685,-9.125545,9.505454,-0.30972037,-0.90172344,-3.994327,0.1108826,1
1.380000000000001,12.013093594006904,-0.8025764976046815,-5.999986378567594,-0.16537970023349094,11.739095,-1.0925659,-6.021937,-0.12472542,5.9590044,-5.610829,1.8579428,-0.35330743,0.18218674,-0.24436028,-0.8844594,-9.14472,9.573357,-0.3140106,-0.931495,-4.307106,0.09932124,1
1.390000000000001,12.013093594006904,-0.8025764976046815,-5.999986378567594,-0.16537970023349094,11.739095,-1.0925659,-6.021937,-0.12472542,5.8674726,-5.51477,1.8547932,-0.35736844,0.16404824,-0.23235965,-0.88959736,-9.161252,9.637901,-0.31547174,-0.9566294,-4.571107,0.0883272,1
1.400000000000001,12.145437490693245,-0.9007099308207311,-5.999992381962109,-0.04218881903497473,12.27034,-1.2649924,-5.7010446,-0.20916711,5.7757893,-5.4180837,1.851643,-0.3615459,0.14479426,-0.21968707,-0.89445806,-9.174907,9.698769,-0.31413904,-0.97784835,-4.7939363,0.07787265,1
1.410000000000001,12.145437490693245,-0.9007099308207311,-5.999992381962109,-0.04218881903497473,12.27034,-1.2649924,-5.7010446,-0.20916711,5.6839824,-5.320795,1.8485427,-0.3657387,0.12471849,-0.20639862,-0.89893186,-9.185967,9.758231,-0.30549154,-1.0226665,-4.9353924,0.06378752,1
1.420000000000001,12.145437490693245,-0.9007099308207311,-5.999992381962109,-0.04218881903497473,12.27034,-1.2649924,-5.7010446,-0.20916711,5.5920815,-5.2229342,1.8455422,-0.36986974,0.104068436,-0.19254752,-0.9029341,-9.193686,9.813248,-0.29419917,-1.0604962,-5.0547876,0.05039356,1
1.430000000000001,12.145437490693245,-0.9007099308207311,-5.999992381962109,-0.04218881903497473,12.27034,-1.2649924,-5.7010446,-0.20916711,5.5001206,-5.1245465,1.8426671,-0.37390095,0.08293027,-0.1782012,-0.9064013,-9.197968,9.863554,-0.2804786,-1.0924267,-5.1555634,0.037656832,1
1.440000000000001,12.145437490693245,-0.9007099308207311,-5.999992381962109,-0.04218881903497473,12.682266,-1.2160329,-5.5506015,0.1398033,5.408135,-5.02568,1.8399403,-0.37779945,0.061380535,-0.16341975,-0.90928125,-9.198736,9.90891,-0.2645827,-1.1193774,-5.240623,0.025545113,1
1.450000000000001,12.145437490693245,-0.9007099308207311,-5.999992381962109,-0.04218881903497473,12.682266,-1.2160329,-5.5506015,0.1398033,5.316159,-4.926379,1.8374014,-0.3814896,0.039528117,-0.14830028,-0.9115419,-9.195844,9.950448,-0.24290569,-1.1344308,-5.2889686,0.031151803,1
1.460000000000001,12.145437490693245,-0.9007099308207311,-5.999992381962109,-0.04218881903497473,12.682266,-1.2160329,-5.5506015,0.1398033,5.224231,-4.82669,1.8350878,-0.38490617,0.017466513,-0.13292554,-0.91316557,-9.189238,9.986465,-0.21959978,-1.1471372,-5.329775,0.03648335,1
1.470000000000001,12.145437490693245,-0.9007099308207311,-5.999992381962109,-0.04218881903497473,12.682266,-1.2160329,-5.5506015,0.1398033,5.132387,-4.7266693,1.8330138,-0.38803703,-0.0047603706,-0.117326975,-0.91413206,-9.178911,10.016809,-0.19500992,-1.1578628,-5.364217,0.041553296,1
1.480000000000001,12.332165539107217,-0.8048510082415227,-2.4573638857057,0.028893889140158696,13.37999,-0.5498755,-3.8573735,0.2267712,5.0406656,-4.626374,1.8311906,-0.39087203,-0.027112206,-0.10153345,-0.9144252,-9.164868,10.04135,-0.16949461,-1.1669166,-5.393287,0.04637444,0
1.490000000000001,12.332165539107217,-0.8048510082415227,-2.4573638857057,0.028893889140158696,13.37999,-0.5498755,-3.8573735,0.2267712,4.9491005,-4.525865,1.8296086,-0.39329916,-0.048483886,-0.08620956,-0.91407406,-9.147663,10.059523,-0.14685263,-1.1104691,-4.935429,0.045516655,0
1.500000000000001,12.332165539107217,-0.8048510082415227,-2.4573638857057,0.028893889140158696,13.37999,-0.5498755,-3.8573735,0.2267712,4.8577237,-4.4252014,1.8282541,-0.3952826,-0.06800159,-0.07189562,-0.91321236,-9.127206,10.0722885,-0.12402322,-1.0628221,-4.5489745,0.04470098,0
1.5100000000000011,12.332165539107217,-0.8048510082415227,-2.4573638857057,0.028893889140158696,13.37999,-0.5498755,-3.8573735,0.2267712,4.7665668,-4.324436,1.8271276,-0.39690995,-0.08594539,-0.058445033,-0.91195303,-9.103835,10.080016,-0.10129328,-1.0226033,-4.2227874,0.04392532,0
1.5200000000000011,12.210897282622458,-0.6155821525604411,-0.09900504747531912,0.13234828758296316,12.9269495,-0.05829582,-0.84531015,0.2452783,4.675656,-4.2236176,1.826227,-0.3982488,-0.10255364,-0.04573107,-0.91037774,-9.077839,10.083026,-0.07888927,-0.9886547,-3.947469,0.04318771,1
1.5300000000000011,12.210897282622458,-0.6155821525604411,-0.09900504747531912,0.13234828758296316,12.9269495,-0.05829582,-0.84531015,0.2452783,4.5850244,-4.1227913,1.825577,-0.3992714,-0.11756286,-0.034171294,-0.90862083,-9.048106,10.081567,-0.051201947,-0.84355664,-3.4636905,0.05310436,1
1.5400000000000011,12.210897282622458,-0.6155821525604411,-0.09900504747531912,0.13234828758296316,12.9269495,-0.05829582,-0.84531015,0.2452783,4.494701,-4.0220003,1.8252007,-0.39996725,-0.13078077,-0.024089558,-0.90682983,-9.016188,10.076007,-0.024164423,-0.72109085,-3.055356,0.06253439,1
1.5500000000000012,12.210897282622458,-0.6155821525604411,-0.09900504747531912,0.13234828758296316,12.9269495,-0.05829582,-0.84531015,0.2452783,4.404707,-3.9212837,1.8250912,-0.4004028,-0.14248943,-0.015257752,-0.9050633,-8.982354,10.066857,0.0021585147,-0.6177264,-2.7106998,0.07150168,1
1.5600000000000012,12.306239770868206,-0.4126400623154612,5.413484505995527,0.1370579919475054,13.313822,-0.00088503584,2.1701832,0.31699145,4.3150597,-3.8206744,1.8252412,-0.4006287,-0.1529266,-0.0074817506,-0.90335596,-8.946831,10.054557,0.027737174,-0.5304833,-2.4197922,0.080028966,0
1.5700000000000012,12.306239770868206,-0.4126400623154612,5.413484505995527,0.1370579919475054,13.313822,-0.00088503584,2.1701832,0.31699145,4.225766,-3.7201984,1.8256139,-0.4007112,-0.15997666,-0.0014743522,-0.90212727,-8.91167,10.040291,0.046701774,-0.51216686,-1.198197,0.08282739,0
1.5800000000000012,12.306239770868206,-0.4126400623154612,5.413484505995527,0.1370579919475054,13.313822,-0.00088503584,2.1701832,0.31699145,4.136828,-3.619874,1.8261738,-0.40073824,-0.16198307,0.0022077328,-0.90175563,-8.8759165,10.024386,0.06527678,-0.49670097,-0.16710909,0.085488506,0
1.5900000000000012,12.306239770868206,-0.4126400623154612,5.413484505995527,0.1370579919475054,13.313822,-0.00088503584,2.1701832,0.31699145,4.048247,-3.519713,1.8269192,-0.400747,-0.15973906,0.0039271163,-0.9021461,-8.840377,10.007798,0.08382161,-0.48364124,0.7031813,0.08801901,0
1.6000000000000012,12.381313626192227,-0.3685384852212541,5.999952169385445,0.16096959746942782,13.187059,-0.05672184,5.5295324,0.24682714,3.9600172,-3.4197176,1.8278513,-0.40074182,-0.15390424,0.0039899275,-0.9031618,-8.805725,9.991328,0.10264994,-0.47261286,1.4377506,0.09042537,1
1.6100000000000012,12.381313626192227,-0.3685384852212541,5.999952169385445,0.16096959746942782,13.187059,-0.05672184,5.5295324,0.24682714,3.8721392,-3.3198893,1.8290162,-0.40067422,-0.14504412,0.0025092019,-0.9046623,-8.77016,9.974544,0.13041818,-0.40780255,2.0758631,0.098100066,1
1.6200000000000012,12.381313626192227,-0.3685384852212541,5.999952169385445,0.16096959746942782,13.187059,-0.05672184,5.5295324,0.24682714,3.784607,-3.2202213,1.8304625,-0.40049157,-0.13363183,-0.0004120745,-0.9065025,-8.736666,9.95929,0.15894584,-0.35309845,2.6144626,0.10539814,1
1.6300000000000012,12.381313626192227,-0.3685384852212541,5.999952169385445,0.16096959746942782,13.187059,-0.05672184,5.5295324,0.24682714,3.6973972,-3.120696,1.8321983,-0.4001721,-0.12005148,-0.0045487536,-0.9085302,-8.705673,9.946149,0.18834327,-0.3069237,3.0690677,0.11233809,1
1.6400000000000012,12.381313626192227,-0.3685384852212541,5.999952169385445,0.16096959746942782,13.653953,0.38973394,4.948334,0.28669092,3.6104834,-3.0212893,1.8342324,-0.39969173,-0.1046282,-0.009709973,-0.9106059,-8.677562,9.935617,0.218646,-0.2679477,3.4527776,0.11893751,0
1.6500000000000012,12.381313626192227,-0.3685384852212541,5.999952169385445,0.16096959746942782,13.653953,0.38973394,4.948334,0.28669092,3.523827,-2.9219708,1.8365349,-0.39904532,-0.08741687,-0.015696062,-0.9126186,-8.654197,9.928576,0.24192403,-0.28367063,3.8500066,0.12100002,0
1.6600000000000013,12.381313626192227,-0.3685384852212541,5.999952169385445,0.16096959746942782,13.653953,0.38973394,4.948334,0.28669092,3.4373877,-2.8227067,1.8390738,-0.39821902,-0.06847717,-0.02233848,-0.91445684,-8.634214,9.924736,0.2659458,-0.29693756,4.185288,0.12296134,0
1.6700000000000013,12.381313626192227,-0.3685384852212541,5.999952169385445,0.16096959746942782,13.653953,0.38973394,4.948334,0.28669092,3.35113,-2.723464,1.841856,-0.3971788,-0.048073333,-0.029528687,-0.9160043,-8.617947,9.9243965,0.29057592,-0.30813172,4.4682827,0.12482642,0
1.6800000000000013,12.723319237562082,-0.3110446223426325,5.9999964843561715,0.1420032134711937,14.309272,0.5209227,3.5148067,0.42585665,3.265015,-2.624206,1.8448867,-0.39589545,-0.026433181,-0.037173435,-0.91716087,-8.6056795,9.927807,0.3156225,-0.31757697,4.7071447,0.12659997,0
1.6900000000000013,12.723319237562082,-0.3110446223426325,5.9999964843561715,0.1420032134711937,14.309272,0.5209227,3.5148067,0.42585665,3.1790028,-2.5248935,1.8481859,-0.39434624,-0.003763048,-0.04521352,-0.9178401,-8.597437,9.9353695,0.3442514,-0.31657726,4.9087644,0.1273558,0
1.7000000000000013,12.723319237562082,-0.3110446223426325,5.9999964843561715,0.1420032134711937,14.309272,0.5209227,3.5148067,0.42585665,3.0930502,-2.4254844,1.8517711,-0.3925134,0.019758325,-0.05359614,-0.9179696,-8.593762,9.947159,0.37277147,-0.3157309,5.078942,0.12807456,0
1.7100000000000013,12.723319237562082,-0.3110446223426325,5.9999964843561715,0.1420032134711937,14.309272,0.5209227,3.5148067,0.42585665,3.007111,-2.3259356,1.8556398,-0.3903816,0.043983527,-0.062254913,-0.917491,-8.594823,9.9633,0.400859,-0.31501445,5.22258,0.12875803,0
1.7200000000000013,12.580420274680272,-0.30060648793882283,4.0085045334939755,0.10290525485467823,14.416758,0.5286232,-0.37910095,0.62465274,2.921137,-2.226203,1.8597858,-0.38793877,0.068783134,-0.071132146,-0.91635716,-8.60075,9.983878,0.42816305,-0.3144078,5.3438177,0.12940796,0
1.7300000000000013,12.580420274680272,-0.30060648793882283,4.0085045334939755,0.10290525485467823,14.416758,0.5286232,-0.37910095,0.62465274,2.8350797,-2.1262436,1.8641922,-0.38524505,0.09331303,-0.079873644,-0.9146021,-8.611487,10.008629,0.45292616,-0.31223345,5.1355767,0.12810747,0
1.7400000000000013,12.580420274680272,-0.30060648793882283,4.0085045334939755,0.10290525485467823,14.416758,0.5286232,-0.37910095,0.62465274,2.7488909,-2.0260158,1.8688394,-0.38237885,0.11690188,-0.08820175,-0.912326,-8.6269655,10.037598,0.47625408,-0.3104016,4.9598107,0.1268708,0
1.7500000000000013,12.580420274680272,-0.30060648793882283,4.0085045334939755,0.10290525485467823,14.416758,0.5286232,-0.37910095,0.62465274,2.6625247,-1.925478,1.8737116,-0.37935373,0.1396783,-0.09617314,-0.9095765,-8.646992,10.070551,0.4978902,-0.30885813,4.8114552,0.1256948,0
1.7600000000000013,12.93700626240967,-0.19626178937130234,1.3039719300508266,0.08040651027176964,12.416421,-0.14110628,-2.542367,0.6725527,2.5759363,-1.8245918,1.8787906,-0.37617946,0.16175069,-0.103835344,-0.90638953,-8.671392,10.107277,0.51760244,-0.30755758,4.686236,0.1245765,0
1.7700000000000014,12.93700626240967,-0.19626178937130234,1.3039719300508266,0.08040651027176964,12.416421,-0.14110628,-2.542367,0.6725527,2.4890785,-1.7233146,1.8840728,-0.3729937,0.18221775,-0.11086125,-0.9029841,-8.700778,10.1486845,0.53848124,-0.29015234,4.158776,0.12240907,0
1.7800000000000014,12.93700626240967,-0.19626178937130234,1.3039719300508266,0.08040651027176964,12.416421,-0.14110628,-2.542367,0.6725527,2.4019072,-1.6216072,1.8895528,-0.36993718,0.20038578,-0.11700397,-0.8996112,-8.734025,10.193302,0.55716485,-0.27546963,3.713572,0.12034799,0
1.7900000000000014,12.93700626240967,-0.19626178937130234,1.3039719300508266,0.08040651027176964,12.416421,-0.14110628,-2.542367,0.6725527,2.3143864,-1.5194392,1.8952088,-0.36701322,0.21661788,-0.12240693,-0.89632183,-8.770685,10.240698,0.5737145,-0.2630835,3.3377974,0.11838806,0
1.8000000000000014,12.430136212839525,-0.1289783117547576,-3.8812401529057055,0.0435893433973745,12.745165,0.01778007,-5.815431,0.6097926,2.2264833,-1.4167849,1.90102,-0.36421785,0.2312199,-0.1271899,-0.8931426,-8.810386,10.290512,0.5882096,-0.2526346,3.0206244,0.116524294,0
1.8100000000000014,12.430136212839525,-0.1289783117547576,-3.8812401529057055,0.0435893433973745,12.745165,0.01778007,-5.815431,0.6097926,2.1381776,-1.3136318,1.9069448,-0.36182663,0.24259283,-0.1307243,-0.8905839,-8.851075,10.340346,0.5964622,-0.23326397,1.9442846,0.112945355,0
1.8200000000000014,12.430136212839525,-0.1289783117547576,-3.8812401529057055,0.0435893433973745,12.745165,0.01778007,-5.815431,0.6097926,2.0494554,-1.2099733,1.9129449,-0.36008176,0.24950133,-0.1325286,-0.8891145,-8.893583,10.391484,0.60337824,-0.21693136,1.0357989,0.10954203,0
1.8300000000000014,12.430136212839525,-0.1289783117547576,-3.8812401529057055,0.0435893433973745,12.745165,0.01778007,-5.815431,0.6097926,1.9603022,-1.1057998,1.9190098,-0.35891205,0.25266114,-0.13288623,-0.88864166,-8.937168,10.443256,0.60954076,-0.20315988,0.2689908,0.10630572,0
1.8400000000000014,12.430136212839525,-0.1289783117547576,-3.8812401529057055,0.0435893433973745,12.284801,0.050823007,-6.0888324,0.59749275,1.8707105,-1.0011078,1.925135,-0.35823882,0.2526643,-0.13202925,-0.88904005,-8.9812155,10.495111,0.61546874,-0.19154705,-0.3782342,0.103228204,0
1.8500000000000014,12.430136212839525,-0.1289783117547576,-3.8812401529057055,0.0435893433973745,12.284801,0.050823007,-6.0888324,0.59749275,1.7806783,-0.8958989,1.9313202,-0.35798317,0.25000194,-0.13014852,-0.8901723,-9.025207,10.546586,0.6216084,-0.18175448,-0.9245251,0.1003017,0
1.8600000000000014,12.430136212839525,-0.1289783117547576,-3.8812401529057055,0.0435893433973745,12.284801,0.050823007,-6.0888324,0.59749275,1.6902082,-0.7901787,1.9375693,-0.3580702,0.24508263,-0.12740166,-0.89190096,-9.0687,10.597293,0.6283311,-0.17349644,-1.3856223,0.09751881,0
1.8700000000000014,12.430136212839525,-0.1289783117547576,-3.8812401529057055,0.0435893433973745,12.284801,0.050823007,-6.0888324,0.59749275,1.5993073,-0.68395674,1.9438899,-0.35843125,0.23824778,-0.1239196,-0.8940958,-9.111319,10.646895,0.63593686,-0.16653198,-1.7748117,0.09487247,0
1.8800000000000014,12.95327258754721,-0.05793186934823178,-5.4065328861678,0.0815844006042058,11.498938,-0.1441506,-5.8363605,0.4784525,1.507986,-0.5772456,1.9502918,-0.35900486,0.22978355,-0.11981157,-0.8966374,-9.152736,10.695105,0.6446592,-0.1606585,-2.1033075,0.092356,0
1.8900000000000015,12.95327258754721,-0.05793186934823178,-5.4065328861678,0.0815844006042058,11.498938,-0.1441506,-5.8363605,0.4784525,1.4162493,-0.47005054,1.9568101,-0.35980958,0.21937108,-0.11497594,-0.89955115,-9.19432,10.743605,0.6592385,-0.14460829,-2.6184425,0.091827415,0
1.9000000000000015,12.95327258754721,-0.05793186934823178,-5.4065328861678,0.0815844006042058,11.498938,-0.1441506,-5.8363605,0.4784525,1.3241065,-0.36238077,1.963482,-0.36084345,0.20676337,-0.10933384,-0.9028207,-9.233907,10.789997,0.67541105,-0.13106632,-3.053243,0.09132479,0
1.9100000000000015,12.95327258754721,-0.05793186934823178,-5.4065328861678,0.0815844006042058,11.498938,-0.1441506,-5.8363605,0.4784525,1.2315795,-0.25425914,1.9703244,-0.3620271,0.19227989,-0.103000365,-0.9062859,-9.271079,10.833917,0.69335705,-0.11964031,-3.4202366,0.09084684,0
1.9200000000000015,12.85619106852788,-0.043088968182523446,-5.999994697290869,0.11137731046071953,12.108824,-0.31300163,-5.9159102,0.4470274,1.1386944,-0.14571206,1.9773555,-0.3632911,0.17619182,-0.09607291,-0.9098045,-9.305465,10.875034,0.7131722,-0.10999978,-3.7299979,0.09039233,1
1.9300000000000015,12.85619106852788,-0.043088968182523446,-5.999994697290869,0.11137731046071953,12.108824,-0.31300163,-5.9159102,0.4470274,1.0454912,-0.03678166,1.9845554,-0.36453524,0.15857725,-0.08847492,-0.91331136,-9.334693,10.910567,0.7270712,-0.14159141,-4.0708933,0.1078925,1
1.9400000000000015,12.85619106852788,-0.043088968182523446,-5.999994697290869,0.11137731046071953,12.108824,-0.31300163,-5.9159102,0.4470274,0.9520116,0.0724882,1.991903,-0.3656662,0.13951066,-0.08014964,-0.9167329,-9.360707,10.942877,0.74272406,-0.1682554,-4.3586264,0.12453394,1
1.9500000000000015,12.85619106852788,-0.043088968182523446,-5.999994697290869,0.11137731046071953,12.108824,-0.31300163,-5.9159102,0.4470274,0.85828906,0.18206376,1.9994156,-0.36663806,0.11920313,-0.07120136,-0.91994333,-9.383236,10.971658,0.7600545,-0.19076155,-4.6014876,0.14035879,1
1.9600000000000015,13.199068476175222,-0.015847829050713844,-4.974890615163103,0.1853943402833751,13.351702,-0.4501619,-6.1087923,0.524776,0.7643597,0.29190832,2.0071094,-0.36741194,0.09783754,-0.061719887,-0.9228354,-9.402039,10.996642,0.7789248,-0.20975892,-4.8064747,0.1554071,0
1.9700000000000015,13.199068476175222,-0.015847829050713844,-4.974890615163103,0.1853943402833751,13.351702,-0.4501619,-6.1087923,0.524776,0.6702548,0.40199253,2.0150516,-0.36797622,0.07587968,-0.05202852,-0.92527133,-9.418256,11.019504,0.8097928,-0.17951143,-4.8327365,0.15687858,0
1.9800000000000015,13.199068476175222,-0.015847829050713844,-4.974890615163103,0.1853943402833751,13.351702,-0.4501619,-6.1087923,0.524776,0.5760097,0.5122831,2.023309,-0.36833552,0.05371412,-0.04239153,-0.92717046,-9.430072,11.037905,0.84184706,-0.15398148,-4.8549027,0.15827784,0
1.9900000000000015,13.199068476175222,-0.015847829050713844,-4.974890615163103,0.1853943402833751,13.351702,-0.4501619,-6.1087923,0.524776,0.48166877,0.62273526,2.0318913,-0.36848173,0.031378802,-0.032801203,-0.9285252,-9.437406,11.051815,0.87478536,-0.13243362,-4.873613,0.15960845,0
2.0000000000000013,,,,,15.63905,-0.11146641,-5.8362937,0.24614428,0.3872772,0.7333039,2.0408063,-0.36840877,0.008908206,-0.023251882,-0.9293295,-9.440193,11.061213,0.90829915,-0.114246435,-4.889405,0.1608738,0
2.010000000000001,,,,,15.63905,-0.11146641,-5.8362937,0.24614428,0.29288048,0.84394324,2.0500407,-0.368097,-0.013050664,-0.014000289,-0.92958945,-9.438464,11.065986,0.9386316,-0.09294656,-4.6422467,0.16447131,0
2.020000000000001,,,,,15.63905,-0.11146641,-5.8362937,0.24614428,0.19852267,0.95460916,2.0595787,-0.3675525,-0.03398224,-0.0052503543,-0.929366,-9.432441,11.066555,0.9689229,-0.074965656,-4.433633,0.1678923,0
2.0300000000000007,,,,,15.63905,-0.11146641,-5.8362937,0.24614428,0.10424575,1.0652606,2.069418,-0.36680317,-0.054035954,0.0030732437,-0.92872196,-9.422315,11.063131,0.9989123,-0.05978661,-4.257553,0.17114541,0
2.0400000000000005,,,,,15.63905,-0.11146641,-5.8362937,0.24614428,0.010089915,1.1758586,2.0795548,-0.3658709,-0.07333861,0.011034417,-0.92770505,-9.408251,11.055901,1.0283711,-0.046972826,-4.1089325,0.1742389,0
2.0500000000000003,,,,,15.342767,-0.08765519,-5.049529,0.34499592,-0.08390624,1.2863661,2.0899825,-0.36477283,-0.091997534,0.018687256,-0.9263512,-9.390398,11.04503,1.0570961,-0.036155783,-3.9834893,0.17718059,1
2.06,,,,,15.342767,-0.08765519,-5.049529,0.34499592,-0.17768514,1.3967339,2.1008153,-0.3634958,-0.11073255,0.026373694,-0.92461455,-9.364694,11.027847,1.109266,-0.044145755,-4.149739,0.18541536,1
2.07,,,,,15.342767,-0.08765519,-5.049529,0.34499592,-0.27118477,1.5069084,2.112163,-0.36200905,-0.13011236,0.03436513,-0.9224087,-9.334525,11.006392,1.1600496,-0.050892226,-4.2900615,0.19324604,1
2.0799999999999996,,,,,15.342767,-0.08765519,-5.049529,0.34499592,-0.36435995,1.6168466,2.1240103,-0.36030227,-0.15001498,0.042607956,-0.91970694,-9.29979,10.980556,1.2091312,-0.05658912,-4.408501,0.20069245,1
2.0899999999999994,,,,,15.156609,-0.3662609,-3.7204,0.23940559,-0.45716462,1.7265042,2.1363385,-0.3583676,-0.17033458,0.051055867,-0.91648823,-9.260419,10.950268,1.2561826,-0.061400026,-4.5084705,0.20777345,1
2.099999999999999,,,,,15.156609,-0.3662609,-3.7204,0.23940559,-0.54955494,1.8358387,2.149117,-0.35626242,-0.19045456,0.059578758,-0.912827,-9.21694,10.915931,1.2991472,-0.108955055,-4.3855786,0.20932564,1
2.109999999999999,,,,,15.156609,-0.3662609,-3.7204,0.23940559,-0.6414883,1.9448081,2.1623125,-0.35405347,-0.20988826,0.06807264,-0.9088222,-9.169062,10.877281,1.3395493,-0.1490917,-4.2818503,0.21080168,1
2.1199999999999988,,,,,15.156609,-0.3662609,-3.7204,0.23940559,-0.73292184,2.0533702,2.1758983,-0.35174596,-0.22872591,0.07653557,-0.9044888,-9.117016,10.834456,1.3771926,-0.18296728,-4.1942973,0.21220532,1
2.1299999999999986,,,,,15.734571,-0.7600831,-2.2661715,0.035209045,-0.823815,2.1614835,2.1898463,-0.3493431,-0.24704286,0.08496552,-0.89983803,-9.061012,10.787587,1.4118928,-0.21155845,-4.1203976,0.21354005,1
2.1399999999999983,,,,,15.734571,-0.7600831,-2.2661715,0.035209045,-0.91411793,2.2690988,2.2041504,-0.34696272,-0.26432848,0.09329357,-0.89500946,-8.998994,10.734879,1.4484406,-0.29716274,-3.8312426,0.2047893,1
2.149999999999998,,,,,15.734571,-0.7600831,-2.2661715,0.035209045,-1.0037829,2.3761675,2.218804,-0.3447193,-0.2801929,0.10146664,-0.890148,-8.933494,10.678343,1.48175,-0.36940703,-3.5871782,0.19646794,1
2.159999999999998,,,,,15.734571,-0.7600831,-2.2661715,0.035209045,-1.0927771,2.4826527,2.2337742,-0.34260583,-0.29485592,0.10950399,-0.88526183,-8.864916,10.618206,1.5118524,-0.43037674,-3.3811731,0.18855491,1
2.1699999999999977,,,,,17.85783,-0.9857372,-2.4976597,0.15347192,-1.1810718,2.5885196,2.2490299,-0.34061262,-0.30850205,0.117421634,-0.88035226,-8.793604,10.554658,1.5387794,-0.48183143,-3.2072933,0.18103018,1
