time-since-start [s],throttle_mpc,roll_mpc,pitch_mpc,yaw_mpc,throttle_nw,roll_nw,pitch_nw,yaw_nw,position_x [m],position_y [m],position_z [m],rotation_w [quaternion],rotation_x [quaternion],rotation_y [quaternion],rotation_z [quaternion],velocity_x [m/s],velocity_y [m/s],velocity_z [m/s],omega_x [rad/s],omega_y [rad/s],omega_z [rad/s],network_used
0.0,9.443610458311369,5.147319937161516,-5.999999671231906,-0.3372383497152208,10.717903,0.743797,-3.8401997,-0.420159,15.233946,-10.654698,1.9098257,-0.28190973,0.28224832,-0.2454991,-0.8835117,-8.714925,0.53066486,0.4290246,0.63761693,-0.06649615,0.23751485,0
0.01,9.443610458311369,5.147319937161516,-5.999999671231906,-0.3372383497152208,12.180001,0.5052958,-5.2227216,-0.35561743,15.146587,-10.649046,1.9140447,-0.28263876,0.2788456,-0.24912016,-0.88334566,-8.756338,0.59949946,0.41426638,1.1194896,-0.7702362,0.22915214,0
0.02,9.443610458311369,5.147319937161516,-5.999999671231906,-0.3372383497152208,12.180001,0.5052958,-5.2227216,-0.35561743,15.058829,-10.642715,1.9181006,-0.28488627,0.27181575,-0.25382918,-0.8834742,-8.794895,0.66626465,0.39645794,1.5724094,-1.4104568,0.21706612,0
0.03,9.443610458311369,5.147319937161516,-5.999999671231906,-0.3372383497152208,12.180001,0.5052958,-5.2227216,-0.35561743,14.970702,-10.635727,1.9219651,-0.2885342,0.2614459,-0.2595589,-0.88375515,-8.829994,0.7311715,0.37606958,1.997887,-1.9940628,0.20170818,0
0.04,9.443610458311369,5.147319937161516,-5.999999671231906,-0.3372383497152208,11.511737,1.4427595,-5.3631415,-0.42714116,14.882243,-10.628098,1.9256145,-0.29346102,0.2479852,-0.26623157,-0.8840275,-8.861146,0.79438764,0.3534612,2.3974557,-2.5271385,0.18348451,0
0.05,9.443610458311369,5.147319937161516,-5.999999671231906,-0.3372383497152208,11.511737,1.4427595,-5.3631415,-0.42714116,14.793494,-10.619844,1.9290278,-0.29954332,0.23165217,-0.27376196,-0.8841184,-8.887954,0.856034,0.3288921,2.772643,-3.0150514,0.1627605,0
0.060000000000000005,9.443610458311369,5.147319937161516,-5.999999671231906,-0.3372383497152208,11.511737,1.4427595,-5.3631415,-0.42714116,14.7045,-10.610982,1.9321862,-0.30665663,0.21264146,-0.2820592,-0.88384825,-8.910098,0.91618377,0.30253097,3.1249516,-3.4625444,0.13986467,0
0.07,9.443610458311369,5.147319937161516,-5.999999671231906,-0.3372383497152208,11.511737,1.4427595,-5.3631415,-0.42714116,14.615308,-10.601523,1.9350761,-0.3146616,0.19115998,-0.29101416,-0.8830382,-8.927584,0.9757794,0.27555868,3.4403164,-3.8582828,0.11645309,0
0.08,10.644696543488699,4.933963487435827,-5.999999729074951,-0.5484512370117002,12.747661,0.99135596,-4.47019,0.14450936,14.525965,-10.591465,1.9376994,-0.32336444,0.1675211,-0.3004613,-0.88152987,-8.940312,1.0358236,0.24921441,3.7064874,-4.1923156,0.09419031,0
0.09,10.644696543488699,4.933963487435827,-5.999999729074951,-0.5484512370117002,12.747661,0.99135596,-4.47019,0.14450936,14.436514,-10.580767,1.9401078,-0.33258668,0.14207023,-0.31015867,-0.8792062,-8.948801,1.1038359,0.23254102,3.8978372,-4.4742913,0.062655695,0
0.09999999999999999,10.644696543488699,4.933963487435827,-5.999999729074951,-0.5484512370117002,12.747661,0.99135596,-4.47019,0.14450936,14.34701,-10.569387,1.9423515,-0.34217897,0.11510973,-0.31990403,-0.87597054,-8.951031,1.1719458,0.21619558,4.059338,-4.712297,0.03266852,0
0.10999999999999999,10.644696543488699,4.933963487435827,-5.999999729074951,-0.5484512370117002,12.747661,0.99135596,-4.47019,0.14450936,14.257517,-10.557328,1.944432,-0.3520045,0.08687222,-0.32959968,-0.871728,-8.946684,1.2398772,0.19991165,4.1956487,-4.9131885,0.0041527958,0
0.11999999999999998,10.644696543488699,4.933963487435827,-5.999999729074951,-0.5484512370117002,12.747661,0.99135596,-4.47019,0.14450936,14.168101,-10.544592,1.9463488,-0.36194333,0.057564277,-0.33916104,-0.86640215,-8.935516,1.3073254,0.18337882,4.3106985,-5.0827513,-0.022963652,0
0.12999999999999998,13.58212864903864,2.612781049931308,-5.99999947929445,0.1694262648693846,12.629057,0.113953605,-5.1027684,-0.5605287,14.078832,-10.531184,1.9480976,-0.3718902,0.027370479,-0.34851483,-0.85993344,-8.9173565,1.3739631,0.16625161,4.407807,-5.225871,-0.048749488,0
0.13999999999999999,13.58212864903864,2.612781049931308,-5.99999947929445,0.1694262648693846,12.629057,0.113953605,-5.1027684,-0.5605287,13.989812,-10.517026,1.9497812,-0.38166535,-0.0032258225,-0.35680777,-0.8526482,-8.885174,1.4574909,0.1702696,4.127907,-5.346558,-0.038043544,0
0.15,13.58212864903864,2.612781049931308,-5.99999947929445,0.1694262648693846,12.629057,0.113953605,-5.1027684,-0.5605287,13.901158,-10.502042,1.9514978,-0.39116135,-0.033819612,-0.36338377,-0.8448673,-8.844173,1.5389068,0.17282383,3.8916569,-5.44843,-0.027862951,0
0.16,14.976147340107882,0.42083389654586273,-5.999999171123194,0.5509324357636741,12.280226,-1.9105154,-3.720059,-0.7106225,13.812958,-10.486258,1.9532317,-0.40038282,-0.06436483,-0.36844933,-0.8365377,-8.794653,1.617599,0.1737,3.69225,-5.53442,-0.018181907,0
0.17,14.976147340107882,0.42083389654586273,-5.999999171123194,0.5509324357636741,12.280226,-1.9105154,-3.720059,-0.7106225,13.725322,-10.469663,1.9550151,-0.40935546,-0.09448473,-0.37144762,-0.8279655,-8.731039,1.7007315,0.18266599,3.1821756,-5.606962,0.009744713,0
0.18000000000000002,14.976147340107882,0.42083389654586273,-5.999999171123194,0.5509324357636741,12.280226,-1.9105154,-3.720059,-0.7106225,13.638366,-10.452257,1.9568778,-0.41813278,-0.123873755,-0.371967,-0.8194268,-8.659011,1.7795311,0.18956015,2.7516444,-5.6682105,0.03630094,0
0.19000000000000003,14.976147340107882,0.42083389654586273,-5.999999171123194,0.5509324357636741,12.280226,-1.9105154,-3.720059,-0.7106225,13.552169,-10.434089,1.9587994,-0.42673683,-0.15259147,-0.37035987,-0.8108295,-8.579199,1.8533523,0.19442624,2.388251,-5.719921,0.06155406,0
0.20000000000000004,14.909137112223805,-1.415692442093926,-5.88645987198809,0.7775571629683238,11.471331,-3.8911097,-0.8208612,-0.57859343,13.466807,-10.415209,1.9607594,-0.4351725,-0.18068829,-0.36692086,-0.80208796,-8.492194,1.92164,0.19726555,2.0815256,-5.763579,0.08556799,0
0.21000000000000005,14.909137112223805,-1.415692442093926,-5.88645987198809,0.7775571629683238,11.471331,-3.8911097,-0.8208612,-0.57859343,13.382346,-10.395678,1.9627354,-0.4435356,-0.20785916,-0.36132598,-0.793419,-8.399005,1.9836223,0.19763306,1.5362654,-5.782738,0.1195241,0
0.22000000000000006,14.909137112223805,-1.415692442093926,-5.88645987198809,0.7775571629683238,11.471331,-3.8911097,-0.8208612,-0.57859343,13.298846,-10.375559,1.9647057,-0.45192057,-0.23386176,-0.3533431,-0.78499967,-8.299965,2.0391006,0.19615164,1.0760325,-5.798926,0.15181398,0
0.23000000000000007,14.909137112223805,-1.415692442093926,-5.88645987198809,0.7775571629683238,11.471331,-3.8911097,-0.8208612,-0.57859343,13.216364,-10.354919,1.9666528,-0.46030793,-0.25881866,-0.34331968,-0.7766984,-8.195791,2.0876217,0.1930041,0.6875671,-5.8126006,0.18251938,0
0.24000000000000007,14.909137112223805,-1.415692442093926,-5.88645987198809,0.7775571629683238,11.956495,-3.7521336,3.023446,0.0761236,13.134946,-10.333832,1.9685605,-0.46866673,-0.28283182,-0.33154592,-0.76839715,-8.0871525,2.1288033,0.18830532,0.35967734,-5.8241506,0.21171805,0
0.25000000000000006,14.909137112223805,-1.415692442093926,-5.88645987198809,0.7775571629683238,11.956495,-3.7521336,3.023446,0.0761236,13.054634,-10.31237,1.9704137,-0.47695956,-0.3059854,-0.3182651,-0.7599928,-7.9746685,2.1623256,0.18210813,0.082916215,-5.8339043,0.23948394,0
0.26000000000000006,14.909137112223805,-1.415692442093926,-5.88645987198809,0.7775571629683238,11.956495,-3.7521336,3.023446,0.0761236,12.975464,-10.290612,1.9721974,-0.48514575,-0.3283484,-0.30368242,-0.7513968,-7.858934,2.1879241,0.17441016,-0.15068904,-5.842139,0.26588738,0
0.2700000000000001,14.909137112223805,-1.415692442093926,-5.88645987198809,0.7775571629683238,11.956495,-3.7521336,3.023446,0.0761236,12.897466,-10.26864,1.9738965,-0.4931836,-0.349977,-0.28797168,-0.7425345,-7.740515,2.205385,0.1651608,-0.34786865,-5.84909,0.29099515,0
0.2800000000000001,13.815018071557134,-2.8718110699040493,-1.260414973526631,1.0688571180947972,12.213865,-3.4693952,4.7607036,0.30691326,12.8206625,-10.246533,1.975495,-0.50103223,-0.37091637,-0.27128094,-0.73334414,-7.6199617,2.214542,0.15426807,-0.5143027,-5.854957,0.3148709,0
0.2900000000000001,13.815018071557134,-2.8718110699040493,-1.260414973526631,1.0688571180947972,12.213865,-3.4693952,4.7607036,0.30691326,12.7450285,-10.224379,1.9769443,-0.5083712,-0.38957956,-0.25423858,-0.7246713,-7.506811,2.2153144,0.1353963,-0.8819765,-5.138537,0.3518692,0
0.3000000000000001,13.815018071557134,-2.8718110699040493,-1.260414973526631,1.0688571180947972,12.213865,-3.4693952,4.7607036,0.30691326,12.67053,-10.202252,1.9781983,-0.5150483,-0.404773,-0.2373991,-0.71730393,-7.3929377,2.2089214,0.11522973,-1.1923238,-4.533844,0.38705197,0
0.3100000000000001,13.815018071557134,-2.8718110699040493,-1.260414973526631,1.0688571180947972,12.213865,-3.4693952,4.7607036,0.30691326,12.597171,-10.1802225,1.9792459,-0.5212312,-0.41705143,-0.22076541,-0.71108925,-7.278994,2.1960254,0.094155885,-1.4542792,-4.023452,0.42050833,0
0.3200000000000001,12.67314147317509,-3.9792120303703804,5.999725145184717,1.5354453419912497,11.230608,-4.532658,5.711092,0.5112665,12.524949,-10.158352,1.9800795,-0.5270385,-0.4268747,-0.2043271,-0.7058739,-7.1655,2.1771922,0.072524056,-1.6753854,-3.5926528,0.452323,0
0.3300000000000001,12.67314147317509,-3.9792120303703804,5.999725145184717,1.5354453419912497,11.230608,-4.532658,5.711092,0.5112665,12.453848,-10.136695,1.9806885,-0.5323,-0.43240148,-0.18898828,-0.70282876,-7.0555444,2.1536152,0.048948847,-2.1197114,-2.1816165,0.49786535,0
0.34000000000000014,12.67314147317509,-3.9792120303703804,5.999725145184717,1.5354453419912497,11.230608,-4.532658,5.711092,0.5112665,12.3838215,-10.11529,1.9810534,-0.5368531,-0.43219626,-0.17565334,-0.70295113,-6.9502435,2.126937,0.023865119,-2.4528735,-0.94872904,0.5449196,0
0.35000000000000014,12.67314147317509,-3.9792120303703804,5.999725145184717,1.5354453419912497,11.230608,-4.532658,5.711092,0.5112665,12.314826,-10.094161,1.9811642,-0.54074126,-0.42712605,-0.16427311,-0.70581573,-6.8495436,2.0985804,-0.0015812749,-2.697648,0.12834886,0.59293574,0
0.36000000000000015,11.262575536635598,-5.199881875862071,5.999999669976149,0.029739977625365285,11.311347,-5.3812137,6.121715,1.0616978,12.246823,-10.073321,1.981029,-0.5440058,-0.41790122,-0.1546771,-0.71097857,-6.7514515,2.0691292,-0.025045676,-2.8978906,1.0438224,0.639185,0
0.37000000000000016,11.262575536635598,-5.199881875862071,5.999999669976149,0.029739977625365285,11.311347,-5.3812137,6.121715,1.0616978,12.179759,-10.05277,1.9806496,-0.5469859,-0.40502888,-0.14633456,-0.7178743,-6.662197,2.041406,-0.05076252,-3.1994636,1.7589698,0.6144726,0
0.38000000000000017,11.262575536635598,-5.199881875862071,5.999999669976149,0.029739977625365285,11.311347,-5.3812137,6.121715,1.0616978,12.11356,-10.032488,1.9800161,-0.5499789,-0.38873926,-0.13877894,-0.72604734,-6.5785522,2.0150611,-0.07580603,-3.4963493,2.405004,0.587181,0
0.3900000000000002,11.262575536635598,-5.199881875862071,5.999999669976149,0.029739977625365285,11.311347,-5.3812137,6.121715,1.0616978,12.048175,-10.012464,1.9791428,-0.55295163,-0.36927196,-0.1318462,-0.73518616,-6.4989467,1.9900491,-0.098275505,-3.7621765,2.9656067,0.55982715,0
0.4000000000000002,11.041511589179306,-5.999975296838253,5.999999818654795,-1.4596064410017318,10.89314,-5.1372433,5.8693614,0.7006305,11.983569,-9.9926815,1.9780637,-0.55581236,-0.34700182,-0.1254133,-0.74493843,-6.422704,1.966516,-0.11690598,-3.9865005,3.4388041,0.5338156,0
0.4100000000000002,11.041511589179306,-5.999975296838253,5.999999818654795,-1.4596064410017318,10.89314,-5.1372433,5.8693614,0.7006305,11.919749,-9.973138,1.9768662,-0.5585991,-0.3226158,-0.1192681,-0.75475866,-6.3421617,1.9424555,-0.12220521,-4.146416,3.6844234,0.44978347,0
0.4200000000000002,11.041511589179306,-5.999975296838253,5.999999818654795,-1.4596064410017318,10.89314,-5.1372433,5.8693614,0.7006305,11.856705,-9.953822,1.9756279,-0.5613837,-0.29657513,-0.113226965,-0.76424515,-6.2678986,1.9212561,-0.12509081,-4.3085866,3.9189699,0.36744133,0
0.4300000000000002,11.041511589179306,-5.999975296838253,5.999999818654795,-1.4596064410017318,10.89314,-5.1372433,5.8693614,0.7006305,11.79437,-9.934703,1.9743719,-0.5641131,-0.26890215,-0.107232034,-0.77328444,-6.20013,1.9030421,-0.1257973,-4.472068,4.1435747,0.28675944,0
0.4400000000000002,11.041511589179306,-5.999975296838253,5.999999818654795,-1.4596064410017318,11.350925,-3.8720825,6.1600394,-0.349052,11.73268,-9.9157505,1.9731184,-0.5667278,-0.23962368,-0.10123201,-0.7817618,-6.1390657,1.8879195,-0.12460987,-4.6360793,4.35921,0.20770808,0
0.45000000000000023,11.041511589179306,-5.999975296838253,5.999999818654795,-1.4596064410017318,11.350925,-3.8720825,6.1600394,-0.349052,11.671566,-9.896934,1.9718851,-0.56916314,-0.2087719,-0.09518149,-0.7895616,-6.0849037,1.8759757,-0.12186349,-4.7999773,4.566711,0.13025755,0
0.46000000000000024,11.041511589179306,-5.999975296838253,5.999999818654795,-1.4596064410017318,11.350925,-3.8720825,6.1600394,-0.349052,11.610958,-9.87822,1.9706854,-0.5713499,-0.1763852,-0.089040495,-0.7965669,-6.0378227,1.8672793,-0.117941394,-4.9632335,4.7667985,0.054378293,0
0.47000000000000025,11.041511589179306,-5.999975296838253,5.999999818654795,-1.4596064410017318,11.350925,-3.8720825,6.1600394,-0.349052,11.550785,-9.859576,1.9695294,-0.5732147,-0.14251333,-0.082774706,-0.80265975,-5.9978733,1.8618679,-0.11298224,-5.1220207,4.956697,-0.019666182,0
0.48000000000000026,12.294368590664774,-4.683052703498725,5.999999834523567,-1.1311010461419646,11.523477,-4.1492176,6.92617,-0.7125197,11.490978,-9.84097,1.9684336,-0.5746756,-0.1072957,-0.07636753,-0.8077147,-5.9646974,1.8597546,-0.10581383,-5.2586994,5.1196427,-0.09032446,1
0.49000000000000027,12.294368590664774,-4.683052703498725,5.999999834523567,-1.1311010461419646,11.523477,-4.1492176,6.92617,-0.7125197,11.431474,-9.822369,1.9674431,-0.57551396,-0.071375385,-0.070408605,-0.8116227,-5.937383,1.8611299,-0.09199637,-5.085564,5.2570252,-0.12085578,1
0.5000000000000002,12.294368590664774,-4.683052703498725,5.999999834523567,-1.1311010461419646,11.523477,-4.1492176,6.92617,-0.7125197,11.372205,-9.803735,1.9665986,-0.5756008,-0.03529456,-0.065375865,-0.8143485,-5.917467,1.8662771,-0.07673697,-4.939431,5.3729734,-0.14988892,1
0.5100000000000002,12.294368590664774,-4.683052703498725,5.999999834523567,-1.1311010461419646,11.523477,-4.1492176,6.92617,-0.7125197,11.313098,-9.785029,1.9659111,-0.57497674,0.00088993553,-0.06111519,-0.8158832,-5.904935,1.8753642,-0.06067082,-4.81609,5.4708333,-0.17749739,1
0.5200000000000002,14.65735812745708,-2.8495101896559354,5.999999821885844,-0.13053541173069083,13.4706135,-3.5696182,7.2039266,-0.14168735,11.25408,-9.766212,1.9653858,-0.5736707,0.037122495,-0.057494752,-0.81622165,-5.899751,1.8885113,-0.044430003,-4.711987,5.5534253,-0.20375109,0
0.5300000000000002,14.65735812745708,-2.8495101896559354,5.999999821885844,-0.13053541173069083,13.4706135,-3.5696182,7.2039266,-0.14168735,11.195075,-9.747222,1.965176,-0.5716745,0.07304678,-0.054829996,-0.81538063,-5.9023924,1.9105057,0.0023296205,-4.4215384,5.6230197,-0.20015837,0
0.5400000000000003,14.65735812745708,-2.8495101896559354,5.999999821885844,-0.13053541173069083,13.4706135,-3.5696182,7.2039266,-0.14168735,11.136001,-9.727983,1.9654278,-0.5690103,0.10837406,-0.05336843,-0.8134086,-5.9139447,1.9378927,0.047728136,-4.1763864,5.6817684,-0.19674195,0
0.5500000000000003,14.65735812745708,-2.8495101896559354,5.999999821885844,-0.13053541173069083,13.4706135,-3.5696182,7.2039266,-0.14168735,11.076767,-9.708445,1.9661235,-0.565731,0.14314392,-0.052913122,-0.8103444,-5.934022,1.9707583,0.091022216,-3.969467,5.7313614,-0.19349319,0
0.5600000000000003,16.74803214849387,-0.42046483751100433,5.99999952972106,0.9000338490356935,16.543114,-1.3295903,6.601127,0.29520667,11.017292,-9.688549,1.9672385,-0.56187373,0.17738537,-0.053295974,-0.8062205,-5.9622483,2.0091336,0.13150914,-3.7948167,5.773226,-0.19040383,1
0.5700000000000003,16.74803214849387,-0.42046483751100433,5.99999952972106,0.9000338490356935,16.543114,-1.3295903,6.601127,0.29520667,10.957473,-9.668215,1.968829,-0.557541,0.2107758,-0.05487315,-0.8010681,-6.002843,2.0586584,0.18591097,-3.410452,5.80849,-0.16657479,1
0.5800000000000003,16.74803214849387,-0.42046483751100433,5.99999952972106,0.9000338490356935,16.543114,-1.3295903,6.601127,0.29520667,10.897206,-9.647354,1.9709411,-0.55284363,0.2430648,-0.057919227,-0.7949393,-6.0514874,2.114434,0.23573208,-3.0860257,5.8382745,-0.14391506,1
0.5900000000000003,16.74803214849387,-0.42046483751100433,5.99999952972106,0.9000338490356935,16.543114,-1.3295903,6.601127,0.29520667,10.836417,-9.625905,1.9735258,-0.5478082,0.27436614,-0.062191032,-0.7878842,-6.1074667,2.176474,0.28037506,-2.8121905,5.86343,-0.12236723,1
0.6000000000000003,17.68798687278281,0.9140547774809896,5.999999054164714,1.1424455450416402,17.752483,0.60417557,6.8443785,1.0045676,10.775035,-9.603804,1.9765289,-0.54244745,0.30477184,-0.06748176,-0.77994287,-6.170121,2.2447371,0.31928983,-2.5810568,5.8846755,-0.10187674,1
0.6100000000000003,17.68798687278281,0.9140547774809896,5.999999054164714,1.1424455450416402,17.752483,0.60417557,6.8443785,1.0045676,10.71297,-9.580962,1.9799385,-0.53694326,0.33393306,-0.074244656,-0.77114725,-6.2438087,2.3245935,0.36154026,-2.0845294,5.902552,-0.047583174,1
0.6200000000000003,17.68798687278281,0.9140547774809896,5.999999054164714,1.1424455450416402,17.752483,0.60417557,6.8443785,1.0045676,10.65014,-9.557289,1.9837353,-0.5314625,0.36158407,-0.08282883,-0.76154035,-6.3229823,2.4110718,0.39670223,-1.6654259,5.9176793,0.004046184,1
0.6300000000000003,17.68798687278281,0.9140547774809896,5.999999054164714,1.1424455450416402,17.752483,0.60417557,6.8443785,1.0045676,10.586495,-9.532719,1.987847,-0.52597684,0.38790062,-0.092931084,-0.75116247,-6.406672,2.5041766,0.42443308,-1.3116724,5.930475,0.05314207,1
0.6400000000000003,17.68798687278281,0.9140547774809896,5.999999054164714,1.1424455450416402,18.877886,2.1301794,6.789867,1.7855254,10.521994,-9.507184,1.9921973,-0.52045023,0.4130252,-0.10429399,-0.7400434,-6.4940124,2.6038485,0.44441408,-1.0130783,5.9412966,0.0998288,0
0.6500000000000004,17.68798687278281,0.9140547774809896,5.999999054164714,1.1424455450416402,18.877886,2.1301794,6.789867,1.7855254,10.456606,-9.480621,1.9967054,-0.5148829,0.4370066,-0.11679721,-0.7282025,-6.58389,2.709585,0.4559474,-0.712742,5.950446,0.15099032,0
0.6600000000000004,17.68798687278281,0.9140547774809896,5.999999054164714,1.1424455450416402,18.877886,2.1301794,6.789867,1.7855254,10.390309,-9.4529705,2.0012877,-0.5092688,0.45988533,-0.13033244,-0.7156562,-6.675864,2.8215983,0.45919567,-0.4592335,5.9581833,0.19964132,0
0.6700000000000004,17.68798687278281,0.9140547774809896,5.999999054164714,1.1424455450416402,18.877886,2.1301794,6.789867,1.7855254,10.323085,-9.424169,2.0058599,-0.5035605,0.48175353,-0.14471315,-0.702423,-6.769231,2.939691,0.45391008,-0.24525045,5.9647245,0.24590498,0
0.6800000000000004,16.604608667605245,2.107765553493472,4.898209095203643,1.2002591360469925,15.678164,1.850193,6.0183725,1.7332811,10.254922,-9.394156,2.010336,-0.49771336,0.5026845,-0.15978014,-0.68851984,-6.8633485,3.0636115,0.43985388,-0.06462958,5.9702525,0.28989846,0
0.6900000000000004,16.604608667605245,2.107765553493472,4.898209095203643,1.2002591360469925,15.678164,1.850193,6.0183725,1.7332811,10.185845,-9.362917,2.014603,-0.49200222,0.52220094,-0.17551039,-0.6741184,-6.9518237,3.18513,0.41224554,0.2740165,5.803139,0.3345701,0
0.7000000000000004,16.604608667605245,2.107765553493472,4.898209095203643,1.2002591360469925,15.678164,1.850193,6.0183725,1.7332811,10.115887,-9.330438,2.0185523,-0.4866741,0.53995156,-0.19187798,-0.65938073,-7.0397267,3.3115203,0.3762958,0.5598623,5.662093,0.3770497,0
0.7100000000000004,16.604608667605245,2.107765553493472,4.898209095203643,1.2002591360469925,15.678164,1.850193,6.0183725,1.7332811,10.045054,-9.296672,2.022101,-0.4816467,0.55615515,-0.20875292,-0.6443055,-7.1263905,3.442458,0.3321325,0.8011399,5.5430465,0.41744483,0
0.7200000000000004,15.874685767718367,2.520453733532162,0.5777487779172265,1.5221776164209628,14.582252,1.7888199,2.2902563,1.5610504,9.973366,-9.261575,2.025167,-0.47684294,0.57099116,-0.22602437,-0.62888974,-7.2112327,3.5776093,0.2798632,1.0047982,5.4425645,0.45585775,0
0.7300000000000004,15.874685767718367,2.520453733532162,0.5777487779172265,1.5221776164209628,14.582252,1.7888199,2.2902563,1.5610504,9.900857,-9.225137,2.0276623,-0.47267702,0.5834573,-0.24290879,-0.6141243,-7.2901206,3.710486,0.21803424,1.2412276,4.684011,0.50818235,0
0.7400000000000004,15.874685767718367,2.520453733532162,0.5777487779172265,1.5221776164209628,14.582252,1.7888199,2.2902563,1.5610504,9.827573,-9.187354,2.029505,-0.46955118,0.59285414,-0.25881574,-0.6008821,-7.366404,3.8465066,0.14952382,1.4408016,4.043754,0.55793935,0
0.7500000000000004,15.874685767718367,2.520453733532162,0.5777487779172265,1.5221776164209628,14.582252,1.7888199,2.2902563,1.5610504,9.753539,-9.148197,2.0306334,-0.46736252,0.5997067,-0.2739134,-0.58897775,-7.439805,3.9852097,0.07531656,1.60926,3.5033429,0.6052548,0
0.7600000000000005,14.430401344866029,2.673930253047712,-5.262774535747852,1.8659278598475688,14.066035,2.9886086,-2.744286,2.0043745,9.678787,-9.107642,2.030995,-0.46600303,0.6044392,-0.2883394,-0.5782336,-7.5101185,4.126246,-0.0037427675,1.7514496,3.0472052,0.65024847,0
0.7700000000000005,14.430401344866029,2.673930253047712,-5.262774535747852,1.8659278598475688,14.066035,2.9886086,-2.744286,2.0043745,9.603365,-9.065702,2.030541,-0.46613446,0.6060437,-0.3013546,-0.5697495,-7.5735416,4.2615137,-0.08759852,1.9553558,1.8110125,0.7045368,0
0.7800000000000005,14.430401344866029,2.673930253047712,-5.262774535747852,1.8659278598475688,14.066035,2.9886086,-2.744286,2.0043745,9.527332,-9.02242,2.0292342,-0.46826115,0.6037549,-0.31223944,-0.5645507,-7.6321383,4.3944607,-0.17403083,2.0824897,0.7225946,0.7601864,0
0.7900000000000005,14.430401344866029,2.673930253047712,-5.262774535747852,1.8659278598475688,14.066035,2.9886086,-2.744286,2.0043745,9.450733,-8.977812,2.0270581,-0.47206408,0.59818774,-0.32117578,-0.5622922,-7.6872363,4.5273767,-0.26115847,2.1751919,-0.21069768,0.81444544,0
0.8000000000000005,14.725924062036725,1.8291167465413372,-5.9999989023750535,1.6782496892586394,14.520603,4.2695518,-6.148853,1.7070621,9.373597,-8.9318695,2.0240135,-0.47728485,0.5898365,-0.3284391,-0.5625117,-7.7395005,4.6613674,-0.3475206,2.2534194,-0.9984492,0.86604196,0
0.8100000000000005,14.725924062036725,1.8291167465413372,-5.9999989023750535,1.6782496892586394,14.520603,4.2695518,-6.148853,1.7070621,9.295947,-8.884568,2.0201151,-0.48359597,0.5790948,-0.33392248,-0.56504834,-7.790008,4.798987,-0.4316947,2.1877344,-1.7784183,0.9058972,0
0.8200000000000005,14.725924062036725,1.8291167465413372,-5.9999989023750535,1.6782496892586394,14.520603,4.2695518,-6.148853,1.7070621,9.217806,-8.835888,2.0153894,-0.4907124,0.5662793,-0.33753937,-0.5697332,-7.837844,4.937221,-0.51285934,2.1322556,-2.4367514,0.94379675,0
0.8300000000000005,14.725924062036725,1.8291167465413372,-5.9999989023750535,1.6782496892586394,14.520603,4.2695518,-6.148853,1.7070621,9.139198,-8.785823,2.0098712,-0.49846053,0.55164033,-0.3395338,-0.576148,-7.8831477,5.07577,-0.59009874,2.0853922,-2.9924176,0.97983664,0
0.8400000000000005,14.725924062036725,1.8291167465413372,-5.9999989023750535,1.6782496892586394,14.283192,3.1995354,-6.338149,0.84565467,9.06015,-8.734372,2.0036035,-0.5066779,0.5353803,-0.34010634,-0.5839287,-7.925992,5.2143145,-0.66265446,2.0458019,-3.461428,1.014108,0
0.8500000000000005,14.725924062036725,1.8291167465413372,-5.9999989023750535,1.6782496892586394,14.283192,3.1995354,-6.338149,0.84565467,8.980687,-8.681538,1.9966365,-0.5152159,0.5176665,-0.33942336,-0.5927608,-7.9663963,5.3525114,-0.7299073,2.012353,-3.8572962,1.0466975,0
0.8600000000000005,14.725924062036725,1.8291167465413372,-5.9999989023750535,1.6782496892586394,14.283192,3.1995354,-6.338149,0.84565467,8.900832,-8.627324,1.9890255,-0.5239401,0.49864045,-0.33762395,-0.6023738,-8.004333,5.4899883,-0.79136235,1.9840893,-4.191429,1.077688,0
0.8700000000000006,14.725924062036725,1.8291167465413372,-5.9999989023750535,1.6782496892586394,14.283192,3.1995354,-6.338149,0.84565467,8.82061,-8.571741,1.9808306,-0.53273046,0.47842398,-0.33482563,-0.6125358,-8.039735,5.6263485,-0.84663653,1.9602051,-4.473454,1.1071576,0
0.8800000000000006,14.289809918134209,1.419426937428598,-5.9999994845697335,1.344868271444354,14.088185,2.1856751,-6.2701373,0.9541531,8.7400465,-8.514801,1.972115,-0.5414808,0.4571242,-0.3311283,-0.6230486,-8.072507,5.7611737,-0.8954485,1.9400192,-4.711497,1.1351813,1
0.8900000000000006,14.289809918134209,1.419426937428598,-5.9999994845697335,1.344868271444354,14.088185,2.1856751,-6.2701373,0.9541531,8.659176,-8.456553,1.9629327,-0.5502173,0.4347884,-0.3266664,-0.633647,-8.101221,5.888276,-0.9400313,1.9784495,-4.912421,1.1262982,1
0.9000000000000006,14.289809918134209,1.419426937428598,-5.9999994845697335,1.344868271444354,14.088185,2.1856751,-6.2701373,0.9541531,8.578032,-8.397045,1.9533367,-0.5589571,0.41146606,-0.32155022,-0.64410216,-8.127112,6.013075,-0.97814715,2.0108624,-5.0820155,1.117851,1
0.9100000000000006,14.289809918134209,1.419426937428598,-5.9999994845697335,1.344868271444354,14.088185,2.1856751,-6.2701373,0.9541531,8.496643,-8.336302,1.9433919,-0.56760114,0.3872518,-0.31582725,-0.65430695,-8.14998,6.1351433,-1.0097688,2.0382009,-5.2251654,1.1098183,1
0.9200000000000006,15.328156736230698,0.29475023176604914,-5.999999228191988,1.3003843707577614,15.194235,1.6773127,-5.9084563,0.9551518,8.415042,-8.274353,1.9331633,-0.576064,0.36223185,-0.30953988,-0.6641708,-8.169626,6.254048,-1.0349404,2.06126,-5.345994,1.1021798,0
0.9300000000000006,15.328156736230698,0.29475023176604914,-5.999999228191988,1.3003843707577614,15.194235,1.6773127,-5.9084563,0.9551518,8.333255,-8.211183,1.9227494,-0.5839788,0.33691156,-0.30223766,-0.6738777,-8.187346,6.3794937,-1.0467939,1.7858816,-5.448172,1.1119057,0
0.9400000000000006,15.328156736230698,0.29475023176604914,-5.999999228191988,1.3003843707577614,15.194235,1.6773127,-5.9084563,0.9551518,8.251307,-8.146778,1.9122508,-0.59107786,0.31171238,-0.2935662,-0.6835792,-8.201562,6.5005045,-1.0519238,1.5534362,-5.534388,1.1211543,0
0.9500000000000006,15.328156736230698,0.29475023176604914,-5.999999228191988,1.3003843707577614,15.194235,1.6773127,-5.9084563,0.9551518,8.169233,-8.081189,1.9017335,-0.59742177,0.28659344,-0.28369224,-0.69315904,-8.212482,6.616583,-1.050546,1.3572302,-5.607135,1.1299493,0
0.9600000000000006,15.448920612991266,-0.3856702956512951,-5.999998713416781,1.213620712312237,15.523974,-0.29823828,-5.9172144,1.094175,8.087068,-8.014465,1.8912613,-0.60305554,0.2615219,-0.27276042,-0.702518,-8.220273,6.727259,-1.0429147,1.191613,-5.668517,1.1383126,1
0.9700000000000006,15.448920612991266,-0.3856702956512951,-5.999998713416781,1.213620712312237,15.523974,-0.29823828,-5.9172144,1.094175,8.004838,-7.946657,1.8809026,-0.6079624,0.23664653,-0.26074293,-0.7116127,-8.225137,6.8334336,-1.0278935,0.95929235,-5.7074747,1.1361468,1
0.9800000000000006,15.448920612991266,-0.3856702956512951,-5.999998713416781,1.213620712312237,15.523974,-0.29823828,-5.9172144,1.094175,7.9225745,-7.877818,1.8707231,-0.61214113,0.2120901,-0.24762718,-0.7204035,-8.22718,6.933274,-1.0071625,0.7631977,-5.7403293,1.1340872,1
0.9900000000000007,15.448920612991266,-0.3856702956512951,-5.999998713416781,1.213620712312237,15.523974,-0.29823828,-5.9172144,1.094175,7.840304,-7.808015,1.860778,-0.6156397,0.18779473,-0.2335518,-0.7288167,-8.226597,7.0263906,-0.98107743,0.59768033,-5.7680373,1.1321287,1
1.0000000000000007,15.34308786364263,-1.040151464324419,-5.251101402994848,1.0633073735597167,15.497811,-0.6694445,-5.8387785,1.2858922,7.7580514,-7.7373147,1.8511188,-0.6184943,0.16371346,-0.21863773,-0.73679006,-8.223545,7.1124263,-0.9500202,0.45797262,-5.791405,1.1302663,1
1.0100000000000007,15.34308786364263,-1.040151464324419,-5.251101402994848,1.0633073735597167,15.497811,-0.6694445,-5.8387785,1.2858922,7.675841,-7.665792,1.8417922,-0.620685,0.13991918,-0.20290448,-0.74431306,-8.218168,7.19092,-0.9146222,0.28218707,-5.798921,1.137903,1
1.0200000000000007,15.34308786364263,-1.040151464324419,-5.251101402994848,1.0633073735597167,15.497811,-0.6694445,-5.8387785,1.2858922,7.5936956,-7.5935225,1.8328407,-0.62219805,0.11647096,-0.18637586,-0.75137705,-8.210628,7.2617216,-0.8750917,0.13381271,-5.8052464,1.1451648,1
1.0300000000000007,15.34308786364263,-1.040151464324419,-5.251101402994848,1.0633073735597167,15.497811,-0.6694445,-5.8387785,1.2858922,7.5116353,-7.520584,1.8243033,-0.62306505,0.09331688,-0.16915746,-0.75793594,-8.201077,7.324568,-0.8318726,0.0085754115,-5.8105693,1.1520704,1
1.0400000000000007,15.34308786364263,-1.040151464324419,-5.251101402994848,1.0633073735597167,15.420728,-0.531024,-4.796628,1.2595289,7.4296803,-7.447058,1.8162144,-0.62331,0.070415586,-0.15134212,-0.76395094,-8.189641,7.3792243,-0.7854259,-0.0971332,-5.8150477,1.1586372,1
1.0500000000000007,15.34308786364263,-1.040151464324419,-5.251101402994848,1.0633073735597167,15.420728,-0.531024,-4.796628,1.2595289,7.347849,-7.3730288,1.8086005,-0.62290156,0.048020877,-0.13331494,-0.76935947,-8.176488,7.425287,-0.7369689,-0.16489977,-5.6562777,1.1635878,1
1.0600000000000007,15.34308786364263,-1.040151464324419,-5.251101402994848,1.0633073735597167,15.420728,-0.531024,-4.796628,1.2595289,7.2661567,-7.2985806,1.8014826,-0.6218415,0.026338521,-0.115392625,-0.7741468,-8.161655,7.463043,-0.6863123,-0.22208104,-5.5222597,1.1682956,1
1.0700000000000007,15.34308786364263,-1.040151464324419,-5.251101402994848,1.0633073735597167,15.420728,-0.531024,-4.796628,1.2595289,7.184621,-7.2237964,1.79488,-0.62018865,0.0052729934,-0.0975585,-0.77834433,-8.145226,7.4925737,-0.63397187,-0.27033076,-5.4091353,1.1727725,1
1.0800000000000007,14.442881414080237,-1.1272302078389196,-1.8825415034492345,1.0677323441162334,15.065788,-0.24086933,-2.2691166,0.8347432,7.1032577,-7.1487575,1.7888072,-0.6179901,-0.015256281,-0.0797995,-0.7819762,-8.127267,7.5139613,-0.5804323,-0.31104386,-5.3136473,1.1770296,1
1.0900000000000007,14.442881414080237,-1.1272302078389196,-1.8825415034492345,1.0677323441162334,15.065788,-0.24086933,-2.2691166,0.8347432,7.0220785,-7.0735464,1.7832564,-0.61525816,-0.034592465,-0.06282279,-0.7850563,-8.108287,7.527052,-0.52966475,-0.3005172,-4.838843,1.1602335,1
1.1000000000000008,14.442881414080237,-1.1272302078389196,-1.8825415034492345,1.0677323441162334,15.065788,-0.24086933,-2.2691166,0.8347432,6.941096,-6.9982414,1.7782149,-0.6120667,-0.052217916,-0.0471913,-0.7876674,-8.087975,7.532874,-0.47860914,-0.29156443,-4.4380856,1.1442616,1
1.1100000000000008,14.442881414080237,-1.1272302078389196,-1.8825415034492345,1.0677323441162334,15.065788,-0.24086933,-2.2691166,0.8347432,6.860323,-6.9229116,1.773684,-0.60852253,-0.06838583,-0.032699578,-0.7899074,-8.066431,7.5320315,-0.42761308,-0.28395116,-4.099828,1.1290735,1
1.1200000000000008,13.421458191382902,-1.1210640366146507,3.530736596722466,1.0843027443882751,14.0437765,-0.5879127,3.0429823,0.81833345,6.779771,-6.847622,1.7696615,-0.60470575,-0.08331287,-0.01917251,-0.79184693,-8.043741,7.5250473,-0.376947,-0.27747837,-3.8143215,1.1146306,1
1.1300000000000008,13.421458191382902,-1.1210640366146507,3.530736596722466,1.0843027443882751,14.0437765,-0.5879127,3.0429823,0.81833345,6.699444,-6.7724266,1.7660928,-0.6006725,-0.09541678,-0.0076334225,-0.7937437,-8.021631,7.5133576,-0.33686063,-0.32669303,-2.7449613,1.1000912,1
1.1400000000000008,13.421458191382902,-1.1210640366146507,3.530736596722466,1.0843027443882751,14.0437765,-0.5879127,3.0429823,0.81833345,6.619341,-6.697369,1.7629224,-0.5965401,-0.10345879,0.0011252062,-0.79588574,-7.9989,7.497671,-0.29726866,-0.36809358,-1.8423609,1.0862654,1
1.1500000000000008,13.421458191382902,-1.1210640366146507,3.530736596722466,1.0843027443882751,14.0437765,-0.5879127,3.0429823,0.81833345,6.539467,-6.6224833,1.760146,-0.5924113,-0.10807074,0.0075510005,-0.79831815,-7.975922,7.4792233,-0.2580586,-0.4029226,-1.0805153,1.0731179,1
1.1600000000000008,12.769552339598018,-0.6977557598992595,5.999996582786078,0.9552234924119282,12.905622,-0.69480747,6.1233673,0.6921019,6.4598217,-6.547791,1.7577604,-0.58833784,-0.10978399,0.012020705,-0.8010374,-7.953022,7.459043,-0.21907836,-0.43222475,-0.4374751,1.0606155,1
1.1700000000000008,12.769552339598018,-0.6977557598992595,5.999996582786078,0.9552234924119282,12.905622,-0.69480747,6.1233673,0.6921019,6.380395,-6.473297,1.7557086,-0.58437234,-0.10807086,0.014189029,-0.8041316,-7.932334,7.4397597,-0.19125919,-0.47386146,0.56642264,1.0425327,1
1.1800000000000008,12.769552339598018,-0.6977557598992595,5.999996582786078,0.9552234924119282,12.905622,-0.69480747,6.1233673,0.6921019,6.301172,-6.398995,1.7539356,-0.58053714,-0.102529466,0.013801936,-0.8076343,-7.912383,7.420813,-0.1632706,-0.5088776,1.413768,1.025337,1
1.1900000000000008,12.769552339598018,-0.6977557598992595,5.999996582786078,0.9552234924119282,12.905622,-0.69480747,6.1233673,0.6921019,6.222143,-6.3248763,1.7524444,-0.5767904,-0.09373973,0.011271827,-0.8114172,-7.8935575,7.4032288,-0.13491328,-0.5383284,2.1289747,1.0089852,1
1.2000000000000008,12.378026515535526,-0.22017703184949952,5.999998598526491,0.702552980831249,12.540722,-0.17980629,6.494564,0.54807967,6.143296,-6.2509227,1.7512392,-0.5730733,-0.082190156,0.00694451,-0.81534207,-7.87621,7.387869,-0.106057145,-0.56310034,2.7326484,0.9934356,1
1.2100000000000009,12.378026515535526,-0.22017703184949952,5.999998598526491,0.702552980831249,12.540722,-0.17980629,6.494564,0.54807967,6.064611,-6.177107,1.7503073,-0.56931984,-0.06841222,0.00094091345,-0.8192637,-7.861093,7.375814,-0.080253854,-0.5036097,3.242236,0.9715819,1
1.2200000000000009,12.378026515535526,-0.22017703184949952,5.999998598526491,0.702552980831249,12.540722,-0.17980629,6.494564,0.54807967,5.9860673,-6.1033945,1.7496359,-0.56547064,-0.05285044,-0.0066291103,-0.8230462,-7.847933,7.36725,-0.053939335,-0.45333537,3.6723456,0.9508005,1
1.2300000000000009,12.378026515535526,-0.22017703184949952,5.999998598526491,0.702552980831249,12.540722,-0.17980629,6.494564,0.54807967,5.9076447,-6.029748,1.7492299,-0.5614736,-0.03577174,-0.015511264,-0.8265751,-7.8369126,7.3627043,-0.02720725,-0.41085154,4.0353737,0.93103886,1
1.2400000000000009,12.378026515535526,-0.22017703184949952,5.999998598526491,0.702552980831249,12.311605,0.5701216,6.372774,0.2940147,5.829321,-5.956125,1.7490927,-0.5572808,-0.017406061,-0.025489343,-0.82974976,-7.8282056,7.3626156,-0.00021129102,-0.37495285,4.341783,0.912247,1
1.2500000000000009,12.378026515535526,-0.22017703184949952,5.999998598526491,0.702552980831249,12.311605,0.5701216,6.372774,0.2940147,5.751071,-5.882479,1.7492144,-0.5528726,0.0018817252,-0.036628727,-0.83245784,-7.822071,7.367264,0.024554346,-0.22763197,4.600473,0.88191015,1
1.260000000000001,12.378026515535526,-0.22017703184949952,5.999998598526491,0.702552980831249,12.311605,0.5701216,6.372774,0.2940147,5.67287,-5.8087616,1.7495831,-0.54824144,0.02178932,-0.048969638,-0.83460045,-7.818394,7.3769727,0.04912125,-0.10325765,4.818802,0.8530619,1
1.270000000000001,12.378026515535526,-0.22017703184949952,5.999998598526491,0.702552980831249,12.311605,0.5701216,6.372774,0.2940147,5.5946937,-5.734921,1.7501953,-0.5433629,0.042214867,-0.06230618,-0.83611715,-7.817193,7.392013,0.07319757,0.0017424598,5.0030675,0.8256293,1
1.280000000000001,12.448855714968388,0.192133105570395,5.999998347183225,0.5420408524127717,12.813389,1.5506346,6.461167,0.30379635,5.516517,-5.660902,1.7510443,-0.53821486,0.063067526,-0.07646138,-0.83695894,-7.8184876,7.4125934,0.096462,0.090384856,5.1585846,0.7995428,0
1.290000000000001,12.448855714968388,0.192133105570395,5.999998347183225,0.5420408524127717,12.813389,1.5506346,6.461167,0.30379635,5.438315,-5.586648,1.7521272,-0.53274155,0.08434457,-0.09115815,-0.8371153,-7.8223486,7.4391494,0.11991027,0.10622777,5.28981,0.7869071,0
1.300000000000001,12.448855714968388,0.192133105570395,5.999998347183225,0.5420408524127717,12.813389,1.5506346,6.461167,0.30379635,5.360061,-5.5120993,1.7534373,-0.52689034,0.10603321,-0.10616712,-0.83658326,-7.8288326,7.4715242,0.14182606,0.11961008,5.4005694,0.77489144,0
1.310000000000001,12.448855714968388,0.192133105570395,5.999998347183225,0.5420408524127717,12.813389,1.5506346,6.461167,0.30379635,5.281729,-5.4371977,1.7549572,-0.5206486,0.12804279,-0.12141082,-0.8353376,-7.8380117,7.509735,0.16183412,0.13091373,5.494055,0.7634654,0
1.320000000000001,12.386608425560128,0.44969090728589745,5.999995134325742,0.46037308702419016,12.521246,1.1906284,5.579963,0.6950784,5.2032914,-5.3618846,1.7566661,-0.51400757,0.15029262,-0.13682131,-0.83335924,-7.849943,7.553755,0.17955114,0.14046104,5.5729604,0.7526001,1
1.330000000000001,12.386608425560128,0.44969090728589745,5.999995134325742,0.46037308702419016,12.521246,1.1906284,5.579963,0.6950784,5.1247206,-5.286101,1.7585423,-0.5070338,0.17236416,-0.15258896,-0.8306162,-7.8647327,7.6038084,0.19525033,0.30424392,5.5741324,0.7497775,1
1.340000000000001,12.386608425560128,0.44969090728589745,5.999995134325742,0.46037308702419016,12.521246,1.1906284,5.579963,0.6950784,5.0459876,-5.209789,1.7605605,-0.49979794,0.19392343,-0.16886166,-0.82709175,-7.8821807,7.6595516,0.2078871,0.4424845,5.5751085,0.74709344,1
1.350000000000001,12.386608425560128,0.44969090728589745,5.999995134325742,0.46037308702419016,12.521246,1.1906284,5.579963,0.6950784,4.967068,-5.1328907,1.7626882,-0.49229723,0.21501634,-0.1855256,-0.8227946,-7.902124,7.7208686,0.21710375,0.5591659,5.5759215,0.7445411,1
1.360000000000001,12.27580481507475,0.43506571207339856,3.89634455770365,0.4033889622544635,11.518754,1.1553606,3.2763462,0.6768364,4.887937,-5.0553527,1.7648895,-0.48452783,0.23567851,-0.20248206,-0.81773394,-7.9244137,7.787615,0.22255278,0.6576507,5.5765986,0.74211395,1
1.370000000000001,12.27580481507475,0.43506571207339856,3.89634455770365,0.4033889622544635,11.518754,1.1553606,3.2763462,0.6768364,4.808582,-4.977149,1.7670851,-0.47668386,0.25519612,-0.21919289,-0.8121584,-7.946937,7.8538213,0.21596491,0.73545253,5.2179112,0.7389107,1
1.380000000000001,12.27580481507475,0.43506571207339856,3.89634455770365,0.4033889622544635,11.518754,1.1553606,3.2763462,0.6768364,4.728992,-4.8982606,1.7691957,-0.46896604,0.2730256,-0.23524827,-0.8063408,-7.9712415,7.9244485,0.20553781,0.80109257,4.915155,0.73586464,1
1.390000000000001,12.27580481507475,0.43506571207339856,3.89634455770365,0.4033889622544635,11.518754,1.1553606,3.2763462,0.6768364,4.649152,-4.8186464,1.7711827,-0.46137157,0.2894207,-0.2507405,-0.80031276,-7.997087,7.999095,0.19125642,0.85647166,4.659608,0.7329681,1
1.400000000000001,11.534825295530402,0.267302980115709,-1.1648276870443541,0.35668827516319607,11.6113615,1.3169723,-2.2014444,0.52994347,4.5690465,-4.7382665,1.7730075,-0.4538905,0.30459443,-0.26574576,-0.7940933,-8.024269,8.077413,0.17311479,0.90319425,4.4439096,0.73021364,0
1.410000000000001,11.534825295530402,0.267302980115709,-1.1648276870443541,0.35668827516319607,11.6113615,1.3169723,-2.2014444,0.52994347,4.4886627,-4.657086,1.7746323,-0.44692284,0.3174963,-0.27923822,-0.7883409,-8.052634,8.159151,0.15128748,0.8044864,3.5691733,0.7118846,0
1.420000000000001,11.534825295530402,0.267302980115709,-1.1648276870443541,0.35668827516319607,11.6113615,1.3169723,-2.2014444,0.52994347,4.407991,-4.575074,1.7760218,-0.44084546,0.3273418,-0.29044688,-0.78367245,-8.081864,8.243571,0.12614504,0.72108775,2.8308616,0.6944551,0
1.430000000000001,11.534825295530402,0.267302980115709,-1.1648276870443541,0.35668827516319607,11.6113615,1.3169723,-2.2014444,0.52994347,4.327023,-4.492208,1.7771459,-0.43559307,0.33464444,-0.29976273,-0.7800086,-8.111692,8.3300705,0.09827733,0.6506262,2.207697,0.67788076,0
1.440000000000001,11.534825295530402,0.267302980115709,-1.1648276870443541,0.35668827516319607,11.459236,0.8936641,-5.4495554,0.3156038,4.2457557,-4.4084682,1.7779797,-0.43108973,0.33982742,-0.30750567,-0.77725065,-8.141897,8.4181795,0.068215474,0.5910969,1.6817211,0.6621198,0
1.450000000000001,11.534825295530402,0.267302980115709,-1.1648276870443541,0.35668827516319607,11.459236,0.8936641,-5.4495554,0.3156038,4.1641846,-4.32384,1.7785041,-0.42725664,0.34324017,-0.31393793,-0.77529365,-8.1722975,8.507528,0.03642881,0.54080516,1.2377764,0.6471322,0
1.460000000000001,11.534825295530402,0.267302980115709,-1.1648276870443541,0.35668827516319607,11.459236,0.8936641,-5.4495554,0.3156038,4.0823097,-4.238314,1.7787038,-0.42401695,0.34517178,-0.31927496,-0.7740342,-8.202739,8.597826,0.0033266041,0.4983188,0.8630691,0.6328801,0
1.470000000000001,11.534825295530402,0.267302980115709,-1.1648276870443541,0.35668827516319607,11.459236,0.8936641,-5.4495554,0.3156038,4.00013,-4.151881,1.7785673,-0.4212984,0.34586194,-0.3236943,-0.7733748,-8.233093,8.688838,-0.030737778,0.46242726,0.54680085,0.6193272,0
1.480000000000001,11.763597238346952,-0.24563470048440975,-4.78096203198203,0.24103217203557603,11.666915,0.7409087,-5.680641,-0.115081996,3.9176483,-4.064536,1.7780868,-0.41903487,0.34551004,-0.32734254,-0.77322626,-8.263249,8.7803755,-0.06546159,0.43210784,0.2798575,0.6064394,1
1.490000000000001,11.763597238346952,-0.24563470048440975,-4.78096203198203,0.24103217203557603,11.666915,0.7409087,-5.680641,-0.115081996,3.8348606,-3.976256,1.7772686,-0.4178122,0.3429155,-0.32968634,-0.7740466,-8.294019,8.875161,-0.09851987,0.45685676,-0.6259252,0.57319224,1
1.500000000000001,11.763597238346952,-0.24563470048440975,-4.78096203198203,0.24103217203557603,11.666915,0.7409087,-5.680641,-0.115081996,3.7517724,-3.8870397,1.776113,-0.41817424,0.33700117,-0.33033833,-0.7761677,-8.323475,8.968068,-0.13249308,0.5014184,-1.4141997,0.5394184,1
1.5100000000000011,11.763597238346952,-0.24563470048440975,-4.78096203198203,0.24103217203557603,11.666915,0.7409087,-5.680641,-0.115081996,3.668395,-3.796896,1.7746227,-0.41990328,0.3282194,-0.32955578,-0.7793237,-8.35178,9.060572,-0.16537566,0.5389578,-2.079547,0.5073018,1
1.5200000000000011,11.54379224089261,-0.6035084553742814,-5.9999981692168705,0.1553305784722527,10.404322,0.29172546,-5.9792147,0.525888,3.584742,-3.7058308,1.7728113,-0.42276797,0.31699178,-0.32753077,-0.78326637,-8.378539,9.152326,-0.19657119,0.5705854,-2.6411364,0.47676125,0
1.5300000000000011,11.54379224089261,-0.6035084553742814,-5.9999981692168705,0.1553305784722527,10.404322,0.29172546,-5.9792147,0.525888,3.500832,-3.6138582,1.7706949,-0.42640886,0.3037853,-0.32395276,-0.7879998,-8.403161,9.242034,-0.22632356,0.38761643,-3.16501,0.46098852,0
1.5400000000000011,11.54379224089261,-0.6035084553742814,-5.9999981692168705,0.1553305784722527,10.404322,0.29172546,-5.9792147,0.525888,3.4166858,-3.5209954,1.7682936,-0.43052426,0.2889853,-0.31857687,-0.79350126,-8.425758,9.330252,-0.2534892,0.23314862,-3.6071734,0.4459898,0
1.5500000000000012,11.54379224089261,-0.6035084553742814,-5.9999981692168705,0.1553305784722527,10.404322,0.29172546,-5.9792147,0.525888,3.3323245,-3.4272594,1.765635,-0.43499747,0.27280536,-0.31163523,-0.799523,-8.446212,9.41656,-0.27771693,0.1027439,-3.9803722,0.43172705,0
1.5600000000000012,12.275915486347786,-1.1811593944064682,-5.999998206422384,0.10232127703316145,11.7142515,-0.146526,-6.046151,0.008751783,3.2477696,-3.3326719,1.7627501,-0.43972322,0.2554267,-0.30332384,-0.80585015,-8.464406,9.500554,-0.29875746,-0.007345142,-4.295363,0.4181642,0
1.5700000000000012,12.275915486347786,-1.1811593944064682,-5.999998206422384,0.10232127703316145,11.7142515,-0.146526,-6.046151,0.008751783,3.1630394,-3.2372317,1.7596967,-0.44455546,0.23710874,-0.2936212,-0.8123643,-8.481241,9.586998,-0.31134963,-0.19037436,-4.561248,0.4026657,0
1.5800000000000012,12.275915486347786,-1.1811593944064682,-5.999998206422384,0.10232127703316145,11.7142515,-0.146526,-6.046151,0.008751783,3.0781536,-3.1409433,1.7565356,-0.44937506,0.21806966,-0.28251946,-0.81895643,-8.495523,9.670132,-0.32027557,-0.34487373,-4.7856574,0.3879277,0
1.5900000000000012,12.275915486347786,-1.1811593944064682,-5.999998206422384,0.10232127703316145,11.7142515,-0.146526,-6.046151,0.008751783,2.9931376,-3.0438418,1.7533039,-0.4541299,0.19839898,-0.2701931,-0.82546884,-8.50723,9.749534,-0.32550317,-0.47528952,-4.975062,0.3739129,0
1.6000000000000012,12.43745549184904,-1.2448866478256693,-5.999998680130546,0.1682870706048045,14.096533,-2.1746857,-6.3660073,1.8127798,2.9080176,-2.9459667,1.7500381,-0.4587725,0.17817584,-0.2567932,-0.8317678,-8.516333,9.824805,-0.32707205,-0.5853753,-5.134921,0.3605858,0
1.6100000000000012,12.43745549184904,-1.2448866478256693,-5.999998680130546,0.1682870706048045,14.096533,-2.1746857,-6.3660073,1.8127798,2.8228195,-2.8473563,1.7467812,-0.46324888,0.15748052,-0.24243146,-0.837751,-8.52289,9.896499,-0.32376796,-0.68822634,-5.26985,0.35114965,0
1.6200000000000012,12.43745549184904,-1.2448866478256693,-5.999998680130546,0.1682870706048045,14.096533,-2.1746857,-6.3660073,1.8127798,2.7375693,-2.7480536,1.7435746,-0.46751136,0.13638419,-0.2272071,-0.843332,-8.526762,9.9632635,-0.31702012,-0.77504253,-5.383732,0.34217656,0
1.6300000000000012,12.43745549184904,-1.2448866478256693,-5.999998680130546,0.1682870706048045,14.096533,-2.1746857,-6.3660073,1.8127798,2.652294,-2.6481092,1.7404519,-0.4715283,0.1149417,-0.21122673,-0.84842926,-8.527936,10.024762,-0.3070372,-0.8483237,-5.47985,0.3336437,0
1.6400000000000012,12.43745549184904,-1.2448866478256693,-5.999998680130546,0.1682870706048045,13.264007,-1.0120348,-5.973246,0.32784855,2.5670202,-2.5475776,1.737444,-0.47527152,0.09320335,-0.19458446,-0.85297513,-8.5264015,10.080686,-0.29407218,-0.91017926,-5.560975,0.3255296,1
1.6500000000000012,12.43745549184904,-1.2448866478256693,-5.999998680130546,0.1682870706048045,13.264007,-1.0120348,-5.973246,0.32784855,2.4817767,-2.4464986,1.7346172,-0.47870556,0.0711766,-0.17745028,-0.85690475,-8.521869,10.134084,-0.2708582,-0.9260496,-5.6252723,0.32564342,1
1.6600000000000013,12.43745549184904,-1.2448866478256693,-5.999998680130546,0.1682870706048045,13.264007,-1.0120348,-5.973246,0.32784855,2.396593,-2.344918,1.7320356,-0.48179644,0.048873395,-0.15996753,-0.8601706,-8.514414,10.180992,-0.24513182,-0.93944687,-5.6795416,0.32575163,1
1.6700000000000013,12.43745549184904,-1.2448866478256693,-5.999998680130546,0.1682870706048045,13.264007,-1.0120348,-5.973246,0.32784855,2.3114986,-2.2429018,1.729722,-0.48452353,0.026344554,-0.14217868,-0.8627442,-8.504015,10.221196,-0.21727851,-0.95075697,-5.725347,0.32585457,1
1.6800000000000013,12.798257428478436,-1.171395009348415,-5.999992646037062,0.2577463464323089,14.357838,-0.98345083,-5.9445815,0.6836029,2.226523,-2.140518,1.727696,-0.48686963,0.0036369073,-0.124122895,-0.8646026,-8.490662,10.254515,-0.18770568,-0.9603047,-5.764009,0.32595238,0
1.6900000000000013,12.798257428478436,-1.171395009348415,-5.999992646037062,0.2577463464323089,14.357838,-0.98345083,-5.9445815,0.6836029,2.1416929,-2.0378408,1.7259498,-0.4888293,-0.019183356,-0.10577592,-0.8657303,-8.4749365,10.279867,-0.16136643,-0.9932289,-5.800815,0.3226055,0
1.7000000000000013,12.798257428478436,-1.171395009348415,-5.999992646037062,0.2577463464323089,14.357838,-0.98345083,-5.9445815,0.6836029,2.057034,-1.9349446,1.7244714,-0.49039948,-0.042057723,-0.087123625,-0.86611116,-8.456406,10.298288,-0.13419724,-1.0210195,-5.83188,0.31942284,0
1.7100000000000013,12.798257428478436,-1.171395009348415,-5.999992646037062,0.2577463464323089,14.357838,-0.98345083,-5.9445815,0.6836029,1.9725744,-1.8318993,1.7232672,-0.49156997,-0.06495481,-0.06821469,-0.86572874,-8.435122,10.3096695,-0.10662905,-1.0444766,-5.8581,0.31639636,0
1.7200000000000013,13.025324358037016,-0.7208748656802019,-5.999925030921949,0.33282322681842835,14.899535,-0.7797751,-5.258551,0.60169697,1.888341,-1.7287756,1.7223387,-0.49233222,-0.08784458,-0.04909353,-0.8645703,-8.411145,10.313935,-0.079102874,-1.0642759,-5.88023,0.3135184,0
1.7300000000000013,13.025324358037016,-0.7208748656802019,-5.999925030921949,0.33282322681842835,14.899535,-0.7797751,-5.258551,0.60169697,1.8043628,-1.6256454,1.7216945,-0.49265403,-0.110787384,-0.029955802,-0.8626242,-8.384067,10.310993,-0.049848087,-1.0107154,-5.8988857,0.3144657,0
1.7400000000000013,13.025324358037016,-0.7208748656802019,-5.999925030921949,0.33282322681842835,14.899535,-0.7797751,-5.258551,0.60169697,1.7206687,-1.5225807,1.7213384,-0.492505,-0.13382623,-0.0109609105,-0.8598889,-8.354332,10.300791,-0.021563902,-0.96550816,-5.914634,0.31536654,0
1.7500000000000013,13.025324358037016,-0.7208748656802019,-5.999925030921949,0.33282322681842835,14.899535,-0.7797751,-5.258551,0.60169697,1.637285,-1.4196541,1.7212583,-0.49188197,-0.1569093,0.007901305,-0.8563696,-8.321966,10.283387,0.0052788276,-0.92735183,-5.927928,0.31622314,0
1.7600000000000013,12.027631887065843,-0.3717051141220964,-0.6213701084238057,0.489206134212211,15.483092,0.23642616,-3.2795205,0.77974504,1.5542382,-1.3169373,1.7214373,-0.49078357,-0.17998944,0.026636818,-0.85207134,-8.28701,10.258863,0.030214902,-0.8951464,-5.93915,0.31703776,0
1.7700000000000014,12.027631887065843,-0.3717051141220964,-0.6213701084238057,0.489206134212211,15.483092,0.23642616,-3.2795205,0.77974504,1.4715393,-1.2144891,1.7218081,-0.48925808,-0.20126843,0.044079296,-0.8474517,-8.252442,10.229841,0.043584775,-0.81365883,-5.1098332,0.3254861,0
1.7800000000000014,12.027631887065843,-0.3717051141220964,-0.6213701084238057,0.489206134212211,15.483092,0.23642616,-3.2795205,0.77974504,1.389196,-1.1123598,1.7223012,-0.4874568,-0.21936022,0.059316654,-0.8430589,-8.215938,10.195201,0.0547146,-0.74486136,-4.409849,0.33351988,0
1.7900000000000014,12.027631887065843,-0.3717051141220964,-0.6213701084238057,0.489206134212211,15.483092,0.23642616,-3.2795205,0.77974504,1.3072258,-1.0106014,1.7228949,-0.48549542,-0.2347784,0.072696455,-0.8389805,-8.177874,10.15577,0.063669,-0.6867769,-3.8190286,0.34115943,0
1.8000000000000014,12.227187740468404,0.23276754354474574,1.041993684294714,0.42924477827354474,14.320216,-0.25799918,0.32723457,0.79512167,1.2256428,-0.90925837,1.7235676,-0.4834509,-0.2479538,0.08451372,-0.83525527,-8.138552,10.112239,0.07056215,-0.63773656,-3.3203478,0.34842414,0
1.8100000000000014,12.227187740468404,0.23276754354474574,1.041993684294714,0.42924477827354474,14.320216,-0.25799918,0.32723457,0.79512167,1.1444618,-0.8083725,1.7243081,-0.4813805,-0.258811,0.09449352,-0.832082,-8.097548,10.064433,0.07725996,-0.5021294,-2.6400137,0.35239002,0
1.8200000000000014,12.227187740468404,0.23276754354474574,1.041993684294714,0.42924477827354474,14.320216,-0.25799918,0.32723457,0.79512167,1.0636948,-0.7079795,1.7251071,-0.4793374,-0.26731423,0.10243508,-0.8296298,-8.0557375,10.013782,0.08229082,-0.38764912,-2.065781,0.3561613,0
1.8300000000000014,12.227187740468404,0.23276754354474574,1.041993684294714,0.42924477827354474,14.320216,-0.25799918,0.32723457,0.79512167,0.9833492,-0.6081044,1.7259493,-0.47735268,-0.27384558,0.10866657,-0.82784927,-8.013304,9.960932,0.08595576,-0.291004,-1.5811036,0.3597475,0
1.8400000000000014,12.227187740468404,0.23276754354474574,1.041993684294714,0.42924477827354474,14.019983,0.26756522,2.6914415,0.60035527,0.90343046,-0.50876653,1.7268225,-0.47544038,-0.27872255,0.11346291,-0.8266778,-7.9703903,9.906416,0.088536665,-0.20941538,-1.1720141,0.36315775,0
1.8500000000000014,12.227187740468404,0.23276754354474574,1.041993684294714,0.42924477827354474,14.019983,0.26756522,2.6914415,0.60035527,0.8239427,-0.4099803,1.7277172,-0.47360408,-0.28220934,0.11705434,-0.82604796,-7.927118,9.850675,0.090289794,-0.14053696,-0.82672465,0.36640063,0
1.8600000000000014,12.227187740468404,0.23276754354474574,1.041993684294714,0.42924477827354474,14.019983,0.26756522,2.6914415,0.60035527,0.744889,-0.311756,1.7286263,-0.47184074,-0.2845262,0.11963367,-0.82589275,-7.883582,9.794073,0.09144327,-0.0823887,-0.53528535,0.36948442,0
1.8700000000000014,12.227187740468404,0.23276754354474574,1.041993684294714,0.42924477827354474,14.019983,0.26756522,2.6914415,0.60035527,0.66627175,-0.21410075,1.7295446,-0.47014385,-0.28585714,0.12136241,-0.82614857,-7.8398647,9.736915,0.09219701,-0.03329895,-0.2892978,0.37241685,0
1.8800000000000014,11.41413732686974,0.41313603712974983,5.9999811111682275,0.41159992432041487,13.726605,0.7341962,4.3450875,0.10240732,0.5880922,-0.11701876,1.7304693,-0.46850505,-0.286356,0.12237593,-0.8267571,-7.796033,9.679453,0.09272411,0.008143709,-0.08167358,0.3752054,0
1.8900000000000015,11.41413732686974,0.41313603712974983,5.9999811111682275,0.41159992432041487,13.726605,0.7341962,4.3450875,0.10240732,0.5103366,-0.020492699,1.7313663,-0.46713886,-0.2845441,0.121798985,-0.82823956,-7.7551017,9.625799,0.086679034,0.07106946,0.86677253,0.3769913,0
1.9000000000000015,11.41413732686974,0.41313603712974983,5.9999811111682275,0.41159992432041487,13.726605,0.7341962,4.3450875,0.10240732,0.43298918,0.07549943,1.7322047,-0.46620217,-0.27924582,0.1189434,-0.8309811,-7.7144513,9.572782,0.0811254,0.124216326,1.6673065,0.37868953,0
1.9100000000000015,11.41413732686974,0.41313603712974983,5.9999811111682275,0.41159992432041487,13.726605,0.7341962,4.3450875,0.10240732,0.35604545,0.17096755,1.7329923,-0.46559322,-0.27097985,0.1141612,-0.83472145,-7.674418,9.5211,0.07658981,0.16910419,2.3429961,0.38030446,0
1.9200000000000015,11.536323530390435,0.6220857025014372,5.999845946574775,0.3025640782851155,13.4291115,0.79141927,5.0320077,0.26346612,0.27949762,0.26592812,1.7337415,-0.46521047,-0.26017663,0.10774544,-0.8392127,-7.6353073,9.471359,0.07348371,0.2070168,2.9133105,0.3818401,0
1.9300000000000015,11.536323530390435,0.6220857025014372,5.999845946574775,0.3025640782851155,13.4291115,0.79141927,5.0320077,0.26346612,0.20333719,0.3604007,1.7344731,-0.46494788,-0.24723656,0.09986777,-0.8442296,-7.5969896,9.423588,0.073144935,0.27163544,3.3946693,0.37795004,0
1.9400000000000015,11.536323530390435,0.6220857025014372,5.999845946574775,0.3025640782851155,13.4291115,0.79141927,5.0320077,0.26346612,0.12755285,0.45441017,1.735211,-0.46471283,-0.23249535,0.09067584,-0.8495678,-7.560125,9.378807,0.07475929,0.32619706,3.8009582,0.37425083,0
1.9500000000000015,11.536323530390435,0.6220857025014372,5.999845946574775,0.3025640782851155,13.4291115,0.79141927,5.0320077,0.26346612,0.052128945,0.54798865,1.7359753,-0.464434,-0.21619993,0.0803649,-0.8550437,-7.5249367,9.337455,0.07843749,0.3722668,4.1438837,0.37073314,0
1.9600000000000015,11.167523007530107,0.4997466368705565,5.999997002798421,0.23922026564828114,13.220454,0.9075651,5.3291316,0.28710368,-0.022952363,0.64117247,1.736787,-0.46404874,-0.19856189,0.06910162,-0.8604979,-7.4916363,9.299922,0.08420856,0.41116565,4.4333286,0.36738807,0
1.9700000000000015,11.167523007530107,0.4997466368705565,5.999997002798421,0.23922026564828114,13.220454,0.9075651,5.3291316,0.28710368,-0.097716026,0.7340069,1.7376497,-0.4635192,-0.17974162,0.05706968,-0.8657861,-7.461427,9.267621,0.0886433,0.4249406,4.6776514,0.3610988,0
1.9800000000000015,11.167523007530107,0.4997466368705565,5.999997002798421,0.23922026564828114,13.220454,0.9075651,5.3291316,0.28710368,-0.17218857,0.8265397,1.7385663,-0.46281236,-0.15988028,0.04442495,-0.8707865,-7.433443,9.239636,0.09496036,0.436577,4.883872,0.3551182,0
1.9900000000000015,11.167523007530107,0.4997466368705565,5.999997002798421,0.23922026564828114,13.220454,0.9075651,5.3291316,0.28710368,-0.2463932,0.9188153,1.7395548,-0.46188545,-0.13912287,0.031263232,-0.8754022,-7.407874,9.216217,0.10300496,0.4464067,5.057932,0.34943104,0
2.0000000000000013,,,,,12.446724,0.5730538,4.660615,0.15790893,-0.32035494,1.0108805,1.7406315,-0.4607029,-0.11759663,0.01766814,-0.8795518,-7.384896,9.197574,0.11257656,0.45470992,5.204847,0.34402296,0
2.010000000000001,,,,,12.446724,0.5730538,4.660615,0.15790893,-0.39410278,1.1027852,1.7417989,-0.45924166,-0.0954857,0.0039059066,-0.88315576,-7.365105,9.184172,0.12108222,0.40808997,5.269086,0.3427516,0
2.020000000000001,,,,,12.446724,0.5730538,4.660615,0.15790893,-0.4676668,1.1945806,1.7430565,-0.45748588,-0.07294855,-0.009805985,-0.88616526,-7.348157,9.175685,0.13057753,0.36874267,5.323309,0.3415426,0
2.0300000000000007,,,,,12.446724,0.5730538,4.660615,0.15790893,-0.5410761,1.2863158,1.7444129,-0.45541936,-0.050055485,-0.023465026,-0.8885589,-7.3341856,9.1721525,0.14077468,0.33553305,5.3690767,0.34039292,0
2.0400000000000005,,,,,12.446724,0.5730538,4.660615,0.15790893,-0.6143611,1.3780407,1.7458736,-0.45303002,-0.02686938,-0.03706746,-0.89031893,-7.3233075,9.173594,0.15137376,0.30750403,5.407708,0.33929965,0
2.0500000000000003,,,,,12.463865,-0.3929938,3.4080813,0.3362223,-0.68755317,1.4698048,1.7474409,-0.45030895,-0.0034467424,-0.050608475,-0.8914307,-7.3156214,9.18001,0.1620654,0.28384736,5.4403167,0.33826005,1
2.06,,,,,12.463865,-0.3929938,3.4080813,0.3362223,-0.7606813,1.5616653,1.7491907,-0.4473029,0.019471858,-0.063490435,-0.8919136,-7.3105683,9.19294,0.18781473,0.17836443,5.1233673,0.33816004,1
2.07,,,,,12.463865,-0.3929938,3.4080813,0.3362223,-0.8337771,1.6536818,1.7511952,-0.44408426,0.041294783,-0.075245626,-0.89186436,-7.309176,9.211138,0.21299751,0.08932063,4.8558497,0.3380649,1
2.0799999999999996,,,,,12.463865,-0.3929938,3.4080813,0.3362223,-0.90687704,1.7459047,1.7534478,-0.44067776,0.062178,-0.086044446,-0.89136595,-7.3113513,9.234208,0.23735188,0.014153937,4.6300545,0.3379745,1
2.0899999999999994,,,,,10.451951,-1.1856877,-0.9944006,0.41735715,-0.9800161,1.8383813,1.7559388,-0.43710154,0.08225454,-0.09603093,-0.8904799,-7.3170075,9.261805,0.26065505,-0.04929821,4.439474,0.33788848,1
2.099999999999999,,,,,10.451951,-1.1856877,-0.9944006,0.41735715,-1.053222,1.9311299,1.7585596,-0.43351686,0.10020853,-0.104279876,-0.8894645,-7.3245664,9.288416,0.2633399,-0.22634049,3.592025,0.34178805,1
2.109999999999999,,,,,10.451951,-1.1856877,-0.9944006,0.41735715,-1.1265161,2.0241592,1.7612022,-0.43009537,0.11501357,-0.11008163,-0.88863486,-7.3346314,9.317809,0.26503012,-0.37579817,2.8767405,0.34549627,1
2.1199999999999988,,,,,10.451951,-1.1856877,-0.9944006,0.41735715,-1.199922,2.1174934,1.7638572,-0.4268471,0.12716386,-0.11383528,-0.8880724,-7.3468637,9.349276,0.26584357,-0.5019695,2.2730086,0.3490225,1
2.1299999999999986,,,,,11.214004,-1.8378301,-5.001726,0.28521907,-1.2734598,2.21115,1.7665166,-0.42376545,0.13707592,-0.11587402,-0.8878099,-7.360978,9.38223,0.2659205,-0.6084831,1.7634325,0.3523757,1
2.1399999999999983,,,,,11.214004,-1.8378301,-5.001726,0.28521907,-1.3471531,2.305154,1.769211,-0.42100272,0.14379422,-0.11557809,-0.8881001,-7.377877,9.418665,0.27275747,-0.7977895,0.71053433,0.34887764,1
2.149999999999998,,,,,11.214004,-1.8378301,-5.001726,0.28521907,-1.4210217,2.3995237,1.7719705,-0.41867286,0.14656985,-0.11244938,-0.88914883,-7.395995,9.4551735,0.2791281,-0.9597813,-0.1803244,0.3457539,1
2.159999999999998,,,,,11.214004,-1.8378301,-5.001726,0.28521907,-1.4950757,2.4942555,1.7747939,-0.41669568,0.14601134,-0.10693653,-0.8908479,-7.414887,9.490974,0.2856064,-1.096545,-0.932248,0.34278345,1
2.1699999999999977,,,,,10.679647,-2.8014452,-5.809438,0.6457542,-1.5693207,2.5893383,1.777684,-0.4149862,0.14262728,-0.099413656,-0.89306265,-7.434144,9.525349,0.29249546,-1.2120092,-1.5669045,0.33995876,1
2.1799999999999975,,,,,10.679647,-2.8014452,-5.809438,0.6457542,-1.643754,2.6847475,1.7806208,-0.41339692,0.13670951,-0.08972012,-0.8957476,-7.4524975,9.556119,0.29500017,-1.459713,-2.2285945,0.35496423,1
2.1899999999999973,,,,,10.679647,-2.8014452,-5.809438,0.6457542,-1.7183697,2.7804515,1.7835867,-0.41178495,0.12850547,-0.07774158,-0.8988191,-7.470599,9.584273,0.2983121,-1.6688008,-2.7870889,0.36923337,1
2.199999999999997,,,,,10.679647,-2.8014452,-5.809438,0.6457542,-1.7931644,2.8764217,1.7865902,-0.410077,0.11834912,-0.06382907,-0.90208435,-7.4882164,9.609204,0.3025473,-1.8452944,-3.2584813,0.38280234,1
