time-since-start [s],throttle_mpc,roll_mpc,pitch_mpc,yaw_mpc,throttle_nw,roll_nw,pitch_nw,yaw_nw,position_x [m],position_y [m],position_z [m],rotation_w [quaternion],rotation_x [quaternion],rotation_y [quaternion],rotation_z [quaternion],velocity_x [m/s],velocity_y [m/s],velocity_z [m/s],omega_x [rad/s],omega_y [rad/s],omega_z [rad/s],network_used
0.0,12.67760845526667,5.99999951530004,-5.999999832851811,-0.2236257551557037,13.19348,-0.39687106,-4.845984,-0.96519643,19.464638,-9.657864,2.5115697,0.10356221,-0.45825136,0.2950539,0.83199984,-10.111176,-3.905545,-0.059494562,1.4002572,-0.27990633,-0.090217054,0
0.01,12.67760845526667,5.99999951530004,-5.999999832851811,-0.2236257551557037,12.114161,0.34187964,-6.3481793,-1.1012027,19.363092,-9.696541,2.5107453,0.12699133,-0.43011007,0.31612253,0.83602935,-10.197174,-3.8287554,-0.10495555,5.9999995,-6.0,-0.22362575,0
0.02,12.67760845526667,5.99999951530004,-5.999999832851811,-0.2236257551557037,12.114161,0.34187964,-6.3481793,-1.1012027,19.260725,-9.734417,2.509481,0.15019175,-0.40119416,0.33662185,0.83855313,-10.27502,-3.7456012,-0.14748049,5.9999995,-6.0,-0.22362575,0
0.03,12.67760845526667,5.99999951530004,-5.999999832851811,-0.2236257551557037,12.114161,0.34187964,-6.3481793,-1.1012027,19.15762,-9.771433,2.5078046,0.17312168,-0.37155572,0.35651493,0.83956677,-10.3441515,-3.656693,-0.18744856,5.9999995,-6.0,-0.22362575,0
0.04,12.67760845526667,5.99999951530004,-5.999999832851811,-0.2236257551557037,13.987155,-1.3195263,-4.6066256,-0.7663662,19.05387,-9.807534,2.5057397,0.19573979,-0.3412481,0.37576592,0.8390683,-10.404069,-3.5626826,-0.22525734,5.9999995,-6.0,-0.22362575,0
0.05,12.67760845526667,5.99999951530004,-5.999999832851811,-0.2236257551557037,13.987155,-1.3195263,-4.6066256,-0.7663662,18.94957,-9.842672,2.5033054,0.2180054,-0.31032592,0.39434013,0.83705866,-10.454341,-3.4642582,-0.26132002,5.9999995,-6.0,-0.22362575,0
0.060000000000000005,12.67760845526667,5.99999951530004,-5.999999832851811,-0.2236257551557037,13.987155,-1.3195263,-4.6066256,-0.7663662,18.844816,-9.876807,2.5005178,0.23987837,-0.27884483,0.41220418,0.8335415,-10.494602,-3.362141,-0.2960623,5.9999995,-6.0,-0.22362575,0
0.07,12.67760845526667,5.99999951530004,-5.999999832851811,-0.2236257551557037,13.987155,-1.3195263,-4.6066256,-0.7663662,18.739712,-9.909905,2.4973876,0.26131937,-0.24686156,0.42932582,0.8285232,-10.524562,-3.2570772,-0.32991937,5.9999995,-6.0,-0.22362575,0
0.08,18.392623066419812,5.513482638391215,-5.99999967511437,-0.7306734820610984,14.609278,-1.4968797,-1.3391588,-0.33388978,18.63436,-9.94194,2.4939213,0.28228968,-0.21443371,0.4456743,0.8220127,-10.5440035,-3.149835,-0.36333287,5.9999995,-6.0,-0.22362575,0
0.09,18.392623066419812,5.513482638391215,-5.99999967511437,-0.7306734820610984,14.609278,-1.4968797,-1.3391588,-0.33388978,18.528843,-9.972652,2.4902675,0.30433205,-0.18344876,0.4587064,0.8144426,-10.556964,-2.9923692,-0.3673698,5.5134826,-5.9999995,-0.7306735,0
0.09999999999999999,18.392623066419812,5.513482638391215,-5.99999967511437,-0.7306734820610984,14.609278,-1.4968797,-1.3391588,-0.33388978,18.423271,-10.001786,2.486574,0.32586524,-0.15215689,0.47097108,0.8055098,-10.554954,-2.8343842,-0.37140626,5.5134826,-5.9999995,-0.7306735,0
0.10999999999999999,18.392623066419812,5.513482638391215,-5.99999967511437,-0.7306734820610984,14.609278,-1.4968797,-1.3391588,-0.33388978,18.317795,-10.029342,2.4828377,0.34685326,-0.120610446,0.48244777,0.7952294,-10.537985,-2.676984,-0.37597245,5.5134826,-5.9999995,-0.7306735,0
0.11999999999999998,18.392623066419812,5.513482638391215,-5.99999967511437,-0.7306734820610984,14.609278,-1.4968797,-1.3391588,-0.33388978,18.212563,-10.055331,2.4790509,0.36726093,-0.08886221,0.4931173,0.7836185,-10.506169,-2.5212693,-0.3815951,5.5134826,-5.9999995,-0.7306735,0
0.12999999999999998,20.999980995048148,1.2952338856717207,-5.999873421769471,0.6765435481202507,13.295557,-2.834175,0.54339415,0.0010845102,18.107721,-10.079777,2.4752004,0.38705415,-0.056965306,0.5029618,0.77069664,-10.45972,-2.3683293,-0.3887937,5.5134826,-5.9999995,-0.7306735,0
0.13999999999999999,20.999980995048148,1.2952338856717207,-5.999873421769471,0.6765435481202507,13.295557,-2.834175,0.54339415,0.0010845102,18.003454,-10.102607,2.471338,0.39971802,-0.02961408,0.49629557,0.77009034,-10.392473,-2.198681,-0.38304594,1.2952338,-5.9998736,0.67654353,0
0.15,20.999980995048148,1.2952338856717207,-5.999873421769471,0.6765435481202507,13.295557,-2.834175,0.54339415,0.0010845102,17.899908,-10.123774,2.4675517,0.41200086,-0.00223462,0.48915628,0.7687499,-10.314894,-2.035832,-0.37368152,1.2952338,-5.9998736,0.67654353,0
0.16,20.032289413299956,-1.3059480261511724,-0.8692746448651781,0.38346212778875893,13.869928,-3.8064692,2.7184398,-0.46559268,17.79719,-10.143349,2.463875,0.42389095,0.025146972,0.48155066,0.76667666,-10.227233,-1.8803678,-0.36117652,1.2952338,-5.9998736,0.67654353,0
0.17,20.032289413299956,-1.3059480261511724,-0.8692746448651781,0.38346212778875893,13.869928,-3.8064692,2.7184398,-0.46559268,17.695364,-10.161435,2.4603117,0.42466438,0.026633784,0.47463825,0.77049947,-10.137925,-1.7373408,-0.3511295,-1.305948,-0.8692746,0.38346213,0
0.18000000000000002,20.032289413299956,-1.3059480261511724,-0.8692746448651781,0.38346212778875893,13.869928,-3.8064692,2.7184398,-0.46559268,17.59443,-10.178101,2.4568615,0.42541012,0.02811886,0.46769488,0.774272,-10.0491495,-1.5959861,-0.33847582,-1.305948,-0.8692746,0.38346213,0
0.19000000000000003,20.032289413299956,-1.3059480261511724,-0.8692746448651781,0.38346212778875893,13.869928,-3.8064692,2.7184398,-0.46559268,17.494383,-10.19336,2.453551,0.42612812,0.029602101,0.46072102,0.7779941,-9.960919,-1.4563441,-0.32324415,-1.305948,-0.8692746,0.38346213,0
0.20000000000000004,18.86147850385649,-1.5834905668650612,0.7024745026881383,0.2526818206838721,15.976734,-4.2097344,6.3660045,-0.073653996,17.395212,-10.207232,2.4504056,0.4268183,0.03108341,0.4537171,0.78166544,-9.873245,-1.3184547,-0.30546388,-1.305948,-0.8692746,0.38346213,0
0.21000000000000005,18.86147850385649,-1.5834905668650612,0.7024745026881383,0.2526818206838721,15.976734,-4.2097344,6.3660045,-0.073653996,17.296886,-10.219773,2.4474154,0.4244669,0.025530707,0.44897085,0.78587615,-9.79206,-1.1895832,-0.292317,-1.5834906,0.7024745,0.25268182,0
0.22000000000000006,18.86147850385649,-1.5834905668650612,0.7024745026881383,0.2526818206838721,15.976734,-4.2097344,6.3660045,-0.073653996,17.199358,-10.231024,2.4445648,0.42208296,0.019976048,0.4441902,0.7900266,-9.713642,-1.0604981,-0.27744606,-1.5834906,0.7024745,0.25268182,0
0.23000000000000007,18.86147850385649,-1.5834905668650612,0.7024745026881383,0.2526818206838721,15.976734,-4.2097344,6.3660045,-0.073653996,17.102602,-10.240983,2.441872,0.41966668,0.014419857,0.43937552,0.79411656,-9.638012,-0.93124425,-0.26087993,-1.5834906,0.7024745,0.25268182,0
0.24000000000000007,18.86147850385649,-1.5834905668650612,0.7024745026881383,0.2526818206838721,16.251656,-3.7798686,5.993495,-0.018695172,17.006586,-10.249648,2.439353,0.41721824,0.0088625625,0.4345272,0.7981456,-9.565189,-0.8018664,-0.24264805,-1.5834906,0.7024745,0.25268182,0
0.25000000000000006,18.86147850385649,-1.5834905668650612,0.7024745026881383,0.2526818206838721,16.251656,-3.7798686,5.993495,-0.018695172,16.911285,-10.25702,2.4370246,0.41473785,0.003304589,0.42964554,0.80211353,-9.495194,-0.67240936,-0.22278036,-1.5834906,0.7024745,0.25268182,0
0.26000000000000006,18.86147850385649,-1.5834905668650612,0.7024745026881383,0.2526818206838721,16.251656,-3.7798686,5.993495,-0.018695172,16.816673,-10.263097,2.434903,0.4122257,-0.0022536374,0.424731,0.80602,-9.428046,-0.5429179,-0.20130728,-1.5834906,0.7024745,0.25268182,0
0.2700000000000001,18.86147850385649,-1.5834905668650612,0.7024745026881383,0.2526818206838721,16.251656,-3.7798686,5.993495,-0.018695172,16.722715,-10.267879,2.433004,0.40968192,-0.0078116907,0.41978392,0.8098648,-9.363761,-0.413437,-0.17825973,-1.5834906,0.7024745,0.25268182,0
0.2800000000000001,17.684536963267345,-1.8650457758507195,2.0794412727859535,0.04077874172300736,16.17958,-3.5717068,5.0624285,-0.018765744,16.629385,-10.271366,2.431343,0.4071068,-0.013369146,0.41480464,0.8136475,-9.302355,-0.28401145,-0.1536691,-1.5834906,0.7024745,0.25268182,0
0.2900000000000001,17.684536963267345,-1.8650457758507195,2.0794412727859535,0.04077874172300736,16.17958,-3.5717068,5.0624285,-0.018765744,16.536634,-10.273598,2.4298966,0.40246385,-0.025538895,0.41141236,0.8173802,-9.248233,-0.16222757,-0.13552809,-1.8650458,2.0794413,0.04077874,0
0.3000000000000001,17.684536963267345,-1.8650457758507195,2.0794412727859535,0.04077874172300736,16.17958,-3.5717068,5.0624285,-0.018765744,16.444403,-10.274606,2.4286351,0.39774236,-0.03770366,0.40793982,0.82095337,-9.198826,-0.03920271,-0.116596796,-1.8650458,2.0794413,0.04077874,0
0.3100000000000001,17.684536963267345,-1.8650457758507195,2.0794412727859535,0.04077874172300736,16.17958,-3.5717068,5.0624285,-0.018765744,16.352642,-10.274378,2.4275668,0.39294326,-0.04986107,0.40438765,0.8243664,-9.154174,0.08496582,-0.096965045,-1.8650458,2.0794413,0.04077874,0
0.3200000000000001,16.76711502599773,-1.8155966638524197,2.613275060704414,-0.07811000094098648,16.667395,-3.2718875,5.61867,-0.02942067,16.261303,-10.272902,2.4266977,0.3880675,-0.062008757,0.40075663,0.82761854,-9.11431,0.21017976,-0.0767232,-1.8650458,2.0794413,0.04077874,0
0.3300000000000001,16.76711502599773,-1.8155966638524197,2.613275060704414,-0.07811000094098648,16.667395,-3.2718875,5.61867,-0.02942067,16.170328,-10.270202,2.4260025,0.3825425,-0.07649366,0.3982393,0.8301899,-9.081297,0.33000332,-0.062289637,-1.8155967,2.613275,-0.07811,0
0.34000000000000014,16.76711502599773,-1.8155966638524197,2.613275060704414,-0.07811000094098648,16.667395,-3.2718875,5.61867,-0.02942067,16.079659,-10.266296,2.4254518,0.37692058,-0.09095918,0.3956211,0.832551,-9.053446,0.45117015,-0.04789823,-1.8155967,2.613275,-0.07811,0
0.35000000000000014,16.76711502599773,-1.8155966638524197,2.613275060704414,-0.07811000094098648,16.667395,-3.2718875,5.61867,-0.02942067,15.989243,-10.261173,2.425044,0.37120315,-0.10540166,0.39290267,0.8347012,-9.030785,0.5735603,-0.03366597,-1.8155967,2.613275,-0.07811,0
0.36000000000000015,16.28240583819113,-1.6598182234829062,2.4895750897994233,-0.22583928180043128,15.291388,-3.3101451,5.2258477,0.17522424,15.899026,-10.25482,2.4247773,0.36539173,-0.11981745,0.39008474,0.83664,-9.013337,0.6970526,-0.019709669,-1.8155967,2.613275,-0.07811,0
0.37000000000000016,16.28240583819113,-1.6598182234829062,2.4895750897994233,-0.22583928180043128,15.291388,-3.3101451,5.2258477,0.17522424,15.808956,-10.247246,2.424632,0.36044544,-0.13369074,0.38751063,0.83787906,-9.001351,0.8179301,-0.009390134,-1.6598182,2.4895751,-0.22583929,0
0.38000000000000017,16.28240583819113,-1.6598182234829062,2.4895750897994233,-0.22583928180043128,15.291388,-3.3101451,5.2258477,0.17522424,15.718983,-10.238459,2.4245877,0.355418,-0.14753394,0.3848493,0.83892953,-8.994133,0.93966,0.00039653503,-1.6598182,2.4895751,-0.22583929,0
0.3900000000000002,16.28240583819113,-1.6598182234829062,2.4895750897994233,-0.22583928180043128,15.291388,-3.3101451,5.2258477,0.17522424,15.629058,-10.228451,2.4246378,0.35031056,-0.16134393,0.38210136,0.8397912,-8.991685,1.0621403,0.009545626,-1.6598182,2.4895751,-0.22583929,0
0.4000000000000002,15.772623570305116,-1.3336581831887373,1.3023949698063968,-0.29456082981128323,13.961046,-3.0013468,3.7746265,-0.19423991,15.539133,-10.217214,2.4247758,0.34512427,-0.1751176,0.37926742,0.84046376,-8.994008,1.1852686,0.017952994,-1.6598182,2.4895751,-0.22583929,0
0.4100000000000002,15.772623570305116,-1.3336581831887373,1.3023949698063968,-0.29456082981128323,13.961046,-3.0013468,3.7746265,-0.19423991,15.449163,-10.204763,2.424978,0.34270927,-0.18344274,0.37563565,0.8413067,-9.000247,1.3048542,0.022504132,-1.3336582,1.302395,-0.29456082,0
0.4200000000000002,15.772623570305116,-1.3336581831887373,1.3023949698063968,-0.29456082981128323,13.961046,-3.0013468,3.7746265,-0.19423991,15.3591175,-10.191117,2.4252255,0.34026375,-0.19175154,0.37197044,0.84207475,-9.009423,1.42433,0.026962645,-1.3336582,1.302395,-0.29456082,0
0.4300000000000002,15.772623570305116,-1.3336581831887373,1.3023949698063968,-0.29456082981128323,13.961046,-3.0013468,3.7746265,-0.19423991,15.268965,-10.176277,2.4255166,0.33778793,-0.20004326,0.36827216,0.84276783,-9.021531,1.54366,0.031286325,-1.3336582,1.302395,-0.29456082,0
0.4400000000000002,15.772623570305116,-1.3336581831887373,1.3023949698063968,-0.29456082981128323,13.903837,-3.13603,3.5063245,0.008133117,15.178677,-10.160244,2.4258504,0.33528203,-0.20831719,0.36454105,0.8433859,-9.036569,1.6628085,0.035432998,-1.3336582,1.302395,-0.29456082,0
0.45000000000000023,15.772623570305116,-1.3336581831887373,1.3023949698063968,-0.29456082981128323,13.903837,-3.13603,3.5063245,0.008133117,15.088223,-10.143021,2.4262247,0.33274627,-0.21657257,0.36077747,0.8439288,-9.05453,1.7817397,0.03936057,-1.3336582,1.302395,-0.29456082,0
0.46000000000000024,15.772623570305116,-1.3336581831887373,1.3023949698063968,-0.29456082981128323,13.903837,-3.13603,3.5063245,0.008133117,14.997577,-10.12461,2.426637,0.33018088,-0.22480866,0.35698178,0.84439665,-9.07541,1.900418,0.043027036,-1.3336582,1.302395,-0.29456082,0
0.47000000000000025,15.772623570305116,-1.3336581831887373,1.3023949698063968,-0.29456082981128323,13.903837,-3.13603,3.5063245,0.008133117,14.906706,-10.105014,2.4270844,0.3275861,-0.23302473,0.35315427,0.8447892,-9.0992,2.0188076,0.046390455,-1.3336582,1.302395,-0.29456082,0
0.48000000000000026,15.50069998341145,-1.0686188254828641,0.9094849847256842,-0.31862066721119525,13.849986,-3.139678,3.2338934,0.11409372,14.815583,-10.084235,2.427564,0.32496214,-0.24122004,0.34929535,0.84510666,-9.125892,2.1368732,0.049409032,-1.3336582,1.302395,-0.29456082,0
0.49000000000000027,15.50069998341145,-1.0686188254828641,0.9094849847256842,-0.31862066721119525,13.849986,-3.139678,3.2338934,0.11409372,14.724181,-10.062287,2.428063,0.32342285,-0.24734958,0.3458643,0.8453365,-9.154702,2.2525492,0.050384328,-1.0686188,0.909485,-0.31862068,0
0.5000000000000002,15.50069998341145,-1.0686188254828641,0.9094849847256842,-0.31862066721119525,13.849986,-3.139678,3.2338934,0.11409372,14.632482,-10.039186,2.428571,0.32186675,-0.25346628,0.34241533,0.8455225,-9.185645,2.3678432,0.051161353,-1.0686188,0.909485,-0.31862068,0
0.5100000000000002,15.50069998341145,-1.0686188254828641,0.9094849847256842,-0.31862066721119525,13.849986,-3.139678,3.2338934,0.11409372,14.540462,-10.014932,2.4290855,0.32029405,-0.25956988,0.33894867,0.84566486,-9.218713,2.482737,0.05171534,-1.0686188,0.909485,-0.31862068,0
0.5200000000000002,14.952258184363279,-0.7062347439765719,0.06103689087638216,-0.308702781989392,13.709115,-2.8357441,2.3075898,0.071220815,14.4481,-9.9895315,2.4296045,0.31870475,-0.26566005,0.33546445,0.8457633,-9.2539015,2.5972128,0.052021574,-1.0686188,0.909485,-0.31862068,0
0.5300000000000002,14.952258184363279,-0.7062347439765719,0.06103689087638216,-0.308702781989392,13.709115,-2.8357441,2.3075898,0.071220815,14.355384,-9.963008,2.4301083,0.31896737,-0.26755935,0.33216265,0.8463686,-9.289427,2.7071638,0.048819683,-0.70623475,0.061036892,-0.3087028,0
0.5400000000000003,14.952258184363279,-0.7062347439765719,0.06103689087638216,-0.308702781989392,13.709115,-2.8357441,2.3075898,0.071220815,14.262309,-9.935389,2.430582,0.31922522,-0.26945466,0.32885584,0.8469612,-9.325769,2.8165402,0.045971498,-0.70623475,0.061036892,-0.3087028,0
0.5500000000000003,14.952258184363279,-0.7062347439765719,0.06103689087638216,-0.308702781989392,13.709115,-2.8357441,2.3075898,0.071220815,14.168866,-9.906678,2.431029,0.3194783,-0.27134597,0.32554415,0.84754115,-9.36293,2.925338,0.043469954,-0.70623475,0.061036892,-0.3087028,0
0.5600000000000003,14.48013408104632,-0.3881432369360306,-0.48364122599756776,-0.2874012028445126,13.502937,-2.3532736,1.046719,-0.058606442,14.075048,-9.8768835,2.4314528,0.31972662,-0.27323323,0.3222276,0.8481084,-9.400908,3.033553,0.04130796,-0.70623475,0.061036892,-0.3087028,0
0.5700000000000003,14.48013408104632,-0.3881432369360306,-0.48364122599756776,-0.2874012028445126,13.502937,-2.3532736,1.046719,-0.058606442,13.980853,-9.846026,2.4318416,0.3211924,-0.27226427,0.319414,0.8489301,-9.438165,3.137776,0.036572743,-0.38814324,-0.48364124,-0.2874012,0
0.5800000000000003,14.48013408104632,-0.3881432369360306,-0.48364122599756776,-0.2874012028445126,13.502937,-2.3532736,1.046719,-0.058606442,13.886285,-9.81413,2.4321866,0.3226545,-0.27129212,0.31659663,0.8497419,-9.475371,3.2414079,0.03251196,-0.38814324,-0.48364124,-0.2874012,0
0.5900000000000003,14.48013408104632,-0.3881432369360306,-0.48364122599756776,-0.2874012028445126,13.502937,-2.3532736,1.046719,-0.058606442,13.791346,-9.781199,2.4324942,0.32411277,-0.27031684,0.31377557,0.85054374,-9.512532,3.344444,0.029121649,-0.38814324,-0.48364124,-0.2874012,0
0.6000000000000003,13.972383540847456,-0.1926494162181938,-0.6278040153632939,-0.25491669778837994,13.250055,-1.9653424,0.69855976,-0.0448454,13.696034,-9.747243,2.4327712,0.32556725,-0.26933837,0.31095085,0.85133564,-9.549647,3.4468803,0.026397813,-0.38814324,-0.48364124,-0.2874012,0
0.6100000000000003,13.972383540847456,-0.1926494162181938,-0.6278040153632939,-0.25491669778837994,13.250055,-1.9653424,0.69855976,-0.0448454,13.600359,-9.712282,2.4330077,0.32736695,-0.26737428,0.3087636,0.8520603,-9.585296,3.545173,0.020982517,-0.19264941,-0.62780404,-0.2549167,0
0.6200000000000003,13.972383540847456,-0.1926494162181938,-0.6278040153632939,-0.25491669778837994,13.250055,-1.9653424,0.69855976,-0.0448454,13.50433,-9.67634,2.4331932,0.3291626,-0.2654069,0.30657253,0.8527745,-9.620574,3.6429615,0.016239194,-0.19264941,-0.62780404,-0.2549167,0
0.6300000000000003,13.972383540847456,-0.1926494162181938,-0.6278040153632939,-0.25491669778837994,13.250055,-1.9653424,0.69855976,-0.0448454,13.407949,-9.639423,2.4333348,0.3309542,-0.2634362,0.30437765,0.85347813,-9.655484,3.7402408,0.012164163,-0.19264941,-0.62780404,-0.2549167,0
0.6400000000000003,13.972383540847456,-0.1926494162181938,-0.6278040153632939,-0.25491669778837994,13.039032,-1.5861127,0.35092837,-0.038713034,13.311221,-9.601536,2.4334388,0.33274165,-0.26146224,0.302179,0.8541711,-9.690026,3.8370056,0.008753697,-0.19264941,-0.62780404,-0.2549167,0
0.6500000000000004,13.972383540847456,-0.1926494162181938,-0.6278040153632939,-0.25491669778837994,13.039032,-1.5861127,0.35092837,-0.038713034,13.214149,-9.562685,2.433512,0.334525,-0.25948504,0.29997662,0.8548536,-9.724202,3.9332507,0.006004028,-0.19264941,-0.62780404,-0.2549167,0
0.6600000000000004,13.972383540847456,-0.1926494162181938,-0.6278040153632939,-0.25491669778837994,13.039032,-1.5861127,0.35092837,-0.038713034,13.116737,-9.522874,2.4335608,0.3363042,-0.2575046,0.2977705,0.8555253,-9.758008,4.0289707,0.0039113685,-0.19264941,-0.62780404,-0.2549167,0
0.6700000000000004,13.972383540847456,-0.1926494162181938,-0.6278040153632939,-0.25491669778837994,13.039032,-1.5861127,0.35092837,-0.038713034,13.01899,-9.482108,2.4335923,0.3380792,-0.25552097,0.2955607,0.85618657,-9.791448,4.124161,0.002471895,-0.19264941,-0.62780404,-0.2549167,0
0.6800000000000004,13.460861313320263,-0.06451879888420427,-0.7126591548280086,-0.23095127746416858,13.0911,-1.534918,-0.065978326,0.036882106,12.920909,-9.440394,2.4336126,0.33985,-0.25353417,0.29334724,0.8568371,-9.824524,4.2188153,0.0016817474,-0.19264941,-0.62780404,-0.2549167,0
0.6900000000000004,13.460861313320263,-0.06451879888420427,-0.7126591548280086,-0.23095127746416858,13.0911,-1.534918,-0.065978326,0.036882106,12.822506,-9.397753,2.43361,0.3418005,-0.2509276,0.29156503,0.85743666,-9.855961,4.3095036,-0.0020433355,-0.0645188,-0.7126592,-0.23095128,0
0.7000000000000004,13.460861313320263,-0.06451879888420427,-0.7126591548280086,-0.23095127746416858,13.0911,-1.534918,-0.065978326,0.036882106,12.723791,-9.354206,2.4335737,0.34374622,-0.24831748,0.28977868,0.8580241,-9.886848,4.3997188,-0.0051353695,-0.0645188,-0.7126592,-0.23095128,0
0.7100000000000004,13.460861313320263,-0.06451879888420427,-0.7126591548280086,-0.23095127746416858,13.0911,-1.534918,-0.065978326,0.036882106,12.62477,-9.30976,2.4335096,0.34568706,-0.24570386,0.28798822,0.8585994,-9.917186,4.4894557,-0.007598615,-0.0645188,-0.7126592,-0.23095128,0
0.7200000000000004,12.950124730281555,0.09496411760513834,-0.8174679018445135,-0.20586367575410178,12.7575245,-1.1408395,-0.25937355,0.08913225,12.525449,-9.264419,2.433424,0.34762302,-0.24308677,0.2861937,0.85916257,-9.946971,4.578708,-0.009437377,-0.0645188,-0.7126592,-0.23095128,0
0.7300000000000004,12.950124730281555,0.09496411760513834,-0.8174679018445135,-0.20586367575410178,12.7575245,-1.1408395,-0.25937355,0.08913225,12.4258375,-9.218204,2.4333045,0.34978944,-0.23970243,0.284928,0.8596547,-9.975008,4.6641245,-0.014325643,0.09496412,-0.8174679,-0.20586367,0
0.7400000000000004,12.950124730281555,0.09496411760513834,-0.8174679018445135,-0.20586367575410178,12.7575245,-1.1408395,-0.25937355,0.08913225,12.32595,-9.171137,2.4331393,0.35194957,-0.23631379,0.2836572,0.8601314,-10.002277,4.749122,-0.018605541,0.09496412,-0.8174679,-0.20586367,0
0.7500000000000004,12.950124730281555,0.09496411760513834,-0.8174679018445135,-0.20586367575410178,12.7575245,-1.1408395,-0.25937355,0.08913225,12.225794,-9.123222,2.4329345,0.35410336,-0.23292089,0.28238127,0.8605926,-10.028777,4.8336954,-0.022282584,0.09496412,-0.8174679,-0.20586367,0
0.7600000000000005,12.504581810351102,0.2174782133529233,-0.8131317034890244,-0.1890697656268279,12.878322,-0.8430433,-0.47148627,0.100618064,12.125378,-9.074465,2.4326959,0.3562508,-0.22952378,0.28110027,0.8610383,-10.054507,4.917835,-0.025362302,0.09496412,-0.8174679,-0.20586367,0
0.7700000000000005,12.504581810351102,0.2174782133529233,-0.8131317034890244,-0.1890697656268279,12.878322,-0.8430433,-0.47148627,0.100618064,12.024712,-9.024883,2.4324129,0.3584539,-0.22589932,0.2803686,0.86132103,-10.078567,4.998691,-0.031159414,0.21747822,-0.8131317,-0.18906976,0
0.7800000000000005,12.504581810351102,0.2174782133529233,-0.8131317034890244,-0.1890697656268279,12.878322,-0.8430433,-0.47148627,0.100618064,11.923809,-8.974494,2.4320745,0.36065033,-0.22227065,0.2796317,0.8615877,-10.101771,5.0792084,-0.03644309,0.21747822,-0.8131317,-0.18906976,0
0.7900000000000005,12.504581810351102,0.2174782133529233,-0.8131317034890244,-0.1890697656268279,12.878322,-0.8430433,-0.47148627,0.100618064,11.822679,-8.923301,2.431686,0.3628401,-0.21863785,0.27888957,0.8618384,-10.124122,5.1593795,-0.041218966,0.21747822,-0.8131317,-0.18906976,0
0.8000000000000005,12.163979619754134,0.27375843612033135,-0.8235398240170316,-0.169890628879289,12.540893,-0.78034294,-0.03695762,0.1078462,11.72133,-8.871307,2.4312518,0.36502305,-0.21500099,0.27814227,0.862073,-10.1456175,5.2391973,-0.045492746,0.21747822,-0.8131317,-0.18906976,0
0.8100000000000005,12.163979619754134,0.27375843612033135,-0.8235398240170316,-0.169890628879289,12.540893,-0.78034294,-0.03695762,0.1078462,11.619773,-8.818528,2.4307644,0.3671914,-0.21118577,0.27763385,0.8622591,-10.165674,5.3165035,-0.051844936,0.27375844,-0.82353985,-0.16989063,0
0.8200000000000005,12.163979619754134,0.27375843612033135,-0.8235398240170316,-0.169890628879289,12.540893,-0.78034294,-0.03695762,0.1078462,11.51802,-8.764977,2.430216,0.36935252,-0.20736642,0.27712002,0.8624283,-10.184839,5.393485,-0.05773508,0.27375844,-0.82353985,-0.16989063,0
0.8300000000000005,12.163979619754134,0.27375843612033135,-0.8235398240170316,-0.169890628879289,12.540893,-0.78034294,-0.03695762,0.1078462,11.4160795,-8.710659,2.4296112,0.37150645,-0.20354302,0.27660078,0.8625807,-10.203112,5.4701357,-0.063169256,0.27375844,-0.82353985,-0.16989063,0
0.8400000000000005,12.163979619754134,0.27375843612033135,-0.8235398240170316,-0.169890628879289,12.704453,-0.7019999,-0.07935568,0.10860294,11.31396,-8.655575,2.4289544,0.37365308,-0.19971563,0.2760761,0.86271626,-10.220491,5.5464478,-0.06815357,0.27375844,-0.82353985,-0.16989063,1
0.8500000000000005,12.163979619754134,0.27375843612033135,-0.8235398240170316,-0.169890628879289,12.704453,-0.7019999,-0.07935568,0.10860294,11.211667,-8.599712,2.4282703,0.3725908,-0.20053366,0.2730064,0.8639619,-10.238287,5.625716,-0.068580136,-0.7019999,-0.07935568,0.10860294,1
0.8600000000000005,12.163979619754134,0.27375843612033135,-0.8235398240170316,-0.169890628879289,12.704453,-0.7019999,-0.07935568,0.10860294,11.109193,-8.543061,2.427584,0.37152377,-0.20134912,0.26993322,0.8651965,-10.25669,5.70442,-0.06866327,-0.7019999,-0.07935568,0.10860294,1
0.8700000000000006,12.163979619754134,0.27375843612033135,-0.8235398240170316,-0.169890628879289,12.704453,-0.7019999,-0.07935568,0.10860294,11.006532,-8.485626,2.4268982,0.37045196,-0.20216201,0.2668566,0.8664201,-10.2757,5.782555,-0.068407364,-0.7019999,-0.07935568,0.10860294,1
0.8800000000000006,11.854939296296227,0.4099074412454058,-1.029625357139447,-0.16714580025780088,12.591027,-0.5653794,-1.1520747,0.01636118,10.903678,-8.427412,2.4262168,0.36937538,-0.20297231,0.26377654,0.86763257,-10.295313,5.8601165,-0.06781683,-0.7019999,-0.07935568,0.10860294,1
0.8900000000000006,11.854939296296227,0.4099074412454058,-1.029625357139447,-0.16714580025780088,12.591027,-0.5653794,-1.1520747,0.01636118,10.800626,-8.368429,2.4255395,0.37024248,-0.19899286,0.2592073,0.8695598,-10.314973,5.9361796,-0.0675242,-0.5653794,-1.1520747,0.01636118,1
0.9000000000000006,11.854939296296227,0.4099074412454058,-1.029625357139447,-0.16714580025780088,12.591027,-0.5653794,-1.1520747,0.01636118,10.69738,-8.308693,2.4248698,0.37109435,-0.19500525,0.2546274,0.8714512,-10.334227,6.011039,-0.06623312,-0.5653794,-1.1520747,0.01636118,1
0.9100000000000006,11.854939296296227,0.4099074412454058,-1.029625357139447,-0.16714580025780088,12.591027,-0.5653794,-1.1520747,0.01636118,10.593943,-8.248213,2.424218,0.3719309,-0.1910096,0.250037,0.8733067,-10.353072,6.0846815,-0.06395995,-0.5653794,-1.1520747,0.01636118,1
0.9200000000000006,11.280307527187265,0.9711192380576665,-1.4137260439137265,-0.15557075003042412,12.680221,-0.24317202,-1.3290492,0.041149322,10.49032,-8.187002,2.4235938,0.37275213,-0.18700607,0.24543631,0.87512624,-10.371505,6.1570964,-0.060721233,-0.5653794,-1.1520747,0.01636118,0
0.9300000000000006,11.280307527187265,0.9711192380576665,-1.4137260439137265,-0.15557075003042412,12.680221,-0.24317202,-1.3290492,0.041149322,10.386526,-8.12511,2.4229534,0.37606192,-0.17919427,0.24689615,0.8749341,-10.38709,6.22119,-0.06731499,0.9711192,-1.4137261,-0.15557075,0
0.9400000000000006,11.280307527187265,0.9711192380576665,-1.4137260439137265,-0.15557075003042412,12.680221,-0.24317202,-1.3290492,0.041149322,10.282585,-8.062579,2.4222496,0.3793438,-0.17136918,0.24833766,0.87467706,-10.400815,6.2850294,-0.07343502,0.9711192,-1.4137261,-0.15557075,0
0.9500000000000006,11.280307527187265,0.9711192380576665,-1.4137260439137265,-0.15557075003042412,12.680221,-0.24317202,-1.3290492,0.041149322,10.178516,-7.999411,2.4214864,0.38259757,-0.16353138,0.24976078,0.8743552,-10.412679,6.348594,-0.0791068,0.9711192,-1.4137261,-0.15557075,0
0.9600000000000006,10.89480821029994,1.1141069024358552,-1.6450072999573384,-0.17779419416122566,12.1667795,0.65118307,-0.5865295,0.03192443,10.074338,-7.9356093,2.4206686,0.38582298,-0.15568146,0.25116536,0.8739685,-10.422679,6.4118633,-0.084355935,0.9711192,-1.4137261,-0.15557075,0
0.9700000000000006,10.89480821029994,1.1141069024358552,-1.6450072999573384,-0.17779419416122566,12.1667795,0.65118307,-0.5865295,0.03192443,9.970071,-7.8711863,2.4197845,0.38951376,-0.1465595,0.2527095,0.8734634,-10.4304285,6.4726405,-0.09237039,1.1141069,-1.6450073,-0.17779419,0
0.9800000000000006,10.89480821029994,1.1141069024358552,-1.6450072999573384,-0.17779419416122566,12.1667795,0.65118307,-0.5865295,0.03192443,9.865736,-7.806158,2.4188225,0.3931658,-0.13742295,0.25422853,0.87287146,-10.436091,6.533025,-0.099966235,1.1141069,-1.6450073,-0.17779419,0
0.9900000000000007,10.89480821029994,1.1141069024358552,-1.6450072999573384,-0.17779419416122566,12.1667795,0.65118307,-0.5865295,0.03192443,9.761355,-7.7405276,2.4177864,0.39677873,-0.12827273,0.25572225,0.87219256,-10.439666,6.592989,-0.107177176,1.1141069,-1.6450073,-0.17779419,0
1.0000000000000007,10.58696221793863,0.9013982311926293,-1.6713050664311975,-0.18853518381265352,11.650347,1.1018485,-1.8075743,0.08506292,9.656949,-7.6742997,2.41668,0.40035218,-0.11910975,0.25719056,0.871427,-10.441152,6.652507,-0.114037074,1.1141069,-1.6450073,-0.17779419,0
1.0100000000000007,10.58696221793863,0.9013982311926293,-1.6713050664311975,-0.18853518381265352,11.650347,1.1018485,-1.8075743,0.08506292,9.552538,-7.607488,2.415494,0.40384144,-0.11026042,0.2576485,0.8708461,-10.440623,6.7098303,-0.123132534,0.90139824,-1.6713051,-0.18853518,0
1.0200000000000007,10.58696221793863,0.9013982311926293,-1.6713050664311975,-0.18853518381265352,11.650347,1.1018485,-1.8075743,0.08506292,9.448142,-7.540106,2.4142187,0.40729392,-0.10140106,0.25808302,0.87018603,-10.43822,6.766529,-0.13185947,0.90139824,-1.6713051,-0.18853518,0
1.0300000000000007,10.58696221793863,0.9013982311926293,-1.6713050664311975,-0.18853518381265352,11.650347,1.1018485,-1.8075743,0.08506292,9.34378,-7.47216,2.4128578,0.41070935,-0.09253246,0.25849405,0.8694466,-10.433944,6.82258,-0.1402482,0.90139824,-1.6713051,-0.18853518,0
1.0400000000000007,10.58696221793863,0.9013982311926293,-1.6713050664311975,-0.18853518381265352,11.589423,0.99897397,-1.5263094,0.11513442,9.2394705,-7.403657,2.4114146,0.41408738,-0.083655454,0.25888154,0.868628,-10.427798,6.8779593,-0.14832912,0.90139824,-1.6713051,-0.18853518,0
1.0500000000000007,10.58696221793863,0.9013982311926293,-1.6713050664311975,-0.18853518381265352,11.589423,0.99897397,-1.5263094,0.11513442,9.135231,-7.334604,2.409892,0.41742772,-0.07477082,0.25924549,0.8677305,-10.419787,6.9326444,-0.1561328,0.90139824,-1.6713051,-0.18853518,0
1.0600000000000007,10.58696221793863,0.9013982311926293,-1.6713050664311975,-0.18853518381265352,11.589423,0.99897397,-1.5263094,0.11513442,9.031081,-7.2650065,2.4082928,0.42073005,-0.06587938,0.25958583,0.86675394,-10.409915,6.986613,-0.1636899,0.90139824,-1.6713051,-0.18853518,0
1.0700000000000007,10.58696221793863,0.9013982311926293,-1.6713050664311975,-0.18853518381265352,11.589423,0.99897397,-1.5263094,0.11513442,8.92704,-7.194874,2.4066188,0.42399406,-0.056981947,0.2599025,0.86569846,-10.398185,7.039841,-0.17103112,0.90139824,-1.6713051,-0.18853518,0
1.0800000000000007,10.422665718563918,0.6185427168496527,-1.361716607964838,-0.19807982196032356,11.032828,0.4902111,-0.7155985,0.18517476,8.823126,-7.1242123,2.4048727,0.4272195,-0.04807932,0.26019555,0.8645642,-10.384603,7.092309,-0.17818727,0.90139824,-1.6713051,-0.18853518,1
1.0900000000000007,10.422665718563918,0.6185427168496527,-1.361716607964838,-0.19807982196032356,11.032828,0.4902111,-0.7155985,0.18517476,8.7193575,-7.0530186,2.4030745,0.42746365,-0.043697406,0.26082802,0.8644855,-10.368904,7.146369,-0.18140125,0.4902111,-0.7155985,0.18517476,1
1.1000000000000008,10.422665718563918,0.6185427168496527,-1.361716607964838,-0.19807982196032356,11.032828,0.4902111,-0.7155985,0.18517476,8.615751,-6.981286,2.4012444,0.4276994,-0.039314635,0.26145536,0.86438984,-10.352297,7.200134,-0.18460222,0.4902111,-0.7155985,0.18517476,1
1.1100000000000008,10.422665718563918,0.6185427168496527,-1.361716607964838,-0.19807982196032356,11.032828,0.4902111,-0.7155985,0.18517476,8.512316,-6.9090166,2.3993824,0.4279267,-0.03493109,0.26207754,0.8642771,-10.33478,7.2536,-0.18779822,0.4902111,-0.7155985,0.18517476,1
1.1200000000000008,10.163174634731647,0.3871669660860915,-1.9505923480527863,-0.20539130223534216,10.809693,0.30847648,-0.56155175,0.22592932,8.40906,-6.8362145,2.3974884,0.42814562,-0.030546864,0.26269457,0.8641474,-10.316355,7.3067656,-0.1909973,0.4902111,-0.7155985,0.18517476,0
1.1300000000000008,10.163174634731647,0.3871669660860915,-1.9505923480527863,-0.20539130223534216,10.809693,0.30847648,-0.56155175,0.22592932,8.305985,-6.762904,2.3955252,0.43163282,-0.021558449,0.26014727,0.863454,-10.29828,7.355099,-0.20154236,0.38716698,-1.9505924,-0.2053913,0
1.1400000000000008,10.163174634731647,0.3871669660860915,-1.9505923480527863,-0.20539130223534216,10.809693,0.30847648,-0.56155175,0.22592932,8.203099,-6.689117,2.3934584,0.43507683,-0.012567879,0.257574,0.86267424,-10.278664,7.402173,-0.21173379,0.38716698,-1.9505924,-0.2053913,0
1.1500000000000008,10.163174634731647,0.3871669660860915,-1.9505923480527863,-0.20539130223534216,10.809693,0.30847648,-0.56155175,0.22592932,8.100416,-6.6148653,2.3912916,0.4384774,-0.0035760505,0.25497496,0.8618083,-10.257516,7.447967,-0.22160436,0.38716698,-1.9505924,-0.2053913,0
1.1600000000000008,9.962908575353264,0.1696202902668477,-1.3725894591231054,-0.198194479075224,11.146986,-0.12590393,0.074766554,0.22865456,7.997953,-6.5401626,2.3890274,0.44183418,0.0054161334,0.25235045,0.86085624,-10.234849,7.4924593,-0.23118702,0.38716698,-1.9505924,-0.2053913,0
1.1700000000000008,9.962908575353264,0.1696202902668477,-1.3725894591231054,-0.198194479075224,11.146986,-0.12590393,0.074766554,0.22865456,7.8957214,-6.465025,2.3866599,0.44440374,0.0114486115,0.25004748,0.8601462,-10.211344,7.5349073,-0.24227265,0.16962029,-1.3725895,-0.19819447,0
1.1800000000000008,9.962908575353264,0.1696202902668477,-1.3725894591231054,-0.198194479075224,11.146986,-0.12590393,0.074766554,0.22865456,7.79373,-6.3894677,2.3841827,0.4469516,0.01748053,0.2477323,0.85939425,-10.186882,7.576384,-0.25315377,0.16962029,-1.3725895,-0.19819447,0
1.1900000000000008,9.962908575353264,0.1696202902668477,-1.3725894591231054,-0.198194479075224,11.146986,-0.12590393,0.074766554,0.22865456,7.6919875,-6.313501,2.3815973,0.44947764,0.023511596,0.24540503,0.8586003,-10.161472,7.61688,-0.26384583,0.16962029,-1.3725895,-0.19819447,0
1.2000000000000008,9.93357181201623,0.035502298860609495,-1.6797980464851043,-0.14969616389994161,11.155641,-0.18721864,-0.2305356,0.043801013,7.5905037,-6.2371335,2.3789062,0.45198175,0.029541515,0.24306579,0.8577644,-10.1351185,7.6563864,-0.27436426,0.16962029,-1.3725895,-0.19819447,0
1.2100000000000009,9.93357181201623,0.035502298860609495,-1.6797980464851043,-0.14969616389994161,11.155641,-0.18721864,-0.2305356,0.043801013,7.489288,-6.160377,2.3761094,0.4546439,0.036643036,0.23943539,0.8571043,-10.10788,7.694666,-0.28494233,0.0355023,-1.679798,-0.14969617,0
1.2200000000000009,9.93357181201623,0.035502298860609495,-1.6797980464851043,-0.14969616389994161,11.155641,-0.18721864,-0.2305356,0.043801013,7.38835,-6.0832443,2.373208,0.45727378,0.04374195,0.23578793,0.8563833,-10.0796385,7.731634,-0.29527462,0.0355023,-1.679798,-0.14969617,0
1.2300000000000009,9.93357181201623,0.035502298860609495,-1.6797980464851043,-0.14969616389994161,11.155641,-0.18721864,-0.2305356,0.043801013,7.2876997,-6.0057483,2.3702044,0.45987108,0.050837755,0.2321237,0.8556013,-10.0504055,7.7672787,-0.30538476,0.0355023,-1.679798,-0.14969617,0
1.2400000000000009,9.93357181201623,0.035502298860609495,-1.6797980464851043,-0.14969616389994161,11.419438,-0.20531246,-0.2298246,0.08248395,7.1873455,-5.9279027,2.3671012,0.4624357,0.05792994,0.22844298,0.8547585,-10.020189,7.801589,-0.3152965,0.0355023,-1.679798,-0.14969617,0
1.2500000000000009,9.93357181201623,0.035502298860609495,-1.6797980464851043,-0.14969616389994161,11.419438,-0.20531246,-0.2298246,0.08248395,7.087299,-5.849721,2.3638992,0.4649674,0.065018006,0.224746,0.8538549,-9.989,7.834554,-0.32503366,0.0355023,-1.679798,-0.14969617,0
1.260000000000001,9.93357181201623,0.035502298860609495,-1.6797980464851043,-0.14969616389994161,11.419438,-0.20531246,-0.2298246,0.08248395,6.9875693,-5.771216,2.360601,0.46746603,0.07210145,0.22103304,0.85289055,-9.95685,7.8661633,-0.33462003,0.0355023,-1.679798,-0.14969617,0
1.270000000000001,9.93357181201623,0.035502298860609495,-1.6797980464851043,-0.14969616389994161,11.419438,-0.20531246,-0.2298246,0.08248395,6.8881655,-5.692402,2.3572073,0.4699314,0.07917977,0.21730433,0.85186553,-9.92375,7.8964057,-0.3440795,0.0355023,-1.679798,-0.14969617,0
1.280000000000001,9.901711886396718,-0.08556352808014744,-0.6962469887686288,-0.11831728059982777,10.612847,-0.44454762,0.7673934,0.19122571,6.7890973,-5.6132927,2.3537197,0.47236335,0.08625245,0.21356018,0.8507799,-9.88971,7.9252725,-0.35343596,0.0355023,-1.679798,-0.14969617,0
1.290000000000001,9.901711886396718,-0.08556352808014744,-0.6962469887686288,-0.11831728059982777,10.612847,-0.44454762,0.7673934,0.19122571,6.690373,-5.533901,2.3501372,0.47364402,0.08888524,0.21160147,0.8502862,-9.855085,7.952953,-0.36299616,-0.085563526,-0.696247,-0.11831728,0
1.300000000000001,9.901711886396718,-0.08556352808014744,-0.6962469887686288,-0.11831728059982777,10.612847,-0.44454762,0.7673934,0.19122571,6.591996,-5.454236,2.3464596,0.47491872,0.091516905,0.20964009,0.8497817,-9.820158,7.9800134,-0.3724842,-0.085563526,-0.696247,-0.11831728,0
1.310000000000001,9.901711886396718,-0.08556352808014744,-0.6962469887686288,-0.11831728059982777,10.612847,-0.44454762,0.7673934,0.19122571,6.4939704,-5.374303,2.3426876,0.47618738,0.09414741,0.20767604,0.84926647,-9.784927,8.006453,-0.3819042,-0.085563526,-0.696247,-0.11831728,0
1.320000000000001,9.943473675128724,-0.2004438688279061,-0.24307252311381733,-0.06717142190545232,10.765932,-0.27907476,1.1513712,0.17144078,6.3962984,-5.294109,2.338822,0.47745004,0.09677672,0.20570935,0.8487405,-9.749397,8.032269,-0.39126012,-0.085563526,-0.696247,-0.11831728,0
1.330000000000001,9.943473675128724,-0.2004438688279061,-0.24307252311381733,-0.06717142190545232,10.765932,-0.27907476,1.1513712,0.17144078,6.2989845,-5.213659,2.3348649,0.4780815,0.09726053,0.20431069,0.8486676,-9.71354,8.05769,-0.40016755,-0.20044386,-0.24307252,-0.067171425,0
1.340000000000001,9.943473675128724,-0.2004438688279061,-0.24307252311381733,-0.06717142190545232,10.765932,-0.27907476,1.1513712,0.17144078,6.2020283,-5.132956,2.330819,0.4787117,0.09774407,0.2029115,0.8485925,-9.677711,8.082813,-0.4089799,-0.20044386,-0.24307252,-0.067171425,0
1.350000000000001,9.943473675128724,-0.2004438688279061,-0.24307252311381733,-0.06717142190545232,10.765932,-0.27907476,1.1513712,0.17144078,6.1054296,-5.0520034,2.3266854,0.47934064,0.098227374,0.20151179,0.8485152,-9.641909,8.107639,-0.417698,-0.20044386,-0.24307252,-0.067171425,0
1.360000000000001,9.991631598701886,-0.3119602099304766,0.26808867745131715,-0.03174614877223027,10.87534,-0.27938828,1.4774386,0.13395137,6.0091896,-4.9708037,2.3224652,0.47996837,0.09871041,0.20011155,0.8484357,-9.606134,8.132168,-0.42632267,-0.20044386,-0.24307252,-0.067171425,0
1.370000000000001,9.991631598701886,-0.3119602099304766,0.26808867745131715,-0.03174614877223027,10.87534,-0.27938828,1.4774386,0.13395137,5.9133077,-4.88936,2.3181615,0.47998774,0.0967925,0.19944678,0.84880215,-9.570347,8.15666,-0.43440756,-0.31196022,0.26808867,-0.03174615,0
1.380000000000001,9.991631598701886,-0.3119602099304766,0.26808867745131715,-0.03174614877223027,10.87534,-0.27938828,1.4774386,0.13395137,5.8177814,-4.8076706,2.3137774,0.4800051,0.09487418,0.19878115,0.849165,-9.534941,8.181238,-0.44236505,-0.31196022,0.26808867,-0.03174615,0
1.390000000000001,9.991631598701886,-0.3119602099304766,0.26808867745131715,-0.03174614877223027,10.87534,-0.27938828,1.4774386,0.13395137,5.722607,-4.725735,2.3093147,0.48002037,0.092955455,0.19811468,0.84952426,-9.499916,8.205901,-0.45019665,-0.31196022,0.26808867,-0.03174615,0
1.400000000000001,10.084539285996039,-0.35605806391493805,0.16277024100528922,0.016098581874542044,13.768254,-0.25253412,-0.49777102,-0.27640504,5.6277814,-4.6435523,2.3047743,0.48003364,0.091036335,0.19744737,0.84987986,-9.465277,8.230649,-0.457904,-0.31196022,0.26808867,-0.03174615,0
1.410000000000001,10.084539285996039,-0.35605806391493805,0.16277024100528922,0.016098581874542044,13.768254,-0.25253412,-0.49777102,-0.27640504,5.5333014,-4.5611205,2.3001616,0.4799657,0.089505784,0.1963173,0.85034245,-9.430693,8.255671,-0.4646385,-0.35605806,0.16277024,0.016098581,0
1.420000000000001,10.084539285996039,-0.35605806391493805,0.16277024100528922,0.016098581874542044,13.768254,-0.25253412,-0.49777102,-0.27640504,5.4391656,-4.478439,2.2954822,0.4798959,0.08797488,0.19518648,0.8508018,-9.396475,8.280665,-0.47122803,-0.35605806,0.16277024,0.016098581,0
1.430000000000001,10.084539285996039,-0.35605806391493805,0.16277024100528922,0.016098581874542044,13.768254,-0.25253412,-0.49777102,-0.27640504,5.345371,-4.3955073,2.2907374,0.47982424,0.08644365,0.19405492,0.8512579,-9.362623,8.305634,-0.47767398,-0.35605806,0.16277024,0.016098581,0
1.440000000000001,10.084539285996039,-0.35605806391493805,0.16277024100528922,0.016098581874542044,13.929982,-0.44314763,-0.53270966,-0.21752638,5.2519126,-4.3123264,2.285929,0.47975078,0.08491208,0.1929226,0.85171074,-9.32914,8.330575,-0.48397774,-0.35605806,0.16277024,0.016098581,0
1.450000000000001,10.084539285996039,-0.35605806391493805,0.16277024100528922,0.016098581874542044,13.929982,-0.44314763,-0.53270966,-0.21752638,5.158787,-4.2288957,2.2810585,0.47967544,0.08338018,0.19178955,0.8521603,-9.296024,8.355489,-0.49014074,-0.35605806,0.16277024,0.016098581,0
1.460000000000001,10.084539285996039,-0.35605806391493805,0.16277024100528922,0.016098581874542044,13.929982,-0.44314763,-0.53270966,-0.21752638,5.065991,-4.1452165,2.276127,0.4795983,0.08184796,0.19065578,0.8526066,-9.263277,8.380376,-0.49616435,-0.35605806,0.16277024,0.016098581,0
1.470000000000001,10.084539285996039,-0.35605806391493805,0.16277024100528922,0.016098581874542044,13.929982,-0.44314763,-0.53270966,-0.21752638,4.9735203,-4.0612884,2.271136,0.47951928,0.08031543,0.18952125,0.8530496,-9.230898,8.405233,-0.5020499,-0.35605806,0.16277024,0.016098581,0
1.480000000000001,10.188822625475746,-0.42166780614121746,0.6677874982585567,0.0496970124781342,11.968041,-0.4760053,1.2916205,0.09512347,4.881372,-3.977112,2.2660868,0.47943845,0.078782596,0.188386,0.85348934,-9.198889,8.430063,-0.50779897,-0.35605806,0.16277024,0.016098581,0
1.490000000000001,10.188822625475746,-0.42166780614121746,0.6677874982585567,0.0496970124781342,11.968041,-0.4760053,1.2916205,0.09512347,4.7895427,-3.892686,2.2609856,0.4787597,0.074968226,0.18816632,0.85426205,-9.167044,8.455271,-0.5124558,-0.4216678,0.6677875,0.04969701,0
1.500000000000001,10.188822625475746,-0.42166780614121746,0.6677874982585567,0.0496970124781342,11.968041,-0.4760053,1.2916205,0.09512347,4.6980286,-3.8080058,2.2558386,0.47807348,0.071152695,0.18794368,0.8550214,-9.135899,8.480852,-0.51697844,-0.4216678,0.6677875,0.04969701,0
1.5100000000000011,10.188822625475746,-0.42166780614121746,0.6677874982585567,0.0496970124781342,11.968041,-0.4760053,1.2916205,0.09512347,4.6068225,-3.7230678,2.2506468,0.47737977,0.067336045,0.18771811,0.8557674,-9.105455,8.506805,-0.5213725,-0.4216678,0.6677875,0.04969701,0
1.5200000000000011,10.377326883511527,-0.45669362632975663,0.41252882970398275,0.10236215668195384,11.857858,-0.5592203,1.258458,0.083346784,4.5159173,-3.6378684,2.2454116,0.47667855,0.06351834,0.1874896,0.8564999,-9.075716,8.533129,-0.5256437,-0.4216678,0.6677875,0.04969701,0
1.5300000000000011,10.377326883511527,-0.45669362632975663,0.41252882970398275,0.10236215668195384,11.857858,-0.5592203,1.258458,0.083346784,4.4253087,-3.5524015,2.240143,0.47599617,0.060758855,0.1864836,0.85729885,-9.0461035,8.560224,-0.52804726,-0.45669362,0.41252884,0.102362156,0
1.5400000000000011,10.377326883511527,-0.45669362632975663,0.41252882970398275,0.10236215668195384,11.857858,-0.5592203,1.258458,0.083346784,4.334994,-3.4666634,2.2348511,0.47530916,0.057998784,0.1854758,0.85808945,-9.017097,8.587452,-0.5303029,-0.45669362,0.41252884,0.102362156,0
1.5500000000000012,10.377326883511527,-0.45669362632975663,0.41252882970398275,0.10236215668195384,11.857858,-0.5592203,1.258458,0.083346784,4.2449656,-3.3806522,2.2295375,0.47461754,0.055238146,0.18446618,0.8588717,-8.9887,8.614811,-0.53241396,-0.45669362,0.41252884,0.102362156,0
1.5600000000000012,10.567302559992784,-0.49840733607896,0.793001895475887,0.13453143672621903,12.208375,-0.53480506,0.19804075,-0.18045098,4.155218,-3.2943666,2.2242033,0.4739213,0.052476972,0.18345478,0.8596456,-8.96091,8.6423,-0.5343839,-0.45669362,0.41252884,0.102362156,0
1.5700000000000012,10.567302559992784,-0.49840733607896,0.793001895475887,0.13453143672621903,12.208375,-0.53480506,0.19804075,-0.18045098,4.0657477,-3.2078025,2.218859,0.47274113,0.04801027,0.18315427,0.86062,-8.93333,8.670542,-0.534461,-0.49840733,0.7930019,0.13453144,0
1.5800000000000012,10.567302559992784,-0.49840733607896,0.793001895475887,0.13453143672621903,12.208375,-0.53480506,0.19804075,-0.18045098,3.9765487,-3.1209538,2.2135146,0.47155035,0.043542497,0.18284966,0.8615751,-8.906628,8.6992235,-0.534423,-0.49840733,0.7930019,0.13453144,0
1.5900000000000012,10.567302559992784,-0.49840733607896,0.793001895475887,0.13453143672621903,12.208375,-0.53480506,0.19804075,-0.18045098,3.8876123,-3.0338163,2.208171,0.47034907,0.039073747,0.18254094,0.862511,-8.880807,8.728343,-0.53427804,-0.49840733,0.7930019,0.13453144,0
1.6000000000000012,10.777172350973943,-0.5113778216627867,0.5010642110951332,0.17306795956568954,12.250092,-0.17465624,-0.20883553,-0.12816936,3.7989295,-2.9463856,2.2028294,0.4691372,0.03460412,0.18222815,0.8634275,-8.85587,8.757896,-0.5340342,-0.49840733,0.7930019,0.13453144,0
1.6100000000000012,10.777172350973943,-0.5113778216627867,0.5010642110951332,0.17306795956568954,12.250092,-0.17465624,-0.20883553,-0.12816936,3.710494,-2.8586543,2.1975002,0.4680188,0.03139889,0.1811646,0.86438024,-8.831281,8.788376,-0.5317294,-0.5113778,0.5010642,0.17306796,0
1.6200000000000012,10.777172350973943,-0.5113778216627867,0.5010642110951332,0.17306795956568954,12.250092,-0.17465624,-0.20883553,-0.12816936,3.6223009,-2.7706175,2.1921952,0.46689406,0.02819323,0.18009862,0.8653212,-8.807434,8.819025,-0.52929753,-0.5113778,0.5010642,0.17306796,0
1.6300000000000012,10.777172350973943,-0.5113778216627867,0.5010642110951332,0.17306795956568954,12.250092,-0.17465624,-0.20883553,-0.12816936,3.5343428,-2.6822734,2.186915,0.46576297,0.024987187,0.1790302,0.8662505,-8.78433,8.849841,-0.52674323,-0.5113778,0.5010642,0.17306796,0
1.6400000000000012,10.777172350973943,-0.5113778216627867,0.5010642110951332,0.17306795956568954,12.432788,-0.3871511,-0.22352493,-0.054550465,3.4466116,-2.5936203,2.1816607,0.46462557,0.021780806,0.17795934,0.86716807,-8.7619705,8.880821,-0.5240713,-0.5113778,0.5010642,0.17306796,0
1.6500000000000012,10.777172350973943,-0.5113778216627867,0.5010642110951332,0.17306795956568954,12.432788,-0.3871511,-0.22352493,-0.054550465,3.3591008,-2.5046566,2.1764338,0.46348187,0.01857413,0.17688607,0.8680739,-8.740358,8.9119625,-0.5212864,-0.5113778,0.5010642,0.17306796,0
1.6600000000000013,10.777172350973943,-0.5113778216627867,0.5010642110951332,0.17306795956568954,12.432788,-0.3871511,-0.22352493,-0.054550465,3.271802,-2.4153802,2.1712353,0.4623319,0.015367201,0.17581038,0.8689679,-8.719494,8.943263,-0.5183933,-0.5113778,0.5010642,0.17306796,0
1.6700000000000013,10.777172350973943,-0.5113778216627867,0.5010642110951332,0.17306795956568954,12.432788,-0.3871511,-0.22352493,-0.054550465,3.1847079,-2.3257906,2.1660664,0.46117562,0.012160065,0.17473231,0.8698501,-8.699377,8.974719,-0.5153967,-0.5113778,0.5010642,0.17306796,0
1.6800000000000013,11.038004020370748,-0.5259233033803726,0.6135949398642749,0.2089021377552247,12.676878,-0.3904569,-1.2158622,0.10245651,3.0978112,-2.2358854,2.160928,0.46001315,0.008952765,0.17365189,0.8707205,-8.68001,9.006328,-0.51230145,-0.5113778,0.5010642,0.17306796,0
1.6900000000000013,11.038004020370748,-0.5259233033803726,0.6135949398642749,0.2089021377552247,12.676878,-0.3904569,-1.2158622,0.10245651,3.011107,-2.1456594,2.155833,0.45859045,0.005253072,0.17276268,0.8716775,-8.6609745,9.03889,-0.5066658,-0.5259233,0.61359495,0.20890214,0
1.7000000000000013,11.038004020370748,-0.5259233033803726,0.6135949398642749,0.2089021377552247,12.676878,-0.3904569,-1.2158622,0.10245651,2.9245887,-2.0551069,2.1507952,0.45715976,0.0015532874,0.17187046,0.8726193,-8.642794,9.071693,-0.50095284,-0.5259233,0.61359495,0.20890214,0
1.7100000000000013,11.038004020370748,-0.5259233033803726,0.6135949398642749,0.2089021377552247,12.676878,-0.3904569,-1.2158622,0.10245651,2.838248,-1.9642249,2.1458147,0.4557211,-0.0021465234,0.17097524,0.87354594,-8.625471,9.104734,-0.49516875,-0.5259233,0.61359495,0.20890214,0
1.7200000000000013,11.33419520696396,-0.5388533945338716,0.525833323160094,0.2481447295901997,13.124243,-0.5311028,-1.6511396,0.09686679,2.7520761,-1.8730115,2.140892,0.4542745,-0.0058462974,0.17007704,0.8744574,-8.609006,9.138008,-0.4893197,-0.5259233,0.61359495,0.20890214,0
1.7300000000000013,11.33419520696396,-0.5388533945338716,0.525833323160094,0.2481447295901997,13.124243,-0.5311028,-1.6511396,0.09686679,2.666067,-1.7814597,2.136042,0.45272306,-0.0091582555,0.1689213,0.87545705,-8.592964,9.1723795,-0.48061308,-0.5388534,0.5258333,0.24814473,0
1.7400000000000013,11.33419520696396,-0.5388533945338716,0.525833323160094,0.2481447295901997,13.124243,-0.5311028,-1.6511396,0.09686679,2.580214,-1.6895634,2.13128,0.45116448,-0.012470069,0.16776292,0.8764429,-8.577761,9.206896,-0.47183093,-0.5388534,0.5258333,0.24814473,0
1.7500000000000013,11.33419520696396,-0.5388533945338716,0.525833323160094,0.2481447295901997,13.124243,-0.5311028,-1.6511396,0.09686679,2.494509,-1.5973213,2.1266057,0.44959885,-0.015781688,0.16660191,0.877415,-8.563396,9.241554,-0.46297866,-0.5388534,0.5258333,0.24814473,0
1.7600000000000013,11.633053769497504,-0.5657560095236183,0.3908220154402999,0.29006904712051584,12.944637,-0.85905015,-1.6371434,0.16265613,2.4089432,-1.5047318,2.1220205,0.44802615,-0.019093057,0.16543828,0.8783733,-8.549871,9.27635,-0.4540616,-0.5388534,0.5258333,0.24814473,0
1.7700000000000014,11.633053769497504,-0.5657560095236183,0.3908220154402999,0.29006904712051584,12.944637,-0.85905015,-1.6371434,0.16265613,2.3235104,-1.4117893,2.1175387,0.44637182,-0.021836782,0.16385558,0.8794477,-8.536825,9.312148,-0.44224772,-0.565756,0.39082202,0.29006904,0
1.7800000000000014,11.633053769497504,-0.5657560095236183,0.3908220154402999,0.29006904712051584,12.944637,-0.85905015,-1.6371434,0.16265613,2.238204,-1.3184888,2.1131756,0.4447113,-0.024580201,0.1622706,0.8805098,-8.524574,9.3479395,-0.43034044,-0.565756,0.39082202,0.29006904,0
1.7900000000000014,11.633053769497504,-0.5657560095236183,0.3908220154402999,0.29006904712051584,12.944637,-0.85905015,-1.6371434,0.16265613,2.153016,-1.2248305,2.1089323,0.44304457,-0.02732328,0.16068338,0.88155967,-8.513119,9.383721,-0.4183442,-0.565756,0.39082202,0.29006904,0
1.8000000000000014,11.861127074238029,-0.5848882481347252,0.11297022123387226,0.3347134778784589,13.554182,-0.98628867,-2.2945573,0.24192685,2.0679388,-1.1308144,2.104809,0.44137165,-0.030065976,0.1590939,0.8825972,-8.502458,9.41949,-0.4062635,-0.565756,0.39082202,0.29006904,0
1.8100000000000014,11.861127074238029,-0.5848882481347252,0.11297022123387226,0.3347134778784589,13.554182,-0.98628867,-2.2945573,0.24192685,1.9829654,-1.0364375,2.1008182,0.4397142,-0.031588845,0.1568115,0.883779,-8.492331,9.45584,-0.39191493,-0.5848882,0.11297022,0.3347135,0
1.8200000000000014,11.861127074238029,-0.5848882481347252,0.11297022123387226,0.3347134778784589,13.554182,-0.98628867,-2.2945573,0.24192685,1.89809,-0.9416986,2.096971,0.4380516,-0.033111345,0.15452728,0.88495046,-8.482831,9.491902,-0.3774189,-0.5848882,0.11297022,0.3347135,0
1.8300000000000014,11.861127074238029,-0.5848882481347252,0.11297022123387226,0.3347134778784589,13.554182,-0.98628867,-2.2945573,0.24192685,1.8133066,-0.84660053,2.09327,0.4363839,-0.034633458,0.15224123,0.8861116,-8.47396,9.527674,-0.3627788,-0.5848882,0.11297022,0.3347135,0
1.8400000000000014,11.861127074238029,-0.5848882481347252,0.11297022123387226,0.3347134778784589,13.824544,-1.0396026,-2.3975854,0.28324693,1.7286086,-0.7511462,2.0897162,0.43471113,-0.03615517,0.14995342,0.8872624,-8.465714,9.56315,-0.34799808,-0.5848882,0.11297022,0.3347135,0
1.8500000000000014,11.861127074238029,-0.5848882481347252,0.11297022123387226,0.3347134778784589,13.824544,-1.0396026,-2.3975854,0.28324693,1.64399,-0.6553386,2.0863106,0.43303326,-0.037676457,0.14766386,0.8884029,-8.458095,9.598329,-0.33308023,-0.5848882,0.11297022,0.3347135,0
1.8600000000000014,11.861127074238029,-0.5848882481347252,0.11297022123387226,0.3347134778784589,13.824544,-1.0396026,-2.3975854,0.28324693,1.5594445,-0.5591806,2.0830548,0.43135035,-0.039197307,0.14537257,0.8895329,-8.4511,9.633206,-0.31802866,-0.5848882,0.11297022,0.3347135,0
1.8700000000000014,11.861127074238029,-0.5848882481347252,0.11297022123387226,0.3347134778784589,13.824544,-1.0396026,-2.3975854,0.28324693,1.4749658,-0.46267545,2.0799503,0.4296624,-0.0407177,0.14307961,0.89065266,-8.444731,9.667779,-0.30284685,-0.5848882,0.11297022,0.3347135,0
1.8800000000000014,12.03809261437198,-0.6382656309098501,0.28084275398968095,0.3775442100727009,14.020868,-1.4803792,-2.6400104,0.34106034,1.3905478,-0.3658261,2.0769982,0.42796946,-0.042237617,0.14078498,0.8917619,-8.438984,9.702044,-0.28753823,-0.5848882,0.11297022,0.3347135,0
1.8900000000000015,12.03809261437198,-0.6382656309098501,0.28084275398968095,0.3775442100727009,14.020868,-1.4803792,-2.6400104,0.34106034,1.3061843,-0.26863298,2.0742083,0.42595017,-0.04458953,0.13861868,0.89295274,-8.433849,9.7365465,-0.27042225,-0.6382656,0.28084275,0.37754422,0
1.9000000000000015,12.03809261437198,-0.6382656309098501,0.28084275398968095,0.3775442100727009,14.020868,-1.4803792,-2.6400104,0.34106034,1.2218682,-0.17109588,2.07159,0.4239242,-0.04694074,0.13645017,0.8941296,-8.429522,9.770843,-0.2532115,-0.6382656,0.28084275,0.37754422,0
1.9100000000000015,12.03809261437198,-0.6382656309098501,0.28084275398968095,0.3775442100727009,14.020868,-1.4803792,-2.6400104,0.34106034,1.1375911,-0.07321686,2.0691445,0.42189157,-0.049291216,0.13427952,0.89529234,-8.4260025,9.804927,-0.23591073,-0.6382656,0.28084275,0.37754422,0
1.9200000000000015,12.149942560580888,-0.7123621711532033,-0.13466020255840153,0.4399825880947994,14.122429,-1.5957291,-3.0190248,0.36684734,1.0533452,0.02500193,2.0668724,0.41985235,-0.051640917,0.13210678,0.89644104,-8.42329,9.838797,-0.21852472,-0.6382656,0.28084275,0.37754422,0
1.9300000000000015,12.149942560580888,-0.7123621711532033,-0.13466020255840153,0.4399825880947994,14.122429,-1.5957291,-3.0190248,0.36684734,0.9691229,0.123559415,2.0647798,0.4177815,-0.05224169,0.12874357,0.8978619,-8.42127,9.872598,-0.19993952,-0.7123622,-0.1346602,0.4399826,0
1.9400000000000015,12.149942560580888,-0.7123621711532033,-0.13466020255840153,0.4399825880947994,14.122429,-1.5957291,-3.0190248,0.36684734,0.8849179,0.22245164,2.062874,0.41570315,-0.05284152,0.12537804,0.8992666,-8.4198065,9.9057455,-0.18115836,-0.7123622,-0.1346602,0.4399826,0
1.9500000000000015,12.149942560580888,-0.7123621711532033,-0.13466020255840153,0.4399825880947994,14.122429,-1.5957291,-3.0190248,0.36684734,0.80072486,0.32167202,2.0611572,0.4136173,-0.0534404,0.12201026,0.90065527,-8.418895,9.938232,-0.16218676,-0.7123622,-0.1346602,0.4399826,0
1.9600000000000015,12.226508533360986,-0.8325229347992099,-0.08369021768187072,0.4979162898710938,14.143048,-1.3338631,-2.8979833,0.25719005,0.71653813,0.421214,2.0596309,0.41152406,-0.05403832,0.11864028,0.9020277,-8.418532,9.9700575,-0.14303024,-0.7123622,-0.1346602,0.4399826,0
1.9700000000000015,12.226508533360986,-0.8325229347992099,-0.08369021768187072,0.4979162898710938,14.143048,-1.3338631,-2.8979833,0.25719005,0.6323522,0.52107185,2.0583007,0.4090982,-0.055077873,0.11484643,0.903558,-8.4187765,10.001394,-0.12294973,-0.8325229,-0.08369022,0.49791628,0
1.9800000000000015,12.226508533360986,-0.8325229347992099,-0.08369021768187072,0.4979162898710938,14.143048,-1.3338631,-2.8979833,0.25719005,0.5481602,0.6212395,2.0571723,0.40666267,-0.056116123,0.11104985,0.90506685,-8.419718,10.032006,-0.1026831,-0.8325229,-0.08369022,0.49791628,0
1.9900000000000015,12.226508533360986,-0.8325229347992099,-0.08369021768187072,0.4979162898710938,14.143048,-1.3338631,-2.8979833,0.25719005,0.46395534,0.72170955,2.0562475,0.4042175,-0.05715304,0.10725064,0.9065542,-8.421354,10.061891,-0.08223775,-0.8325229,-0.08369022,0.49791628,0
2.0000000000000013,,,,,15.126309,-1.1314875,-3.7826693,0.022592727,0.3797307,0.8224748,2.0555284,0.40176275,-0.058188602,0.10344889,0.90802014,-8.423681,10.091038,-0.0616211,-0.8325229,-0.08369022,0.49791628,0
2.010000000000001,,,,,15.126309,-1.1314875,-3.7826693,0.022592727,0.2954795,0.92352706,2.0550146,0.3990607,-0.05818885,0.09852745,0.9097574,-8.426647,10.119247,-0.041097313,-0.9611673,-0.3597205,0.5730149,0
2.020000000000001,,,,,15.126309,-1.1314875,-3.7826693,0.022592727,0.21119583,1.024856,2.054707,0.39634487,-0.058187082,0.09360259,0.91146314,-8.4301815,10.146368,-0.020335402,-0.9611673,-0.3597205,0.5730149,0
2.0300000000000007,,,,,15.126309,-1.1314875,-3.7826693,0.022592727,0.12687397,1.1264505,2.0546083,0.39361534,-0.05818331,0.0886745,0.91313744,-8.434279,10.172395,0.00065300986,-0.9611673,-0.3597205,0.5730149,0
2.0400000000000005,,,,,15.126309,-1.1314875,-3.7826693,0.022592727,0.04250835,1.2283,2.0547209,0.3908722,-0.058177523,0.08374335,0.91478026,-8.438932,10.197319,0.021856282,-0.9611673,-0.3597205,0.5730149,0
2.0500000000000003,,,,,15.058981,-1.3223015,-3.7580042,0.0974161,-0.041906565,1.3303931,2.055046,0.3881156,-0.05816973,0.078809306,0.9163914,-8.444135,10.221138,0.043262735,-0.9611673,-0.3597205,0.5730149,1
2.06,,,,,15.058981,-1.3223015,-3.7580042,0.0974161,-0.12637942,1.4327414,2.055728,0.38868842,-0.043467786,0.06547145,0.9180124,-8.450046,10.247681,0.09326735,-1.3223015,-3.7580042,0.0974161,1
2.07,,,,,15.058981,-1.3223015,-3.7580042,0.0974161,-0.21089892,1.5353281,2.0569146,0.3891069,-0.028748585,0.0521076,0.919269,-8.453463,10.268849,0.14421311,-1.3223015,-3.7580042,0.0974161,1
2.0799999999999996,,,,,15.058981,-1.3223015,-3.7580042,0.0974161,-0.2954401,1.6380997,2.0586147,0.38937095,-0.014017973,0.038723063,0.9201607,-8.454375,10.284614,0.19586329,-1.3223015,-3.7580042,0.0974161,1
2.0899999999999994,,,,,13.231858,-1.2791489,-1.8962831,0.114610374,-0.37997782,1.7410017,2.0608337,0.38948038,0.0007182057,0.025323153,0.9206871,-8.452777,10.2949505,0.24798001,-1.3223015,-3.7580042,0.0974161,1
2.099999999999999,,,,,13.231858,-1.2791489,-1.8962831,0.114610374,-0.46449107,1.8439785,2.063484,0.38917193,0.0069709336,0.015739987,0.9210051,-8.449792,10.299931,0.28206846,-1.2791489,-1.8962831,0.114610374,1
2.109999999999999,,,,,13.231858,-1.2791489,-1.8962831,0.114610374,-0.54897183,1.9469901,2.0664754,0.38881245,0.0132227475,0.006154755,0.92120224,-8.446271,10.301931,0.3162223,-1.2791489,-1.8962831,0.114610374,1
2.1199999999999988,,,,,13.231858,-1.2791489,-1.8962831,0.114610374,-0.6334146,2.0500069,2.0698085,0.388402,0.019472826,-0.0034312827,0.9212786,-8.442212,10.300954,0.35037234,-1.2791489,-1.8962831,0.114610374,1
2.1299999999999986,,,,,14.893281,-1.1492414,-2.8903184,0.12814397,-0.71781415,2.1529992,2.0734828,0.38794062,0.02572035,-0.013016871,0.9212342,-8.437615,10.297,0.3844492,-1.2791489,-1.8962831,0.114610374,1
2.1399999999999983,,,,,14.893281,-1.1492414,-2.8903184,0.12814397,-0.80216056,2.2559316,2.07758,0.3872631,0.03679256,-0.023931295,0.9209247,-8.431395,10.2888565,0.43492335,-1.1492414,-2.8903184,0.12814397,1
2.149999999999998,,,,,14.893281,-1.1492414,-2.8903184,0.12814397,-0.8864359,2.3587615,2.0821798,0.38649175,0.04785586,-0.03483992,0.9203921,-8.423396,10.276453,0.48501733,-1.1492414,-2.8903184,0.12814397,1
2.159999999999998,,,,,14.893281,-1.1492414,-2.8903184,0.12814397,-0.9706224,2.4614463,2.0872781,0.38562676,0.05890756,-0.04574011,0.9196365,-8.413622,10.259803,0.5345877,-1.1492414,-2.8903184,0.12814397,1
