time-since-start [s],throttle_mpc,roll_mpc,pitch_mpc,yaw_mpc,throttle_nw,roll_nw,pitch_nw,yaw_nw,position_x [m],position_y [m],position_z [m],rotation_w [quaternion],rotation_x [quaternion],rotation_y [quaternion],rotation_z [quaternion],velocity_x [m/s],velocity_y [m/s],velocity_z [m/s],omega_x [rad/s],omega_y [rad/s],omega_z [rad/s],network_used
0.0,12.677608455266666,5.99999951530004,-5.999999832851811,-0.22362575515569522,13.191493,-0.39511296,-4.853026,-0.93782145,19.464638,-9.657864,2.5115697,0.10356221,-0.45825136,0.2950539,0.83199984,-10.111176,-3.905545,-0.059494562,1.4002572,-0.27990633,-0.090217054,0
0.01,12.677608455266666,5.99999951530004,-5.999999832851811,-0.22362575515569522,11.837482,0.35865262,-6.176108,-1.1743988,19.363092,-9.696541,2.5107453,0.12699133,-0.43011007,0.31612253,0.83602935,-10.197174,-3.8287554,-0.10495555,5.9999995,-6.0,-0.22362575,0
0.02,12.677608455266666,5.99999951530004,-5.999999832851811,-0.22362575515569522,11.837482,0.35865262,-6.176108,-1.1743988,19.260725,-9.734417,2.509481,0.15019175,-0.40119416,0.33662185,0.83855313,-10.27502,-3.7456012,-0.14748049,5.9999995,-6.0,-0.22362575,0
0.03,12.677608455266666,5.99999951530004,-5.999999832851811,-0.22362575515569522,11.837482,0.35865262,-6.176108,-1.1743988,19.15762,-9.771433,2.5078046,0.17312168,-0.37155572,0.35651493,0.83956677,-10.3441515,-3.656693,-0.18744856,5.9999995,-6.0,-0.22362575,0
0.04,12.677608455266666,5.99999951530004,-5.999999832851811,-0.22362575515569522,13.899721,-1.2372618,-4.5973554,-0.8303425,19.05387,-9.807534,2.5057397,0.19573979,-0.3412481,0.37576592,0.8390683,-10.404069,-3.5626826,-0.22525734,5.9999995,-6.0,-0.22362575,0
0.05,12.677608455266666,5.99999951530004,-5.999999832851811,-0.22362575515569522,13.899721,-1.2372618,-4.5973554,-0.8303425,18.94957,-9.842672,2.5033054,0.2180054,-0.31032592,0.39434013,0.83705866,-10.454341,-3.4642582,-0.26132002,5.9999995,-6.0,-0.22362575,0
0.060000000000000005,12.677608455266666,5.99999951530004,-5.999999832851811,-0.22362575515569522,13.899721,-1.2372618,-4.5973554,-0.8303425,18.844816,-9.876807,2.5005178,0.23987837,-0.27884483,0.41220418,0.8335415,-10.494602,-3.362141,-0.2960623,5.9999995,-6.0,-0.22362575,0
0.07,12.677608455266666,5.99999951530004,-5.999999832851811,-0.22362575515569522,13.899721,-1.2372618,-4.5973554,-0.8303425,18.739712,-9.909905,2.4973876,0.26131937,-0.24686156,0.42932582,0.8285232,-10.524562,-3.2570772,-0.32991937,5.9999995,-6.0,-0.22362575,0
0.08,18.39262306641981,5.513482638391215,-5.99999967511437,-0.7306734820610994,14.731602,-1.5672325,-1.5143545,-0.32581216,18.63436,-9.94194,2.4939213,0.28228968,-0.21443371,0.4456743,0.8220127,-10.5440035,-3.149835,-0.36333287,5.9999995,-6.0,-0.22362575,0
0.09,18.39262306641981,5.513482638391215,-5.99999967511437,-0.7306734820610994,14.731602,-1.5672325,-1.5143545,-0.32581216,18.528843,-9.972652,2.4902675,0.30433205,-0.18344876,0.4587064,0.8144426,-10.556964,-2.9923692,-0.3673698,5.5134826,-5.9999995,-0.7306735,0
0.09999999999999999,18.39262306641981,5.513482638391215,-5.99999967511437,-0.7306734820610994,14.731602,-1.5672325,-1.5143545,-0.32581216,18.423271,-10.001786,2.486574,0.32586524,-0.15215689,0.47097108,0.8055098,-10.554954,-2.8343842,-0.37140626,5.5134826,-5.9999995,-0.7306735,0
0.10999999999999999,18.39262306641981,5.513482638391215,-5.99999967511437,-0.7306734820610994,14.731602,-1.5672325,-1.5143545,-0.32581216,18.317795,-10.029342,2.4828377,0.34685326,-0.120610446,0.48244777,0.7952294,-10.537985,-2.676984,-0.37597245,5.5134826,-5.9999995,-0.7306735,0
0.11999999999999998,18.39262306641981,5.513482638391215,-5.99999967511437,-0.7306734820610994,14.731602,-1.5672325,-1.5143545,-0.32581216,18.212563,-10.055331,2.4790509,0.36726093,-0.08886221,0.4931173,0.7836185,-10.506169,-2.5212693,-0.3815951,5.5134826,-5.9999995,-0.7306735,0
0.12999999999999998,20.999980995048148,1.2952338856717232,-5.999873421769472,0.6765435481202468,13.569851,-2.7674334,0.34101346,0.00789899,18.107721,-10.079777,2.4752004,0.38705415,-0.056965306,0.5029618,0.77069664,-10.45972,-2.3683293,-0.3887937,5.5134826,-5.9999995,-0.7306735,0
0.13999999999999999,20.999980995048148,1.2952338856717232,-5.999873421769472,0.6765435481202468,13.569851,-2.7674334,0.34101346,0.00789899,18.003454,-10.102607,2.471338,0.39971802,-0.02961408,0.49629557,0.77009034,-10.392473,-2.198681,-0.38304594,1.2952338,-5.9998736,0.67654353,0
0.15,20.999980995048148,1.2952338856717232,-5.999873421769472,0.6765435481202468,13.569851,-2.7674334,0.34101346,0.00789899,17.899908,-10.123774,2.4675517,0.41200086,-0.00223462,0.48915628,0.7687499,-10.314894,-2.035832,-0.37368152,1.2952338,-5.9998736,0.67654353,0
0.16,20.03228941329995,-1.305948026151172,-0.8692746448651724,0.38346212778876126,13.796056,-3.7811759,2.5074492,-0.49134213,17.79719,-10.143349,2.463875,0.42389095,0.025146972,0.48155066,0.76667666,-10.227233,-1.8803678,-0.36117652,1.2952338,-5.9998736,0.67654353,0
0.17,20.03228941329995,-1.305948026151172,-0.8692746448651724,0.38346212778876126,13.796056,-3.7811759,2.5074492,-0.49134213,17.695364,-10.161435,2.4603117,0.42466438,0.026633784,0.47463825,0.77049947,-10.137925,-1.7373408,-0.3511295,-1.305948,-0.8692746,0.38346213,0
0.18000000000000002,20.03228941329995,-1.305948026151172,-0.8692746448651724,0.38346212778876126,13.796056,-3.7811759,2.5074492,-0.49134213,17.59443,-10.178101,2.4568615,0.42541012,0.02811886,0.46769488,0.774272,-10.0491495,-1.5959861,-0.33847582,-1.305948,-0.8692746,0.38346213,0
0.19000000000000003,20.03228941329995,-1.305948026151172,-0.8692746448651724,0.38346212778876126,13.796056,-3.7811759,2.5074492,-0.49134213,17.494383,-10.19336,2.453551,0.42612812,0.029602101,0.46072102,0.7779941,-9.960919,-1.4563441,-0.32324415,-1.305948,-0.8692746,0.38346213,0
0.20000000000000004,18.86147850385649,-1.583490566865066,0.7024745026881409,0.25268182068386835,15.81748,-4.358928,5.700485,-0.11633927,17.395212,-10.207232,2.4504056,0.4268183,0.03108341,0.4537171,0.78166544,-9.873245,-1.3184547,-0.30546388,-1.305948,-0.8692746,0.38346213,0
0.21000000000000005,18.86147850385649,-1.583490566865066,0.7024745026881409,0.25268182068386835,15.81748,-4.358928,5.700485,-0.11633927,17.296886,-10.219773,2.4474154,0.4244669,0.025530707,0.44897085,0.78587615,-9.79206,-1.1895832,-0.292317,-1.5834906,0.7024745,0.25268182,0
0.22000000000000006,18.86147850385649,-1.583490566865066,0.7024745026881409,0.25268182068386835,15.81748,-4.358928,5.700485,-0.11633927,17.199358,-10.231024,2.4445648,0.42208296,0.019976048,0.4441902,0.7900266,-9.713642,-1.0604981,-0.27744606,-1.5834906,0.7024745,0.25268182,0
0.23000000000000007,18.86147850385649,-1.583490566865066,0.7024745026881409,0.25268182068386835,15.81748,-4.358928,5.700485,-0.11633927,17.102602,-10.240983,2.441872,0.41966668,0.014419857,0.43937552,0.79411656,-9.638012,-0.93124425,-0.26087993,-1.5834906,0.7024745,0.25268182,0
0.24000000000000007,18.86147850385649,-1.583490566865066,0.7024745026881409,0.25268182068386835,16.141277,-3.8908641,5.3641863,-0.13458377,17.006586,-10.249648,2.439353,0.41721824,0.0088625625,0.4345272,0.7981456,-9.565189,-0.8018664,-0.24264805,-1.5834906,0.7024745,0.25268182,0
0.25000000000000006,18.86147850385649,-1.583490566865066,0.7024745026881409,0.25268182068386835,16.141277,-3.8908641,5.3641863,-0.13458377,16.911285,-10.25702,2.4370246,0.41473785,0.003304589,0.42964554,0.80211353,-9.495194,-0.67240936,-0.22278036,-1.5834906,0.7024745,0.25268182,0
0.26000000000000006,18.86147850385649,-1.583490566865066,0.7024745026881409,0.25268182068386835,16.141277,-3.8908641,5.3641863,-0.13458377,16.816673,-10.263097,2.434903,0.4122257,-0.0022536374,0.424731,0.80602,-9.428046,-0.5429179,-0.20130728,-1.5834906,0.7024745,0.25268182,0
0.2700000000000001,18.86147850385649,-1.583490566865066,0.7024745026881409,0.25268182068386835,16.141277,-3.8908641,5.3641863,-0.13458377,16.722715,-10.267879,2.433004,0.40968192,-0.0078116907,0.41978392,0.8098648,-9.363761,-0.413437,-0.17825973,-1.5834906,0.7024745,0.25268182,0
0.2800000000000001,17.68453696326736,-1.865045775850718,2.0794412727859677,0.040778741723006114,15.966204,-3.740658,4.4150724,-0.05510312,16.629385,-10.271366,2.431343,0.4071068,-0.013369146,0.41480464,0.8136475,-9.302355,-0.28401145,-0.1536691,-1.5834906,0.7024745,0.25268182,0
0.2900000000000001,17.68453696326736,-1.865045775850718,2.0794412727859677,0.040778741723006114,15.966204,-3.740658,4.4150724,-0.05510312,16.536634,-10.273598,2.4298966,0.40246385,-0.025538895,0.41141236,0.8173802,-9.248233,-0.16222757,-0.13552809,-1.8650458,2.0794413,0.04077874,0
0.3000000000000001,17.68453696326736,-1.865045775850718,2.0794412727859677,0.040778741723006114,15.966204,-3.740658,4.4150724,-0.05510312,16.444403,-10.274606,2.4286351,0.39774236,-0.03770366,0.40793982,0.82095337,-9.198826,-0.03920271,-0.116596796,-1.8650458,2.0794413,0.04077874,0
0.3100000000000001,17.68453696326736,-1.865045775850718,2.0794412727859677,0.040778741723006114,15.966204,-3.740658,4.4150724,-0.05510312,16.352642,-10.274378,2.4275668,0.39294326,-0.04986107,0.40438765,0.8243664,-9.154174,0.08496582,-0.096965045,-1.8650458,2.0794413,0.04077874,0
0.3200000000000001,16.76711502599774,-1.8155966638524184,2.6132750607044213,-0.07811000094098554,16.545887,-3.4843976,4.9561157,-0.047848757,16.261303,-10.272902,2.4266977,0.3880675,-0.062008757,0.40075663,0.82761854,-9.11431,0.21017976,-0.0767232,-1.8650458,2.0794413,0.04077874,0
0.3300000000000001,16.76711502599774,-1.8155966638524184,2.6132750607044213,-0.07811000094098554,16.545887,-3.4843976,4.9561157,-0.047848757,16.170328,-10.270202,2.4260025,0.3825425,-0.07649366,0.3982393,0.8301899,-9.081297,0.33000332,-0.062289637,-1.8155967,2.613275,-0.07811,0
0.34000000000000014,16.76711502599774,-1.8155966638524184,2.6132750607044213,-0.07811000094098554,16.545887,-3.4843976,4.9561157,-0.047848757,16.079659,-10.266296,2.4254518,0.37692058,-0.09095918,0.3956211,0.832551,-9.053446,0.45117015,-0.04789823,-1.8155967,2.613275,-0.07811,0
0.35000000000000014,16.76711502599774,-1.8155966638524184,2.6132750607044213,-0.07811000094098554,16.545887,-3.4843976,4.9561157,-0.047848757,15.989243,-10.261173,2.425044,0.37120315,-0.10540166,0.39290267,0.8347012,-9.030785,0.5735603,-0.03366597,-1.8155967,2.613275,-0.07811,0
0.36000000000000015,16.28240583819113,-1.6598182234829084,2.4895750897994233,-0.22583928180043156,14.929062,-3.1890693,4.7320056,0.09242052,15.899026,-10.25482,2.4247773,0.36539173,-0.11981745,0.39008474,0.83664,-9.013337,0.6970526,-0.019709669,-1.8155967,2.613275,-0.07811,0
0.37000000000000016,16.28240583819113,-1.6598182234829084,2.4895750897994233,-0.22583928180043156,14.929062,-3.1890693,4.7320056,0.09242052,15.808956,-10.247246,2.424632,0.36044544,-0.13369074,0.38751063,0.83787906,-9.001351,0.8179301,-0.009390134,-1.6598182,2.4895751,-0.22583929,0
0.38000000000000017,16.28240583819113,-1.6598182234829084,2.4895750897994233,-0.22583928180043156,14.929062,-3.1890693,4.7320056,0.09242052,15.718983,-10.238459,2.4245877,0.355418,-0.14753394,0.3848493,0.83892953,-8.994133,0.93966,0.00039653503,-1.6598182,2.4895751,-0.22583929,0
0.3900000000000002,16.28240583819113,-1.6598182234829084,2.4895750897994233,-0.22583928180043156,14.929062,-3.1890693,4.7320056,0.09242052,15.629058,-10.228451,2.4246378,0.35031056,-0.16134393,0.38210136,0.8397912,-8.991685,1.0621403,0.009545626,-1.6598182,2.4895751,-0.22583929,0
0.4000000000000002,15.772623570305113,-1.3336581831887433,1.3023949698063937,-0.29456082981128384,13.549177,-3.002606,3.5429127,-0.12332851,15.539133,-10.217214,2.4247758,0.34512427,-0.1751176,0.37926742,0.84046376,-8.994008,1.1852686,0.017952994,-1.6598182,2.4895751,-0.22583929,0
0.4100000000000002,15.772623570305113,-1.3336581831887433,1.3023949698063937,-0.29456082981128384,13.549177,-3.002606,3.5429127,-0.12332851,15.449163,-10.204763,2.424978,0.34270927,-0.18344274,0.37563565,0.8413067,-9.000247,1.3048542,0.022504132,-1.3336582,1.302395,-0.29456082,0
0.4200000000000002,15.772623570305113,-1.3336581831887433,1.3023949698063937,-0.29456082981128384,13.549177,-3.002606,3.5429127,-0.12332851,15.3591175,-10.191117,2.4252255,0.34026375,-0.19175154,0.37197044,0.84207475,-9.009423,1.42433,0.026962645,-1.3336582,1.302395,-0.29456082,0
0.4300000000000002,15.772623570305113,-1.3336581831887433,1.3023949698063937,-0.29456082981128384,13.549177,-3.002606,3.5429127,-0.12332851,15.268965,-10.176277,2.4255166,0.33778793,-0.20004326,0.36827216,0.84276783,-9.021531,1.54366,0.031286325,-1.3336582,1.302395,-0.29456082,0
0.4400000000000002,15.772623570305113,-1.3336581831887433,1.3023949698063937,-0.29456082981128384,13.596121,-3.2456443,3.4053679,0.07636517,15.178677,-10.160244,2.4258504,0.33528203,-0.20831719,0.36454105,0.8433859,-9.036569,1.6628085,0.035432998,-1.3336582,1.302395,-0.29456082,0
0.45000000000000023,15.772623570305113,-1.3336581831887433,1.3023949698063937,-0.29456082981128384,13.596121,-3.2456443,3.4053679,0.07636517,15.088223,-10.143021,2.4262247,0.33274627,-0.21657257,0.36077747,0.8439288,-9.05453,1.7817397,0.03936057,-1.3336582,1.302395,-0.29456082,0
0.46000000000000024,15.772623570305113,-1.3336581831887433,1.3023949698063937,-0.29456082981128384,13.596121,-3.2456443,3.4053679,0.07636517,14.997577,-10.12461,2.426637,0.33018088,-0.22480866,0.35698178,0.84439665,-9.07541,1.900418,0.043027036,-1.3336582,1.302395,-0.29456082,0
0.47000000000000025,15.772623570305113,-1.3336581831887433,1.3023949698063937,-0.29456082981128384,13.596121,-3.2456443,3.4053679,0.07636517,14.906706,-10.105014,2.4270844,0.3275861,-0.23302473,0.35315427,0.8447892,-9.0992,2.0188076,0.046390455,-1.3336582,1.302395,-0.29456082,0
0.48000000000000026,15.500699983411446,-1.0686188254828615,0.9094849847256862,-0.3186206672111955,13.759548,-3.220438,2.7347841,0.16066283,14.815583,-10.084235,2.427564,0.32496214,-0.24122004,0.34929535,0.84510666,-9.125892,2.1368732,0.049409032,-1.3336582,1.302395,-0.29456082,0
0.49000000000000027,15.500699983411446,-1.0686188254828615,0.9094849847256862,-0.3186206672111955,13.759548,-3.220438,2.7347841,0.16066283,14.724181,-10.062287,2.428063,0.32342285,-0.24734958,0.3458643,0.8453365,-9.154702,2.2525492,0.050384328,-1.0686188,0.909485,-0.31862068,0
0.5000000000000002,15.500699983411446,-1.0686188254828615,0.9094849847256862,-0.3186206672111955,13.759548,-3.220438,2.7347841,0.16066283,14.632482,-10.039186,2.428571,0.32186675,-0.25346628,0.34241533,0.8455225,-9.185645,2.3678432,0.051161353,-1.0686188,0.909485,-0.31862068,0
0.5100000000000002,15.500699983411446,-1.0686188254828615,0.9094849847256862,-0.3186206672111955,13.759548,-3.220438,2.7347841,0.16066283,14.540462,-10.014932,2.4290855,0.32029405,-0.25956988,0.33894867,0.84566486,-9.218713,2.482737,0.05171534,-1.0686188,0.909485,-0.31862068,0
0.5200000000000002,14.952258184363286,-0.706234743976568,0.06103689087638468,-0.30870278198939216,13.641677,-2.8836677,1.8395344,0.108863294,14.4481,-9.9895315,2.4296045,0.31870475,-0.26566005,0.33546445,0.8457633,-9.2539015,2.5972128,0.052021574,-1.0686188,0.909485,-0.31862068,0
0.5300000000000002,14.952258184363286,-0.706234743976568,0.06103689087638468,-0.30870278198939216,13.641677,-2.8836677,1.8395344,0.108863294,14.355384,-9.963008,2.4301083,0.31896737,-0.26755935,0.33216265,0.8463686,-9.289427,2.7071638,0.048819683,-0.70623475,0.061036892,-0.3087028,0
0.5400000000000003,14.952258184363286,-0.706234743976568,0.06103689087638468,-0.30870278198939216,13.641677,-2.8836677,1.8395344,0.108863294,14.262309,-9.935389,2.430582,0.31922522,-0.26945466,0.32885584,0.8469612,-9.325769,2.8165402,0.045971498,-0.70623475,0.061036892,-0.3087028,0
0.5500000000000003,14.952258184363286,-0.706234743976568,0.06103689087638468,-0.30870278198939216,13.641677,-2.8836677,1.8395344,0.108863294,14.168866,-9.906678,2.431029,0.3194783,-0.27134597,0.32554415,0.84754115,-9.36293,2.925338,0.043469954,-0.70623475,0.061036892,-0.3087028,0
0.5600000000000003,14.480134081046316,-0.38814323693602504,-0.483641225997575,-0.2874012028445119,13.399163,-2.321389,0.8240639,0.056023065,14.075048,-9.8768835,2.4314528,0.31972662,-0.27323323,0.3222276,0.8481084,-9.400908,3.033553,0.04130796,-0.70623475,0.061036892,-0.3087028,0
0.5700000000000003,14.480134081046316,-0.38814323693602504,-0.483641225997575,-0.2874012028445119,13.399163,-2.321389,0.8240639,0.056023065,13.980853,-9.846026,2.4318416,0.3211924,-0.27226427,0.319414,0.8489301,-9.438165,3.137776,0.036572743,-0.38814324,-0.48364124,-0.2874012,0
0.5800000000000003,14.480134081046316,-0.38814323693602504,-0.483641225997575,-0.2874012028445119,13.399163,-2.321389,0.8240639,0.056023065,13.886285,-9.81413,2.4321866,0.3226545,-0.27129212,0.31659663,0.8497419,-9.475371,3.2414079,0.03251196,-0.38814324,-0.48364124,-0.2874012,0
0.5900000000000003,14.480134081046316,-0.38814323693602504,-0.483641225997575,-0.2874012028445119,13.399163,-2.321389,0.8240639,0.056023065,13.791346,-9.781199,2.4324942,0.32411277,-0.27031684,0.31377557,0.85054374,-9.512532,3.344444,0.029121649,-0.38814324,-0.48364124,-0.2874012,0
0.6000000000000003,13.972383540847456,-0.19264941621819573,-0.6278040153632863,-0.2549166977883824,12.941221,-1.9190989,0.5491241,-0.07329136,13.696034,-9.747243,2.4327712,0.32556725,-0.26933837,0.31095085,0.85133564,-9.549647,3.4468803,0.026397813,-0.38814324,-0.48364124,-0.2874012,0
0.6100000000000003,13.972383540847456,-0.19264941621819573,-0.6278040153632863,-0.2549166977883824,12.941221,-1.9190989,0.5491241,-0.07329136,13.600359,-9.712282,2.4330077,0.32736695,-0.26737428,0.3087636,0.8520603,-9.585296,3.545173,0.020982517,-0.19264941,-0.62780404,-0.2549167,0
0.6200000000000003,13.972383540847456,-0.19264941621819573,-0.6278040153632863,-0.2549166977883824,12.941221,-1.9190989,0.5491241,-0.07329136,13.50433,-9.67634,2.4331932,0.3291626,-0.2654069,0.30657253,0.8527745,-9.620574,3.6429615,0.016239194,-0.19264941,-0.62780404,-0.2549167,0
0.6300000000000003,13.972383540847456,-0.19264941621819573,-0.6278040153632863,-0.2549166977883824,12.941221,-1.9190989,0.5491241,-0.07329136,13.407949,-9.639423,2.4333348,0.3309542,-0.2634362,0.30437765,0.85347813,-9.655484,3.7402408,0.012164163,-0.19264941,-0.62780404,-0.2549167,0
0.6400000000000003,13.972383540847456,-0.19264941621819573,-0.6278040153632863,-0.2549166977883824,12.702788,-1.4659196,0.11135735,-0.08559495,13.311221,-9.601536,2.4334388,0.33274165,-0.26146224,0.302179,0.8541711,-9.690026,3.8370056,0.008753697,-0.19264941,-0.62780404,-0.2549167,0
0.6500000000000004,13.972383540847456,-0.19264941621819573,-0.6278040153632863,-0.2549166977883824,12.702788,-1.4659196,0.11135735,-0.08559495,13.214149,-9.562685,2.433512,0.334525,-0.25948504,0.29997662,0.8548536,-9.724202,3.9332507,0.006004028,-0.19264941,-0.62780404,-0.2549167,0
0.6600000000000004,13.972383540847456,-0.19264941621819573,-0.6278040153632863,-0.2549166977883824,12.702788,-1.4659196,0.11135735,-0.08559495,13.116737,-9.522874,2.4335608,0.3363042,-0.2575046,0.2977705,0.8555253,-9.758008,4.0289707,0.0039113685,-0.19264941,-0.62780404,-0.2549167,0
0.6700000000000004,13.972383540847456,-0.19264941621819573,-0.6278040153632863,-0.2549166977883824,12.702788,-1.4659196,0.11135735,-0.08559495,13.01899,-9.482108,2.4335923,0.3380792,-0.25552097,0.2955607,0.85618657,-9.791448,4.124161,0.002471895,-0.19264941,-0.62780404,-0.2549167,0
0.6800000000000004,13.46086131332026,-0.06451879888420431,-0.7126591548280165,-0.23095127746417088,12.883306,-1.5517259,-0.43096644,0.048062507,12.920909,-9.440394,2.4336126,0.33985,-0.25353417,0.29334724,0.8568371,-9.824524,4.2188153,0.0016817474,-0.19264941,-0.62780404,-0.2549167,0
0.6900000000000004,13.46086131332026,-0.06451879888420431,-0.7126591548280165,-0.23095127746417088,12.883306,-1.5517259,-0.43096644,0.048062507,12.822506,-9.397753,2.43361,0.3418005,-0.2509276,0.29156503,0.85743666,-9.855961,4.3095036,-0.0020433355,-0.0645188,-0.7126592,-0.23095128,0
0.7000000000000004,13.46086131332026,-0.06451879888420431,-0.7126591548280165,-0.23095127746417088,12.883306,-1.5517259,-0.43096644,0.048062507,12.723791,-9.354206,2.4335737,0.34374622,-0.24831748,0.28977868,0.8580241,-9.886848,4.3997188,-0.0051353695,-0.0645188,-0.7126592,-0.23095128,0
0.7100000000000004,13.46086131332026,-0.06451879888420431,-0.7126591548280165,-0.23095127746417088,12.883306,-1.5517259,-0.43096644,0.048062507,12.62477,-9.30976,2.4335096,0.34568706,-0.24570386,0.28798822,0.8585994,-9.917186,4.4894557,-0.007598615,-0.0645188,-0.7126592,-0.23095128,0
0.7200000000000004,12.950124730281555,0.09496411760514152,-0.8174679018445153,-0.2058636757541016,12.397297,-1.2782645,-0.50614846,0.10650009,12.525449,-9.264419,2.433424,0.34762302,-0.24308677,0.2861937,0.85916257,-9.946971,4.578708,-0.009437377,-0.0645188,-0.7126592,-0.23095128,0
0.7300000000000004,12.950124730281555,0.09496411760514152,-0.8174679018445153,-0.2058636757541016,12.397297,-1.2782645,-0.50614846,0.10650009,12.4258375,-9.218204,2.4333045,0.34978944,-0.23970243,0.284928,0.8596547,-9.975008,4.6641245,-0.014325643,0.09496412,-0.8174679,-0.20586367,0
0.7400000000000004,12.950124730281555,0.09496411760514152,-0.8174679018445153,-0.2058636757541016,12.397297,-1.2782645,-0.50614846,0.10650009,12.32595,-9.171137,2.4331393,0.35194957,-0.23631379,0.2836572,0.8601314,-10.002277,4.749122,-0.018605541,0.09496412,-0.8174679,-0.20586367,0
0.7500000000000004,12.950124730281555,0.09496411760514152,-0.8174679018445153,-0.2058636757541016,12.397297,-1.2782645,-0.50614846,0.10650009,12.225794,-9.123222,2.4329345,0.35410336,-0.23292089,0.28238127,0.8605926,-10.028777,4.8336954,-0.022282584,0.09496412,-0.8174679,-0.20586367,0
0.7600000000000005,12.50458181035111,0.2174782133529204,-0.813131703489021,-0.18906976562682645,12.801202,-0.86891496,-0.39630327,0.17462963,12.125378,-9.074465,2.4326959,0.3562508,-0.22952378,0.28110027,0.8610383,-10.054507,4.917835,-0.025362302,0.09496412,-0.8174679,-0.20586367,0
0.7700000000000005,12.50458181035111,0.2174782133529204,-0.813131703489021,-0.18906976562682645,12.801202,-0.86891496,-0.39630327,0.17462963,12.024712,-9.024883,2.4324129,0.3584539,-0.22589932,0.2803686,0.86132103,-10.078567,4.998691,-0.031159414,0.21747822,-0.8131317,-0.18906976,0
0.7800000000000005,12.50458181035111,0.2174782133529204,-0.813131703489021,-0.18906976562682645,12.801202,-0.86891496,-0.39630327,0.17462963,11.923809,-8.974494,2.4320745,0.36065033,-0.22227065,0.2796317,0.8615877,-10.101771,5.0792084,-0.03644309,0.21747822,-0.8131317,-0.18906976,0
0.7900000000000005,12.50458181035111,0.2174782133529204,-0.813131703489021,-0.18906976562682645,12.801202,-0.86891496,-0.39630327,0.17462963,11.822679,-8.923301,2.431686,0.3628401,-0.21863785,0.27888957,0.8618384,-10.124122,5.1593795,-0.041218966,0.21747822,-0.8131317,-0.18906976,0
0.8000000000000005,12.163979619754134,0.27375843612032574,-0.8235398240170269,-0.1698906288792907,11.740201,-1.1259832,-0.044449523,0.15238613,11.72133,-8.871307,2.4312518,0.36502305,-0.21500099,0.27814227,0.862073,-10.1456175,5.2391973,-0.045492746,0.21747822,-0.8131317,-0.18906976,0
0.8100000000000005,12.163979619754134,0.27375843612032574,-0.8235398240170269,-0.1698906288792907,11.740201,-1.1259832,-0.044449523,0.15238613,11.619773,-8.818528,2.4307644,0.3671914,-0.21118577,0.27763385,0.8622591,-10.165674,5.3165035,-0.051844936,0.27375844,-0.82353985,-0.16989063,0
0.8200000000000005,12.163979619754134,0.27375843612032574,-0.8235398240170269,-0.1698906288792907,11.740201,-1.1259832,-0.044449523,0.15238613,11.51802,-8.764977,2.430216,0.36935252,-0.20736642,0.27712002,0.8624283,-10.184839,5.393485,-0.05773508,0.27375844,-0.82353985,-0.16989063,0
0.8300000000000005,12.163979619754134,0.27375843612032574,-0.8235398240170269,-0.1698906288792907,11.740201,-1.1259832,-0.044449523,0.15238613,11.4160795,-8.710659,2.4296112,0.37150645,-0.20354302,0.27660078,0.8625807,-10.203112,5.4701357,-0.063169256,0.27375844,-0.82353985,-0.16989063,0
0.8400000000000005,12.163979619754134,0.27375843612032574,-0.8235398240170269,-0.1698906288792907,12.0643835,-0.9730476,-0.17445844,0.13776273,11.31396,-8.655575,2.4289544,0.37365308,-0.19971563,0.2760761,0.86271626,-10.220491,5.5464478,-0.06815357,0.27375844,-0.82353985,-0.16989063,0
0.8500000000000005,12.163979619754134,0.27375843612032574,-0.8235398240170269,-0.1698906288792907,12.0643835,-0.9730476,-0.17445844,0.13776273,11.211672,-8.5997305,2.4282496,0.3757924,-0.19588435,0.27554607,0.8628349,-10.236977,5.622415,-0.07269416,0.27375844,-0.82353985,-0.16989063,0
0.8600000000000005,12.163979619754134,0.27375843612032574,-0.8235398240170269,-0.1698906288792907,12.0643835,-0.9730476,-0.17445844,0.13776273,11.109224,-8.543128,2.4275017,0.3779244,-0.19204922,0.27501062,0.8629366,-10.252568,5.69803,-0.076797225,0.27375844,-0.82353985,-0.16989063,0
0.8700000000000006,12.163979619754134,0.27375843612032574,-0.8235398240170269,-0.1698906288792907,12.0643835,-0.9730476,-0.17445844,0.13776273,11.006625,-8.485771,2.4267151,0.38004902,-0.18821035,0.2744698,0.86302155,-10.267266,5.773286,-0.080468945,0.27375844,-0.82353985,-0.16989063,0
0.8800000000000006,11.887467593914794,0.31534591407849616,-0.925008407215622,-0.16338751211137262,13.037398,-0.65833974,-0.22755328,0.11982435,10.903882,-8.427664,2.4258938,0.3821662,-0.1843678,0.2739236,0.86308956,-10.28107,5.8481755,-0.0837156,0.27375844,-0.82353985,-0.16989063,0
0.8900000000000006,11.887467593914794,0.31534591407849616,-0.925008407215622,-0.16338751211137262,13.037398,-0.65833974,-0.22755328,0.11982435,10.801008,-8.368817,2.4250312,0.3844242,-0.17999494,0.27336296,0.86318755,-10.293642,5.9209833,-0.08869168,0.3153459,-0.9250084,-0.1633875,0
0.9000000000000006,11.887467593914794,0.31534591407849616,-0.925008407215622,-0.16338751211137262,13.037398,-0.65833974,-0.22755328,0.11982435,10.698013,-8.309245,2.4241214,0.38667277,-0.17561765,0.27279565,0.8632644,-10.305225,5.9933786,-0.09321899,0.3153459,-0.9250084,-0.1633875,0
0.9100000000000006,11.887467593914794,0.31534591407849616,-0.925008407215622,-0.16338751211137262,13.037398,-0.65833974,-0.22755328,0.11982435,10.594908,-8.248952,2.4231684,0.38891187,-0.17123605,0.27222157,0.86332,-10.315821,6.0653534,-0.097305566,0.3153459,-0.9250084,-0.1633875,0
0.9200000000000006,11.502189906948919,0.3626999528116045,-0.9715991371027766,-0.14563986627924844,13.161981,-0.54427457,-0.34859806,0.11229056,10.491701,-8.187942,2.4221768,0.3911414,-0.16685027,0.27164078,0.86335444,-10.325426,6.1368985,-0.10095945,0.3153459,-0.9250084,-0.1633875,0
0.9300000000000006,11.502189906948919,0.3626999528116045,-0.9715991371027766,-0.14563986627924844,13.161981,-0.54427457,-0.34859806,0.11229056,10.388405,-8.126229,2.4211354,0.39338696,-0.1621423,0.27118108,0.8633757,-10.3337345,6.205702,-0.10726054,0.36269996,-0.97159916,-0.14563987,0
0.9400000000000006,11.502189906948919,0.3626999528116045,-0.9715991371027766,-0.14563986627924844,13.161981,-0.54427457,-0.34859806,0.11229056,10.28503,-8.06383,2.420033,0.3956217,-0.15742989,0.27071396,0.86337334,-10.34101,6.274071,-0.1131513,0.36269996,-0.97159916,-0.14563987,0
0.9500000000000006,11.502189906948919,0.3626999528116045,-0.9715991371027766,-0.14563986627924844,13.161981,-0.54427457,-0.34859806,0.11229056,10.181587,-8.00075,2.4188735,0.3978456,-0.15271315,0.2702394,0.86334723,-10.347253,6.3419995,-0.1186408,0.36269996,-0.97159916,-0.14563987,0
0.9600000000000006,11.175706853734388,0.3586576080484352,-1.3370453194666327,-0.14551892531886046,13.08362,-0.48743138,-0.20752323,0.14396995,10.078087,-7.9369917,2.4176612,0.40005854,-0.14799222,0.26975745,0.8632975,-10.352463,6.409477,-0.12373814,0.36269996,-0.97159916,-0.14563987,0
0.9700000000000006,11.175706853734388,0.3586576080484352,-1.3370453194666327,-0.14551892531886046,13.08362,-0.48743138,-0.20752323,0.14396995,9.974541,-7.872571,2.4163868,0.40274575,-0.1416962,0.26851693,0.8634911,-10.356426,6.474499,-0.13103122,0.3586576,-1.3370453,-0.14551893,0
0.9800000000000006,11.175706853734388,0.3586576080484352,-1.3370453194666327,-0.14551892531886046,13.08362,-0.48743138,-0.20752323,0.14396995,9.870961,-7.807504,2.4150424,0.40541348,-0.13539332,0.26726338,0.86364293,-10.359131,6.5388103,-0.13777351,0.3586576,-1.3370453,-0.14551893,0
0.9900000000000007,11.175706853734388,0.3586576080484352,-1.3370453194666327,-0.14551892531886046,13.08362,-0.48743138,-0.20752323,0.14396995,9.767362,-7.7417974,2.413633,0.40806153,-0.12908389,0.26599687,0.86375284,-10.360577,6.602397,-0.14398156,0.3586576,-1.3370453,-0.14551893,0
1.0000000000000007,10.777206910962098,0.38324443630805094,-1.535461693571713,-0.1391043469507485,11.620171,0.25953665,-0.25785807,0.15187305,9.663754,-7.6754584,2.4121644,0.41068983,-0.1227682,0.26471746,0.863821,-10.360765,6.6652455,-0.14967188,0.3586576,-1.3370453,-0.14551893,0
1.0100000000000007,10.777206910962098,0.38324443630805094,-1.535461693571713,-0.1391043469507485,11.620171,0.25953665,-0.25785807,0.15187305,9.560151,-7.6085057,2.410625,0.41354522,-0.11552972,0.26312602,0.86394346,-10.359678,6.7250805,-0.15814385,0.38324443,-1.5354617,-0.13910435,0
1.0200000000000007,10.777206910962098,0.38324443630805094,-1.535461693571713,-0.1391043469507485,11.620171,0.25953665,-0.25785807,0.15187305,9.456565,-7.540959,2.4090035,0.41637447,-0.10828396,0.26151797,0.8640113,-10.357225,6.7840505,-0.16607098,0.38324443,-1.5354617,-0.13910435,0
1.0300000000000007,10.777206910962098,0.38324443630805094,-1.535461693571713,-0.1391043469507485,11.620171,0.25953665,-0.25785807,0.15187305,9.353011,-7.472827,2.4073055,0.41917747,-0.10103136,0.25989345,0.86402464,-10.35341,6.8421392,-0.17347482,0.38324443,-1.5354617,-0.13910435,0
1.0400000000000007,10.777206910962098,0.38324443630805094,-1.535461693571713,-0.1391043469507485,11.410034,0.3222585,-0.22451094,0.16656965,9.249502,-7.4041195,2.4055357,0.42195404,-0.0937724,0.2582525,0.8639835,-10.348235,6.8993297,-0.180377,0.38324443,-1.5354617,-0.13910435,0
1.0500000000000007,10.777206910962098,0.38324443630805094,-1.535461693571713,-0.1391043469507485,11.410034,0.3222585,-0.22451094,0.16656965,9.146052,-7.334844,2.4036994,0.42470396,-0.086507514,0.25659525,0.8638878,-10.341702,6.9556065,-0.18679929,0.38324443,-1.5354617,-0.13910435,0
1.0600000000000007,10.777206910962098,0.38324443630805094,-1.535461693571713,-0.1391043469507485,11.410034,0.3222585,-0.22451094,0.16656965,9.042673,-7.2650104,2.401801,0.4274271,-0.07923716,0.25492182,0.8637376,-10.333814,7.0109544,-0.19276361,0.38324443,-1.5354617,-0.13910435,0
1.0700000000000007,10.777206910962098,0.38324443630805094,-1.535461693571713,-0.1391043469507485,11.410034,0.3222585,-0.22451094,0.16656965,8.93938,-7.1946287,2.3998456,0.4301233,-0.071961805,0.25323233,0.8635329,-10.324573,7.0653577,-0.19829199,0.38324443,-1.5354617,-0.13910435,0
1.0800000000000007,10.544059359751328,0.3017447178991249,-1.3227462189226824,-0.13444285037672107,11.613665,0.3742998,0.5494002,0.3381316,8.836186,-7.123708,2.397837,0.43279234,-0.06468192,0.25152683,0.8632737,-10.313985,7.118801,-0.2034065,0.38324443,-1.5354617,-0.13910435,0
1.0900000000000007,10.544059359751328,0.3017447178991249,-1.3227462189226824,-0.13444285037672107,11.613665,0.3742998,0.5494002,0.3381316,8.733104,-7.052262,2.3957686,0.43512368,-0.058487114,0.24991757,0.86301094,-10.302388,7.170179,-0.21016435,0.30174473,-1.3227463,-0.13444285,0
1.1000000000000008,10.544059359751328,0.3017447178991249,-1.3227462189226824,-0.13444285037672107,11.613665,0.3742998,0.5494002,0.3381316,8.630142,-6.980307,2.3936348,0.4374348,-0.052289598,0.24829671,0.86270815,-10.289686,7.22071,-0.2165971,0.30174473,-1.3227463,-0.13444285,0
1.1100000000000008,10.544059359751328,0.3017447178991249,-1.3227462189226824,-0.13444285037672107,11.613665,0.3742998,0.5494002,0.3381316,8.527314,-6.907851,2.3914378,0.43972558,-0.046089653,0.24666432,0.8623653,-10.275881,7.270382,-0.22272079,0.30174473,-1.3227463,-0.13444285,0
1.1200000000000008,10.2815460282874,0.2798512058474961,-1.8076549604546714,-0.1308289006011968,11.566529,0.2385532,0.5967708,0.354845,8.424628,-6.834903,2.3891811,0.44199598,-0.039887566,0.24502048,0.8619824,-10.260978,7.319186,-0.22855149,0.30174473,-1.3227463,-0.13444285,0
1.1300000000000008,10.2815460282874,0.2798512058474961,-1.8076549604546714,-0.1308289006011968,11.566529,0.2385532,0.5967708,0.354845,8.322096,-6.761477,2.3868563,0.44481158,-0.031636987,0.2421954,0.8616746,-10.245273,7.365775,-0.23635432,0.2798512,-1.807655,-0.1308289,0
1.1400000000000008,10.2815460282874,0.2798512058474961,-1.8076549604546714,-0.1308289006011968,11.566529,0.2385532,0.5967708,0.354845,8.2197275,-6.6875916,2.3844554,0.44758978,-0.023383746,0.23934993,0.86129457,-10.228221,7.4111094,-0.24376374,0.2798512,-1.807655,-0.1308289,0
1.1500000000000008,10.2815460282874,0.2798512058474961,-1.8076549604546714,-0.1308289006011968,11.566529,0.2385532,0.5967708,0.354845,8.117536,-6.613259,2.3819823,0.45033035,-0.015128538,0.23648433,0.86084205,-10.209833,7.4551735,-0.25080904,0.2798512,-1.807655,-0.1308289,0
1.1600000000000008,10.1103992061035,0.18797041350231838,-1.0657732577681742,-0.11471774018375175,11.678062,-0.26501772,0.89217454,0.45946616,8.015535,-6.5384927,2.3794403,0.4530331,-0.006872058,0.23359886,0.86031705,-10.190114,7.497951,-0.25751963,0.2798512,-1.807655,-0.1308289,0
1.1700000000000008,10.1103992061035,0.18797041350231838,-1.0657732577681742,-0.11471774018375175,11.678062,-0.26501772,0.89217454,0.45946616,7.913736,-6.4633074,2.3768249,0.45477113,-0.0019956706,0.23198587,0.8598615,-10.169617,7.538938,-0.26549837,0.18797041,-1.0657732,-0.11471774,0
1.1800000000000008,10.1103992061035,0.18797041350231838,-1.0657732577681742,-0.11471774018375175,11.678062,-0.26501772,0.89217454,0.45946616,7.812145,-6.3877163,2.3741307,0.4564957,0.002880775,0.23036604,0.85938054,-10.148338,7.5791755,-0.27332026,0.18797041,-1.0657732,-0.11471774,0
1.1900000000000008,10.1103992061035,0.18797041350231838,-1.0657732577681742,-0.11471774018375175,11.678062,-0.26501772,0.89217454,0.45946616,7.710771,-6.311726,2.3713593,0.45820677,0.007757135,0.22873937,0.85887414,-10.126283,7.6186566,-0.28099534,0.18797041,-1.0657732,-0.11471774,0
1.2000000000000008,10.019422980759707,0.14159620427981193,-1.5287478882860634,-0.09326299738295343,11.798912,-0.42698905,0.4756442,0.26395863,7.609622,-6.2353454,2.3685117,0.45990425,0.012633267,0.22710593,0.8583423,-10.103452,7.6573777,-0.28853366,0.18797041,-1.0657732,-0.11471774,0
1.2100000000000009,10.019422980759707,0.14159620427981193,-1.5287478882860634,-0.09326299738295343,11.798912,-0.42698905,0.4756442,0.26395863,7.5087037,-6.158583,2.3655853,0.4620179,0.01941347,0.22419743,0.85784507,-10.079978,7.694844,-0.29672298,0.1415962,-1.5287479,-0.093263,0
1.2200000000000009,10.019422980759707,0.14159620427981193,-1.5287478882860634,-0.09326299738295343,11.798912,-0.42698905,0.4756442,0.26395863,7.4080253,-6.0814524,2.362578,0.4641042,0.026192527,0.22127567,0.8572971,-10.055514,7.73115,-0.30470052,0.1415962,-1.5287479,-0.093263,0
1.2300000000000009,10.019422980759707,0.14159620427981193,-1.5287478882860634,-0.09326299738295343,11.798912,-0.42698905,0.4756442,0.26395863,7.307597,-6.0039644,2.3594918,0.46616304,0.032970034,0.21834083,0.8566985,-10.030068,7.7662883,-0.31248692,0.1415962,-1.5287479,-0.093263,0
1.2400000000000009,10.019422980759707,0.14159620427981193,-1.5287478882860634,-0.09326299738295343,12.071706,-0.4170837,0.44270653,0.26001805,7.2074285,-5.926131,2.3563285,0.46819437,0.03974559,0.21539308,0.8560492,-10.003649,7.8002486,-0.32010293,0.1415962,-1.5287479,-0.093263,0
1.2500000000000009,10.019422980759707,0.14159620427981193,-1.5287478882860634,-0.09326299738295343,12.071706,-0.4170837,0.44270653,0.26001805,7.1075277,-5.8479633,2.35309,0.47019795,0.0465188,0.2124326,0.8553493,-9.976261,7.8330226,-0.32756922,0.1415962,-1.5287479,-0.093263,0
1.260000000000001,10.019422980759707,0.14159620427981193,-1.5287478882860634,-0.09326299738295343,12.071706,-0.4170837,0.44270653,0.26001805,7.007906,-5.769474,2.3497777,0.47217372,0.053289257,0.20945953,0.8545989,-9.947913,7.8646016,-0.3349066,0.1415962,-1.5287479,-0.093263,0
1.270000000000001,10.019422980759707,0.14159620427981193,-1.5287478882860634,-0.09326299738295343,12.071706,-0.4170837,0.44270653,0.26001805,6.908572,-5.6906753,2.3463926,0.47412157,0.060056563,0.20647408,0.8537979,-9.9186125,7.8949776,-0.34213582,0.1415962,-1.5287479,-0.093263,0
1.280000000000001,9.95705875634784,0.05568433453381069,-0.6965975861334448,-0.07710897699392782,10.914532,-0.12548146,1.4463314,0.072788894,6.809536,-5.6115785,2.3429356,0.47604138,0.066820316,0.20347641,0.8529464,-9.888368,7.924142,-0.34927773,0.1415962,-1.5287479,-0.093263,0
1.290000000000001,9.95705875634784,0.05568433453381069,-0.6965975861334448,-0.07710897699392782,10.914532,-0.12548146,1.4463314,0.072788894,6.7108064,-5.5321965,2.3394043,0.47705737,0.06984479,0.20208035,0.85246825,-9.857573,7.95216,-0.3569295,0.055684336,-0.6965976,-0.07710898,0
1.300000000000001,9.95705875634784,0.05568433453381069,-0.6965975861334448,-0.07710897699392782,10.914532,-0.12548146,1.4463314,0.072788894,6.612386,-5.452537,2.3357966,0.4780675,0.0728684,0.20068179,0.8519796,-9.826363,7.9796205,-0.36455247,0.055684336,-0.6965976,-0.07710898,0
1.310000000000001,9.95705875634784,0.05568433453381069,-0.6965975861334448,-0.07710897699392782,10.914532,-0.12548146,1.4463314,0.072788894,6.5142803,-5.372606,2.332113,0.47907168,0.075891115,0.19928075,0.8514803,-9.794741,8.006521,-0.37215072,0.055684336,-0.6965976,-0.07710898,0
1.320000000000001,9.96332866741609,-0.029837948722123454,-0.3962703117336938,-0.04404740983228361,10.864218,-0.14794025,1.5136311,0.100735605,6.4164925,-5.2924085,2.3283536,0.48006997,0.07891289,0.19787726,0.85097045,-9.762707,8.032862,-0.3797285,0.055684336,-0.6965976,-0.07710898,0
1.330000000000001,9.96332866741609,-0.029837948722123454,-0.3962703117336938,-0.04404740983228361,10.864218,-0.14794025,1.5136311,0.100735605,6.319027,-5.211951,2.3245187,0.4806603,0.0804836,0.1968161,0.8507362,-9.730328,8.058736,-0.38722578,-0.02983795,-0.3962703,-0.04404741,0
1.340000000000001,9.96332866741609,-0.029837948722123454,-0.3962703117336938,-0.04404740983228361,10.864218,-0.14794025,1.5136311,0.100735605,6.221886,-5.1312356,2.320609,0.4812487,0.08205399,0.19575416,0.85049856,-9.697765,8.084262,-0.39469,-0.02983795,-0.3962703,-0.04404741,0
1.350000000000001,9.96332866741609,-0.029837948722123454,-0.3962703117336938,-0.04404740983228361,10.864218,-0.14794025,1.5136311,0.100735605,6.125072,-5.0502667,2.316625,0.48183516,0.08362405,0.19469142,0.8502575,-9.66502,8.109437,-0.40212253,-0.02983795,-0.3962703,-0.04404741,0
1.360000000000001,9.993954977122298,-0.13999100995971175,0.0718919117939237,-0.017630255494701506,10.879069,-0.04235396,1.4585357,0.22486252,6.028586,-4.969048,2.312567,0.48241964,0.08519378,0.19362791,0.850013,-9.6320915,8.134262,-0.4095247,-0.02983795,-0.3962703,-0.04404741,0
1.370000000000001,9.993954977122298,-0.13999100995971175,0.0718919117939237,-0.017630255494701506,10.879069,-0.04235396,1.4585357,0.22486252,5.9324307,-4.8875823,2.3084364,0.48248446,0.08453347,0.1932138,0.8501364,-9.599002,8.158943,-0.4166093,-0.13999102,0.07189191,-0.017630255,0
1.380000000000001,9.993954977122298,-0.13999100995971175,0.0718919117939237,-0.017630255494701506,10.879069,-0.04235396,1.4585357,0.22486252,5.8366055,-4.805869,2.304235,0.48254895,0.0838731,0.19279958,0.8502592,-9.56606,8.183621,-0.42363954,-0.13999102,0.07189191,-0.017630255,0
1.390000000000001,9.993954977122298,-0.13999100995971175,0.0718919117939237,-0.017630255494701506,10.879069,-0.04235396,1.4585357,0.22486252,5.7411094,-4.7239094,2.2999637,0.48261318,0.08321268,0.19238524,0.8503815,-9.533266,8.208297,-0.43061566,-0.13999102,0.07189191,-0.017630255,0
1.400000000000001,10.077534739574654,-0.200735917147817,0.017497124897671603,0.02584891424675647,13.298955,-0.07237992,-0.25105375,-0.23801368,5.6459403,-4.641703,2.2956228,0.48267707,0.08255222,0.19197078,0.85050327,-9.500619,8.232969,-0.4375379,-0.13999102,0.07189191,-0.017630255,0
1.410000000000001,10.077534739574654,-0.200735917147817,0.017497124897671603,0.02584891424675647,13.298955,-0.07237992,-0.25105375,-0.23801368,5.5510983,-4.5592494,2.2912169,0.48263294,0.08201813,0.19114861,0.85076517,-9.467856,8.257816,-0.44363335,-0.20073591,0.017497124,0.025848914,0
1.420000000000001,10.077534739574654,-0.200735917147817,0.017497124897671603,0.02584891424675647,13.298955,-0.07237992,-0.25105375,-0.23801368,5.456583,-4.4765477,2.2867503,0.4825883,0.08148395,0.19032623,0.8510261,-9.435262,8.282585,-0.44964772,-0.20073591,0.017497124,0.025848914,0
1.430000000000001,10.077534739574654,-0.200735917147817,0.017497124897671603,0.02584891424675647,13.298955,-0.07237992,-0.25105375,-0.23801368,5.3623924,-4.393598,2.2822242,0.48254317,0.080949694,0.18950365,0.8512862,-9.402836,8.307276,-0.45558143,-0.20073591,0.017497124,0.025848914,0
1.440000000000001,10.077534739574654,-0.200735917147817,0.017497124897671603,0.02584891424675647,13.296242,-0.27649567,-0.15060373,-0.16180891,5.2685256,-4.3104024,2.277639,0.48249757,0.080415346,0.1886809,0.85154545,-9.370581,8.331888,-0.46143475,-0.20073591,0.017497124,0.025848914,0
1.450000000000001,10.077534739574654,-0.200735917147817,0.017497124897671603,0.02584891424675647,13.296242,-0.27649567,-0.15060373,-0.16180891,5.1749797,-4.2269607,2.2729957,0.4824515,0.07988092,0.18785794,0.8518038,-9.338493,8.356422,-0.46720815,-0.20073591,0.017497124,0.025848914,0
1.460000000000001,10.077534739574654,-0.200735917147817,0.017497124897671603,0.02584891424675647,13.296242,-0.27649567,-0.15060373,-0.16180891,5.081754,-4.143274,2.268295,0.48240495,0.07934642,0.18703479,0.85206115,-9.306576,8.380877,-0.47290194,-0.20073591,0.017497124,0.025848914,0
1.470000000000001,10.077534739574654,-0.200735917147817,0.017497124897671603,0.02584891424675647,13.296242,-0.27649567,-0.15060373,-0.16180891,4.9888473,-4.059343,2.263538,0.4823578,0.078811824,0.18621144,0.8523178,-9.274828,8.405252,-0.47851652,-0.20073591,0.017497124,0.025848914,0
1.480000000000001,10.174246360910658,-0.29204024717141147,0.5809047125519514,0.058350626732944076,11.836097,-0.5563177,1.3576081,0.16995472,4.896257,-3.9751685,2.2587252,0.48231018,0.07827715,0.18538791,0.8525735,-9.243249,8.429549,-0.4840523,-0.20073591,0.017497124,0.025848914,0
1.490000000000001,10.174246360910658,-0.29204024717141147,0.5809047125519514,0.058350626732944076,11.836097,-0.5563177,1.3576081,0.16995472,4.803983,-3.8907502,2.2538614,0.4816347,0.075150244,0.18552004,0.8532077,-9.211679,8.454165,-0.488617,-0.29204026,0.5809047,0.058350626,0
1.500000000000001,10.174246360910658,-0.29204024717141147,0.5809047125519514,0.058350626732944076,11.836097,-0.5563177,1.3576081,0.16995472,4.7120223,-3.806084,2.2489529,0.4809541,0.07202253,0.18565018,0.85383284,-9.180655,8.479145,-0.4930955,-0.29204026,0.5809047,0.058350626,0
1.5100000000000011,10.174246360910658,-0.29204024717141147,0.5809047125519514,0.058350626732944076,11.836097,-0.5563177,1.3576081,0.16995472,4.6203685,-3.721166,2.244,0.4802684,0.06889404,0.18577836,0.8544489,-9.150179,8.504487,-0.49749154,-0.29204026,0.5809047,0.058350626,0
1.5200000000000011,10.357072360559625,-0.3620116309317738,0.39854156793243106,0.10933232905768082,11.66834,-0.6672871,1.3204089,0.17091101,4.5290165,-3.6359925,2.2390034,0.47957754,0.06576483,0.18590456,0.8550558,-9.120253,8.5301895,-0.50180906,-0.29204026,0.5809047,0.058350626,0
1.5300000000000011,10.357072360559625,-0.3620116309317738,0.39854156793243106,0.10933232905768082,11.66834,-0.6672871,1.3204089,0.17091101,4.437964,-3.5505586,2.2339725,0.4788569,0.06329428,0.18527585,0.8557823,-9.09033,8.556647,-0.50435,-0.36201164,0.39854157,0.10933233,0
1.5400000000000011,10.357072360559625,-0.3620116309317738,0.39854156793243106,0.10933232905768082,11.66834,-0.6672871,1.3204089,0.17091101,4.3472085,-3.4648592,2.2289166,0.47813264,0.060823247,0.18464577,0.8565023,-9.060926,8.583276,-0.5067776,-0.36201164,0.39854157,0.10933233,0
1.5500000000000012,10.357072360559625,-0.3620116309317738,0.39854156793243106,0.10933232905768082,11.66834,-0.6672871,1.3204089,0.17091101,4.2567444,-3.3788927,2.2238374,0.47740477,0.058351755,0.18401429,0.8572159,-9.032042,8.610076,-0.5090943,-0.36201164,0.39854157,0.10933233,0
1.5600000000000012,10.540114423278117,-0.4379834207527123,0.823009771872331,0.14174313003742303,12.000894,-0.49984393,0.34439677,-0.17300814,4.166566,-3.2926571,2.2187352,0.4766733,0.05587982,0.18338141,0.857923,-9.003679,8.637044,-0.51130277,-0.36201164,0.39854157,0.10933233,0
1.5700000000000012,10.540114423278117,-0.4379834207527123,0.823009771872331,0.14174313003742303,12.000894,-0.49984393,0.34439677,-0.17300814,4.0766706,-3.2061486,2.2136202,0.47542775,0.051434908,0.1834225,0.85888284,-8.97546,8.664783,-0.5117118,-0.43798342,0.8230098,0.14174312,0
1.5800000000000012,10.540114423278117,-0.4379834207527123,0.823009771872331,0.14174313003742303,12.000894,-0.49984393,0.34439677,-0.17300814,3.9870536,-3.11936,2.2085013,0.47417164,0.046988852,0.18345955,0.85982364,-8.94808,8.693025,-0.51202637,-0.43798342,0.8230098,0.14174312,0
1.5900000000000012,10.540114423278117,-0.4379834207527123,0.823009771872331,0.14174313003742303,12.000894,-0.49984393,0.34439677,-0.17300814,3.897706,-3.0322866,2.2033799,0.47290492,0.042541754,0.1834925,0.8607453,-8.921541,8.721767,-0.5122546,-0.43798342,0.8230098,0.14174312,0
1.6000000000000012,10.74607300956093,-0.47629262881666007,0.5312643402784927,0.18004373071849392,11.959944,-0.32113382,-0.44324285,-0.068920314,3.8086197,-2.9449234,2.1982565,0.4716277,0.03809371,0.18352138,0.8616477,-8.895847,8.751006,-0.5124044,-0.43798342,0.8230098,0.14174312,0
1.6100000000000012,10.74607300956093,-0.47629262881666007,0.5312643402784927,0.18004373071849392,11.959944,-0.32113382,-0.44324285,-0.068920314,3.7197888,-2.8572626,2.1931415,0.47045207,0.03484669,0.18268666,0.8626047,-8.870462,8.781213,-0.51055,-0.47629264,0.53126436,0.18004373,0
1.6200000000000012,10.74607300956093,-0.47629262881666007,0.5312643402784927,0.18004373071849392,11.959944,-0.32113382,-0.44324285,-0.068920314,3.631208,-2.7692986,2.1880457,0.46927008,0.031599198,0.18184946,0.86354995,-8.845802,8.811641,-0.5085808,-0.47629264,0.53126436,0.18004373,0
1.6300000000000012,10.74607300956093,-0.47629262881666007,0.5312643402784927,0.18004373071849392,11.959944,-0.32113382,-0.44324285,-0.068920314,3.5428703,-2.681029,2.1829703,0.4680817,0.028351279,0.1810098,0.86448354,-8.82187,8.842284,-0.5065014,-0.47629264,0.53126436,0.18004373,0
1.6400000000000012,10.74607300956093,-0.47629262881666007,0.5312643402784927,0.18004373071849392,12.100014,-0.5805478,-0.38606125,0.013458196,3.4547682,-2.5924523,2.177916,0.46688703,0.025102977,0.18016769,0.86540544,-8.798666,8.873141,-0.50431633,-0.47629264,0.53126436,0.18004373,0
1.6500000000000012,10.74607300956093,-0.47629262881666007,0.5312643402784927,0.18004373071849392,12.100014,-0.5805478,-0.38606125,0.013458196,3.3668945,-2.5035655,2.1728845,0.46568602,0.021854335,0.17932315,0.8663156,-8.776193,8.904211,-0.5020304,-0.47629264,0.53126436,0.18004373,0
1.6600000000000013,10.74607300956093,-0.47629262881666007,0.5312643402784927,0.18004373071849392,12.100014,-0.5805478,-0.38606125,0.013458196,3.2792418,-2.4143674,2.167876,0.4644787,0.018605396,0.17847617,0.8672141,-8.754449,8.93549,-0.4996481,-0.47629264,0.53126436,0.18004373,0
1.6700000000000013,10.74607300956093,-0.47629262881666007,0.5312643402784927,0.18004373071849392,12.100014,-0.5805478,-0.38606125,0.013458196,3.1918027,-2.3248553,2.1628916,0.4632651,0.015356207,0.17762679,0.8681008,-8.733439,8.966973,-0.4971742,-0.47629264,0.53126436,0.18004373,0
1.6800000000000013,11.003872540104442,-0.5092743426516528,0.6352149654385704,0.21525768241699667,12.498002,-0.6188829,-1.3320361,0.22749108,3.1045704,-2.2350273,2.1579325,0.4620452,0.01210681,0.17677498,0.86897576,-8.713164,8.99866,-0.49461332,-0.47629264,0.53126436,0.18004373,0
1.6900000000000013,11.003872540104442,-0.5092743426516528,0.6352149654385704,0.21525768241699667,12.498002,-0.6188829,-1.3320361,0.22749108,3.0175393,-2.1448774,2.1530116,0.4605752,0.008360503,0.17601514,0.869954,-8.693192,9.031341,-0.4895552,-0.50927436,0.635215,0.21525769,0
1.7000000000000013,11.003872540104442,-0.5092743426516528,0.6352149654385704,0.21525768241699667,12.498002,-0.6188829,-1.3320361,0.22749108,2.9307036,-2.0543993,2.1481416,0.45909706,0.0046140486,0.17525217,0.8709167,-8.674068,9.064296,-0.48442355,-0.50927436,0.635215,0.21525769,0
1.7100000000000013,11.003872540104442,-0.5092743426516528,0.6352149654385704,0.21525768241699667,12.498002,-0.6188829,-1.3320361,0.22749108,2.8440552,-1.9635906,2.1433232,0.45761082,0.00086751196,0.1744861,0.871864,-8.655796,9.097521,-0.4792245,-0.50927436,0.635215,0.21525769,0
1.7200000000000013,11.299211399216233,-0.5427025371327208,0.5361877762698322,0.25435469901764785,12.67469,-0.9060633,-1.6935943,0.17924064,2.7575853,-1.8724482,2.1385572,0.45611647,-0.00287904,0.17371693,0.8727959,-8.638378,9.131013,-0.47396433,-0.50927436,0.635215,0.21525769,0
1.7300000000000013,11.299211399216233,-0.5427025371327208,0.5361877762698322,0.25435469901764785,12.67469,-0.9060633,-1.6935943,0.17924064,2.6712875,-1.7809651,2.133858,0.45452926,-0.00623567,0.17257367,0.8738326,-8.621356,9.165633,-0.46586236,-0.54270256,0.53618777,0.2543547,0
1.7400000000000013,11.299211399216233,-0.5427025371327208,0.5361877762698322,0.25435469901764785,12.67469,-0.9060633,-1.6935943,0.17924064,2.5851555,-1.6891351,2.1292403,0.45293468,-0.009592198,0.17142762,0.8748551,-8.605178,9.200411,-0.45767993,-0.54270256,0.53618777,0.2543547,0
1.7500000000000013,11.299211399216233,-0.5427025371327208,0.5361877762698322,0.25435469901764785,12.67469,-0.9060633,-1.6935943,0.17924064,2.499181,-1.5969565,2.1247048,0.45133278,-0.012948572,0.1702788,0.8758635,-8.589845,9.235342,-0.44942242,-0.54270256,0.53618777,0.2543547,0
1.7600000000000013,11.59909025397991,-0.5835106446689352,0.3947255993699099,0.296055091062128,12.622276,-1.0571514,-1.6463518,0.4873833,2.4133556,-1.5044277,2.1202521,0.4497236,-0.016304737,0.16912721,0.87685776,-8.575358,9.270421,-0.44109535,-0.54270256,0.53618777,0.2543547,0
1.7700000000000014,11.59909025397991,-0.5835106446689352,0.3947255993699099,0.296055091062128,12.622276,-1.0571514,-1.6463518,0.4873833,2.327673,-1.411543,2.1158972,0.44804096,-0.01909694,0.16747943,0.8779783,-8.561334,9.306522,-0.42986172,-0.58351064,0.3947256,0.29605508,0
1.7800000000000014,11.59909025397991,-0.5835106446689352,0.3947255993699099,0.296055091062128,12.622276,-1.0571514,-1.6463518,0.4873833,2.2421265,-1.3182973,2.1116552,0.4463518,-0.021888865,0.1658292,0.8790861,-8.5481205,9.342614,-0.4185241,-0.58351064,0.3947256,0.29605508,0
1.7900000000000014,11.59909025397991,-0.5835106446689352,0.3947255993699099,0.296055091062128,12.622276,-1.0571514,-1.6463518,0.4873833,2.156708,-1.2246907,2.1075268,0.4446561,-0.024680471,0.16417654,0.880181,-8.535717,9.378692,-0.40708715,-0.58351064,0.3947256,0.29605508,0
1.8000000000000014,11.829689075669897,-0.608112866907575,0.11569305069148833,0.340822112961702,13.068004,-1.1861159,-2.2616076,0.22603053,2.0714092,-1.1307235,2.1035135,0.4429539,-0.027471714,0.1625215,0.8812631,-8.524126,9.414753,-0.39555565,-0.58351064,0.3947256,0.29605508,0
1.8100000000000014,11.829689075669897,-0.608112866907575,0.11569305069148833,0.340822112961702,13.068004,-1.1861159,-2.2616076,0.22603053,1.9862237,-1.0363923,2.0996268,0.44127184,-0.029051192,0.160144,0.8824907,-8.513066,9.451407,-0.3817261,-0.6081129,0.11569305,0.3408221,0
1.8200000000000014,11.829689075669897,-0.608112866907575,0.11569305069148833,0.340822112961702,13.068004,-1.1861159,-2.2616076,0.22603053,1.9011456,-0.9416962,2.0958796,0.43958426,-0.03063031,0.1577645,0.8837073,-8.502656,9.487765,-0.36773753,-0.6081129,0.11569305,0.3408221,0
1.8300000000000014,11.829689075669897,-0.608112866907575,0.11569305069148833,0.340822112961702,13.068004,-1.1861159,-2.2616076,0.22603053,1.8161684,-0.8466381,2.0922728,0.4378912,-0.032209042,0.15538302,0.88491285,-8.492896,9.523823,-0.3535937,-0.6081129,0.11569305,0.3408221,0
1.8400000000000014,11.829689075669897,-0.608112866907575,0.11569305069148833,0.340822112961702,13.385053,-1.2455606,-2.369098,0.26262456,1.7312856,-0.7512208,2.088808,0.43619263,-0.033787377,0.15299961,0.8861074,-8.483785,9.559578,-0.33929825,-0.6081129,0.11569305,0.3408221,0
1.8500000000000014,11.829689075669897,-0.608112866907575,0.11569305069148833,0.340822112961702,13.385053,-1.2455606,-2.369098,0.26262456,1.6464906,-0.6554476,2.0854874,0.43448865,-0.03536529,0.15061429,0.88729084,-8.475322,9.595025,-0.32485497,-0.6081129,0.11569305,0.3408221,0
1.8600000000000014,11.829689075669897,-0.608112866907575,0.11569305069148833,0.340822112961702,13.385053,-1.2455606,-2.369098,0.26262456,1.5617771,-0.5593214,2.0823116,0.43277925,-0.03694276,0.1482271,0.8884632,-8.467505,9.630162,-0.3102676,-0.6081129,0.11569305,0.3408221,0
1.8700000000000014,11.829689075669897,-0.608112866907575,0.11569305069148833,0.340822112961702,13.385053,-1.2455606,-2.369098,0.26262456,1.4771384,-0.4628454,2.0792825,0.43106443,-0.038519766,0.14583805,0.8896245,-8.460336,9.664985,-0.29553983,-0.6081129,0.11569305,0.3408221,0
1.8800000000000014,12.009304390716224,-0.6631177897657187,0.285195632737317,0.3832906260366987,14.137179,-1.6150748,-3.0420184,0.40532,1.3925682,-0.36602277,2.076401,0.42934424,-0.040096294,0.14344719,0.89077467,-8.453812,9.699491,-0.28067538,-0.6081129,0.11569305,0.3408221,0
1.8900000000000015,12.009304390716224,-0.6631177897657187,0.285195632737317,0.3832906260366987,14.137179,-1.6150748,-3.0420184,0.40532,1.3080603,-0.268854,2.0736775,0.42729604,-0.042514797,0.14118162,0.8920085,-8.44791,9.734235,-0.26397035,-0.66311777,0.28519562,0.38329062,0
1.9000000000000015,12.009304390716224,-0.6631177897657187,0.285195632737317,0.3832906260366987,14.137179,-1.6150748,-3.0420184,0.40532,1.2236072,-0.17133883,2.0711217,0.4252407,-0.044932593,0.1389137,0.8932274,-8.442842,9.7687645,-0.24716033,-0.66311777,0.28519562,0.38329062,0
1.9100000000000015,12.009304390716224,-0.6631177897657187,0.285195632737317,0.3832906260366987,14.137179,-1.6150748,-3.0420184,0.40532,1.1392006,-0.07347946,2.0687344,0.42317826,-0.04734964,0.13664347,0.89443135,-8.438605,9.803073,-0.23025042,-0.66311777,0.28519562,0.38329062,0
1.9200000000000015,12.125257152294832,-0.736604901944539,-0.13090473971656844,0.44597136788431213,14.329601,-1.7657678,-3.444396,0.43941516,1.0548321,0.02472186,2.0665169,0.42110875,-0.04976589,0.13437095,0.8956204,-8.435201,9.837155,-0.21324576,-0.66311777,0.28519562,0.38329062,0
1.9300000000000015,12.125257152294832,-0.736604901944539,-0.13090473971656844,0.44597136788431213,14.329601,-1.7657678,-3.444396,0.43941516,0.9704941,0.12326403,2.0644753,0.4190123,-0.05043054,0.13090643,0.89707834,-8.432507,9.871173,-0.19499436,-0.7366049,-0.13090473,0.44597137,0
1.9400000000000015,12.125257152294832,-0.736604901944539,-0.13090473971656844,0.44597136788431213,14.329601,-1.7657678,-3.444396,0.43941516,0.88618004,0.22214305,2.0626175,0.4169079,-0.05109423,0.12743944,0.89851934,-8.430393,9.904525,-0.17653844,-0.7366049,-0.13090473,0.44597137,0
1.9500000000000015,12.125257152294832,-0.736604901944539,-0.13090473971656844,0.44597136788431213,14.329601,-1.7657678,-3.444396,0.43941516,0.8018843,0.3213522,2.0609453,0.41479564,-0.051756952,0.12397003,0.89994323,-8.428859,9.937207,-0.15788385,-0.7366049,-0.13090473,0.44597137,0
1.9600000000000015,12.205430268858617,-0.8549449391366425,-0.07970190356878709,0.5035089986686393,13.896865,-1.4266328,-2.5358644,0.25451428,0.71760094,0.42088485,2.0594604,0.4126755,-0.05241869,0.12049827,0.90135014,-8.427899,9.969215,-0.13903648,-0.7366049,-0.13090473,0.44597137,0
1.9700000000000015,12.205430268858617,-0.8549449391366425,-0.07970190356878709,0.5035089986686393,13.896865,-1.4266328,-2.5358644,0.25451428,0.63332415,0.5207352,2.0581691,0.41022515,-0.05351956,0.11661128,0.9029139,-8.427566,10.000735,-0.11922304,-0.85494494,-0.0797019,0.503509,0
1.9800000000000015,12.205430268858617,-0.8549449391366425,-0.07970190356878709,0.5035089986686393,13.896865,-1.4266328,-2.5358644,0.25451428,0.54904705,0.62089705,2.0570767,0.40776464,-0.054619096,0.1127214,0.9044553,-8.427955,10.031521,-0.09921601,-0.85494494,-0.0797019,0.503509,0
1.9900000000000015,12.205430268858617,-0.8549449391366425,-0.07970190356878709,0.5035089986686393,13.896865,-1.4266328,-2.5358644,0.25451428,0.46476254,0.72136307,2.0561855,0.40529403,-0.055717286,0.10882872,0.90597427,-8.429063,10.061566,-0.07902315,-0.85494494,-0.0797019,0.503509,0
2.0000000000000013,,,,,14.865244,-1.1754849,-3.4938962,0.003136579,0.38046336,0.8221258,2.055497,0.40281335,-0.05681409,0.10493336,0.9074708,-8.430885,10.090865,-0.058652285,-0.85494494,-0.0797019,0.503509,0
2.010000000000001,,,,,14.865244,-1.1754849,-3.4938962,0.003136579,0.29614252,0.9231771,2.0550117,0.40008953,-0.056865662,0.099928305,0.90923584,-8.433371,10.119224,-0.03833379,-0.98053783,-0.35675436,0.57859147,0
2.020000000000001,,,,,14.865244,-1.1754849,-3.4938962,0.003136579,0.21179388,1.0245066,2.0547314,0.3973515,-0.05691521,0.0949197,0.9109684,-8.436447,10.146483,-0.017771453,-0.98053783,-0.35675436,0.57859147,0
2.0300000000000007,,,,,14.865244,-1.1754849,-3.4938962,0.003136579,0.12741157,1.126103,2.0546575,0.39459932,-0.05696273,0.089907706,0.9126686,-8.440107,10.17264,0.0030227238,-0.98053783,-0.35675436,0.57859147,0
2.0400000000000005,,,,,14.865244,-1.1754849,-3.4938962,0.003136579,0.042989768,1.2279555,2.0547924,0.3918331,-0.05700822,0.08489252,0.9143363,-8.4443445,10.197685,0.024036713,-0.98053783,-0.35675436,0.57859147,0
2.0500000000000003,,,,,14.768904,-1.3419689,-3.4263306,0.08383864,-0.04147727,1.3300529,2.0551388,0.38905296,-0.05705169,0.07987431,0.91597146,-8.449152,10.221614,0.045258455,-0.98053783,-0.35675436,0.57859147,1
2.06,,,,,14.768904,-1.3419689,-3.4263306,0.08383864,-0.1259978,1.4324045,2.0558262,0.38958862,-0.043927666,0.06707427,0.9174927,-8.454633,10.247932,0.09237211,-1.3419689,-3.4263306,0.08383864,1
2.07,,,,,14.768904,-1.3419689,-3.4263306,0.08383864,-0.21056278,1.5349946,2.056989,0.38999233,-0.030788764,0.054251518,0.91870314,-8.458038,10.269306,0.14035882,-1.3419689,-3.4263306,0.08383864,1
2.0799999999999996,,,,,14.768904,-1.3419689,-3.4263306,0.08383864,-0.2951514,1.6377735,2.0586352,0.39026394,-0.017639436,0.041410394,0.91960245,-8.459361,10.2857065,0.18902063,-1.3419689,-3.4263306,0.08383864,1
2.0899999999999994,,,,,13.77253,-1.4980588,-1.9770303,0.11371249,-0.37974286,1.7406915,2.060771,0.39040342,-0.0044841324,0.028555246,0.92019033,-8.458595,10.297112,0.2381587,-1.3419689,-3.4263306,0.08383864,1
2.099999999999999,,,,,13.77253,-1.4980588,-1.9770303,0.11371249,-0.4643187,1.8436975,2.0633497,0.39009884,0.0017042742,0.017804177,0.9205996,-8.456507,10.303563,0.27761373,-1.4980588,-1.9770303,0.11371249,1
2.109999999999999,,,,,13.77253,-1.4980588,-1.9770303,0.11371249,-0.54887164,1.9467511,2.0663235,0.38973418,0.007892418,0.0070503643,0.92086697,-8.454006,10.306623,0.31717902,-1.4980588,-1.9770303,0.11371249,1
2.1199999999999988,,,,,13.77253,-1.4980588,-1.9770303,0.11371249,-0.63339746,2.0498183,2.0696933,0.38930944,0.014079344,-0.0037045362,0.9209924,-8.451092,10.306293,0.35676977,-1.4980588,-1.9770303,0.11371249,1
2.1299999999999986,,,,,15.595087,-1.4176277,-3.1605055,0.36551636,-0.71789205,2.1528654,2.073459,0.38882464,0.020264102,-0.014458865,0.9209758,-8.447762,10.302573,0.39630115,-1.4980588,-1.9770303,0.11371249,1
2.1399999999999983,,,,,15.595087,-1.4176277,-3.1605055,0.36551636,-0.8023473,2.2558527,2.07771,0.38699773,0.03203171,-0.02716548,0.921124,-8.442999,10.294064,0.45383948,-1.4176277,-3.1605055,0.36551636,1
2.149999999999998,,,,,15.595087,-1.4176277,-3.1605055,0.36551636,-0.88674563,2.3587296,2.0825343,0.38505346,0.043789607,-0.039863855,0.9209928,-8.436376,10.280501,0.5109509,-1.4176277,-3.1605055,0.36551636,1
2.159999999999998,,,,,15.595087,-1.4176277,-3.1605055,0.36551636,-0.9710683,2.4614458,2.0879269,0.3829924,0.05553422,-0.05255014,0.92058235,-8.427882,10.261909,0.56744903,-1.4176277,-3.1605055,0.36551636,1
