time-since-start [s],throttle_mpc,roll_mpc,pitch_mpc,yaw_mpc,throttle_nw,roll_nw,pitch_nw,yaw_nw,position_x [m],position_y [m],position_z [m],rotation_w [quaternion],rotation_x [quaternion],rotation_y [quaternion],rotation_z [quaternion],velocity_x [m/s],velocity_y [m/s],velocity_z [m/s],omega_x [rad/s],omega_y [rad/s],omega_z [rad/s],network_used
0.0,10.268194143669122,5.999999549813319,-5.999999817882816,-2.45525011197949,14.409032,-0.42761806,-1.6927671,-0.3973445,14.639783,-11.364639,2.5943658,-0.2731518,0.32165623,-0.36064142,-0.8317831,-9.3537445,-1.5256376,1.1111474,1.1815052,-0.4159298,-0.28763238,0
0.01,10.268194143669122,5.999999549813319,-5.999999817882816,-2.45525011197949,10.260951,-1.2060388,-2.824167,-0.12008348,14.546005,-11.379337,2.6053693,-0.2778144,0.3177077,-0.36483994,-0.8299234,-9.401432,-1.4143804,1.0891844,1.5132151,-0.8672824,-0.35645702,0
0.02,10.268194143669122,5.999999549813319,-5.999999817882816,-2.45525011197949,10.260951,-1.2060388,-2.824167,-0.12008348,14.451767,-11.392934,2.6161425,-0.28405192,0.3115997,-0.36964518,-0.8279992,-9.445717,-1.3051307,1.0651554,1.8324863,-1.2875968,-0.42542085,0
0.03,10.268194143669122,5.999999549813319,-5.999999817882816,-2.45525011197949,10.260951,-1.2060388,-2.824167,-0.12008348,14.357105,-11.405447,2.6266663,-0.29177612,0.30345204,-0.37501422,-0.8259224,-9.486072,-1.197744,1.0393603,2.1396217,-1.6800714,-0.49437028,0
0.04,10.268194143669122,5.999999549813319,-5.999999817882816,-2.45525011197949,10.404276,-0.80868435,-3.3866277,0.003919687,14.262061,-11.416894,2.6369245,-0.30089757,0.29336774,-0.38089663,-0.823598,-9.5220375,-1.0921252,1.0120398,2.4349906,-2.0475202,-0.5631696,0
0.05,10.268194143669122,5.999999549813319,-5.999999817882816,-2.45525011197949,10.404276,-0.80868435,-3.3866277,0.003919687,14.16668,-11.427294,2.6469028,-0.3113257,0.28143585,-0.38723585,-0.8209253,-9.553211,-0.98823035,0.9833806,2.7190092,-2.3924224,-0.63169885,0
0.060000000000000005,10.268194143669122,5.999999549813319,-5.999999817882816,-2.45525011197949,10.404276,-0.80868435,-3.3866277,0.003919687,14.071014,-11.436665,2.656588,-0.3229684,0.26773447,-0.39397028,-0.8178,-9.5792465,-0.8860677,0.9535203,2.9921231,-2.716966,-0.69985276,0
0.07,10.268194143669122,5.999999549813319,-5.999999817882816,-2.45525011197949,10.404276,-0.80868435,-3.3866277,0.003919687,13.975115,-11.445023,2.6659694,-0.33573195,0.2523331,-0.40103418,-0.81411505,-9.599844,-0.78569674,0.92255104,3.2547941,-3.0230825,-0.7675387,0
0.08,12.11680066084724,5.999999660844059,-5.999999848858742,-2.603464877332101,10.0620985,-0.7642962,-3.0918293,0.25382933,13.879037,-11.452386,2.6750355,-0.3495208,0.23529495,-0.40835822,-0.8097622,-9.614754,-0.68722653,0.8905242,3.5074914,-3.3124838,-0.83467585,0
0.09,12.11680066084724,5.999999660844059,-5.999999848858742,-2.603464877332101,10.0620985,-0.7642962,-3.0918293,0.25382933,13.782833,-11.458709,2.6838202,-0.36430353,0.21660317,-0.415897,-0.8046089,-9.624977,-0.5778499,0.866198,3.7798796,-3.6159635,-0.91107684,0
0.09999999999999999,12.11680066084724,5.999999660844059,-5.999999848858742,-2.603464877332101,10.0620985,-0.7642962,-3.0918293,0.25382933,13.686561,-11.46395,2.6923556,-0.38003963,0.1962395,-0.42359665,-0.79851466,-9.628292,-0.47101304,0.840685,4.042264,-3.904628,-0.9866343,0
0.10999999999999999,12.11680066084724,5.999999660844059,-5.999999848858742,-2.603464877332101,10.0620985,-0.7642962,-3.0918293,0.25382933,13.590291,-11.468138,2.7006295,-0.3966153,0.17426117,-0.4313706,-0.7913587,-9.624523,-0.367,0.81392825,4.295147,-4.1797266,-1.0612948,0
0.11999999999999998,12.11680066084724,5.999999660844059,-5.999999848858742,-2.603464877332101,10.0620985,-0.7642962,-3.0918293,0.25382933,13.494096,-11.471301,2.7086296,-0.4139128,0.15072607,-0.43912983,-0.7830215,-9.613559,-0.26614293,0.78583616,4.539013,-4.4423733,-1.1350129,0
0.12999999999999998,15.144165619092238,5.422724846688927,-5.999999618736733,-2.5511793497348894,12.224308,-0.65461636,-3.107306,0.21470484,13.398046,-11.473472,2.7163427,-0.43180272,0.12570786,-0.44677925,-0.77339,-9.595221,-0.16817066,0.75674284,4.7656517,-4.6848726,-1.2069951,0
0.13999999999999999,15.144165619092238,5.422724846688927,-5.999999618736733,-2.5511793497348894,12.224308,-0.65461636,-3.107306,0.21470484,13.302248,-11.47455,2.7238503,-0.45006815,0.0994841,-0.45402107,-0.7625,-9.562521,-0.048018157,0.7447851,4.867751,-4.8902555,-1.2729546,0
0.15,15.144165619092238,5.422724846688927,-5.999999618736733,-2.5511793497348894,12.224308,-0.65461636,-3.107306,0.21470484,13.206827,-11.4744425,2.7312374,-0.46850073,0.0723527,-0.46060598,-0.75040925,-9.519856,0.06916262,0.73255855,4.9539485,-5.063593,-1.3356775,0
0.16,14.97444796478131,3.274187078094545,-4.964172341661225,-1.0088054507443518,13.109756,-0.38070396,-1.6433675,0.22836253,13.111884,-11.473181,2.7384999,-0.48695037,0.04448452,-0.46649525,-0.7370769,-9.467199,0.18258673,0.71982616,5.0267243,-5.209884,-1.3953226,0
0.17,14.97444796478131,3.274187078094545,-4.964172341661225,-1.0088054507443518,13.109756,-0.38070396,-1.6433675,0.22836253,13.017513,-11.470813,2.7456264,-0.50492823,0.016672112,-0.47125074,-0.72297436,-9.405393,0.29025885,0.70539904,4.7535157,-5.171258,-1.3763561,0
0.18000000000000002,14.97444796478131,3.274187078094545,-4.964172341661225,-1.0088054507443518,13.109756,-0.38070396,-1.6433675,0.22836253,12.923807,-11.467394,2.752605,-0.5220865,-0.01044335,-0.4745843,-0.7085802,-9.334399,0.39280403,0.690121,4.522905,-5.138703,-1.3583204,0
0.19000000000000003,14.97444796478131,3.274187078094545,-4.964172341661225,-1.0088054507443518,13.109756,-0.38070396,-1.6433675,0.22836253,12.830853,-11.462976,2.7594259,-0.53848565,-0.03692878,-0.47666472,-0.69387305,-9.254881,0.48967767,0.67392176,4.3282495,-5.111264,-1.3411696,0
0.20000000000000004,13.722961368567772,1.8313576048886355,-3.2740669570483942,-0.7432940402031972,13.205519,-1.2678697,-0.63229203,0.6297253,12.738736,-11.457621,2.76608,-0.55417067,-0.06284195,-0.47763202,-0.6788321,-9.167474,0.5803999,0.65672386,4.1639433,-5.0881376,-1.3248605,0
0.21000000000000005,13.722961368567772,1.8313576048886355,-3.2740669570483942,-0.7432940402031972,13.205519,-1.2678697,-0.63229203,0.6297253,12.64749,-11.451426,2.7725232,-0.56888086,-0.08747052,-0.47759917,-0.66379386,-9.080745,0.65755117,0.6317792,3.8005114,-4.8048496,-1.2963228,0
0.22000000000000006,13.722961368567772,1.8313576048886355,-3.2740669570483942,-0.7432940402031972,13.205519,-1.2678697,-0.63229203,0.6297253,12.55714,-11.4444895,2.778712,-0.5824625,-0.110264525,-0.47671488,-0.64909315,-8.988176,0.72863185,0.6058268,3.4937057,-4.5658035,-1.2691855,0
0.23000000000000007,13.722961368567772,1.8313576048886355,-3.2740669570483942,-0.7432940402031972,13.205519,-1.2678697,-0.63229203,0.6297253,12.467743,-11.436873,2.7846365,-0.59508306,-0.13149078,-0.47512513,-0.6346986,-8.890529,0.79367375,0.5788731,3.2347038,-4.3640885,-1.2433798,0
0.24000000000000007,13.722961368567772,1.8313576048886355,-3.2740669570483942,-0.7432940402031972,14.236754,-1.9906466,1.6330011,0.90008575,12.379345,-11.428637,2.7902863,-0.606876,-0.15137714,-0.4729443,-0.6205724,-8.788461,0.85272753,0.55093235,3.0160577,-4.1938744,-1.2188405,0
0.25000000000000006,13.722961368567772,1.8313576048886355,-3.2740669570483942,-0.7432940402031972,14.236754,-1.9906466,1.6330011,0.90008575,12.291987,-11.419839,2.795652,-0.61794806,-0.17011741,-0.47026193,-0.60667443,-8.682544,0.9058531,0.5220217,2.83148,-4.050241,-1.1955053,0
0.26000000000000006,13.722961368567772,1.8313576048886355,-3.2740669570483942,-0.7432940402031972,14.236754,-1.9906466,1.6330011,0.90008575,12.205706,-11.410539,2.8007233,-0.6283845,-0.18787585,-0.46714836,-0.59296536,-8.573278,0.9531133,0.49215788,2.6756628,-3.9290369,-1.173315,0
0.2700000000000001,13.722961368567772,1.8313576048886355,-3.2740669570483942,-0.7432940402031972,14.236754,-1.9906466,1.6330011,0.90008575,12.120532,-11.400796,2.8054917,-0.63825357,-0.20479132,-0.46365893,-0.5794076,-8.461113,0.9945705,0.46135506,2.5441246,-3.826759,-1.1522138,0
0.2800000000000001,12.622763388832576,0.280854346951394,-1.3138382693267805,-0.3482937818212896,13.136758,-2.274977,2.185081,0.3339797,12.036492,-11.390667,2.8099475,-0.64760995,-0.22098085,-0.45983726,-0.56596667,-8.346446,1.0302844,0.42962414,2.4330828,-3.7404516,-1.1321481,0
0.2900000000000001,12.622763388832576,0.280854346951394,-1.3138382693267805,-0.3482937818212896,13.136758,-2.274977,2.185081,0.3339797,11.953563,-11.380221,2.8140552,-0.65625983,-0.23572446,-0.4558759,-0.55311286,-8.239023,1.0579549,0.3917382,2.097808,-3.3617222,-1.0936842,0
0.3000000000000001,12.622763388832576,0.280854346951394,-1.3138382693267805,-0.3482937818212896,13.136758,-2.274977,2.185081,0.3339797,11.8717165,-11.369525,2.81778,-0.66409576,-0.24847779,-0.45196557,-0.54125994,-8.13007,1.080835,0.35311416,1.8147556,-3.0421104,-1.0571077,0
0.3100000000000001,12.622763388832576,0.280854346951394,-1.3138382693267805,-0.3482937818212896,13.136758,-2.274977,2.185081,0.3339797,11.790965,-11.358621,2.8211155,-0.6712656,-0.25956595,-0.4481263,-0.5302927,-8.0199585,1.0993699,0.31387055,1.5757933,-2.7723868,-1.022326,0
0.3200000000000001,12.102952896176888,-1.8388909035134477,0.9746420568292834,0.3656974102362709,12.9236145,-2.5615337,3.1745927,0.20538434,11.71132,-11.347551,2.8240557,-0.67788535,-0.2692612,-0.44436592,-0.52010405,-7.9089837,1.1139476,0.2741165,1.3740548,-2.5447626,-0.9892511,0
0.3300000000000001,12.102952896176888,-1.8388909035134477,0.9746420568292834,0.3656974102362709,12.9236145,-2.5615337,3.1745927,0.20538434,11.632764,-11.336357,2.8265843,-0.68383265,-0.27678326,-0.44085,-0.5112872,-7.8019905,1.1245145,0.23158696,0.87343925,-1.9955518,-0.9227634,0
0.34000000000000014,12.102952896176888,-1.8388909035134477,0.9746420568292834,0.3656974102362709,12.9236145,-2.5615337,3.1745927,0.20538434,11.555281,-11.325071,2.828687,-0.689039,-0.28154197,-0.43772984,-0.5043326,-7.6946893,1.1323558,0.18891734,0.45079544,-1.5320784,-0.85953826,0
0.35000000000000014,12.102952896176888,-1.8388909035134477,0.9746420568292834,0.3656974102362709,12.9236145,-2.5615337,3.1745927,0.20538434,11.47887,-11.313717,2.830363,-0.6936452,-0.28399688,-0.43497333,-0.49899858,-7.5873137,1.1381799,0.14635558,0.093984544,-1.1409525,-0.7994155,0
0.36000000000000015,13.13969516605008,-4.050389790391828,3.256841886017111,0.5839960456967552,13.96221,-2.332873,3.6531568,-0.7941868,11.403533,-11.302313,2.831615,-0.6977535,-0.2845287,-0.43253988,-0.49506766,-7.4800367,1.1425916,0.10411449,-0.2072437,-0.81087697,-0.7422431,0
0.37000000000000016,13.13969516605008,-4.050389790391828,3.256841886017111,0.5839960456967552,13.96221,-2.332873,3.6531568,-0.7941868,11.329314,-11.290867,2.8324711,-0.70128226,-0.2823953,-0.43058,-0.49300724,-7.363834,1.1464752,0.067226656,-0.8062643,-0.1762618,-0.67716414,0
0.38000000000000017,13.13969516605008,-4.050389790391828,3.256841886017111,0.5839960456967552,13.96221,-2.332873,3.6531568,-0.7941868,11.256255,-11.279383,2.8329625,-0.7041534,-0.27701813,-0.42920467,-0.4931647,-7.2481084,1.15038,0.031234216,-1.311961,0.35930002,-0.61527866,0
0.3900000000000002,13.13969516605008,-4.050389790391828,3.256841886017111,0.5839960456967552,13.96221,-2.332873,3.6531568,-0.7941868,11.184349,-11.267856,2.8330998,-0.70642245,-0.26890185,-0.42830804,-0.49518734,-7.133075,1.155229,-0.0035519619,-1.7388668,0.8112755,-0.5564299,0
0.4000000000000002,16.26757075688796,-5.7818488971057,5.075381239861836,1.0092064200228836,16.80133,-3.024958,4.1866546,-0.86337084,11.11359,-11.256272,2.8328962,-0.7081161,-0.25846496,-0.4277871,-0.49876332,-7.018937,1.1618042,-0.036892675,-2.0992522,1.1927148,-0.50046885,0
0.4100000000000002,16.26757075688796,-5.7818488971057,5.075381239861836,1.0092064200228836,16.80133,-3.024958,4.1866546,-0.86337084,11.044101,-11.2446,2.8324459,-0.7090763,-0.24522203,-0.42769775,-0.5041338,-6.8790073,1.1729674,-0.052792367,-2.6734393,1.798274,-0.42638862,0
0.4200000000000002,16.26757075688796,-5.7818488971057,5.075381239861836,1.0092064200228836,16.80133,-3.024958,4.1866546,-0.86337084,10.976003,-11.232798,2.8318477,-0.7091233,-0.22879227,-0.42804983,-0.51144,-6.740853,1.1882874,-0.066396825,-3.1581569,2.3093276,-0.35594356,0
0.4300000000000002,16.26757075688796,-5.7818488971057,5.075381239861836,1.0092064200228836,16.80133,-3.024958,4.1866546,-0.86337084,10.909276,-11.220817,2.8311262,-0.7082257,-0.20963879,-0.42868477,-0.52028507,-6.604945,1.2088429,-0.077511676,-3.567339,2.7406323,-0.28895524,0
0.4400000000000002,16.26757075688796,-5.7818488971057,5.075381239861836,1.0092064200228836,18.575598,-3.3553286,4.1532893,-0.3791491,10.843895,-11.2086,2.8303065,-0.70634377,-0.18815465,-0.4294596,-0.5303208,-6.471801,1.2355236,-0.086059816,-3.9127502,3.1046383,-0.22525412,0
0.45000000000000023,16.26757075688796,-5.7818488971057,5.075381239861836,1.0092064200228836,18.575598,-3.3553286,4.1532893,-0.3791491,10.779829,-11.196082,2.8294137,-0.7034369,-0.16467717,-0.43024823,-0.54124284,-6.3419795,1.2690469,-0.09207013,-4.204324,3.411852,-0.16467878,0
0.46000000000000024,16.26757075688796,-5.7818488971057,5.075381239861836,1.0092064200228836,18.575598,-3.3553286,4.1532893,-0.3791491,10.717042,-11.183192,2.828473,-0.6994686,-0.13949873,-0.43094137,-0.5527863,-6.2160788,1.3099726,-0.09566591,-4.4504476,3.6711383,-0.107075885,0
0.47000000000000025,16.26757075688796,-5.7818488971057,5.075381239861836,1.0092064200228836,18.575598,-3.3553286,4.1532893,-0.3791491,10.655492,-11.169854,2.8275077,-0.69440836,-0.112874985,-0.43144578,-0.5647213,-6.0947237,1.3587148,-0.09705351,-4.658202,3.8899777,-0.052299596,0
0.48000000000000026,18.743418064010225,-5.99999589926052,5.7137722383745215,1.5901725238572968,18.0073,-3.4743905,4.7211947,-0.60198295,10.59513,-11.15599,2.8265383,-0.68823296,-0.08503133,-0.4316828,-0.57684875,-5.978557,1.4155515,-0.09651123,-4.833566,4.074683,-0.0002111923,0
0.49000000000000027,18.743418064010225,-5.99999589926052,5.7137722383745215,1.5901725238572968,18.0073,-3.4743905,4.7211947,-0.60198295,10.535986,-11.141466,2.825659,-0.6807777,-0.055990208,-0.43170366,-0.5890994,-5.8514423,1.49056,-0.07913038,-5.01569,4.3300433,0.077829406,0
0.5000000000000002,18.743418064010225,-5.99999589926052,5.7137722383745215,1.5901725238572968,18.0073,-3.4743905,4.7211947,-0.60198295,10.478076,-11.126145,2.8249605,-0.67189246,-0.025790548,-0.43153626,-0.6013911,-5.731855,1.5752586,-0.06042247,-5.169422,4.5455775,0.15204051,0
0.5100000000000002,18.743418064010225,-5.99999589926052,5.7137722383745215,1.5901725238572968,18.0073,-3.4743905,4.7211947,-0.60198295,10.421321,-11.109929,2.8244534,-0.66158515,0.0053540943,-0.43108967,-0.61354506,-5.620597,1.6696926,-0.040955096,-5.299185,4.7275004,0.22261007,0
0.5200000000000002,19.456359793675546,-5.566875438537996,4.747596707332398,1.2243890452756638,18.625463,-3.421541,4.332644,-0.18392578,10.365633,-11.092718,2.824142,-0.64986926,0.037251316,-0.43028906,-0.6254064,-5.5184526,1.7737461,-0.021339998,-5.408711,4.881057,0.28971675,0
0.5300000000000002,19.456359793675546,-5.566875438537996,4.747596707332398,1.2243890452756638,18.625463,-3.421541,4.332644,-0.18392578,10.310936,-11.074399,2.8240473,-0.6369726,0.06939166,-0.42893496,-0.63676137,-5.422646,1.8914394,0.002250827,-5.433518,4.860077,0.33558142,0
0.5400000000000003,19.456359793675546,-5.566875438537996,4.747596707332398,1.2243890452756638,18.625463,-3.421541,4.332644,-0.18392578,10.257143,-11.054857,2.8241837,-0.62311924,0.101355,-0.42689124,-0.64746654,-5.3376656,2.0182204,0.024749653,-5.454449,4.842376,0.37919545,0
0.5500000000000003,19.456359793675546,-5.566875438537996,4.747596707332398,1.2243890452756638,18.625463,-3.421541,4.332644,-0.18392578,10.204144,-11.034005,2.824537,-0.60832244,0.13309973,-0.42418674,-0.65749025,-5.2640142,2.153374,0.04559584,-5.472109,4.8274436,0.42066935,0
0.5600000000000003,18.022473459652236,-4.1288285355287835,3.117277533794306,1.0149361773773622,18.797338,-3.2224405,2.766335,-0.48176602,10.151822,-11.011763,2.825088,-0.5925987,0.16458525,-0.42084748,-0.6668024,-5.2021337,2.2961397,0.06423495,-5.487008,4.8148465,0.4601081,0
0.5700000000000003,18.022473459652236,-4.1288285355287835,3.117277533794306,1.0149361773773622,18.797338,-3.2224405,2.766335,-0.48176602,10.1000395,-10.988113,2.8257701,-0.5763712,0.19501159,-0.41690373,-0.6752463,-5.1560106,2.4346573,0.07174456,-5.275202,4.550081,0.4873337,0
0.5800000000000003,18.022473459652236,-4.1288285355287835,3.117277533794306,1.0149361773773622,18.797338,-3.2224405,2.766335,-0.48176602,10.048663,-10.963051,2.8265133,-0.56004685,0.22376116,-0.41243172,-0.6827724,-5.1209903,2.578473,0.07640412,-5.0964284,4.3266068,0.51322323,0
0.5900000000000003,18.022473459652236,-4.1288285355287835,3.117277533794306,1.0149361773773622,18.797338,-3.2224405,2.766335,-0.48176602,9.9975815,-10.936528,2.8272877,-0.54361296,0.25104487,-0.4075088,-0.6894908,-5.0968437,2.7266345,0.07797891,-4.945535,4.137984,0.53784245,0
0.6000000000000003,15.419560072678431,-2.3328263312253594,1.1429936433494634,0.7262095399310835,19.06162,-3.2524815,1.9409301,0.19942418,9.946689,-10.908506,2.8280616,-0.5270538,0.27704135,-0.40219522,-0.6954862,-5.0833416,2.8782835,0.07626865,-4.8181753,3.978776,0.56125355,0
0.6100000000000003,15.419560072678431,-2.3328263312253594,1.1429936433494634,0.7262095399310835,19.06162,-3.2524815,1.9409301,0.19942418,9.895875,-10.8790655,2.8287337,-0.5109097,0.30099595,-0.3966258,-0.700757,-5.080638,3.010327,0.057709284,-4.430444,3.5366554,0.569348,0
0.6200000000000003,15.419560072678431,-2.3328263312253594,1.1429936433494634,0.7262095399310835,19.06162,-3.2524815,1.9409301,0.19942418,9.845048,-10.848295,2.8292058,-0.4956632,0.32235345,-0.39095414,-0.70537984,-5.0861716,3.1439548,0.036314834,-4.103199,3.1634657,0.5770452,0
0.6300000000000003,15.419560072678431,-2.3328263312253594,1.1429936433494634,0.7262095399310835,19.06162,-3.2524815,1.9409301,0.19942418,9.794127,-10.816183,2.8294506,-0.4812073,0.34151953,-0.38523766,-0.7095037,-5.099276,3.2785563,0.012257199,-3.8270056,2.8484597,0.5843647,0
0.6400000000000003,15.419560072678431,-2.3328263312253594,1.1429936433494634,0.7262095399310835,17.960983,-2.8028288,0.9394311,0.2759343,9.74304,-10.782722,2.8294423,-0.4674385,0.35883456,-0.37951332,-0.7132379,-5.1193705,3.4136457,-0.0142930355,-3.5939,2.5825653,0.59132504,0
0.6500000000000004,15.419560072678431,-2.3328263312253594,1.1429936433494634,0.7262095399310835,17.960983,-2.8028288,0.9394311,0.2759343,9.691719,-10.74791,2.8291564,-0.4542601,0.37458372,-0.3738037,-0.7166626,-5.1459494,3.5488312,-0.04317417,-3.3971603,2.358126,0.5979439,0
0.6600000000000004,15.419560072678431,-2.3328263312253594,1.1429936433494634,0.7262095399310835,17.960983,-2.8028288,0.9394311,0.2759343,9.6401005,-10.711746,2.828571,-0.44158423,0.38900587,-0.36812153,-0.71983606,-5.1785765,3.6837935,-0.07423747,-3.2311132,2.1686783,0.6042379,0
0.6700000000000004,15.419560072678431,-2.3328263312253594,1.1429936433494634,0.7262095399310835,17.960983,-2.8028288,0.9394311,0.2759343,9.588128,-10.674236,2.8276649,-0.42933226,0.40230092,-0.36247277,-0.7228007,-5.216873,3.8182685,-0.10734902,-3.0909708,2.0087667,0.61022305,0
0.6800000000000004,13.583424082196657,-0.6558819841656749,-0.6783616992761341,0.44008318715724104,16.706995,-2.120196,0.17348312,0.5115565,9.535746,-10.635385,2.8264177,-0.41743472,0.41463622,-0.3568588,-0.725587,-5.2605124,3.9520335,-0.14239012,-2.972692,1.8737856,0.6159145,0
0.6900000000000004,13.583424082196657,-0.6558819841656749,-0.6783616992761341,0.44008318715724104,16.706995,-2.120196,0.17348312,0.5115565,9.482929,-10.595279,2.8247743,-0.40640068,0.4253618,-0.35145316,-0.7282762,-5.303361,4.069081,-0.18651527,-2.6112187,1.4759395,0.6072864,0
0.7000000000000004,13.583424082196657,-0.6558819841656749,-0.6783616992761341,0.44008318715724104,16.706995,-2.120196,0.17348312,0.5115565,9.429666,-10.554008,2.8226829,-0.3966511,0.43399283,-0.34641278,-0.7309692,-5.3500705,4.18523,-0.23191372,-2.3061461,1.1401106,0.5990817,0
0.7100000000000004,13.583424082196657,-0.6558819841656749,-0.6783616992761341,0.44008318715724104,16.706995,-2.120196,0.17348312,0.5115565,9.375917,-10.511579,2.8201325,-0.38800478,0.4408753,-0.34170637,-0.7337013,-5.400087,4.300423,-0.27825442,-2.0486734,0.8566319,0.5912796,0
0.7200000000000004,12.48709489061927,1.0053256139322715,-2.1238323312336895,0.18503503648189798,14.983582,-1.3441026,-0.5912118,0.46198168,9.321654,-10.468002,2.8171153,-0.38030222,0.44629565,-0.33730015,-0.7364907,-5.4529457,4.414636,-0.32524967,-1.8313733,0.61734295,0.5838604,0
0.7300000000000004,12.48709489061927,1.0053256139322715,-2.1238323312336895,0.18503503648189798,14.983582,-1.3441026,-0.5912118,0.46198168,9.266872,-10.423334,2.8136053,-0.37392145,0.4498263,-0.3334195,-0.73937136,-5.5037518,4.5187364,-0.3767195,-1.3888265,0.19004449,0.5642899,0
0.7400000000000004,12.48709489061927,1.0053256139322715,-2.1238323312336895,0.18503503648189798,14.983582,-1.3441026,-0.5912118,0.46198168,9.211574,-10.377629,2.8095803,-0.36915997,0.45114747,-0.33024558,-0.7423774,-5.556197,4.6220193,-0.42818642,-1.0153291,-0.17065346,0.54567975,0
0.7500000000000004,12.48709489061927,1.0053256139322715,-2.1238323312336895,0.18503503648189798,14.983582,-1.3441026,-0.5912118,0.46198168,9.155744,-10.330895,2.8050427,-0.36577582,0.4506165,-0.32768148,-0.7455046,-5.6097183,4.72459,-0.47930333,-0.7001063,-0.47513053,0.5279828,0
0.7600000000000005,11.918056661246085,2.1647068658957354,-3.3261976773378996,-0.05789653119554812,15.4306965,-0.45058802,-1.4754,-0.13756481,9.099376,-10.283139,2.7999969,-0.36355898,0.44852766,-0.32563832,-0.74873686,-5.6638403,4.826547,-0.5297775,-0.4340647,-0.73214823,0.51115423,0
0.7700000000000005,11.918056661246085,2.1647068658957354,-3.3261976773378996,-0.05789653119554812,15.4306965,-0.45058802,-1.4754,-0.13756481,9.0424795,-10.234389,2.7944393,-0.36271456,0.4446042,-0.3241959,-0.75210476,-5.715657,4.9233623,-0.58155626,-0.02867335,-1.136553,0.4832307,0
0.7800000000000005,11.918056661246085,2.1647068658957354,-3.3261976773378996,-0.05789653119554812,15.4306965,-0.45058802,-1.4754,-0.13756481,8.985065,-10.184673,2.7883697,-0.36339062,0.43863204,-0.3234076,-0.75561625,-5.767114,5.0197945,-0.6321511,0.31346518,-1.4779243,0.45667747,0
0.7900000000000005,11.918056661246085,2.1647068658957354,-3.3261976773378996,-0.05789653119554812,15.4306965,-0.45058802,-1.4754,-0.13756481,8.927141,-10.133993,2.7818012,-0.36534,0.43091592,-0.32316044,-0.7592132,-5.817706,5.1159434,-0.68126553,0.6022222,-1.7660855,0.43142718,0
0.8000000000000005,12.01930066327553,2.6510912692589117,-3.833547452895931,-0.23356799309854762,14.453651,0.049759783,-1.2895001,-0.382386,8.868716,-10.082354,2.7747502,-0.36835018,0.42170858,-0.3233545,-0.76283747,-5.8669934,5.211878,-0.7286621,0.845928,-2.0093288,0.40741593,0
0.8100000000000005,12.01930066327553,2.6510912692589117,-3.833547452895931,-0.23356799309854762,14.453651,0.049759783,-1.2895001,-0.382386,8.809805,-10.029752,2.7672367,-0.37240204,0.41100016,-0.32396626,-0.7664467,-5.9149857,5.3084536,-0.7737007,1.127471,-2.2937627,0.37596264,0
0.8200000000000005,12.01930066327553,2.6510912692589117,-3.833547452895931,-0.23356799309854762,14.453651,0.049759783,-1.2895001,-0.382386,8.750423,-9.976185,2.7592833,-0.37746575,0.39878815,-0.32496613,-0.76998943,-5.9608407,5.4048805,-0.816622,1.3650883,-2.5338593,0.34605283,0
0.8300000000000005,12.01930066327553,2.6510912692589117,-3.833547452895931,-0.23356799309854762,14.453651,0.049759783,-1.2895001,-0.382386,8.690596,-9.921656,2.7509122,-0.3833575,0.38527718,-0.32626432,-0.773401,-6.004158,5.5011535,-0.8572725,1.565635,-2.7365286,0.31761065,0
0.8400000000000005,12.01930066327553,2.6510912692589117,-3.833547452895931,-0.23356799309854762,13.767181,-0.16475216,-1.2091656,-0.32166672,8.630349,-9.866165,2.742146,-0.38992015,0.37064058,-0.3277833,-0.7766241,-6.044585,5.5972357,-0.89554745,1.7348957,-2.9076035,0.29056412,0
0.8500000000000005,12.01930066327553,2.6510912692589117,-3.833547452895931,-0.23356799309854762,13.767181,-0.16475216,-1.2091656,-0.32166672,8.5697155,-9.809713,2.7330093,-0.39701948,0.3550259,-0.32945666,-0.7796085,-6.08181,5.693061,-0.9313842,1.8777523,-3.0520084,0.2648448,0
0.8600000000000005,12.01930066327553,2.6510912692589117,-3.833547452895931,-0.23356799309854762,13.767181,-0.16475216,-1.2091656,-0.32166672,8.508726,-9.752305,2.7235267,-0.40454087,0.33855963,-0.33122787,-0.7823114,-6.1155577,5.788541,-0.9647573,1.9983246,-3.1739,0.24038753,0
0.8700000000000006,12.01930066327553,2.6510912692589117,-3.833547452895931,-0.23356799309854762,13.767181,-0.16475216,-1.2091656,-0.32166672,8.447417,-9.693944,2.7137225,-0.41238648,0.3213507,-0.3330489,-0.7846964,-6.145585,5.883564,-0.99567354,2.1000896,-3.2767873,0.2171304,0
0.8800000000000006,12.128262119330987,2.3231924682152307,-3.669617627802383,-0.30904100779658705,12.105014,-0.8718678,-0.7486924,-0.14002916,8.385828,-9.634637,2.7036214,-0.42047274,0.30349338,-0.33487928,-0.78673327,-6.1716805,5.9780025,-1.0241678,2.185982,-3.3636332,0.1950145,0
0.8900000000000006,12.128262119330987,2.3231924682152307,-3.669617627802383,-0.30904100779658705,12.105014,-0.8718678,-0.7486924,-0.14002916,8.3239975,-9.574384,2.6932504,-0.42867523,0.28518045,-0.33660707,-0.7884188,-6.1938653,6.0725636,-1.0496477,2.2073312,-3.4113843,0.17028035,0
0.9000000000000006,12.128262119330987,2.3231924682152307,-3.669617627802383,-0.30904100779658705,12.105014,-0.8718678,-0.7486924,-0.14002916,8.261966,-9.513188,2.6826363,-0.43689758,0.2665751,-0.33814463,-0.78975654,-6.2117944,6.1662292,-1.0728287,2.225351,-3.4516876,0.14675991,0
0.9100000000000006,12.128262119330987,2.3231924682152307,-3.669617627802383,-0.30904100779658705,12.105014,-0.8718678,-0.7486924,-0.14002916,8.199777,-9.451062,2.6718016,-0.44511086,0.24771343,-0.3394934,-0.79073226,-6.225391,6.2588334,-1.0938107,2.240562,-3.485705,0.12439363,0
0.9200000000000006,12.292150347575493,1.4661696381021514,-2.985142112507802,-0.2802121410899712,11.977628,-1.2208529,-0.3890206,-0.06843439,8.137473,-9.388017,2.6607673,-0.4532897,0.22862755,-0.34065503,-0.7913349,-6.2345924,6.3502073,-1.1127048,2.2534018,-3.5144157,0.10312486,0
0.9300000000000006,12.292150347575493,1.4661696381021514,-2.985142112507802,-0.2802121410899712,11.977628,-1.2208529,-0.3890206,-0.06843439,8.075099,-9.324057,2.6495595,-0.4612417,0.2097193,-0.34148753,-0.79161805,-6.2394357,6.4414024,-1.1285385,2.130586,-3.4319103,0.08431439,0
0.9400000000000006,12.292150347575493,1.4661696381021514,-2.985142112507802,-0.2802121410899712,11.977628,-1.2208529,-0.3890206,-0.06843439,8.012699,-9.259193,2.6382027,-0.46882948,0.19131745,-0.34188905,-0.7916485,-6.2399173,6.5310326,-1.1425319,2.0269275,-3.3622665,0.06642696,0
0.9500000000000006,12.292150347575493,1.4661696381021514,-2.985142112507802,-0.2802121410899712,11.977628,-1.2208529,-0.3890206,-0.06843439,7.9503155,-9.193441,2.6267145,-0.4761045,0.17334856,-0.34191465,-0.7914342,-6.236191,6.6189666,-1.1548319,1.9394385,-3.3034794,0.049417283,0
0.9600000000000006,11.996941035856628,0.26722707260927486,-2.1253169592061623,-0.1297909208497558,11.279171,-1.651277,0.2945381,0.053134646,7.8879895,-9.12682,2.6151114,-0.48310792,0.15574984,-0.34161052,-0.7909804,-6.2283916,6.7050824,-1.1655751,1.8655965,-3.2538571,0.033242278,0
0.9700000000000006,11.996941035856628,0.26722707260927486,-2.1253169592061623,-0.1297909208497558,11.279171,-1.651277,0.2945381,0.053134646,7.8257604,-9.059357,2.6033974,-0.48967165,0.13896732,-0.34080803,-0.7904168,-6.2169557,6.787252,-1.1770233,1.6163117,-3.077876,0.025242204,0
0.9800000000000006,11.996941035856628,0.26722707260927486,-2.1253169592061623,-0.1297909208497558,11.279171,-1.651277,0.2945381,0.053134646,7.763663,-8.991081,2.5915754,-0.495682,0.12335687,-0.3393867,-0.7898722,-6.2020063,6.867479,-1.1871936,1.4059058,-2.9293354,0.017634684,0
0.9900000000000007,11.996941035856628,0.26722707260927486,-2.1253169592061623,-0.1297909208497558,11.279171,-1.651277,0.2945381,0.053134646,7.701731,-8.922014,2.5796576,-0.5012387,0.1087455,-0.337445,-0.78934413,-6.1838737,6.9457216,-1.1961827,1.2283151,-2.803957,0.010400454,0
1.0000000000000007,11.748398301567592,-0.9625699131517816,-1.080125218573504,0.11683433689198991,11.201698,-2.0611894,0.91619235,0.4244196,7.6399956,-8.852175,2.5676553,-0.5064217,0.09498496,-0.33506435,-0.78882563,-6.1628375,7.0219507,-1.2040708,1.078421,-2.6981292,0.0035212121,0
1.0100000000000007,11.748398301567592,-0.9625699131517816,-1.080125218573504,0.11683433689198991,11.201698,-2.0611894,0.91619235,0.4244196,7.5784817,-8.7815895,2.5555701,-0.51108927,0.08251873,-0.33214113,-0.78845406,-6.1396604,7.094615,-1.2128158,0.7601379,-2.4458,0.009081523,0
1.0200000000000007,11.748398301567592,-0.9625699131517816,-1.080125218573504,0.11683433689198991,11.201698,-2.0611894,0.91619235,0.4244196,7.51721,-8.710287,2.5434024,-0.5151441,0.071692914,-0.3286039,-0.788356,-6.114319,7.1653414,-1.2205976,0.49148914,-2.2328236,0.014368984,0
1.0300000000000007,11.748398301567592,-0.9625699131517816,-1.080125218573504,0.11683433689198991,11.201698,-2.0611894,0.91619235,0.4244196,7.456201,-8.638288,2.5311615,-0.5186998,0.06225788,-0.32455555,-0.78850317,-6.087225,7.2341986,-1.2274476,0.26473454,-2.0530622,0.01939698,0
1.0400000000000007,11.748398301567592,-0.9625699131517816,-1.080125218573504,0.11683433689198991,10.953857,-2.6807272,1.7046207,0.7801867,7.3954706,-8.56561,2.5188565,-0.5218466,0.05400101,-0.32008013,-0.788865,-6.0587254,7.30125,-1.2333853,0.07334125,-1.9013354,0.024178244,0
1.0500000000000007,11.748398301567592,-0.9625699131517816,-1.080125218573504,0.11683433689198991,10.953857,-2.6807272,1.7046207,0.7801867,7.33503,-8.49227,2.5064967,-0.5246563,0.046741623,-0.3152465,-0.78941107,-6.029111,7.366554,-1.2384236,-0.08820525,-1.7732707,0.02872492,0
1.0600000000000007,11.748398301567592,-0.9625699131517816,-1.080125218573504,0.11683433689198991,10.953857,-2.6807272,1.7046207,0.7801867,7.2748914,-8.418285,2.494091,-0.5271863,0.04032634,-0.31011134,-0.790113,-5.9986267,7.4301605,-1.2425716,-0.22455934,-1.6651783,0.033048477,0
1.0700000000000007,11.748398301567592,-0.9625699131517816,-1.080125218573504,0.11683433689198991,10.953857,-2.6807272,1.7046207,0.7801867,7.2150607,-8.343673,2.4816482,-0.52948254,0.03462509,-0.30472156,-0.79094446,-5.96748,7.4921145,-1.2458363,-0.33964935,-1.5739429,0.037159886,0
1.0800000000000007,11.772688468530403,-1.9887874754575585,-0.06793579370296367,0.4449347591119152,11.945923,-2.531131,2.8313444,0.5996846,7.155544,-8.268449,2.4691772,-0.5315821,0.029527659,-0.29911616,-0.791882,-5.935847,7.552453,-1.2482244,-0.43679166,-1.4969357,0.041069537,0
1.0900000000000007,11.772688468530403,-1.9887874754575585,-0.06793579370296367,0.4449347591119152,11.945923,-2.531131,2.8313444,0.5996846,7.0963454,-8.192628,2.4566877,-0.5333516,0.02546813,-0.29321927,-0.79303783,-5.9038353,7.6113405,-1.2495416,-0.6788138,-1.2740989,0.06088733,0
1.1000000000000008,11.772688468530403,-1.9887874754575585,-0.06793579370296367,0.4449347591119152,11.945923,-2.531131,2.8313444,0.5996846,7.0374675,-8.116225,2.4441895,-0.53468704,0.022785433,-0.28697315,-0.79450375,-5.87182,7.6687574,-1.2499803,-0.8830973,-1.0860171,0.07973265,0
1.1100000000000008,11.772688468530403,-1.9887874754575585,-0.06793579370296367,0.4449347591119152,11.945923,-2.531131,2.8313444,0.5996846,6.978908,-8.039256,2.4316914,-0.53565305,0.021264933,-0.28043088,-0.7962294,-5.8401155,7.7248163,-1.2495329,-1.0555263,-0.92726916,0.09765322,0
1.1200000000000008,12.136299194570674,-2.8889483572799173,0.8293416720897246,0.763883030086805,12.246538,-3.002352,3.7661667,1.1093874,6.9206634,-7.9617333,2.419202,-0.536301,0.02072506,-0.27363616,-0.7981692,-5.808988,7.779611,-1.2481946,-1.2010674,-0.7932791,0.11469443,0
1.1300000000000008,12.136299194570674,-2.8889483572799173,0.8293416720897246,0.763883030086805,12.246538,-3.002352,3.7661667,1.1093874,6.8627305,-7.8836603,2.4067461,-0.53653514,0.021481618,-0.26653045,-0.8003932,-5.7777514,7.834885,-1.2428646,-1.464299,-0.540282,0.14655028,0
1.1400000000000008,12.136299194570674,-2.8889483572799173,0.8293416720897246,0.763883030086805,12.246538,-3.002352,3.7661667,1.1093874,6.8051043,-7.80504,2.3943481,-0.5362753,0.023776425,-0.25906694,-0.8029489,-5.7477303,7.8890815,-1.2366087,-1.6864859,-0.32674414,0.17684297,0
1.1500000000000008,12.136299194570674,-2.8889483572799173,0.8293416720897246,0.763883030086805,12.246538,-3.002352,3.7661667,1.1093874,6.7477703,-7.7258816,2.3820171,-0.53557783,0.027367854,-0.25129372,-0.80576545,-5.7192836,7.94233,-1.2294282,-1.874027,-0.14650993,0.2056492,0
1.1600000000000008,12.93832244154518,-3.5177185443264194,1.3573624264056563,1.0669916063592373,13.162071,-3.3675127,4.0240865,1.3341796,6.690712,-7.646196,2.3697627,-0.5344872,0.03205148,-0.24325089,-0.8087795,-5.6927166,7.994732,-1.221336,-2.0323236,0.005616285,0.23304188,0
1.1700000000000008,12.93832244154518,-3.5177185443264194,1.3573624264056563,1.0669916063592373,13.162071,-3.3675127,4.0240865,1.3341796,6.6339164,-7.565973,2.3576288,-0.53294826,0.03795068,-0.23488192,-0.81200707,-5.6666946,8.049782,-1.2052795,-2.2640078,0.21632515,0.27396405,0
1.1800000000000008,12.93832244154518,-3.5177185443264194,1.3573624264056563,1.0669916063592373,13.162071,-3.3675127,4.0240865,1.3341796,6.5773683,-7.4852033,2.3456602,-0.5309092,0.045152895,-0.22614105,-0.81544834,-5.64333,8.104114,-1.1883081,-2.459565,0.39417237,0.31287813,0
1.1900000000000008,12.93832244154518,-3.5177185443264194,1.3573624264056563,1.0669916063592373,13.162071,-3.3675127,4.0240865,1.3341796,6.5210395,-7.4038935,2.333866,-0.52840614,0.05344964,-0.21707407,-0.8190288,-5.622963,8.157804,-1.1704699,-2.6246269,0.54428464,0.34988266,0
1.2000000000000008,13.874388977694547,-3.7659519008201054,1.5559121204194246,1.2880763568683467,14.886786,-3.84114,3.9415054,1.7564013,6.464898,-7.3220496,2.3222537,-0.5254684,0.06266409,-0.20772026,-0.8226832,-5.6058846,8.210901,-1.1518309,-2.763948,0.6709887,0.3850714,0
1.2100000000000009,13.874388977694547,-3.7659519008201054,1.5559121204194246,1.2880763568683467,14.886786,-3.84114,3.9415054,1.7564013,6.408915,-7.2396584,2.310874,-0.5220742,0.07275798,-0.19807495,-0.8263838,-5.5913687,8.267233,-1.1239763,-2.9202678,0.80886877,0.42938212,0
1.2200000000000009,13.874388977694547,-3.7659519008201054,1.5559121204194246,1.2880763568683467,14.886786,-3.84114,3.9415054,1.7564013,6.353057,-7.156707,2.2997763,-0.5182015,0.083691455,-0.1881361,-0.83010054,-5.5809274,8.322973,-1.0954572,-3.0522094,0.9252493,0.4715185,0
1.2300000000000009,13.874388977694547,-3.7659519008201054,1.5559121204194246,1.2880763568683467,14.886786,-3.84114,3.9415054,1.7564013,6.2972813,-7.073201,2.2889667,-0.51387215,0.095323354,-0.17793939,-0.83377784,-5.574808,8.378118,-1.0663959,-3.163574,1.0234843,0.5115872,0
1.2400000000000009,13.874388977694547,-3.7659519008201054,1.5559121204194246,1.2880763568683467,15.766569,-3.8671012,3.5174143,1.5796484,6.2415447,-6.989147,2.2784498,-0.50910544,0.107533455,-0.16751622,-0.8373682,-5.573217,8.432639,-1.0369306,-3.2575696,1.1064042,0.54968977,0
1.2500000000000009,13.874388977694547,-3.7659519008201054,1.5559121204194246,1.2880763568683467,15.766569,-3.8671012,3.5174143,1.5796484,6.1858006,-6.9045506,2.2682292,-0.50391847,0.120219275,-0.15689449,-0.8408309,-5.5763245,8.486497,-1.0072116,-3.336904,1.1763976,0.5859226,0
1.260000000000001,13.874388977694547,-3.7659519008201054,1.5559121204194246,1.2880763568683467,15.766569,-3.8671012,3.5174143,1.5796484,6.1300015,-6.819419,2.2583063,-0.49832666,0.13329329,-0.14609909,-0.84413123,-5.584268,8.539634,-0.9774,-3.4038641,1.2354808,0.6203775,0
1.270000000000001,13.874388977694547,-3.7659519008201054,1.5559121204194246,1.2880763568683467,15.766569,-3.8671012,3.5174143,1.5796484,6.074098,-6.73376,2.2486808,-0.49234426,0.14668067,-0.13515234,-0.84723955,-5.5971565,8.591979,-0.9476651,-3.4603791,1.2853552,0.6531417,0
1.280000000000001,14.264159083207392,-3.5828746600469663,1.4311655570319466,1.3292897051367902,15.912432,-3.2865224,2.4265876,1.7108399,6.0180407,-6.647582,2.239352,-0.48598456,0.16031727,-0.12407435,-0.8501307,-5.6150723,8.643453,-0.9181828,-3.5080779,1.3274571,0.68429804,0
1.290000000000001,14.264159083207392,-3.5828746600469663,1.4311655570319466,1.3292897051367902,15.912432,-3.2865224,2.4265876,1.7108399,5.961776,-6.5608873,2.2303338,-0.47927427,0.17406967,-0.112922505,-0.85278577,-5.6387134,8.695387,-0.8855605,-3.5197773,1.3435525,0.715948,0
1.300000000000001,14.264159083207392,-3.5828746600469663,1.4311655570319466,1.3292897051367902,15.912432,-3.2865224,2.4265876,1.7108399,5.905248,-6.473679,2.221639,-0.47223845,0.18782955,-0.10174563,-0.8551946,-5.6675777,8.746238,-0.853563,-3.5296504,1.3571419,0.7460449,0
1.310000000000001,14.264159083207392,-3.5828746600469663,1.4311655570319466,1.3292897051367902,15.912432,-3.2865224,2.4265876,1.7108399,5.848407,-6.3859673,2.2132597,-0.46488687,0.20157965,-0.09054922,-0.85734814,-5.70164,8.795907,-0.82236826,-3.537982,1.3686157,0.77466476,0
1.320000000000001,14.743156349152393,-3.1105547116936476,0.812074279403404,1.3012852272489408,16.128654,-2.9667819,1.594493,1.7128931,5.7911983,-6.2977653,2.205188,-0.45722896,0.21530461,-0.07933871,-0.85923815,-5.7408633,8.844291,-0.79215276,-3.5450125,1.3783039,0.80188036,0
1.330000000000001,14.743156349152393,-3.1105547116936476,0.812074279403404,1.3012852272489408,16.128654,-2.9667819,1.594493,1.7128931,5.7335644,-6.209078,2.1974342,-0.44933864,0.22869289,-0.0681689,-0.86089873,-5.786671,8.89286,-0.75881314,-3.4772334,1.2899805,0.82638633,0
1.340000000000001,14.743156349152393,-3.1105547116936476,0.812074279403404,1.3012852272489408,16.128654,-2.9667819,1.594493,1.7128931,5.675447,-6.119913,2.1900074,-0.44128212,0.24150056,-0.05708748,-0.8623734,-5.8375673,8.939851,-0.72677803,-3.4200287,1.21543,0.8496897,0
1.350000000000001,14.743156349152393,-3.1105547116936476,0.812074279403404,1.3012852272489408,16.128654,-2.9667819,1.594493,1.7128931,5.616796,-6.0302863,2.182894,-0.4330573,0.25380594,-0.046089116,-0.86366606,-5.8933516,8.985127,-0.69614565,-3.3717482,1.1525048,0.87184966,0
1.360000000000001,14.49157743956207,-2.33960177047595,-0.19078702184081003,1.1125647318242329,15.786797,-2.550383,0.93513036,1.5413659,5.557564,-5.9402165,2.1760793,-0.42466307,0.26567474,-0.035169,-0.8647778,-5.953837,9.028566,-0.6670112,-3.331,1.0993922,0.89292216,0
1.370000000000001,14.49157743956207,-2.33960177047595,-0.19078702184081003,1.1125647318242329,15.786797,-2.550383,0.93513036,1.5413659,5.4977098,-5.8497257,2.1695375,-0.4162173,0.27668673,-0.024414638,-0.8658007,-6.0177126,9.069339,-0.6415953,-3.1762817,0.89825696,0.90370005,0
1.380000000000001,14.49157743956207,-2.33960177047595,-0.19078702184081003,1.1125647318242329,15.786797,-2.550383,0.93513036,1.5413659,5.4371953,-5.7588367,2.163242,-0.40782338,0.28651896,-0.013898383,-0.8668294,-6.085671,9.108048,-0.61770284,-3.045707,0.7284776,0.9139491,0
1.390000000000001,14.49157743956207,-2.33960177047595,-0.19078702184081003,1.1125647318242329,15.786797,-2.550383,0.93513036,1.5413659,5.375983,-5.6675725,2.1571784,-0.39946035,0.29535216,-0.0035945892,-0.86786234,-6.1573606,9.144568,-0.5952789,-2.935509,0.58516556,0.9236952,0
1.400000000000001,14.159451180140522,-1.4953222842964164,-1.2008856813851083,0.8082714006624895,15.821781,-1.773597,0.17052339,1.3099862,5.3140364,-5.575954,2.1513314,-0.39111,0.30333796,0.0065197125,-0.8688935,-6.232476,9.178791,-0.5742757,-2.8425078,0.4641948,0.93296313,0
1.410000000000001,14.159451180140522,-1.4953222842964164,-1.2008856813851083,0.8082714006624895,15.821781,-1.773597,0.17052339,1.3099862,5.2513313,-5.4840083,2.1456742,-0.38289037,0.3101219,0.0163395,-0.87002975,-6.308931,9.209894,-0.557332,-2.6322563,0.20466457,0.9268445,0
1.420000000000001,14.159451180140522,-1.4953222842964164,-1.2008856813851083,0.8082714006624895,15.821781,-1.773597,0.17052339,1.3099862,5.1878486,-5.3917637,2.1401806,-0.37490186,0.31543526,0.025781434,-0.871369,-6.388039,9.238573,-0.5415579,-2.4548197,-0.014413957,0.921026,0
1.430000000000001,14.159451180140522,-1.4953222842964164,-1.2008856813851083,0.8082714006624895,15.821781,-1.773597,0.17052339,1.3099862,5.1235633,-5.299245,2.1348395,-0.36710495,0.3195093,0.03489484,-0.8728857,-6.469402,9.264753,-0.52677417,-2.3050766,-0.19934547,0.9154931,0
1.440000000000001,14.159451180140522,-1.4953222842964164,-1.2008856813851083,0.8082714006624895,15.987289,-1.1768615,-0.17002083,0.92897075,5.0584545,-5.206477,2.1296422,-0.3594651,0.32253724,0.043722786,-0.87455255,-6.552678,9.288378,-0.5128246,-2.1787043,-0.3554522,0.9102317,0
1.450000000000001,14.159451180140522,-1.4953222842964164,-1.2008856813851083,0.8082714006624895,15.987289,-1.1768615,-0.17002083,0.92897075,4.9925046,-5.1134863,2.1245806,-0.3519525,0.324681,0.052302755,-0.87634206,-6.637575,9.309401,-0.49957523,-2.0720546,-0.4872271,0.9052285,0
1.460000000000001,14.159451180140522,-1.4953222842964164,-1.2008856813851083,0.8082714006624895,15.987289,-1.1768615,-0.17002083,0.92897075,4.9256988,-5.020298,2.1196485,-0.34454176,0.32607606,0.06066727,-0.8782279,-6.723841,9.327788,-0.48691258,-1.9820497,-0.5984625,0.90047085,0
1.470000000000001,14.159451180140522,-1.4953222842964164,-1.2008856813851083,0.8082714006624895,15.987289,-1.1768615,-0.17002083,0.92897075,4.858024,-4.9269395,2.1148407,-0.3372115,0.32683605,0.068844475,-0.8801854,-6.811256,9.3435135,-0.47474173,-1.9060917,-0.69236,0.89594656,0
1.480000000000001,14.185715338010828,-0.6711201643819187,-1.7548668441190163,0.47418327558985895,16.439466,-0.69442916,-0.96647835,0.54108256,4.78947,-4.8334374,2.1101525,-0.3299437,0.3270563,0.07685868,-0.8821924,-6.8996277,9.356555,-0.46298432,-1.8419882,-0.7716215,0.8916443,0
1.490000000000001,14.185715338010828,-0.6711201643819187,-1.7548668441190163,0.47418327558985895,16.439466,-0.69442916,-0.96647835,0.54108256,4.7200284,-4.7398176,2.105581,-0.32285064,0.32651037,0.08452572,-0.8843151,-6.988934,9.366925,-0.45135862,-1.6593153,-0.9248297,0.8711593,0
1.500000000000001,14.185715338010828,-0.6711201643819187,-1.7548668441190163,0.47418327558985895,16.439466,-0.69442916,-0.96647835,0.54108256,4.6496906,-4.646108,2.1011245,-0.31602547,0.32502562,0.09170085,-0.88660955,-7.0787354,9.374637,-0.43991846,-1.5051467,-1.0541669,0.85167956,0
1.5100000000000011,14.185715338010828,-0.6711201643819187,-1.7548668441190163,0.47418327558985895,16.439466,-0.69442916,-0.96647835,0.54108256,4.578453,-4.5523343,2.0967824,-0.3094281,0.32274708,0.09845692,-0.8890411,-7.1687603,9.379743,-0.42850864,-1.3750342,-1.1633519,0.8331557,0
1.5200000000000011,13.238872751877102,0.08381150884466146,-2.330620505878434,0.11213608173703969,15.547739,-0.20469764,-1.598721,0.17373791,4.506315,-4.4585223,2.0925548,-0.30302432,0.31979603,0.10485593,-0.891578,-7.2587733,9.38229,-0.41699982,-1.2652236,-1.255524,0.8155408,0
1.5300000000000011,13.238872751877102,0.08381150884466146,-2.330620505878434,0.11213608173703969,15.547739,-0.20469764,-1.598721,0.17373791,4.433308,-4.364697,2.0884066,-0.2968969,0.31597292,0.11076451,-0.894284,-7.3425617,9.382328,-0.41260153,-1.0547851,-1.4230491,0.78102446,0
1.5400000000000011,13.238872751877102,0.08381150884466146,-2.330620505878434,0.11213608173703969,15.547739,-0.20469764,-1.598721,0.17373791,4.359466,-4.270883,2.084304,-0.29111278,0.31112483,0.11607927,-0.89720654,-7.4258575,9.380105,-0.4078269,-0.8771831,-1.564475,0.7482019,0
1.5500000000000012,13.238872751877102,0.08381150884466146,-2.330620505878434,0.11213608173703969,15.547739,-0.20469764,-1.598721,0.17373791,4.284794,-4.1771026,2.080252,-0.28562355,0.30540714,0.120889485,-0.9002948,-7.5083914,9.375709,-0.40250936,-0.72729254,-1.6838671,0.71698993,0
1.5600000000000012,12.391114095193593,0.6830453049465918,-2.734880226033472,-0.24877662102618547,14.12182,0.24644217,-1.6751847,-0.14060912,4.2093015,-4.0833764,2.0762563,-0.28038794,0.29894996,0.12527078,-0.9035032,-7.589929,9.369212,-0.39651456,-0.60078865,-1.7846571,0.6873096,0
1.5700000000000012,12.391114095193593,0.6830453049465918,-2.734880226033472,-0.24877662102618547,14.12182,0.24644217,-1.6751847,-0.14060912,4.133025,-3.9897225,2.072291,-0.27546185,0.29164365,0.12912847,-0.9068571,-7.6651106,9.36124,-0.39644286,-0.40056682,-1.932742,0.64137566,0
1.5800000000000012,12.391114095193593,0.6830453049465918,-2.734880226033472,-0.24877662102618547,14.12182,0.24644217,-1.6751847,-0.14060912,4.056004,-3.8961575,2.0683305,-0.2708901,0.28340548,0.13239023,-0.91036904,-7.7389126,9.351473,-0.39549106,-0.23158431,-2.0577576,0.59769565,0
1.5900000000000012,12.391114095193593,0.6830453049465918,-2.734880226033472,-0.24877662102618547,14.12182,0.24644217,-1.6751847,-0.14060912,3.9782526,-3.8026989,2.0643845,-0.26662508,0.27437207,0.13514532,-0.9139835,-7.811099,9.340009,-0.39353547,-0.08896573,-2.1632965,0.556159,0
1.6000000000000012,11.864098740220355,0.9666841153248867,-2.9401962171686864,-0.5882855499852356,13.14285,0.25627407,-2.1272442,-0.23644027,3.8997884,-3.709363,2.0604634,-0.26262647,0.26465836,0.13746913,-0.91765165,-7.8814616,9.326937,-0.39048377,0.03140346,-2.2523918,0.51666063,0
1.6100000000000012,11.864098740220355,0.9666841153248867,-2.9401962171686864,-0.5882855499852356,13.14285,0.25627407,-2.1272442,-0.23644027,3.8206449,-3.6161623,2.0565572,-0.25891662,0.25425026,0.13935333,-0.921357,-7.946903,9.312963,-0.39061853,0.17721279,-2.3596113,0.4624406,0
1.6200000000000012,11.864098740220355,0.9666841153248867,-2.9401962171686864,-0.5882855499852356,13.14285,0.25627407,-2.1272442,-0.23644027,3.7408576,-3.5231085,2.0526555,-0.25551474,0.24314027,0.14079443,-0.92507887,-8.010223,9.297616,-0.38957176,0.30027553,-2.450126,0.41088116,0
1.6300000000000012,11.864098740220355,0.9666841153248867,-2.9401962171686864,-0.5882855499852356,13.14285,0.25627407,-2.1272442,-0.23644027,3.6604486,-3.4302144,2.0487702,-0.25238466,0.23142704,0.14185749,-0.9287728,-8.071239,9.280982,-0.38729566,0.40414134,-2.526537,0.36185172,0
1.6400000000000012,11.864098740220355,0.9666841153248867,-2.9401962171686864,-0.5882855499852356,12.753019,0.4934648,-2.1626956,-0.4245673,3.5794413,-3.337493,2.044914,-0.2494954,0.21919428,0.14259732,-0.93240064,-8.129788,9.263135,-0.3837664,0.491806,-2.591041,0.3152282,1
1.6500000000000012,11.864098740220355,0.9666841153248867,-2.9401962171686864,-0.5882855499852356,12.753019,0.4934648,-2.1626956,-0.4245673,3.4978406,-3.2449627,2.0411377,-0.24680586,0.20685425,0.14315553,-0.9358438,-8.189934,9.242722,-0.3712819,0.4919912,-2.5242522,0.2789262,1
1.6600000000000013,11.864098740220355,0.9666841153248867,-2.9401962171686864,-0.5882855499852356,12.753019,0.4934648,-2.1626956,-0.4245673,3.4156525,-3.1526425,2.0374925,-0.24428481,0.19474152,0.14364976,-0.9390231,-8.247272,9.221148,-0.3575336,0.49215508,-2.4678788,0.24440558,1
1.6700000000000013,11.864098740220355,0.9666841153248867,-2.9401962171686864,-0.5882855499852356,12.753019,0.4934648,-2.1626956,-0.4245673,3.3329046,-3.0605435,2.0339906,-0.24192016,0.1828167,0.14408973,-0.9419606,-8.301822,9.198473,-0.34261444,0.49229988,-2.4202962,0.21157889,1
1.6800000000000013,11.423597181017358,1.1479969109090462,-2.4164643143076425,-0.8095072673706292,12.68018,0.58080256,-2.07998,-0.63536197,3.2496254,-2.9686766,2.0306437,-0.23970073,0.17104669,0.14448322,-0.9446745,-8.353598,9.174749,-0.32661062,0.4924275,-2.3801336,0.18036301,0
1.6900000000000013,11.423597181017358,1.1479969109090462,-2.4164643143076425,-0.8095072673706292,12.68018,0.58080256,-2.07998,-0.63536197,3.165868,-2.877039,2.027402,-0.2376901,0.15923794,0.14462088,-0.9472224,-8.3974905,9.152611,-0.32159638,0.5945883,-2.3858063,0.1317898,0
1.7000000000000013,11.423597181017358,1.1479969109090462,-2.4164643143076425,-0.8095072673706292,12.68018,0.58080256,-2.07998,-0.63536197,3.081684,-2.785627,2.0242145,-0.235939,0.14723435,0.14433548,-0.9496425,-8.43884,9.12968,-0.3157079,0.68082047,-2.3906004,0.08560008,0
1.7100000000000013,11.423597181017358,1.1479969109090462,-2.4164643143076425,-0.8095072673706292,12.68018,0.58080256,-2.07998,-0.63536197,2.9970999,-2.6944478,2.0210905,-0.23442064,0.13506094,0.14368951,-0.9519231,-8.477574,9.106054,-0.30897126,0.7536078,-2.3946512,0.0416769,0
1.7200000000000013,10.874248385629047,1.1927056855905607,-1.918227624745252,-0.9825974204981722,12.095218,0.7909267,-2.0570605,-0.7260737,2.9121418,-2.603508,2.018038,-0.23311187,0.12273923,0.14273553,-0.95405406,-8.513631,9.081821,-0.30142123,0.8150475,-2.3980734,-9.094365e-05,0
1.7300000000000013,10.874248385629047,1.1927056855905607,-1.918227624745252,-0.9825974204981722,12.095218,0.7909267,-2.0570605,-0.7260737,2.8268447,-2.5128071,2.0150392,-0.23204386,0.11047119,0.14145704,-0.9560023,-8.545359,9.058253,-0.29821873,0.87386984,-2.3232691,-0.048302818,0
1.7400000000000013,10.874248385629047,1.1927056855905607,-1.918227624745252,-0.9825974204981722,12.095218,0.7909267,-2.0570605,-0.7260737,2.7412434,-2.4223442,2.012076,-0.23124349,0.098418966,0.13984422,-0.9577487,-8.574499,9.034282,-0.29433575,0.9235266,-2.260132,-0.09414893,0
1.7500000000000013,10.874248385629047,1.1927056855905607,-1.918227624745252,-0.9825974204981722,12.095218,0.7909267,-2.0570605,-0.7260737,2.6553636,-2.3321226,2.0091548,-0.23068587,0.08654606,0.13794662,-0.9593036,-8.601073,9.01,-0.2898269,0.9654454,-2.2068424,-0.13774535,0
1.7600000000000013,10.632184020149625,1.0563680341812605,-1.2920535605853392,-1.0619498009449773,10.956504,0.90567356,-1.5145442,-0.8948459,2.5692308,-2.2421448,2.0062814,-0.23034917,0.07482187,0.13580582,-0.96067506,-8.625097,8.985487,-0.28474578,1.000832,-2.1618633,-0.17920248,1
1.7700000000000014,10.632184020149625,1.0563680341812605,-1.2920535605853392,-1.0619498009449773,10.956504,0.90567356,-1.5145442,-0.8948459,2.4828694,-2.152414,2.0034654,-0.23021773,0.063404076,0.13352935,-0.9618464,-8.646755,8.960622,-0.27836338,0.9859565,-2.060935,-0.2143193,1
1.7800000000000014,10.632184020149625,1.0563680341812605,-1.2920535605853392,-1.0619498009449773,10.956504,0.90567356,-1.5145442,-0.8948459,2.3963041,-2.0629327,2.0007157,-0.2302783,0.052417297,0.13120507,-0.9628128,-8.66594,8.93564,-0.27152637,0.9734052,-1.975745,-0.24771294,1
1.7900000000000014,10.632184020149625,1.0563680341812605,-1.2920535605853392,-1.0619498009449773,10.956504,0.90567356,-1.5145442,-0.8948459,2.3095589,-1.9737015,1.9980364,-0.23051572,0.04179326,0.12883852,-0.9635951,-8.682735,8.91058,-0.26429847,0.9628147,-1.9038391,-0.2794679,1
1.8000000000000014,10.434437845959412,0.8011719162625222,-0.7447487319263578,-1.0644112186170418,11.708424,0.60523474,-1.4131107,-0.7793009,2.2226572,-1.8847212,1.9954311,-0.23091623,0.03147434,0.12643425,-0.96420974,-8.6972065,8.885473,-0.25673702,0.9538783,-1.843146,-0.3096647,0
1.8100000000000014,10.434437845959412,0.8011719162625222,-0.7447487319263578,-1.0644112186170418,11.708424,0.60523474,-1.4131107,-0.7793009,2.1356254,-1.795986,1.9928775,-0.23152548,0.021716153,0.12396579,-0.96465313,-8.708844,8.86155,-0.25394276,0.93005747,-1.6718693,-0.3467003,0
1.8200000000000014,10.434437845959412,0.8011719162625222,-0.7447487319263578,-1.0644112186170418,11.708424,0.60523474,-1.4131107,-0.7793009,2.0484874,-1.70749,1.990353,-0.23238228,0.01271883,0.1214128,-0.9649324,-8.718477,8.837667,-0.2509277,0.90995526,-1.5273015,-0.3819186,0
1.8300000000000014,10.434437845959412,0.8011719162625222,-0.7447487319263578,-1.0644112186170418,11.708424,0.60523474,-1.4131107,-0.7793009,1.9612625,-1.6192323,1.9878595,-0.23346512,0.0043627196,0.11878663,-0.9650718,-8.726248,8.813877,-0.24773045,0.89299005,-1.405278,-0.41540873,0
1.8400000000000014,10.434437845959412,0.8011719162625222,-0.7447487319263578,-1.0644112186170418,11.704927,0.41448018,-1.0864184,-0.7400876,1.8739685,-1.531212,1.9853988,-0.23475468,-0.0034532365,0.116096705,-0.96509004,-8.732278,8.790223,-0.24438272,0.8786719,-1.302283,-0.4472555,0
1.8500000000000014,10.434437845959412,0.8011719162625222,-0.7447487319263578,-1.0644112186170418,11.704927,0.41448018,-1.0864184,-0.7400876,1.7866226,-1.4434273,1.9829723,-0.23623367,-0.010814331,0.113350846,-0.96500117,-8.736671,8.766741,-0.24091086,0.8665869,-1.2153494,-0.4775395,0
1.8600000000000014,10.434437845959412,0.8011719162625222,-0.7447487319263578,-1.0644112186170418,11.704927,0.41448018,-1.0864184,-0.7400876,1.6992406,-1.3558766,1.9805809,-0.23788658,-0.017792497,0.11055562,-0.964816,-8.739512,8.74346,-0.23733737,0.8563867,-1.1419723,-0.50633746,0
1.8700000000000014,10.434437845959412,0.8011719162625222,-0.7447487319263578,-1.0644112186170418,11.704927,0.41448018,-1.0864184,-0.7400876,1.6118375,-1.2685574,1.9782257,-0.23969947,-0.024448369,0.107716545,-0.9645427,-8.740874,8.720404,-0.23368195,0.8477771,-1.0800378,-0.53372234,0
1.8800000000000014,10.301626787817366,0.5142861728085036,0.18622568013046586,-0.9527227326670725,11.468258,0.33654043,-0.59867775,-0.65844345,1.5244279,-1.1814677,1.9759074,-0.2416598,-0.030833025,0.10483829,-0.9641877,-8.740817,8.697593,-0.2299622,0.84050965,-1.0277615,-0.55976343,0
1.8900000000000015,10.301626787817366,0.5142861728085036,0.18622568013046586,-0.9527227326670725,11.468258,0.33654043,-0.59867775,-0.65844345,1.4370257,-1.0946033,1.9736203,-0.24378584,-0.036601074,0.101945676,-0.96376085,-8.739431,8.675332,-0.22748987,0.78969353,-0.8384321,-0.579046,0
1.9000000000000015,10.301626787817366,0.5142861728085036,0.18622568013046586,-0.9527227326670725,11.468258,0.33654043,-0.59867775,-0.65844345,1.3496432,-1.0079601,1.971358,-0.24608965,-0.041480895,0.09905839,-0.96327865,-8.736872,8.653368,-0.2249755,0.7467959,-0.67863,-0.5973825,0
1.9100000000000015,10.301626787817366,0.5142861728085036,0.18622568013046586,-0.9527227326670725,11.468258,0.33654043,-0.59867775,-0.65844345,1.2622916,-0.92153484,1.969121,-0.24855211,-0.045611527,0.09617322,-0.9627519,-8.733308,8.631734,-0.22241989,0.7105823,-0.54375017,-0.61481917,0
1.9200000000000015,10.27949553324772,0.19202792124292895,0.8979770844563696,-0.793230433430714,11.446224,0.060471512,-0.02765419,-0.48422906,1.1749799,-0.8353241,1.9669096,-0.25115636,-0.049110275,0.09328754,-0.9621877,-8.728882,8.610461,-0.21982153,0.680011,-0.42990613,-0.63140017,0
1.9300000000000015,10.27949553324772,0.19202792124292895,0.8979770844563696,-0.793230433430714,11.446224,0.060471512,-0.02765419,-0.48422906,1.0877163,-0.749324,1.9647236,-0.25390154,-0.051767778,0.09045248,-0.9615984,-8.723736,8.589622,-0.2173931,0.6039942,-0.2227954,-0.6393412,0
1.9400000000000015,10.27949553324772,0.19202792124292895,0.8979770844563696,-0.793230433430714,11.446224,0.060471512,-0.02765419,-0.48422906,1.0005071,-0.6635303,1.9625618,-0.25678298,-0.053422853,0.08770799,-0.9609968,-8.718054,8.569199,-0.2149079,0.5398206,-0.047987577,-0.6468926,0
1.9500000000000015,10.27949553324772,0.19202792124292895,0.8979770844563696,-0.793230433430714,11.446224,0.060471512,-0.02765419,-0.48422906,0.9133565,-0.57793856,1.9604255,-0.25978157,-0.054231692,0.08503725,-0.9603855,-8.712027,8.549221,-0.2123533,0.48564512,0.09955564,-0.6540735,0
1.9600000000000015,10.291425589781088,-0.11449895352873632,1.3376712446623895,-0.6007149621549421,11.510605,-0.10222646,0.6306866,-0.2962638,0.8262672,-0.49254426,1.958315,-0.26288062,-0.054326084,0.08242627,-0.9597643,-8.705813,8.529715,-0.20971759,0.4399097,0.22408652,-0.66090196,0
1.9700000000000015,10.291425589781088,-0.11449895352873632,1.3376712446623895,-0.6007149621549421,11.510605,-0.10222646,0.6306866,-0.2962638,0.7392404,-0.40734267,1.956232,-0.26606402,-0.053614035,0.07993596,-0.95913756,-8.699551,8.510681,-0.20687304,0.35352376,0.3977874,-0.65794855,0
1.9800000000000015,10.291425589781088,-0.11449895352873632,1.3376712446623895,-0.6007149621549421,11.510605,-0.10222646,0.6306866,-0.2962638,0.65227574,-0.3223289,1.9541779,-0.26931402,-0.05202783,0.07761363,-0.9585084,-8.693423,8.492157,-0.20392518,0.28059766,0.54439354,-0.65514004,0
1.9900000000000015,10.291425589781088,-0.11449895352873632,1.3376712446623895,-0.6007149621549421,11.510605,-0.10222646,0.6306866,-0.2962638,0.565371,-0.23749772,1.9521537,-0.27261528,-0.049702816,0.075430445,-0.95787257,-8.687598,8.474161,-0.2008644,0.21903414,0.66813135,-0.6524694,0
2.0000000000000013,,,,,11.194387,-0.570223,0.622315,-0.10264793,0.4785223,-0.15284382,1.9501609,-0.27595484,-0.04675331,0.073362336,-0.9572252,-8.682219,8.456705,-0.19768427,0.167063,0.77256817,-0.64992976,1
2.010000000000001,,,,,11.194387,-0.570223,0.622315,-0.10264793,0.39172685,-0.068369195,1.9482449,-0.27925065,-0.043494783,0.071646065,-0.9565528,-8.676973,8.438309,-0.18548733,0.05206044,0.74918604,-0.6230745,1
2.020000000000001,,,,,11.194387,-0.570223,0.622315,-0.10264793,0.30498052,0.01592409,1.9464515,-0.28242993,-0.040181074,0.070469834,-0.9558514,-8.672395,8.420419,-0.17317736,-0.045004565,0.7294393,-0.59753704,1
2.0300000000000007,,,,,11.194387,-0.570223,0.622315,-0.10264793,0.21827649,0.100040585,1.9447819,-0.28549543,-0.036818467,0.06974946,-0.9551287,-8.668522,8.402937,-0.16077523,-0.12692998,0.7127634,-0.57325274,1
2.0400000000000005,,,,,11.194387,-0.570223,0.622315,-0.10264793,0.13160752,0.18398395,1.9432365,-0.28845027,-0.033412546,0.06941377,-0.9543903,-8.665389,8.385778,-0.14829887,-0.19607711,0.69868106,-0.55016005,1
2.0500000000000003,,,,,11.187045,-0.61439323,0.41509375,0.1286954,0.04496605,0.26775706,1.9418161,-0.29129782,-0.029968232,0.069402665,-0.9536403,-8.663025,8.368875,-0.13576415,-0.25443912,0.68678916,-0.5282005,1
2.06,,,,,11.187045,-0.61439323,0.41509375,0.1286954,-0.04165572,0.35136217,1.940521,-0.29400912,-0.02656178,0.069707245,-0.95288664,-8.661453,8.352176,-0.12325845,-0.31060192,0.6444311,-0.49596643,1
2.07,,,,,11.187045,-0.61439323,0.41509375,0.1286954,-0.12826572,0.43480098,1.9393511,-0.29655838,-0.023253608,0.07031812,-0.952138,-8.660672,8.335603,-0.110725254,-0.35800186,0.60867435,-0.46531412,1
2.0799999999999996,,,,,11.187045,-0.61439323,0.41509375,0.1286954,-0.21487188,0.51807445,1.9383066,-0.29895347,-0.020026486,0.07118757,-0.9513974,-8.66068,8.319096,-0.098179705,-0.39800614,0.5784901,-0.43616587,1
2.0899999999999994,,,,,10.569173,-0.47166958,0.7158316,0.39265248,-0.30148205,0.601183,1.9373875,-0.3012021,-0.016866008,0.07227522,-0.9506672,-8.661473,8.302599,-0.08563522,-0.43176883,0.5530103,-0.40844798,1
2.099999999999999,,,,,10.569173,-0.47166958,0.7158316,0.39265248,-0.38810366,0.68413097,1.9365633,-0.3032882,-0.013660654,0.07345677,-0.9499646,-8.662967,8.286989,-0.079213455,-0.43799946,0.5783926,-0.36913776,1
2.109999999999999,,,,,10.569173,-0.47166958,0.7158316,0.39265248,-0.474744,0.7669228,1.9358032,-0.30519614,-0.010321391,0.074631564,-0.94930387,-8.665223,8.271356,-0.072808914,-0.44325978,0.59981656,-0.3317565,1
2.1199999999999988,,,,,10.569173,-0.47166958,0.7158316,0.39265248,-0.56141084,0.8495582,1.935107,-0.30693355,-0.006867418,0.0757999,-0.9486822,-8.668264,8.255712,-0.06642595,-0.44770065,0.6178996,-0.29620954,1
2.1299999999999986,,,,,10.301689,-0.29675344,0.6954593,0.61959183,-0.64811206,0.93203706,1.9344746,-0.30850783,-0.003315012,0.07696201,-0.94809693,-8.672109,8.240067,-0.060069524,-0.4514497,0.63316274,-0.26240686,1
2.1399999999999983,,,,,10.301689,-0.29675344,0.6954593,0.61959183,-0.73485523,1.0143615,1.9338924,-0.3098988,0.0002948179,0.07805432,-0.9475596,-8.676652,8.22483,-0.056387406,-0.42734122,0.64286166,-0.21912692,1
2.149999999999998,,,,,10.301689,-0.29675344,0.6954593,0.61959183,-0.8216479,1.0965338,1.9333466,-0.31108823,0.003929033,0.07902641,-0.9470811,-8.681991,8.209627,-0.052738637,-0.40699244,0.65105045,-0.17797075,1
2.159999999999998,,,,,10.301689,-0.29675344,0.6954593,0.61959183,-0.9084978,1.1785543,1.9328371,-0.31208614,0.007585609,0.07989612,-0.9466575,-8.688117,8.194486,-0.049125392,-0.38981667,0.6579641,-0.13883412,1
2.1699999999999977,,,,,10.82062,-0.30131128,0.3850995,0.76645786,-0.99541295,1.2604237,1.9323637,-0.31290174,0.011262771,0.08067847,-0.9462852,-8.695027,8.179422,-0.04555039,-0.3753192,0.66380095,-0.101617925,1
