time-since-start [s],throttle_mpc,roll_mpc,pitch_mpc,yaw_mpc,throttle_nw,roll_nw,pitch_nw,yaw_nw,position_x [m],position_y [m],position_z [m],rotation_w [quaternion],rotation_x [quaternion],rotation_y [quaternion],rotation_z [quaternion],velocity_x [m/s],velocity_y [m/s],velocity_z [m/s],omega_x [rad/s],omega_y [rad/s],omega_z [rad/s],network_used
0.0,10.268194143669117,5.999999549813319,-5.999999817882816,-2.455250111979493,14.3629055,-0.43994197,-1.6756327,-0.39316002,14.639783,-11.364639,2.5943658,-0.2731518,0.32165623,-0.36064142,-0.8317831,-9.3537445,-1.5256376,1.1111474,1.1815052,-0.4159298,-0.28763238,0
0.01,10.268194143669117,5.999999549813319,-5.999999817882816,-2.455250111979493,10.25379,-1.2160344,-2.8160114,-0.112955004,14.546005,-11.379337,2.6053693,-0.2778144,0.3177077,-0.36483994,-0.8299234,-9.401432,-1.4143804,1.0891844,1.5132151,-0.8672824,-0.35645702,0
0.02,10.268194143669117,5.999999549813319,-5.999999817882816,-2.455250111979493,10.25379,-1.2160344,-2.8160114,-0.112955004,14.451767,-11.392934,2.6161425,-0.28405192,0.3115997,-0.36964518,-0.8279992,-9.445717,-1.3051307,1.0651554,1.8324863,-1.2875968,-0.42542085,0
0.03,10.268194143669117,5.999999549813319,-5.999999817882816,-2.455250111979493,10.25379,-1.2160344,-2.8160114,-0.112955004,14.357105,-11.405447,2.6266663,-0.29177612,0.30345204,-0.37501422,-0.8259224,-9.486072,-1.197744,1.0393603,2.1396217,-1.6800714,-0.49437028,0
0.04,10.268194143669117,5.999999549813319,-5.999999817882816,-2.455250111979493,10.406012,-0.81491315,-3.3839197,0.016884413,14.262061,-11.416894,2.6369245,-0.30089757,0.29336774,-0.38089663,-0.823598,-9.5220375,-1.0921252,1.0120398,2.4349906,-2.0475202,-0.5631696,0
0.05,10.268194143669117,5.999999549813319,-5.999999817882816,-2.455250111979493,10.406012,-0.81491315,-3.3839197,0.016884413,14.16668,-11.427294,2.6469028,-0.3113257,0.28143585,-0.38723585,-0.8209253,-9.553211,-0.98823035,0.9833806,2.7190092,-2.3924224,-0.63169885,0
0.060000000000000005,10.268194143669117,5.999999549813319,-5.999999817882816,-2.455250111979493,10.406012,-0.81491315,-3.3839197,0.016884413,14.071014,-11.436665,2.656588,-0.3229684,0.26773447,-0.39397028,-0.8178,-9.5792465,-0.8860677,0.9535203,2.9921231,-2.716966,-0.69985276,0
0.07,10.268194143669117,5.999999549813319,-5.999999817882816,-2.455250111979493,10.406012,-0.81491315,-3.3839197,0.016884413,13.975115,-11.445023,2.6659694,-0.33573195,0.2523331,-0.40103418,-0.81411505,-9.599844,-0.78569674,0.92255104,3.2547941,-3.0230825,-0.7675387,0
0.08,12.116800660847236,5.999999660844059,-5.999999848858742,-2.6034648773321,10.008472,-0.7513398,-2.9918344,0.27050516,13.879037,-11.452386,2.6750355,-0.3495208,0.23529495,-0.40835822,-0.8097622,-9.614754,-0.68722653,0.8905242,3.5074914,-3.3124838,-0.83467585,0
0.09,12.116800660847236,5.999999660844059,-5.999999848858742,-2.6034648773321,10.008472,-0.7513398,-2.9918344,0.27050516,13.782833,-11.458709,2.6838202,-0.36430353,0.21660317,-0.415897,-0.8046089,-9.624977,-0.5778499,0.866198,3.7798796,-3.6159635,-0.91107684,0
0.09999999999999999,12.116800660847236,5.999999660844059,-5.999999848858742,-2.6034648773321,10.008472,-0.7513398,-2.9918344,0.27050516,13.686561,-11.46395,2.6923556,-0.38003963,0.1962395,-0.42359665,-0.79851466,-9.628292,-0.47101304,0.840685,4.042264,-3.904628,-0.9866343,0
0.10999999999999999,12.116800660847236,5.999999660844059,-5.999999848858742,-2.6034648773321,10.008472,-0.7513398,-2.9918344,0.27050516,13.590291,-11.468138,2.7006295,-0.3966153,0.17426117,-0.4313706,-0.7913587,-9.624523,-0.367,0.81392825,4.295147,-4.1797266,-1.0612948,0
0.11999999999999998,12.116800660847236,5.999999660844059,-5.999999848858742,-2.6034648773321,10.008472,-0.7513398,-2.9918344,0.27050516,13.494096,-11.471301,2.7086296,-0.4139128,0.15072607,-0.43912983,-0.7830215,-9.613559,-0.26614293,0.78583616,4.539013,-4.4423733,-1.1350129,0
0.12999999999999998,15.144165619092243,5.422724846688927,-5.999999618736733,-2.5511793497348916,12.122492,-0.7160969,-3.0963497,0.26635513,13.398046,-11.473472,2.7163427,-0.43180272,0.12570786,-0.44677925,-0.77339,-9.595221,-0.16817066,0.75674284,4.7656517,-4.6848726,-1.2069951,0
0.13999999999999999,15.144165619092243,5.422724846688927,-5.999999618736733,-2.5511793497348916,12.122492,-0.7160969,-3.0963497,0.26635513,13.302248,-11.47455,2.7238503,-0.45006815,0.0994841,-0.45402107,-0.7625,-9.562521,-0.048018157,0.7447851,4.867751,-4.8902555,-1.2729546,0
0.15,15.144165619092243,5.422724846688927,-5.999999618736733,-2.5511793497348916,12.122492,-0.7160969,-3.0963497,0.26635513,13.206827,-11.4744425,2.7312374,-0.46850073,0.0723527,-0.46060598,-0.75040925,-9.519856,0.06916262,0.73255855,4.9539485,-5.063593,-1.3356775,0
0.16,14.974447964781314,3.274187078094546,-4.964172341661226,-1.0088054507443516,12.929947,-0.47240558,-1.7271595,0.2822933,13.111884,-11.473181,2.7384999,-0.48695037,0.04448452,-0.46649525,-0.7370769,-9.467199,0.18258673,0.71982616,5.0267243,-5.209884,-1.3953226,0
0.17,14.974447964781314,3.274187078094546,-4.964172341661226,-1.0088054507443516,12.929947,-0.47240558,-1.7271595,0.2822933,13.017513,-11.470813,2.7456264,-0.50492823,0.016672112,-0.47125074,-0.72297436,-9.405393,0.29025885,0.70539904,4.7535157,-5.171258,-1.3763561,0
0.18000000000000002,14.974447964781314,3.274187078094546,-4.964172341661226,-1.0088054507443516,12.929947,-0.47240558,-1.7271595,0.2822933,12.923807,-11.467394,2.752605,-0.5220865,-0.01044335,-0.4745843,-0.7085802,-9.334399,0.39280403,0.690121,4.522905,-5.138703,-1.3583204,0
0.19000000000000003,14.974447964781314,3.274187078094546,-4.964172341661226,-1.0088054507443516,12.929947,-0.47240558,-1.7271595,0.2822933,12.830853,-11.462976,2.7594259,-0.53848565,-0.03692878,-0.47666472,-0.69387305,-9.254881,0.48967767,0.67392176,4.3282495,-5.111264,-1.3411696,0
0.20000000000000004,13.722961368567761,1.8313576048886353,-3.2740669570483942,-0.7432940402031948,13.197961,-1.0139885,-0.4633558,0.57695776,12.738736,-11.457621,2.76608,-0.55417067,-0.06284195,-0.47763202,-0.6788321,-9.167474,0.5803999,0.65672386,4.1639433,-5.0881376,-1.3248605,0
0.21000000000000005,13.722961368567761,1.8313576048886353,-3.2740669570483942,-0.7432940402031948,13.197961,-1.0139885,-0.4633558,0.57695776,12.64749,-11.451426,2.7725232,-0.56888086,-0.08747052,-0.47759917,-0.66379386,-9.080745,0.65755117,0.6317792,3.8005114,-4.8048496,-1.2963228,0
0.22000000000000006,13.722961368567761,1.8313576048886353,-3.2740669570483942,-0.7432940402031948,13.197961,-1.0139885,-0.4633558,0.57695776,12.55714,-11.4444895,2.778712,-0.5824625,-0.110264525,-0.47671488,-0.64909315,-8.988176,0.72863185,0.6058268,3.4937057,-4.5658035,-1.2691855,0
0.23000000000000007,13.722961368567761,1.8313576048886353,-3.2740669570483942,-0.7432940402031948,13.197961,-1.0139885,-0.4633558,0.57695776,12.467743,-11.436873,2.7846365,-0.59508306,-0.13149078,-0.47512513,-0.6346986,-8.890529,0.79367375,0.5788731,3.2347038,-4.3640885,-1.2433798,0
0.24000000000000007,13.722961368567761,1.8313576048886353,-3.2740669570483942,-0.7432940402031948,14.189316,-1.63317,1.4360172,0.7834396,12.379345,-11.428637,2.7902863,-0.606876,-0.15137714,-0.4729443,-0.6205724,-8.788461,0.85272753,0.55093235,3.0160577,-4.1938744,-1.2188405,0
0.25000000000000006,13.722961368567761,1.8313576048886353,-3.2740669570483942,-0.7432940402031948,14.189316,-1.63317,1.4360172,0.7834396,12.291987,-11.419839,2.795652,-0.61794806,-0.17011741,-0.47026193,-0.60667443,-8.682544,0.9058531,0.5220217,2.83148,-4.050241,-1.1955053,0
0.26000000000000006,13.722961368567761,1.8313576048886353,-3.2740669570483942,-0.7432940402031948,14.189316,-1.63317,1.4360172,0.7834396,12.205706,-11.410539,2.8007233,-0.6283845,-0.18787585,-0.46714836,-0.59296536,-8.573278,0.9531133,0.49215788,2.6756628,-3.9290369,-1.173315,0
0.2700000000000001,13.722961368567761,1.8313576048886353,-3.2740669570483942,-0.7432940402031948,14.189316,-1.63317,1.4360172,0.7834396,12.120532,-11.400796,2.8054917,-0.63825357,-0.20479132,-0.46365893,-0.5794076,-8.461113,0.9945705,0.46135506,2.5441246,-3.826759,-1.1522138,0
0.2800000000000001,12.62276338883258,0.2808543469513952,-1.31383826932678,-0.3482937818212888,13.725758,-2.6371772,2.2160118,0.16345546,12.036492,-11.390667,2.8099475,-0.64760995,-0.22098085,-0.45983726,-0.56596667,-8.346446,1.0302844,0.42962414,2.4330828,-3.7404516,-1.1321481,0
0.2900000000000001,12.62276338883258,0.2808543469513952,-1.31383826932678,-0.3482937818212888,13.725758,-2.6371772,2.2160118,0.16345546,11.953563,-11.380221,2.8140552,-0.65625983,-0.23572446,-0.4558759,-0.55311286,-8.239023,1.0579549,0.3917382,2.097808,-3.3617222,-1.0936842,0
0.3000000000000001,12.62276338883258,0.2808543469513952,-1.31383826932678,-0.3482937818212888,13.725758,-2.6371772,2.2160118,0.16345546,11.8717165,-11.369525,2.81778,-0.66409576,-0.24847779,-0.45196557,-0.54125994,-8.13007,1.080835,0.35311416,1.8147556,-3.0421104,-1.0571077,0
0.3100000000000001,12.62276338883258,0.2808543469513952,-1.31383826932678,-0.3482937818212888,13.725758,-2.6371772,2.2160118,0.16345546,11.790965,-11.358621,2.8211155,-0.6712656,-0.25956595,-0.4481263,-0.5302927,-8.0199585,1.0993699,0.31387055,1.5757933,-2.7723868,-1.022326,0
0.3200000000000001,12.102952896176895,-1.8388909035134466,0.9746420568292886,0.36569741023626606,14.184412,-2.8208973,2.9113479,-0.05762336,11.71132,-11.347551,2.8240557,-0.67788535,-0.2692612,-0.44436592,-0.52010405,-7.9089837,1.1139476,0.2741165,1.3740548,-2.5447626,-0.9892511,0
0.3300000000000001,12.102952896176895,-1.8388909035134466,0.9746420568292886,0.36569741023626606,14.184412,-2.8208973,2.9113479,-0.05762336,11.632764,-11.336357,2.8265843,-0.68383265,-0.27678326,-0.44085,-0.5112872,-7.8019905,1.1245145,0.23158696,0.87343925,-1.9955518,-0.9227634,0
0.34000000000000014,12.102952896176895,-1.8388909035134466,0.9746420568292886,0.36569741023626606,14.184412,-2.8208973,2.9113479,-0.05762336,11.555281,-11.325071,2.828687,-0.689039,-0.28154197,-0.43772984,-0.5043326,-7.6946893,1.1323558,0.18891734,0.45079544,-1.5320784,-0.85953826,0
0.35000000000000014,12.102952896176895,-1.8388909035134466,0.9746420568292886,0.36569741023626606,14.184412,-2.8208973,2.9113479,-0.05762336,11.47887,-11.313717,2.830363,-0.6936452,-0.28399688,-0.43497333,-0.49899858,-7.5873137,1.1381799,0.14635558,0.093984544,-1.1409525,-0.7994155,0
0.36000000000000015,13.13969516605008,-4.05038979039183,3.256841886017115,0.5839960456967541,14.573932,-2.8091512,3.8039172,-0.6335036,11.403533,-11.302313,2.831615,-0.6977535,-0.2845287,-0.43253988,-0.49506766,-7.4800367,1.1425916,0.10411449,-0.2072437,-0.81087697,-0.7422431,0
0.37000000000000016,13.13969516605008,-4.05038979039183,3.256841886017115,0.5839960456967541,14.573932,-2.8091512,3.8039172,-0.6335036,11.329314,-11.290867,2.8324711,-0.70128226,-0.2823953,-0.43058,-0.49300724,-7.363834,1.1464752,0.067226656,-0.8062643,-0.1762618,-0.67716414,0
0.38000000000000017,13.13969516605008,-4.05038979039183,3.256841886017115,0.5839960456967541,14.573932,-2.8091512,3.8039172,-0.6335036,11.256255,-11.279383,2.8329625,-0.7041534,-0.27701813,-0.42920467,-0.4931647,-7.2481084,1.15038,0.031234216,-1.311961,0.35930002,-0.61527866,0
0.3900000000000002,13.13969516605008,-4.05038979039183,3.256841886017115,0.5839960456967541,14.573932,-2.8091512,3.8039172,-0.6335036,11.184349,-11.267856,2.8330998,-0.70642245,-0.26890185,-0.42830804,-0.49518734,-7.133075,1.155229,-0.0035519619,-1.7388668,0.8112755,-0.5564299,0
0.4000000000000002,16.267570756887963,-5.7818488971057045,5.075381239861837,1.0092064200228836,16.597454,-2.8016248,4.849913,-0.62234825,11.11359,-11.256272,2.8328962,-0.7081161,-0.25846496,-0.4277871,-0.49876332,-7.018937,1.1618042,-0.036892675,-2.0992522,1.1927148,-0.50046885,0
0.4100000000000002,16.267570756887963,-5.7818488971057045,5.075381239861837,1.0092064200228836,16.597454,-2.8016248,4.849913,-0.62234825,11.044101,-11.2446,2.8324459,-0.7090763,-0.24522203,-0.42769775,-0.5041338,-6.8790073,1.1729674,-0.052792367,-2.6734393,1.798274,-0.42638862,0
0.4200000000000002,16.267570756887963,-5.7818488971057045,5.075381239861837,1.0092064200228836,16.597454,-2.8016248,4.849913,-0.62234825,10.976003,-11.232798,2.8318477,-0.7091233,-0.22879227,-0.42804983,-0.51144,-6.740853,1.1882874,-0.066396825,-3.1581569,2.3093276,-0.35594356,0
0.4300000000000002,16.267570756887963,-5.7818488971057045,5.075381239861837,1.0092064200228836,16.597454,-2.8016248,4.849913,-0.62234825,10.909276,-11.220817,2.8311262,-0.7082257,-0.20963879,-0.42868477,-0.52028507,-6.604945,1.2088429,-0.077511676,-3.567339,2.7406323,-0.28895524,0
0.4400000000000002,16.267570756887963,-5.7818488971057045,5.075381239861837,1.0092064200228836,18.49165,-3.282948,4.744011,-0.38757756,10.843895,-11.2086,2.8303065,-0.70634377,-0.18815465,-0.4294596,-0.5303208,-6.471801,1.2355236,-0.086059816,-3.9127502,3.1046383,-0.22525412,0
0.45000000000000023,16.267570756887963,-5.7818488971057045,5.075381239861837,1.0092064200228836,18.49165,-3.282948,4.744011,-0.38757756,10.779829,-11.196082,2.8294137,-0.7034369,-0.16467717,-0.43024823,-0.54124284,-6.3419795,1.2690469,-0.09207013,-4.204324,3.411852,-0.16467878,0
0.46000000000000024,16.267570756887963,-5.7818488971057045,5.075381239861837,1.0092064200228836,18.49165,-3.282948,4.744011,-0.38757756,10.717042,-11.183192,2.828473,-0.6994686,-0.13949873,-0.43094137,-0.5527863,-6.2160788,1.3099726,-0.09566591,-4.4504476,3.6711383,-0.107075885,0
0.47000000000000025,16.267570756887963,-5.7818488971057045,5.075381239861837,1.0092064200228836,18.49165,-3.282948,4.744011,-0.38757756,10.655492,-11.169854,2.8275077,-0.69440836,-0.112874985,-0.43144578,-0.5647213,-6.0947237,1.3587148,-0.09705351,-4.658202,3.8899777,-0.052299596,0
0.48000000000000026,18.743418064010225,-5.99999589926052,5.713772238374524,1.5901725238573001,17.837023,-3.5959642,4.1076584,-0.19021991,10.59513,-11.15599,2.8265383,-0.68823296,-0.08503133,-0.4316828,-0.57684875,-5.978557,1.4155515,-0.09651123,-4.833566,4.074683,-0.0002111923,0
0.49000000000000027,18.743418064010225,-5.99999589926052,5.713772238374524,1.5901725238573001,17.837023,-3.5959642,4.1076584,-0.19021991,10.535986,-11.141466,2.825659,-0.6807777,-0.055990208,-0.43170366,-0.5890994,-5.8514423,1.49056,-0.07913038,-5.01569,4.3300433,0.077829406,0
0.5000000000000002,18.743418064010225,-5.99999589926052,5.713772238374524,1.5901725238573001,17.837023,-3.5959642,4.1076584,-0.19021991,10.478076,-11.126145,2.8249605,-0.67189246,-0.025790548,-0.43153626,-0.6013911,-5.731855,1.5752586,-0.06042247,-5.169422,4.5455775,0.15204051,0
0.5100000000000002,18.743418064010225,-5.99999589926052,5.713772238374524,1.5901725238573001,17.837023,-3.5959642,4.1076584,-0.19021991,10.421321,-11.109929,2.8244534,-0.66158515,0.0053540943,-0.43108967,-0.61354506,-5.620597,1.6696926,-0.040955096,-5.299185,4.7275004,0.22261007,0
0.5200000000000002,19.456359793675546,-5.5668754385379975,4.7475967073323995,1.2243890452756627,18.251331,-3.546033,3.6074944,0.25234184,10.365633,-11.092718,2.824142,-0.64986926,0.037251316,-0.43028906,-0.6254064,-5.5184526,1.7737461,-0.021339998,-5.408711,4.881057,0.28971675,0
0.5300000000000002,19.456359793675546,-5.5668754385379975,4.7475967073323995,1.2243890452756627,18.251331,-3.546033,3.6074944,0.25234184,10.310936,-11.074399,2.8240473,-0.6369726,0.06939166,-0.42893496,-0.63676137,-5.422646,1.8914394,0.002250827,-5.433518,4.860077,0.33558142,0
0.5400000000000003,19.456359793675546,-5.5668754385379975,4.7475967073323995,1.2243890452756627,18.251331,-3.546033,3.6074944,0.25234184,10.257143,-11.054857,2.8241837,-0.62311924,0.101355,-0.42689124,-0.64746654,-5.3376656,2.0182204,0.024749653,-5.454449,4.842376,0.37919545,0
0.5500000000000003,19.456359793675546,-5.5668754385379975,4.7475967073323995,1.2243890452756627,18.251331,-3.546033,3.6074944,0.25234184,10.204144,-11.034005,2.824537,-0.60832244,0.13309973,-0.42418674,-0.65749025,-5.2640142,2.153374,0.04559584,-5.472109,4.8274436,0.42066935,0
0.5600000000000003,18.022473459652232,-4.128828535528784,3.1172775337943053,1.0149361773773613,19.459883,-3.3298302,2.5608983,-0.11632183,10.151822,-11.011763,2.825088,-0.5925987,0.16458525,-0.42084748,-0.6668024,-5.2021337,2.2961397,0.06423495,-5.487008,4.8148465,0.4601081,0
0.5700000000000003,18.022473459652232,-4.128828535528784,3.1172775337943053,1.0149361773773613,19.459883,-3.3298302,2.5608983,-0.11632183,10.1000395,-10.988113,2.8257701,-0.5763712,0.19501159,-0.41690373,-0.6752463,-5.1560106,2.4346573,0.07174456,-5.275202,4.550081,0.4873337,0
0.5800000000000003,18.022473459652232,-4.128828535528784,3.1172775337943053,1.0149361773773613,19.459883,-3.3298302,2.5608983,-0.11632183,10.048663,-10.963051,2.8265133,-0.56004685,0.22376116,-0.41243172,-0.6827724,-5.1209903,2.578473,0.07640412,-5.0964284,4.3266068,0.51322323,0
0.5900000000000003,18.022473459652232,-4.128828535528784,3.1172775337943053,1.0149361773773613,19.459883,-3.3298302,2.5608983,-0.11632183,9.9975815,-10.936528,2.8272877,-0.54361296,0.25104487,-0.4075088,-0.6894908,-5.0968437,2.7266345,0.07797891,-4.945535,4.137984,0.53784245,0
0.6000000000000003,15.419560072678431,-2.3328263312253594,1.1429936433494656,0.7262095399310851,18.930086,-2.8052552,2.0684137,0.06868288,9.946689,-10.908506,2.8280616,-0.5270538,0.27704135,-0.40219522,-0.6954862,-5.0833416,2.8782835,0.07626865,-4.8181753,3.978776,0.56125355,0
0.6100000000000003,15.419560072678431,-2.3328263312253594,1.1429936433494656,0.7262095399310851,18.930086,-2.8052552,2.0684137,0.06868288,9.895875,-10.8790655,2.8287337,-0.5109097,0.30099595,-0.3966258,-0.700757,-5.080638,3.010327,0.057709284,-4.430444,3.5366554,0.569348,0
0.6200000000000003,15.419560072678431,-2.3328263312253594,1.1429936433494656,0.7262095399310851,18.930086,-2.8052552,2.0684137,0.06868288,9.845048,-10.848295,2.8292058,-0.4956632,0.32235345,-0.39095414,-0.70537984,-5.0861716,3.1439548,0.036314834,-4.103199,3.1634657,0.5770452,0
0.6300000000000003,15.419560072678431,-2.3328263312253594,1.1429936433494656,0.7262095399310851,18.930086,-2.8052552,2.0684137,0.06868288,9.794127,-10.816183,2.8294506,-0.4812073,0.34151953,-0.38523766,-0.7095037,-5.099276,3.2785563,0.012257199,-3.8270056,2.8484597,0.5843647,0
0.6400000000000003,15.419560072678431,-2.3328263312253594,1.1429936433494656,0.7262095399310851,17.945646,-2.246011,1.0761662,0.1468459,9.74304,-10.782722,2.8294423,-0.4674385,0.35883456,-0.37951332,-0.7132379,-5.1193705,3.4136457,-0.0142930355,-3.5939,2.5825653,0.59132504,0
0.6500000000000004,15.419560072678431,-2.3328263312253594,1.1429936433494656,0.7262095399310851,17.945646,-2.246011,1.0761662,0.1468459,9.691719,-10.74791,2.8291564,-0.4542601,0.37458372,-0.3738037,-0.7166626,-5.1459494,3.5488312,-0.04317417,-3.3971603,2.358126,0.5979439,0
0.6600000000000004,15.419560072678431,-2.3328263312253594,1.1429936433494656,0.7262095399310851,17.945646,-2.246011,1.0761662,0.1468459,9.6401005,-10.711746,2.828571,-0.44158423,0.38900587,-0.36812153,-0.71983606,-5.1785765,3.6837935,-0.07423747,-3.2311132,2.1686783,0.6042379,0
0.6700000000000004,15.419560072678431,-2.3328263312253594,1.1429936433494656,0.7262095399310851,17.945646,-2.246011,1.0761662,0.1468459,9.588128,-10.674236,2.8276649,-0.42933226,0.40230092,-0.36247277,-0.7228007,-5.216873,3.8182685,-0.10734902,-3.0909708,2.0087667,0.61022305,0
0.6800000000000004,13.583424082196652,-0.6558819841656737,-0.6783616992761344,0.4400831871572396,16.292074,-2.057173,0.07900332,0.49972418,9.535746,-10.635385,2.8264177,-0.41743472,0.41463622,-0.3568588,-0.725587,-5.2605124,3.9520335,-0.14239012,-2.972692,1.8737856,0.6159145,0
0.6900000000000004,13.583424082196652,-0.6558819841656737,-0.6783616992761344,0.4400831871572396,16.292074,-2.057173,0.07900332,0.49972418,9.482929,-10.595279,2.8247743,-0.40640068,0.4253618,-0.35145316,-0.7282762,-5.303361,4.069081,-0.18651527,-2.6112187,1.4759395,0.6072864,0
0.7000000000000004,13.583424082196652,-0.6558819841656737,-0.6783616992761344,0.4400831871572396,16.292074,-2.057173,0.07900332,0.49972418,9.429666,-10.554008,2.8226829,-0.3966511,0.43399283,-0.34641278,-0.7309692,-5.3500705,4.18523,-0.23191372,-2.3061461,1.1401106,0.5990817,0
0.7100000000000004,13.583424082196652,-0.6558819841656737,-0.6783616992761344,0.4400831871572396,16.292074,-2.057173,0.07900332,0.49972418,9.375917,-10.511579,2.8201325,-0.38800478,0.4408753,-0.34170637,-0.7337013,-5.400087,4.300423,-0.27825442,-2.0486734,0.8566319,0.5912796,0
0.7200000000000004,12.48709489061927,1.0053256139322695,-2.123832331233688,0.18503503648189773,14.883337,-1.3905482,-0.78641057,0.43243536,9.321654,-10.468002,2.8171153,-0.38030222,0.44629565,-0.33730015,-0.7364907,-5.4529457,4.414636,-0.32524967,-1.8313733,0.61734295,0.5838604,0
0.7300000000000004,12.48709489061927,1.0053256139322695,-2.123832331233688,0.18503503648189773,14.883337,-1.3905482,-0.78641057,0.43243536,9.266872,-10.423334,2.8136053,-0.37392145,0.4498263,-0.3334195,-0.73937136,-5.5037518,4.5187364,-0.3767195,-1.3888265,0.19004449,0.5642899,0
0.7400000000000004,12.48709489061927,1.0053256139322695,-2.123832331233688,0.18503503648189773,14.883337,-1.3905482,-0.78641057,0.43243536,9.211574,-10.377629,2.8095803,-0.36915997,0.45114747,-0.33024558,-0.7423774,-5.556197,4.6220193,-0.42818642,-1.0153291,-0.17065346,0.54567975,0
0.7500000000000004,12.48709489061927,1.0053256139322695,-2.123832331233688,0.18503503648189773,14.883337,-1.3905482,-0.78641057,0.43243536,9.155744,-10.330895,2.8050427,-0.36577582,0.4506165,-0.32768148,-0.7455046,-5.6097183,4.72459,-0.47930333,-0.7001063,-0.47513053,0.5279828,0
0.7600000000000005,11.918056661246084,2.164706865895736,-3.3261976773378983,-0.05789653119554697,15.222704,-0.5798427,-1.4680092,-0.1535894,9.099376,-10.283139,2.7999969,-0.36355898,0.44852766,-0.32563832,-0.74873686,-5.6638403,4.826547,-0.5297775,-0.4340647,-0.73214823,0.51115423,0
0.7700000000000005,11.918056661246084,2.164706865895736,-3.3261976773378983,-0.05789653119554697,15.222704,-0.5798427,-1.4680092,-0.1535894,9.0424795,-10.234389,2.7944393,-0.36271456,0.4446042,-0.3241959,-0.75210476,-5.715657,4.9233623,-0.58155626,-0.02867335,-1.136553,0.4832307,0
0.7800000000000005,11.918056661246084,2.164706865895736,-3.3261976773378983,-0.05789653119554697,15.222704,-0.5798427,-1.4680092,-0.1535894,8.985065,-10.184673,2.7883697,-0.36339062,0.43863204,-0.3234076,-0.75561625,-5.767114,5.0197945,-0.6321511,0.31346518,-1.4779243,0.45667747,0
0.7900000000000005,11.918056661246084,2.164706865895736,-3.3261976773378983,-0.05789653119554697,15.222704,-0.5798427,-1.4680092,-0.1535894,8.927141,-10.133993,2.7818012,-0.36534,0.43091592,-0.32316044,-0.7592132,-5.817706,5.1159434,-0.68126553,0.6022222,-1.7660855,0.43142718,0
0.8000000000000005,12.019300663275539,2.651091269258913,-3.83354745289593,-0.23356799309854887,14.582912,0.21099761,-1.325262,-0.31766215,8.868716,-10.082354,2.7747502,-0.36835018,0.42170858,-0.3233545,-0.76283747,-5.8669934,5.211878,-0.7286621,0.845928,-2.0093288,0.40741593,0
0.8100000000000005,12.019300663275539,2.651091269258913,-3.83354745289593,-0.23356799309854887,14.582912,0.21099761,-1.325262,-0.31766215,8.809805,-10.029752,2.7672367,-0.37240204,0.41100016,-0.32396626,-0.7664467,-5.9149857,5.3084536,-0.7737007,1.127471,-2.2937627,0.37596264,0
0.8200000000000005,12.019300663275539,2.651091269258913,-3.83354745289593,-0.23356799309854887,14.582912,0.21099761,-1.325262,-0.31766215,8.750423,-9.976185,2.7592833,-0.37746575,0.39878815,-0.32496613,-0.76998943,-5.9608407,5.4048805,-0.816622,1.3650883,-2.5338593,0.34605283,0
0.8300000000000005,12.019300663275539,2.651091269258913,-3.83354745289593,-0.23356799309854887,14.582912,0.21099761,-1.325262,-0.31766215,8.690596,-9.921656,2.7509122,-0.3833575,0.38527718,-0.32626432,-0.773401,-6.004158,5.5011535,-0.8572725,1.565635,-2.7365286,0.31761065,0
0.8400000000000005,12.019300663275539,2.651091269258913,-3.83354745289593,-0.23356799309854887,13.965305,-0.05487033,-1.2254074,-0.27766386,8.630349,-9.866165,2.742146,-0.38992015,0.37064058,-0.3277833,-0.7766241,-6.044585,5.5972357,-0.89554745,1.7348957,-2.9076035,0.29056412,0
0.8500000000000005,12.019300663275539,2.651091269258913,-3.83354745289593,-0.23356799309854887,13.965305,-0.05487033,-1.2254074,-0.27766386,8.5697155,-9.809713,2.7330093,-0.39701948,0.3550259,-0.32945666,-0.7796085,-6.08181,5.693061,-0.9313842,1.8777523,-3.0520084,0.2648448,0
0.8600000000000005,12.019300663275539,2.651091269258913,-3.83354745289593,-0.23356799309854887,13.965305,-0.05487033,-1.2254074,-0.27766386,8.508726,-9.752305,2.7235267,-0.40454087,0.33855963,-0.33122787,-0.7823114,-6.1155577,5.788541,-0.9647573,1.9983246,-3.1739,0.24038753,0
0.8700000000000006,12.019300663275539,2.651091269258913,-3.83354745289593,-0.23356799309854887,13.965305,-0.05487033,-1.2254074,-0.27766386,8.447417,-9.693944,2.7137225,-0.41238648,0.3213507,-0.3330489,-0.7846964,-6.145585,5.883564,-0.99567354,2.1000896,-3.2767873,0.2171304,0
0.8800000000000006,12.12826211933098,2.323192468215232,-3.669617627802387,-0.3090410077965876,12.237069,-0.80078316,-0.8120043,-0.08166072,8.385828,-9.634637,2.7036214,-0.42047274,0.30349338,-0.33487928,-0.78673327,-6.1716805,5.9780025,-1.0241678,2.185982,-3.3636332,0.1950145,0
0.8900000000000006,12.12826211933098,2.323192468215232,-3.669617627802387,-0.3090410077965876,12.237069,-0.80078316,-0.8120043,-0.08166072,8.3239975,-9.574384,2.6932504,-0.42867523,0.28518045,-0.33660707,-0.7884188,-6.1938653,6.0725636,-1.0496477,2.2073312,-3.4113843,0.17028035,0
0.9000000000000006,12.12826211933098,2.323192468215232,-3.669617627802387,-0.3090410077965876,12.237069,-0.80078316,-0.8120043,-0.08166072,8.261966,-9.513188,2.6826363,-0.43689758,0.2665751,-0.33814463,-0.78975654,-6.2117944,6.1662292,-1.0728287,2.225351,-3.4516876,0.14675991,0
0.9100000000000006,12.12826211933098,2.323192468215232,-3.669617627802387,-0.3090410077965876,12.237069,-0.80078316,-0.8120043,-0.08166072,8.199777,-9.451062,2.6718016,-0.44511086,0.24771343,-0.3394934,-0.79073226,-6.225391,6.2588334,-1.0938107,2.240562,-3.485705,0.12439363,0
0.9200000000000006,12.292150347575499,1.466169638102153,-2.9851421125077984,-0.28021214108997383,12.068911,-1.1783543,-0.41077414,-0.00064859167,8.137473,-9.388017,2.6607673,-0.4532897,0.22862755,-0.34065503,-0.7913349,-6.2345924,6.3502073,-1.1127048,2.2534018,-3.5144157,0.10312486,0
0.9300000000000006,12.292150347575499,1.466169638102153,-2.9851421125077984,-0.28021214108997383,12.068911,-1.1783543,-0.41077414,-0.00064859167,8.075099,-9.324057,2.6495595,-0.4612417,0.2097193,-0.34148753,-0.79161805,-6.2394357,6.4414024,-1.1285385,2.130586,-3.4319103,0.08431439,0
0.9400000000000006,12.292150347575499,1.466169638102153,-2.9851421125077984,-0.28021214108997383,12.068911,-1.1783543,-0.41077414,-0.00064859167,8.012699,-9.259193,2.6382027,-0.46882948,0.19131745,-0.34188905,-0.7916485,-6.2399173,6.5310326,-1.1425319,2.0269275,-3.3622665,0.06642696,0
0.9500000000000006,12.292150347575499,1.466169638102153,-2.9851421125077984,-0.28021214108997383,12.068911,-1.1783543,-0.41077414,-0.00064859167,7.9503155,-9.193441,2.6267145,-0.4761045,0.17334856,-0.34191465,-0.7914342,-6.236191,6.6189666,-1.1548319,1.9394385,-3.3034794,0.049417283,0
0.9600000000000006,11.996941035856628,0.2672270726092724,-2.1253169592061623,-0.12979092084975674,11.437154,-1.5829477,0.21725999,0.06631294,7.8879895,-9.12682,2.6151114,-0.48310792,0.15574984,-0.34161052,-0.7909804,-6.2283916,6.7050824,-1.1655751,1.8655965,-3.2538571,0.033242278,0
0.9700000000000006,11.996941035856628,0.2672270726092724,-2.1253169592061623,-0.12979092084975674,11.437154,-1.5829477,0.21725999,0.06631294,7.8257604,-9.059357,2.6033974,-0.48967165,0.13896732,-0.34080803,-0.7904168,-6.2169557,6.787252,-1.1770233,1.6163117,-3.077876,0.025242204,0
0.9800000000000006,11.996941035856628,0.2672270726092724,-2.1253169592061623,-0.12979092084975674,11.437154,-1.5829477,0.21725999,0.06631294,7.763663,-8.991081,2.5915754,-0.495682,0.12335687,-0.3393867,-0.7898722,-6.2020063,6.867479,-1.1871936,1.4059058,-2.9293354,0.017634684,0
0.9900000000000007,11.996941035856628,0.2672270726092724,-2.1253169592061623,-0.12979092084975674,11.437154,-1.5829477,0.21725999,0.06631294,7.701731,-8.922014,2.5796576,-0.5012387,0.1087455,-0.337445,-0.78934413,-6.1838737,6.9457216,-1.1961827,1.2283151,-2.803957,0.010400454,0
1.0000000000000007,11.748398301567596,-0.9625699131517809,-1.0801252185734989,0.11683433689198988,11.129482,-2.1515858,1.1148685,0.40075758,7.6399956,-8.852175,2.5676553,-0.5064217,0.09498496,-0.33506435,-0.78882563,-6.1628375,7.0219507,-1.2040708,1.078421,-2.6981292,0.0035212121,0
1.0100000000000007,11.748398301567596,-0.9625699131517809,-1.0801252185734989,0.11683433689198988,11.129482,-2.1515858,1.1148685,0.40075758,7.5784817,-8.7815895,2.5555701,-0.51108927,0.08251873,-0.33214113,-0.78845406,-6.1396604,7.094615,-1.2128158,0.7601379,-2.4458,0.009081523,0
1.0200000000000007,11.748398301567596,-0.9625699131517809,-1.0801252185734989,0.11683433689198988,11.129482,-2.1515858,1.1148685,0.40075758,7.51721,-8.710287,2.5434024,-0.5151441,0.071692914,-0.3286039,-0.788356,-6.114319,7.1653414,-1.2205976,0.49148914,-2.2328236,0.014368984,0
1.0300000000000007,11.748398301567596,-0.9625699131517809,-1.0801252185734989,0.11683433689198988,11.129482,-2.1515858,1.1148685,0.40075758,7.456201,-8.638288,2.5311615,-0.5186998,0.06225788,-0.32455555,-0.78850317,-6.087225,7.2341986,-1.2274476,0.26473454,-2.0530622,0.01939698,0
1.0400000000000007,11.748398301567596,-0.9625699131517809,-1.0801252185734989,0.11683433689198988,10.86742,-2.935495,1.8234031,0.78806704,7.3954706,-8.56561,2.5188565,-0.5218466,0.05400101,-0.32008013,-0.788865,-6.0587254,7.30125,-1.2333853,0.07334125,-1.9013354,0.024178244,0
1.0500000000000007,11.748398301567596,-0.9625699131517809,-1.0801252185734989,0.11683433689198988,10.86742,-2.935495,1.8234031,0.78806704,7.33503,-8.49227,2.5064967,-0.5246563,0.046741623,-0.3152465,-0.78941107,-6.029111,7.366554,-1.2384236,-0.08820525,-1.7732707,0.02872492,0
1.0600000000000007,11.748398301567596,-0.9625699131517809,-1.0801252185734989,0.11683433689198988,10.86742,-2.935495,1.8234031,0.78806704,7.2748914,-8.418285,2.494091,-0.5271863,0.04032634,-0.31011134,-0.790113,-5.9986267,7.4301605,-1.2425716,-0.22455934,-1.6651783,0.033048477,0
1.0700000000000007,11.748398301567596,-0.9625699131517809,-1.0801252185734989,0.11683433689198988,10.86742,-2.935495,1.8234031,0.78806704,7.2150607,-8.343673,2.4816482,-0.52948254,0.03462509,-0.30472156,-0.79094446,-5.96748,7.4921145,-1.2458363,-0.33964935,-1.5739429,0.037159886,0
1.0800000000000007,11.772688468530399,-1.988787475457558,-0.06793579370296245,0.44493475911191316,11.529124,-2.3277173,2.8638573,0.80379117,7.155544,-8.268449,2.4691772,-0.5315821,0.029527659,-0.29911616,-0.791882,-5.935847,7.552453,-1.2482244,-0.43679166,-1.4969357,0.041069537,0
1.0900000000000007,11.772688468530399,-1.988787475457558,-0.06793579370296245,0.44493475911191316,11.529124,-2.3277173,2.8638573,0.80379117,7.0963454,-8.192628,2.4566877,-0.5333516,0.02546813,-0.29321927,-0.79303783,-5.9038353,7.6113405,-1.2495416,-0.6788138,-1.2740989,0.06088733,0
1.1000000000000008,11.772688468530399,-1.988787475457558,-0.06793579370296245,0.44493475911191316,11.529124,-2.3277173,2.8638573,0.80379117,7.0374675,-8.116225,2.4441895,-0.53468704,0.022785433,-0.28697315,-0.79450375,-5.87182,7.6687574,-1.2499803,-0.8830973,-1.0860171,0.07973265,0
1.1100000000000008,11.772688468530399,-1.988787475457558,-0.06793579370296245,0.44493475911191316,11.529124,-2.3277173,2.8638573,0.80379117,6.978908,-8.039256,2.4316914,-0.53565305,0.021264933,-0.28043088,-0.7962294,-5.8401155,7.7248163,-1.2495329,-1.0555263,-0.92726916,0.09765322,0
1.1200000000000008,12.136299194570677,-2.8889483572799146,0.8293416720897255,0.7638830300868065,11.91766,-2.8282125,3.8099492,1.416113,6.9206634,-7.9617333,2.419202,-0.536301,0.02072506,-0.27363616,-0.7981692,-5.808988,7.779611,-1.2481946,-1.2010674,-0.7932791,0.11469443,0
1.1300000000000008,12.136299194570677,-2.8889483572799146,0.8293416720897255,0.7638830300868065,11.91766,-2.8282125,3.8099492,1.416113,6.8627305,-7.8836603,2.4067461,-0.53653514,0.021481618,-0.26653045,-0.8003932,-5.7777514,7.834885,-1.2428646,-1.464299,-0.540282,0.14655028,0
1.1400000000000008,12.136299194570677,-2.8889483572799146,0.8293416720897255,0.7638830300868065,11.91766,-2.8282125,3.8099492,1.416113,6.8051043,-7.80504,2.3943481,-0.5362753,0.023776425,-0.25906694,-0.8029489,-5.7477303,7.8890815,-1.2366087,-1.6864859,-0.32674414,0.17684297,0
1.1500000000000008,12.136299194570677,-2.8889483572799146,0.8293416720897255,0.7638830300868065,11.91766,-2.8282125,3.8099492,1.416113,6.7477703,-7.7258816,2.3820171,-0.53557783,0.027367854,-0.25129372,-0.80576545,-5.7192836,7.94233,-1.2294282,-1.874027,-0.14650993,0.2056492,0
1.1600000000000008,12.938322441545182,-3.517718544326419,1.3573624264056574,1.0669916063592357,12.317686,-3.245974,4.4012866,1.5335145,6.690712,-7.646196,2.3697627,-0.5344872,0.03205148,-0.24325089,-0.8087795,-5.6927166,7.994732,-1.221336,-2.0323236,0.005616285,0.23304188,0
1.1700000000000008,12.938322441545182,-3.517718544326419,1.3573624264056574,1.0669916063592357,12.317686,-3.245974,4.4012866,1.5335145,6.6339164,-7.565973,2.3576288,-0.53294826,0.03795068,-0.23488192,-0.81200707,-5.6666946,8.049782,-1.2052795,-2.2640078,0.21632515,0.27396405,0
1.1800000000000008,12.938322441545182,-3.517718544326419,1.3573624264056574,1.0669916063592357,12.317686,-3.245974,4.4012866,1.5335145,6.5773683,-7.4852033,2.3456602,-0.5309092,0.045152895,-0.22614105,-0.81544834,-5.64333,8.104114,-1.1883081,-2.459565,0.39417237,0.31287813,0
1.1900000000000008,12.938322441545182,-3.517718544326419,1.3573624264056574,1.0669916063592357,12.317686,-3.245974,4.4012866,1.5335145,6.5210395,-7.4038935,2.333866,-0.52840614,0.05344964,-0.21707407,-0.8190288,-5.622963,8.157804,-1.1704699,-2.6246269,0.54428464,0.34988266,0
1.2000000000000008,13.874388977694549,-3.7659519008201032,1.5559121204194264,1.2880763568683462,14.6369505,-3.1419985,3.6530962,1.8531667,6.464898,-7.3220496,2.3222537,-0.5254684,0.06266409,-0.20772026,-0.8226832,-5.6058846,8.210901,-1.1518309,-2.763948,0.6709887,0.3850714,0
1.2100000000000009,13.874388977694549,-3.7659519008201032,1.5559121204194264,1.2880763568683462,14.6369505,-3.1419985,3.6530962,1.8531667,6.408915,-7.2396584,2.310874,-0.5220742,0.07275798,-0.19807495,-0.8263838,-5.5913687,8.267233,-1.1239763,-2.9202678,0.80886877,0.42938212,0
1.2200000000000009,13.874388977694549,-3.7659519008201032,1.5559121204194264,1.2880763568683462,14.6369505,-3.1419985,3.6530962,1.8531667,6.353057,-7.156707,2.2997763,-0.5182015,0.083691455,-0.1881361,-0.83010054,-5.5809274,8.322973,-1.0954572,-3.0522094,0.9252493,0.4715185,0
1.2300000000000009,13.874388977694549,-3.7659519008201032,1.5559121204194264,1.2880763568683462,14.6369505,-3.1419985,3.6530962,1.8531667,6.2972813,-7.073201,2.2889667,-0.51387215,0.095323354,-0.17793939,-0.83377784,-5.574808,8.378118,-1.0663959,-3.163574,1.0234843,0.5115872,0
1.2400000000000009,13.874388977694549,-3.7659519008201032,1.5559121204194264,1.2880763568683462,15.824846,-3.152806,3.292151,1.7223127,6.2415447,-6.989147,2.2784498,-0.50910544,0.107533455,-0.16751622,-0.8373682,-5.573217,8.432639,-1.0369306,-3.2575696,1.1064042,0.54968977,0
1.2500000000000009,13.874388977694549,-3.7659519008201032,1.5559121204194264,1.2880763568683462,15.824846,-3.152806,3.292151,1.7223127,6.1858006,-6.9045506,2.2682292,-0.50391847,0.120219275,-0.15689449,-0.8408309,-5.5763245,8.486497,-1.0072116,-3.336904,1.1763976,0.5859226,0
1.260000000000001,13.874388977694549,-3.7659519008201032,1.5559121204194264,1.2880763568683462,15.824846,-3.152806,3.292151,1.7223127,6.1300015,-6.819419,2.2583063,-0.49832666,0.13329329,-0.14609909,-0.84413123,-5.584268,8.539634,-0.9774,-3.4038641,1.2354808,0.6203775,0
1.270000000000001,13.874388977694549,-3.7659519008201032,1.5559121204194264,1.2880763568683462,15.824846,-3.152806,3.292151,1.7223127,6.074098,-6.73376,2.2486808,-0.49234426,0.14668067,-0.13515234,-0.84723955,-5.5971565,8.591979,-0.9476651,-3.4603791,1.2853552,0.6531417,0
1.280000000000001,14.264159083207392,-3.5828746600469707,1.4311655570319441,1.3292897051367898,15.748854,-2.9910052,2.582605,1.6994191,6.0180407,-6.647582,2.239352,-0.48598456,0.16031727,-0.12407435,-0.8501307,-5.6150723,8.643453,-0.9181828,-3.5080779,1.3274571,0.68429804,0
1.290000000000001,14.264159083207392,-3.5828746600469707,1.4311655570319441,1.3292897051367898,15.748854,-2.9910052,2.582605,1.6994191,5.961776,-6.5608873,2.2303338,-0.47927427,0.17406967,-0.112922505,-0.85278577,-5.6387134,8.695387,-0.8855605,-3.5197773,1.3435525,0.715948,0
1.300000000000001,14.264159083207392,-3.5828746600469707,1.4311655570319441,1.3292897051367898,15.748854,-2.9910052,2.582605,1.6994191,5.905248,-6.473679,2.221639,-0.47223845,0.18782955,-0.10174563,-0.8551946,-5.6675777,8.746238,-0.853563,-3.5296504,1.3571419,0.7460449,0
1.310000000000001,14.264159083207392,-3.5828746600469707,1.4311655570319441,1.3292897051367898,15.748854,-2.9910052,2.582605,1.6994191,5.848407,-6.3859673,2.2132597,-0.46488687,0.20157965,-0.09054922,-0.85734814,-5.70164,8.795907,-0.82236826,-3.537982,1.3686157,0.77466476,0
1.320000000000001,14.743156349152391,-3.110554711693646,0.8120742794034016,1.3012852272489415,16.068659,-2.7272007,1.7932814,1.5984694,5.7911983,-6.2977653,2.205188,-0.45722896,0.21530461,-0.07933871,-0.85923815,-5.7408633,8.844291,-0.79215276,-3.5450125,1.3783039,0.80188036,0
1.330000000000001,14.743156349152391,-3.110554711693646,0.8120742794034016,1.3012852272489415,16.068659,-2.7272007,1.7932814,1.5984694,5.7335644,-6.209078,2.1974342,-0.44933864,0.22869289,-0.0681689,-0.86089873,-5.786671,8.89286,-0.75881314,-3.4772334,1.2899805,0.82638633,0
1.340000000000001,14.743156349152391,-3.110554711693646,0.8120742794034016,1.3012852272489415,16.068659,-2.7272007,1.7932814,1.5984694,5.675447,-6.119913,2.1900074,-0.44128212,0.24150056,-0.05708748,-0.8623734,-5.8375673,8.939851,-0.72677803,-3.4200287,1.21543,0.8496897,0
1.350000000000001,14.743156349152391,-3.110554711693646,0.8120742794034016,1.3012852272489415,16.068659,-2.7272007,1.7932814,1.5984694,5.616796,-6.0302863,2.182894,-0.4330573,0.25380594,-0.046089116,-0.86366606,-5.8933516,8.985127,-0.69614565,-3.3717482,1.1525048,0.87184966,0
1.360000000000001,14.49157743956207,-2.3396017704759475,-0.19078702184080631,1.1125647318242324,15.685823,-2.5977695,0.88140047,1.5645641,5.557564,-5.9402165,2.1760793,-0.42466307,0.26567474,-0.035169,-0.8647778,-5.953837,9.028566,-0.6670112,-3.331,1.0993922,0.89292216,0
1.370000000000001,14.49157743956207,-2.3396017704759475,-0.19078702184080631,1.1125647318242324,15.685823,-2.5977695,0.88140047,1.5645641,5.4977098,-5.8497257,2.1695375,-0.4162173,0.27668673,-0.024414638,-0.8658007,-6.0177126,9.069339,-0.6415953,-3.1762817,0.89825696,0.90370005,0
1.380000000000001,14.49157743956207,-2.3396017704759475,-0.19078702184080631,1.1125647318242324,15.685823,-2.5977695,0.88140047,1.5645641,5.4371953,-5.7588367,2.163242,-0.40782338,0.28651896,-0.013898383,-0.8668294,-6.085671,9.108048,-0.61770284,-3.045707,0.7284776,0.9139491,0
1.390000000000001,14.49157743956207,-2.3396017704759475,-0.19078702184080631,1.1125647318242324,15.685823,-2.5977695,0.88140047,1.5645641,5.375983,-5.6675725,2.1571784,-0.39946035,0.29535216,-0.0035945892,-0.86786234,-6.1573606,9.144568,-0.5952789,-2.935509,0.58516556,0.9236952,0
1.400000000000001,14.15945118014052,-1.4953222842964145,-1.2008856813851083,0.8082714006624885,16.173828,-1.8146429,0.01579116,1.2268683,5.3140364,-5.575954,2.1513314,-0.39111,0.30333796,0.0065197125,-0.8688935,-6.232476,9.178791,-0.5742757,-2.8425078,0.4641948,0.93296313,0
1.410000000000001,14.15945118014052,-1.4953222842964145,-1.2008856813851083,0.8082714006624885,16.173828,-1.8146429,0.01579116,1.2268683,5.2513313,-5.4840083,2.1456742,-0.38289037,0.3101219,0.0163395,-0.87002975,-6.308931,9.209894,-0.557332,-2.6322563,0.20466457,0.9268445,0
1.420000000000001,14.15945118014052,-1.4953222842964145,-1.2008856813851083,0.8082714006624885,16.173828,-1.8146429,0.01579116,1.2268683,5.1878486,-5.3917637,2.1401806,-0.37490186,0.31543526,0.025781434,-0.871369,-6.388039,9.238573,-0.5415579,-2.4548197,-0.014413957,0.921026,0
1.430000000000001,14.15945118014052,-1.4953222842964145,-1.2008856813851083,0.8082714006624885,16.173828,-1.8146429,0.01579116,1.2268683,5.1235633,-5.299245,2.1348395,-0.36710495,0.3195093,0.03489484,-0.8728857,-6.469402,9.264753,-0.52677417,-2.3050766,-0.19934547,0.9154931,0
1.440000000000001,14.15945118014052,-1.4953222842964145,-1.2008856813851083,0.8082714006624885,16.118757,-1.2495408,-0.3767822,0.9334962,5.0584545,-5.206477,2.1296422,-0.3594651,0.32253724,0.043722786,-0.87455255,-6.552678,9.288378,-0.5128246,-2.1787043,-0.3554522,0.9102317,0
1.450000000000001,14.15945118014052,-1.4953222842964145,-1.2008856813851083,0.8082714006624885,16.118757,-1.2495408,-0.3767822,0.9334962,4.9925046,-5.1134863,2.1245806,-0.3519525,0.324681,0.052302755,-0.87634206,-6.637575,9.309401,-0.49957523,-2.0720546,-0.4872271,0.9052285,0
1.460000000000001,14.15945118014052,-1.4953222842964145,-1.2008856813851083,0.8082714006624885,16.118757,-1.2495408,-0.3767822,0.9334962,4.9256988,-5.020298,2.1196485,-0.34454176,0.32607606,0.06066727,-0.8782279,-6.723841,9.327788,-0.48691258,-1.9820497,-0.5984625,0.90047085,0
1.470000000000001,14.15945118014052,-1.4953222842964145,-1.2008856813851083,0.8082714006624885,16.118757,-1.2495408,-0.3767822,0.9334962,4.858024,-4.9269395,2.1148407,-0.3372115,0.32683605,0.068844475,-0.8801854,-6.811256,9.3435135,-0.47474173,-1.9060917,-0.69236,0.89594656,0
1.480000000000001,14.185715338010828,-0.6711201643819169,-1.754866844119019,0.4741832755898583,16.158815,-0.90018487,-0.7345505,0.62004095,4.78947,-4.8334374,2.1101525,-0.3299437,0.3270563,0.07685868,-0.8821924,-6.8996277,9.356555,-0.46298432,-1.8419882,-0.7716215,0.8916443,0
1.490000000000001,14.185715338010828,-0.6711201643819169,-1.754866844119019,0.4741832755898583,16.158815,-0.90018487,-0.7345505,0.62004095,4.7200284,-4.7398176,2.105581,-0.32285064,0.32651037,0.08452572,-0.8843151,-6.988934,9.366925,-0.45135862,-1.6593153,-0.9248297,0.8711593,0
1.500000000000001,14.185715338010828,-0.6711201643819169,-1.754866844119019,0.4741832755898583,16.158815,-0.90018487,-0.7345505,0.62004095,4.6496906,-4.646108,2.1011245,-0.31602547,0.32502562,0.09170085,-0.88660955,-7.0787354,9.374637,-0.43991846,-1.5051467,-1.0541669,0.85167956,0
1.5100000000000011,14.185715338010828,-0.6711201643819169,-1.754866844119019,0.4741832755898583,16.158815,-0.90018487,-0.7345505,0.62004095,4.578453,-4.5523343,2.0967824,-0.3094281,0.32274708,0.09845692,-0.8890411,-7.1687603,9.379743,-0.42850864,-1.3750342,-1.1633519,0.8331557,0
1.5200000000000011,13.2388727518771,0.083811508844663,-2.3306205058784366,0.11213608173703919,15.215109,-0.46051207,-1.4065,0.2858536,4.506315,-4.4585223,2.0925548,-0.30302432,0.31979603,0.10485593,-0.891578,-7.2587733,9.38229,-0.41699982,-1.2652236,-1.255524,0.8155408,0
1.5300000000000011,13.2388727518771,0.083811508844663,-2.3306205058784366,0.11213608173703919,15.215109,-0.46051207,-1.4065,0.2858536,4.433308,-4.364697,2.0884066,-0.2968969,0.31597292,0.11076451,-0.894284,-7.3425617,9.382328,-0.41260153,-1.0547851,-1.4230491,0.78102446,0
1.5400000000000011,13.2388727518771,0.083811508844663,-2.3306205058784366,0.11213608173703919,15.215109,-0.46051207,-1.4065,0.2858536,4.359466,-4.270883,2.084304,-0.29111278,0.31112483,0.11607927,-0.89720654,-7.4258575,9.380105,-0.4078269,-0.8771831,-1.564475,0.7482019,0
1.5500000000000012,13.2388727518771,0.083811508844663,-2.3306205058784366,0.11213608173703919,15.215109,-0.46051207,-1.4065,0.2858536,4.284794,-4.1771026,2.080252,-0.28562355,0.30540714,0.120889485,-0.9002948,-7.5083914,9.375709,-0.40250936,-0.72729254,-1.6838671,0.71698993,0
1.5600000000000012,12.39111409519359,0.683045304946594,-2.734880226033476,-0.24877662102618742,14.290565,0.27983996,-1.8071666,-0.1624876,4.2093015,-4.0833764,2.0762563,-0.28038794,0.29894996,0.12527078,-0.9035032,-7.589929,9.369212,-0.39651456,-0.60078865,-1.7846571,0.6873096,0
1.5700000000000012,12.39111409519359,0.683045304946594,-2.734880226033476,-0.24877662102618742,14.290565,0.27983996,-1.8071666,-0.1624876,4.133025,-3.9897225,2.072291,-0.27546185,0.29164365,0.12912847,-0.9068571,-7.6651106,9.36124,-0.39644286,-0.40056682,-1.932742,0.64137566,0
1.5800000000000012,12.39111409519359,0.683045304946594,-2.734880226033476,-0.24877662102618742,14.290565,0.27983996,-1.8071666,-0.1624876,4.056004,-3.8961575,2.0683305,-0.2708901,0.28340548,0.13239023,-0.91036904,-7.7389126,9.351473,-0.39549106,-0.23158431,-2.0577576,0.59769565,0
1.5900000000000012,12.39111409519359,0.683045304946594,-2.734880226033476,-0.24877662102618742,14.290565,0.27983996,-1.8071666,-0.1624876,3.9782526,-3.8026989,2.0643845,-0.26662508,0.27437207,0.13514532,-0.9139835,-7.811099,9.340009,-0.39353547,-0.08896573,-2.1632965,0.556159,0
1.6000000000000012,11.864098740220356,0.966684115324888,-2.9401962171686877,-0.5882855499852337,13.045639,0.20869902,-2.157977,-0.28020766,3.8997884,-3.709363,2.0604634,-0.26262647,0.26465836,0.13746913,-0.91765165,-7.8814616,9.326937,-0.39048377,0.03140346,-2.2523918,0.51666063,0
1.6100000000000012,11.864098740220356,0.966684115324888,-2.9401962171686877,-0.5882855499852337,13.045639,0.20869902,-2.157977,-0.28020766,3.8206449,-3.6161623,2.0565572,-0.25891662,0.25425026,0.13935333,-0.921357,-7.946903,9.312963,-0.39061853,0.17721279,-2.3596113,0.4624406,0
1.6200000000000012,11.864098740220356,0.966684115324888,-2.9401962171686877,-0.5882855499852337,13.045639,0.20869902,-2.157977,-0.28020766,3.7408576,-3.5231085,2.0526555,-0.25551474,0.24314027,0.14079443,-0.92507887,-8.010223,9.297616,-0.38957176,0.30027553,-2.450126,0.41088116,0
1.6300000000000012,11.864098740220356,0.966684115324888,-2.9401962171686877,-0.5882855499852337,13.045639,0.20869902,-2.157977,-0.28020766,3.6604486,-3.4302144,2.0487702,-0.25238466,0.23142704,0.14185749,-0.9287728,-8.071239,9.280982,-0.38729566,0.40414134,-2.526537,0.36185172,0
1.6400000000000012,11.864098740220356,0.966684115324888,-2.9401962171686877,-0.5882855499852337,12.715071,0.475022,-2.2344177,-0.47331852,3.5794413,-3.337493,2.044914,-0.2494954,0.21919428,0.14259732,-0.93240064,-8.129788,9.263135,-0.3837664,0.491806,-2.591041,0.3152282,1
1.6500000000000012,11.864098740220356,0.966684115324888,-2.9401962171686877,-0.5882855499852337,12.715071,0.475022,-2.2344177,-0.47331852,3.4978414,-3.2449625,2.041136,-0.24680576,0.20682839,0.14317083,-0.9358472,-8.189754,9.242781,-0.37161058,0.489113,-2.5354388,0.276534,1
1.6600000000000013,11.864098740220356,0.966684115324888,-2.9401962171686877,-0.5882855499852337,12.715071,0.475022,-2.2344177,-0.47331852,3.4156556,-3.1526413,2.037486,-0.24428509,0.19464296,0.14370768,-0.93903464,-8.246911,9.22126,-0.3581922,0.48684734,-2.4885066,0.2397385,1
1.6700000000000013,11.864098740220356,0.966684115324888,-2.9401962171686877,-0.5882855499852337,12.715071,0.475022,-2.2344177,-0.47331852,3.3329124,-3.060541,2.033976,-0.24192224,0.18260539,0.14421315,-0.9419822,-8.301272,9.198624,-0.34360197,0.484941,-2.4488928,0.20474857,1
1.6800000000000013,11.425712844609125,1.1479711068004543,-2.4157300810056936,-0.8094298738896637,11.7096195,0.49816504,-1.888886,-0.71997005,3.2496397,-2.9686723,2.0306177,-0.23970681,0.17068827,0.14469133,-0.9447061,-8.352841,9.174918,-0.32792512,0.48333722,-2.4154565,0.17147562,1
1.6900000000000013,11.425712844609125,1.1479711068004543,-2.4157300810056936,-0.8094298738896637,11.7096195,0.49816504,-1.888886,-0.71997005,3.165885,-2.8770363,2.0273757,-0.23767976,0.15899302,0.14510874,-0.94719166,-8.397771,9.152143,-0.3203205,0.48557365,-2.333352,0.12773213,1
1.7000000000000013,11.425712844609125,1.1479711068004543,-2.4157300810056936,-0.8094298738896637,11.7096195,0.49816504,-1.888886,-0.71997005,3.0816932,-2.7856326,2.024214,-0.23587728,0.14759934,0.14543985,-0.9494328,-8.440179,9.128482,-0.31187153,0.4874699,-2.264051,0.086135134,1
1.7100000000000013,11.425712844609125,1.1479711068004543,-2.4157300810056936,-0.8094298738896637,11.7096195,0.49816504,-1.888886,-0.71997005,2.9970899,-2.6944695,2.0211408,-0.23428331,0.13645689,0.14569786,-0.95145255,-8.480109,9.103996,-0.30265445,0.48907754,-2.2055569,0.046579324,1
1.7200000000000013,10.851442016187573,1.2148641875455723,-1.9191612044230562,-0.9846527897332635,11.289057,0.61971974,-1.8377299,-0.8174399,2.9120991,-2.603555,2.0181634,-0.23288317,0.12552314,0.14589351,-0.9532699,-8.517599,9.078734,-0.2927389,0.49044025,-2.1561842,0.008964521,1
1.7300000000000013,10.851442016187573,1.2148641875455723,-1.9191612044230562,-0.9846527897332635,11.289057,0.61971974,-1.8377299,-0.8174399,2.8267522,-2.5128922,2.0152688,-0.2316837,0.114768736,0.1459858,-0.9549021,-8.551419,9.053678,-0.28609097,0.5105452,-2.106535,-0.031587392,1
1.7400000000000013,10.851442016187573,1.2148641875455723,-1.9191612044230562,-0.9846527897332635,11.289057,0.61971974,-1.8377299,-0.8174399,2.7410786,-2.4224837,2.0124435,-0.23068982,0.1041686,0.14594239,-0.95636344,-8.58294,9.027972,-0.27888477,0.5275197,-2.0646286,-0.07014941,1
1.7500000000000013,10.851442016187573,1.2148641875455723,-1.9191612044230562,-0.9846527897332635,11.289057,0.61971974,-1.8377299,-0.8174399,2.6551013,-2.3323352,2.009693,-0.22988582,0.09369549,0.14578286,-0.95766383,-8.612183,9.001667,-0.27117002,0.5418513,-2.0292575,-0.106819175,1
1.7600000000000013,10.513991669833997,1.2476857095243998,-1.3800434257806378,-1.0903856393785665,11.064903,0.8704851,-1.495347,-0.8885384,2.5688426,-2.2424526,2.0070217,-0.22925752,0.08332659,0.14552343,-0.9588115,-8.639161,8.974807,-0.2629946,0.55395144,-1.9994023,-0.14168954,1
1.7700000000000014,10.513991669833997,1.2476857095243998,-1.3800434257806378,-1.0903856393785665,11.064903,0.8704851,-1.495347,-0.8885384,2.482328,-2.1528382,2.0044236,-0.22882867,0.07315004,0.14505073,-0.9598155,-8.663403,8.947979,-0.2565223,0.60327595,-1.9208142,-0.17833765,1
1.7800000000000014,10.513991669833997,1.2476857095243998,-1.3800434257806378,-1.0903856393785665,11.064903,0.8704851,-1.495347,-0.8885384,2.3955817,-2.0634942,2.0018926,-0.22861701,0.0632351,0.1442758,-0.96068674,-8.68548,8.92073,-0.24968009,0.64491254,-1.8544823,-0.21318741,1
1.7900000000000014,10.513991669833997,1.2476857095243998,-1.3800434257806378,-1.0903856393785665,11.064903,0.8704851,-1.495347,-0.8885384,2.3086255,-1.9744247,1.9994315,-0.2286025,0.053538773,0.1432438,-0.96143365,-8.705432,8.89314,-0.2425013,0.6800593,-1.7984949,-0.24632709,1
1.8000000000000014,10.278788728152364,1.2024983873002353,-0.9030456113861376,-1.1374358083200766,10.329644,1.11656,-1.416081,-0.92723686,2.2214801,-1.8856324,1.9970437,-0.22876747,0.044024892,0.1419927,-0.9620626,-8.7232895,8.865279,-0.23501828,0.7097275,-1.7512385,-0.27784058,1
1.8100000000000014,10.278788728152364,1.2024983873002353,-0.9030456113861376,-1.1374358083200766,10.329644,1.11656,-1.416081,-0.92723686,2.134172,-1.7971104,1.9946969,-0.22910942,0.034670357,0.14045258,-0.9625898,-8.7380295,8.839075,-0.23429547,0.7731469,-1.6989982,-0.30970663,1
1.8200000000000014,10.278788728152364,1.2024983873002353,-0.9030456113861376,-1.1374358083200766,10.329644,1.11656,-1.416081,-0.92723686,2.046726,-1.7088512,1.9923586,-0.22962439,0.025455354,0.13856943,-0.9630278,-8.750856,8.812753,-0.23333766,0.8266781,-1.6549045,-0.340009,1
1.8300000000000014,10.278788728152364,1.2024983873002353,-0.9030456113861376,-1.1374358083200766,10.329644,1.11656,-1.416081,-0.92723686,1.9591612,-1.6208555,1.9900308,-0.23029578,0.016356403,0.13639408,-0.96337545,-8.761783,8.786386,-0.23216449,0.87186307,-1.6176865,-0.36882445,1
1.8400000000000014,10.278788728152364,1.2024983873002353,-0.9030456113861376,-1.1374358083200766,10.416364,1.0783796,-1.082098,-0.8883546,1.8714967,-1.5331234,1.9877158,-0.23110911,0.0073539084,0.1339694,-0.96363163,-8.77082,8.760033,-0.2307975,0.9100026,-1.5862716,-0.3962259,1
1.8500000000000014,10.278788728152364,1.2024983873002353,-0.9030456113861376,-1.1374358083200766,10.416364,1.0783796,-1.082098,-0.8883546,1.7837509,-1.4456555,1.9854196,-0.23206493,-0.0014354459,0.13131538,-0.9637942,-8.778042,8.733527,-0.22842331,0.93625736,-1.5076675,-0.4203748,1
1.8600000000000014,10.278788728152364,1.2024983873002353,-0.9030456113861376,-1.1374358083200766,10.416364,1.0783796,-1.082098,-0.8883546,1.6959422,-1.3584522,1.9831479,-0.2331623,-0.009919705,0.12844998,-0.96386546,-8.783419,8.707149,-0.22590013,0.9584178,-1.4413207,-0.44333875,1
1.8700000000000014,10.278788728152364,1.2024983873002353,-0.9030456113861376,-1.1374358083200766,10.416364,1.0783796,-1.082098,-0.8883546,1.6080886,-1.2715119,1.980902,-0.2343872,-0.018147172,0.12540379,-0.9638497,-8.787,8.680948,-0.22325023,0.97712207,-1.3853195,-0.4651758,1
1.8800000000000014,10.177853301092576,1.0120882565232592,0.07091833197539485,-1.066416886594909,10.616005,0.7410092,-0.68750465,-0.87260646,1.5202081,-1.1848325,1.9786832,-0.2357274,-0.026158476,0.12220272,-0.96374995,-8.788828,8.654971,-0.22049549,0.9929094,-1.3380505,-0.4859413,1
1.8900000000000015,10.177853301092576,1.0120882565232592,0.07091833197539485,-1.066416886594909,10.616005,0.7410092,-0.68750465,-0.87260646,1.4323179,-1.098414,1.976502,-0.23719352,-0.033803456,0.118961506,-0.96355796,-8.78895,8.628758,-0.21572371,0.9536422,-1.2365975,-0.50491506,1
1.9000000000000015,10.177853301092576,1.0120882565232592,0.07091833197539485,-1.066416886594909,10.616005,0.7410092,-0.68750465,-0.87260646,1.3444349,-1.0122561,1.9743689,-0.23879443,-0.040964685,0.11577251,-0.96327305,-8.787424,8.602825,-0.21089236,0.92049676,-1.1509668,-0.5229578,1
1.9100000000000015,10.177853301092576,1.0120882565232592,0.07091833197539485,-1.066416886594909,10.616005,0.7410092,-0.68750465,-0.87260646,1.2565747,-0.9263563,1.9722843,-0.2405173,-0.047717776,0.11262566,-0.96290654,-8.784348,8.577179,-0.20602344,0.89251816,-1.0786906,-0.5401152,1
1.9200000000000015,10.133777322681196,0.7000093001809929,0.9211308849286162,-0.9472513126208343,10.7726555,0.5413227,-0.03507038,-0.77561265,1.1687528,-0.84071153,1.9702485,-0.24235077,-0.054126535,0.10951244,-0.9624669,-8.779804,8.551828,-0.2011357,0.86890095,-1.0176864,-0.55643064,1
1.9300000000000015,10.133777322681196,0.7000093001809929,0.9211308849286162,-0.9472513126208343,10.7726555,0.5413227,-0.03507038,-0.77561265,1.0809838,-0.7553206,1.9682692,-0.2443062,-0.059972845,0.10643989,-0.9619705,-8.77379,8.52641,-0.19472446,0.81786484,-0.8644352,-0.56718594,1
1.9400000000000015,10.133777322681196,0.7000093001809929,0.9211308849286162,-0.9472513126208343,10.7726555,0.5413227,-0.03507038,-0.77561265,0.9932813,-0.6701823,1.966354,-0.24639057,-0.06508666,0.10341321,-0.96143645,-8.766515,8.501318,-0.18831426,0.77478105,-0.7350855,-0.5774135,1
1.9500000000000015,10.133777322681196,0.7000093001809929,0.9211308849286162,-0.9472513126208343,10.7726555,0.5413227,-0.03507038,-0.77561265,0.90565735,-0.5852931,1.9645029,-0.2485882,-0.06958237,0.10042344,-0.9608727,-8.758125,8.476575,-0.18190442,0.7384103,-0.6259097,-0.5871392,1
1.9600000000000015,10.057571166429762,0.3552788117979071,1.6621376924641587,-0.7868339710653808,10.928795,0.52807236,0.4188694,-0.55189294,0.81812227,-0.5006495,1.962716,-0.25088552,-0.07355649,0.09746311,-0.9602843,-8.748745,8.452198,-0.17549276,0.70770663,-0.5337612,-0.5963877,0
1.9700000000000015,10.057571166429762,0.3552788117979071,1.6621376924641587,-0.7868339710653808,10.928795,0.52807236,0.4188694,-0.55189294,0.73068213,-0.4162398,1.9609585,-0.25334337,-0.07641985,0.0944263,-0.9597187,-8.739186,8.429807,-0.1760086,0.6528774,-0.19129479,-0.6057329,0
1.9800000000000015,10.057571166429762,0.3552788117979071,1.6621376924641587,-0.7868339710653808,10.928795,0.52807236,0.4188694,-0.55189294,0.64334047,-0.33205178,1.9591961,-0.25600764,-0.07771016,0.09122709,-0.95921737,-8.729092,8.40787,-0.17647493,0.6065815,0.09776174,-0.6146196,0
1.9900000000000015,10.057571166429762,0.3552788117979071,1.6621376924641587,-0.7868339710653808,10.928795,0.52807236,0.4188694,-0.55189294,0.5561012,-0.24808045,1.9574294,-0.25884652,-0.07767302,0.08788677,-0.9587703,-8.718737,8.38649,-0.17684545,0.56749034,0.34173784,-0.62307024,0
2.0000000000000013,,,,,11.644781,-0.10426488,0.6325854,-0.24049792,0.46896577,-0.1643198,1.9556597,-0.26183215,-0.076515354,0.08442345,-0.9583638,-8.708357,8.365748,-0.17708094,0.5344824,0.547664,-0.63110614,0
2.010000000000001,,,,,11.644781,-0.10426488,0.6325854,-0.24049792,0.3819337,-0.080763474,1.9538907,-0.26494205,-0.0742256,0.08092742,-0.9579907,-8.698108,8.3456335,-0.1767181,0.45985264,0.78353906,-0.63010484,0
2.020000000000001,,,,,11.644781,-0.10426488,0.6325854,-0.24049792,0.29500225,0.002595542,1.9521261,-0.2681525,-0.070802845,0.0774708,-0.9576422,-8.688257,8.326297,-0.17615888,0.396846,0.9826245,-0.6291526,0
2.0300000000000007,,,,,11.644781,-0.10426488,0.6325854,-0.24049792,0.20816645,0.08576531,1.9503682,-0.2714399,-0.06642239,0.07404366,-0.95730096,-8.67901,8.307791,-0.17538226,0.34365237,1.1506586,-0.6282471,0
2.0400000000000005,,,,,11.644781,-0.10426488,0.6325854,-0.24049792,0.12141937,0.16875437,1.9486191,-0.2747842,-0.06123224,0.07063795,-0.9569502,-8.670539,8.290163,-0.17437603,0.2987435,1.2924843,-0.62738603,0
2.0500000000000003,,,,,11.600183,-0.3730221,0.80340403,-0.038896922,0.034752503,0.25157177,1.9468814,-0.2781685,-0.05535748,0.067247204,-0.9565745,-8.662988,8.273459,-0.17313604,0.26082882,1.4121895,-0.62656724,1
2.06,,,,,11.600183,-0.3730221,0.80340403,-0.038896922,-0.051838964,0.33421507,1.945231,-0.28148767,-0.049332276,0.064174846,-0.95614415,-8.655493,8.255363,-0.15690066,0.1619166,1.3172932,-0.5977301,1
2.07,,,,,11.600183,-0.3730221,0.80340403,-0.038896922,-0.13836141,0.41668245,1.9437441,-0.2846519,-0.04358478,0.06166386,-0.9556518,-8.6491785,8.238256,-0.14044198,0.0784399,1.2371864,-0.57030797,1
2.0799999999999996,,,,,11.600183,-0.3730221,0.80340403,-0.038896922,-0.22482648,0.49898314,1.9424226,-0.28766915,-0.03806989,0.05962761,-0.955113,-8.644014,8.2220125,-0.12379988,0.007989671,1.1695645,-0.5442315,1
2.0899999999999994,,,,,11.022608,-0.49050823,0.67267716,0.24737567,-0.3112456,0.58112526,1.9412686,-0.29054677,-0.032749735,0.057992674,-0.9545397,-8.6399765,8.206529,-0.107007556,-0.051467188,1.1124823,-0.5194346,1
2.099999999999999,,,,,11.022608,-0.49050823,0.67267716,0.24737567,-0.3976306,0.66311973,1.9402543,-0.2932565,-0.027626706,0.05675809,-0.9539472,-8.63719,8.1924515,-0.09582007,-0.11998442,1.0439153,-0.48180693,1
2.109999999999999,,,,,11.022608,-0.49050823,0.67267716,0.24737567,-0.4839929,0.74497616,1.9393524,-0.29577214,-0.022700824,0.055919793,-0.95334977,-8.635432,8.17892,-0.08454244,-0.17780861,0.98603487,-0.44602576,1
2.1199999999999988,,,,,11.022608,-0.49050823,0.67267716,0.24737567,-0.5703427,0.8266996,1.9385637,-0.2981037,-0.017939685,0.055416062,-0.95275426,-8.634684,8.165848,-0.07319723,-0.22660902,0.93717605,-0.41200036,1
2.1299999999999986,,,,,10.739132,-0.49419323,0.45400146,0.48867944,-0.65669,0.9082943,1.9378886,-0.30026057,-0.013316092,0.055194635,-0.9521654,-8.634928,8.153166,-0.06180385,-0.26779398,0.8959331,-0.37964463,1
2.1399999999999983,,,,,10.739132,-0.49419323,0.45400146,0.48867944,-0.74304456,0.9897656,1.9373137,-0.30221853,-0.008888443,0.05523938,-0.9515948,-8.636117,8.1411295,-0.05319619,-0.3031409,0.82701445,-0.33703572,1
2.149999999999998,,,,,10.739132,-0.49419323,0.45400146,0.48867944,-0.82941556,1.0711178,1.9368248,-0.30395597,-0.0047016707,0.05553524,-0.95105404,-8.638225,8.129348,-0.04457426,-0.33296862,0.7688409,-0.29651764,1
2.159999999999998,,,,,10.739132,-0.49419323,0.45400146,0.48867944,-0.91581213,1.1523532,1.9364221,-0.3054853,-0.0007166356,0.056042735,-0.95054543,-8.641217,8.117763,-0.035952028,-0.35813916,0.7197379,-0.25798777,1
2.1699999999999977,,,,,10.659052,-0.5118079,0.62172014,0.73322326,-1.0022429,1.2334737,1.9361057,-0.306818,0.0030996024,0.0567284,-0.95007056,-8.645064,8.10632,-0.02734158,-0.37937972,0.6782909,-0.22134858,1
