time-since-start [s],throttle_mpc,roll_mpc,pitch_mpc,yaw_mpc,throttle_nw,roll_nw,pitch_nw,yaw_nw,position_x [m],position_y [m],position_z [m],rotation_w [quaternion],rotation_x [quaternion],rotation_y [quaternion],rotation_z [quaternion],velocity_x [m/s],velocity_y [m/s],velocity_z [m/s],omega_x [rad/s],omega_y [rad/s],omega_z [rad/s],network_used
0.0,10.692674404968077,5.999999703314515,-5.9999999667496065,-5.99999832657287,8.167208,2.0374393,-3.7731037,-2.6584399,19.701073,-9.040716,1.4638128,-0.21353997,-0.41930658,0.22965811,0.8519623,-11.232557,-7.1480403,0.046952076,1.8408781,-0.21887502,-0.5144682,0
0.01,10.692674404968077,5.999999703314515,-5.9999999667496065,-5.99999832657287,15.476581,-0.3978873,-5.7233844,-2.052373,19.587946,-9.111984,1.4643244,-0.20688725,-0.42067048,0.23624687,0.85112953,-11.39202,-7.105253,0.054677814,1.7167853,-0.34798506,-0.70059377,0
0.02,10.692674404968077,5.999999703314515,-5.9999999667496065,-5.99999832657287,15.476581,-0.3978873,-5.7233844,-2.052373,19.473244,-9.182816,1.4648921,-0.19953255,-0.42158908,0.24206685,0.85079557,-11.547696,-7.060516,0.058266822,1.61269,-0.4576007,-0.8821096,0
0.03,10.692674404968077,5.999999703314515,-5.9999999667496065,-5.99999832657287,15.476581,-0.3978873,-5.7233844,-2.052373,19.357004,-9.253189,1.4654768,-0.19147627,-0.42216107,0.24718198,0.85089254,-11.699468,-7.0140004,0.058092225,1.5253592,-0.5506483,-1.0591298,0
0.04,10.692674404968077,5.999999703314515,-5.9999999667496065,-5.99999832657287,10.747616,-0.09770973,-7.1308804,-2.5057456,19.239267,-9.32309,1.4660422,-0.18272091,-0.42246702,0.251647,0.85135704,-11.847329,-6.9658403,0.05452194,1.4530679,-0.6306026,-1.2316817,0
0.05,10.692674404968077,5.999999703314515,-5.9999999667496065,-5.99999832657287,10.747616,-0.09770973,-7.1308804,-2.5057456,19.120068,-9.392499,1.4665594,-0.17324632,-0.42254388,0.2555519,0.85213614,-11.992467,-6.915745,0.04861996,1.4103079,-0.7163714,-1.3984516,0
0.060000000000000005,10.692674404968077,5.999999703314515,-5.9999999667496065,-5.99999832657287,10.747616,-0.09770973,-7.1308804,-2.5057456,18.999428,-9.461397,1.4670081,-0.16299394,-0.4223691,0.2590479,0.85318923,-12.135151,-6.863652,0.04082139,1.3990349,-0.813628,-1.5592581,0
0.07,10.692674404968077,5.999999703314515,-5.9999999667496065,-5.99999832657287,10.747616,-0.09770973,-7.1308804,-2.5057456,18.877373,-9.529765,1.4673698,-0.15190846,-0.4219098,0.2622725,0.85447615,-12.275177,-6.8096046,0.031238565,1.4151181,-0.92136765,-1.714464,0
0.08,13.46091860326594,5.9999999199983725,-5.99999999644386,-5.740583978381427,12.30632,0.531455,-7.359306,-3.6849973,18.753933,-9.597583,1.467627,-0.1399421,-0.4211296,0.26534322,0.85595524,-12.412347,-6.7536054,0.019974317,1.4549351,-1.0386041,-1.8644017,0
0.09,13.46091860326594,5.9999999199983725,-5.99999999644386,-5.740583978381427,12.30632,0.531455,-7.359306,-3.6849973,18.629066,-9.664802,1.4678072,-0.12686695,-0.4197833,0.26864082,0.8576242,-12.559958,-6.6897583,0.015715167,1.6261395,-1.2754987,-2.0065598,0
0.09999999999999999,13.46091860326594,5.9999999199983725,-5.99999999644386,-5.740583978381427,12.30632,0.531455,-7.359306,-3.6849973,18.502747,-9.731369,1.467935,-0.112478636,-0.41763702,0.2724908,0.8594632,-12.703475,-6.623643,0.009569277,1.8058362,-1.5107187,-2.1448913,0
0.10999999999999999,13.46091860326594,5.9999999199983725,-5.99999999644386,-5.740583978381427,12.30632,0.531455,-7.359306,-3.6849973,18.375011,-9.797264,1.4679925,-0.09677338,-0.41466632,0.2769058,0.8614002,-12.842595,-6.5549726,0.0016781136,1.9924313,-1.7442513,-2.27956,0
0.11999999999999998,13.46091860326594,5.9999999199983725,-5.99999999644386,-5.740583978381427,12.30632,0.531455,-7.359306,-3.6849973,18.245909,-9.862458,1.467963,-0.07975142,-0.41084236,0.28188905,0.8633581,-12.97701,-6.4834995,-0.007825084,2.184542,-1.9760499,-2.4107182,0
0.12999999999999998,17.629634119751305,5.9999999878166825,-6.0,-4.58523326335899,13.630838,2.0265584,-8.246688,-3.2096348,18.115486,-9.926924,1.4678309,-0.061417248,-0.40613258,0.2874351,0.8652547,-13.106392,-6.4090185,-0.018814607,2.3809693,-2.2060428,-2.5385072,0
0.13999999999999999,17.629634119751305,5.9999999878166825,-6.0,-4.58523326335899,13.630838,2.0265584,-8.246688,-3.2096348,17.983742,-9.990592,1.4676217,-0.041367795,-0.39990848,0.2941998,0.8670691,-13.241637,-6.324243,-0.023366163,2.8541234,-2.7084224,-2.6308322,0
0.15,17.629634119751305,5.9999999878166825,-6.0,-4.58523326335899,13.630838,2.0265584,-8.246688,-3.2096348,17.850681,-10.053396,1.4673569,-0.019256089,-0.3915762,0.30271426,0.8687128,-13.369363,-6.236035,-0.02988644,3.3032978,-3.1822891,-2.7230814,0
0.16,20.999998764557855,5.999999998190185,-6.0,-3.445566429441618,15.56828,3.7922082,-9.223294,-3.071284,17.716381,-10.115298,1.467019,0.004814804,-0.38115564,0.3127697,0.8699844,-13.489521,-6.1434283,-0.037692983,3.720312,-3.6201243,-2.8142195,0
0.17,20.999998764557855,5.999999998190185,-6.0,-3.445566429441618,15.56828,3.7922082,-9.223294,-3.071284,17.580801,-10.176148,1.4666919,0.030514954,-0.36872876,0.32410714,0.8706682,-13.625275,-6.0253234,-0.027571887,4.0750675,-3.991997,-2.8451998,0
0.18000000000000002,20.999998764557855,5.999999998190185,-6.0,-3.445566429441618,15.56828,3.7922082,-9.223294,-3.071284,17.443903,-10.235776,1.4664705,0.05747097,-0.35443932,0.33642936,0.8705663,-13.752602,-5.8989573,-0.016549857,4.3745966,-4.305783,-2.87466,0
0.19000000000000003,20.999998764557855,5.999999998190185,-6.0,-3.445566429441618,15.56828,3.7922082,-9.223294,-3.071284,17.30578,-10.294099,1.4663639,0.08545932,-0.3384575,0.34943193,0.8695062,-13.870264,-5.764299,-0.0046079876,4.627499,-4.570553,-2.9026744,0
0.20000000000000004,21.0,5.999999968677332,-5.999999995539052,-2.571372747725235,16.834808,5.435263,-7.7307725,-3.540138,17.166536,-10.351034,1.4663813,0.11427682,-0.3209377,0.36285362,0.86733925,-13.977074,-5.6215687,0.0082174875,4.841035,-4.7939625,-2.9293141,0
0.21000000000000005,21.0,5.999999968677332,-5.999999995539052,-2.571372747725235,16.834808,5.435263,-7.7307725,-3.540138,17.026281,-10.406504,1.466531,0.14364403,-0.3019828,0.37650502,0.8639543,-14.071913,-5.4712114,0.02183965,5.021473,-4.9823303,-2.91175,0
0.22000000000000006,21.0,5.999999968677332,-5.999999995539052,-2.571372747725235,16.834808,5.435263,-7.7307725,-3.540138,16.885143,-10.460435,1.4668205,0.17330372,-0.2816876,0.3902251,0.8592686,-14.153746,-5.313872,0.03612407,5.1738286,-5.1412683,-2.8950474,0
0.23000000000000007,21.0,5.999999968677332,-5.999999995539052,-2.571372747725235,16.834808,5.435263,-7.7307725,-3.540138,16.743256,-10.512761,1.4672552,0.20310915,-0.26017857,0.40384385,0.85320824,-14.221637,-5.15037,0.05089196,5.3024716,-5.275375,-2.8791647,0
0.24000000000000007,21.0,5.999999968677332,-5.999999995539052,-2.571372747725235,17.132292,5.010216,-6.5346246,-3.4341683,16.600763,-10.563425,1.4678392,0.2329253,-0.23757505,0.41721466,0.84571636,-14.274769,-4.9816747,0.065925986,5.411092,-5.3885303,-2.8640614,0
0.25000000000000006,21.0,5.999999968677332,-5.999999995539052,-2.571372747725235,17.132292,5.010216,-6.5346246,-3.4341683,16.457817,-10.61238,1.4685738,0.26262766,-0.2139901,0.4302113,0.83675176,-14.312449,-4.8088837,0.080976374,5.502805,-5.484008,-2.849699,0
0.26000000000000006,21.0,5.999999968677332,-5.999999995539052,-2.571372747725235,17.132292,5.010216,-6.5346246,-3.4341683,16.314571,-10.659592,1.4694577,0.29210111,-0.1895312,0.44272488,0.8262868,-14.334121,-4.633199,0.09576687,5.5802426,-5.5645704,-2.8360415,0
0.2700000000000001,21.0,5.999999968677332,-5.999999995539052,-2.571372747725235,17.132292,5.010216,-6.5346246,-3.4341683,16.17119,-10.705038,1.4704871,0.3212389,-0.16430086,0.45466143,0.8143059,-14.339371,-4.455909,0.1100008,5.6456256,-5.6325483,-2.823054,0
0.2800000000000001,21.0,5.072810243441631,-5.999999043884449,-0.2818498628821148,17.673325,4.596214,-6.3650465,-3.348028,16.02784,-10.74871,1.4716547,0.34994212,-0.13839704,0.46594003,0.80080396,-14.327934,-4.278363,0.12336661,5.7008305,-5.6899076,-2.810704,0
0.2900000000000001,21.0,5.072810243441631,-5.999999043884449,-0.2818498628821148,17.673325,4.596214,-6.3650465,-3.348028,15.884688,-10.79061,1.4729502,0.3778481,-0.111916155,0.4762382,0.78606814,-14.299719,-4.101967,0.13556589,5.6032677,-5.737634,-2.6866124,0
0.3000000000000001,21.0,5.072810243441631,-5.999999043884449,-0.2818498628821148,17.673325,4.596214,-6.3650465,-3.348028,15.741902,-10.830758,1.4743614,0.40465677,-0.08494338,0.48531678,0.7703931,-14.254923,-3.9281862,0.146422,5.5209165,-5.7779803,-2.5686097,0
0.3100000000000001,21.0,5.072810243441631,-5.999999043884449,-0.2818498628821148,17.673325,4.596214,-6.3650465,-3.348028,15.599647,-10.869187,1.4758737,0.43036705,-0.057551548,0.49322253,0.753793,-14.1939125,-3.758455,0.15577877,5.451402,-5.8120885,-2.4563978,0
0.3200000000000001,21.0,3.6543042837375816,-3.968196773889601,1.065227077369779,17.64822,2.2607656,-5.3331785,-0.47515544,15.45808,-10.905946,1.4774714,0.4549756,-0.029808765,0.49999398,0.7362845,-14.117163,-3.5941405,0.1634535,5.3927207,-5.8409243,-2.3496919,0
0.3300000000000001,21.0,3.6543042837375816,-3.968196773889601,1.065227077369779,17.64822,2.2607656,-5.3331785,-0.47515544,15.317357,-10.9410925,1.4791363,0.47794816,-0.0025528935,0.50564355,0.7182505,-14.02533,-3.4364932,0.16924267,5.122671,-5.5478983,-2.1821208,0
0.34000000000000014,21.0,3.6543042837375816,-3.968196773889601,1.065227077369779,17.64822,2.2607656,-5.3331785,-0.47515544,15.177622,-10.9747,1.4808489,0.49890968,0.023559414,0.51026314,0.70011836,-13.919583,-3.2863762,0.17294407,4.894583,-5.30071,-2.0227728,0
0.35000000000000014,21.0,3.6543042837375816,-3.968196773889601,1.065227077369779,17.64822,2.2607656,-5.3331785,-0.47515544,15.039009,-11.006846,1.4825875,0.5180703,0.048716396,0.51397854,0.6819501,-13.801168,-3.144416,0.1743822,4.7019405,-5.092186,-1.8712437,0
0.36000000000000015,21.0,2.2397794356141127,-1.264040606791167,1.3631914615059488,17.802938,0.48985285,-3.855545,0.022547144,14.901639,-11.037617,1.4843284,0.5356087,0.07307767,0.5168864,0.6637856,-13.6712265,-3.0111265,0.17340355,4.539239,-4.916275,-1.7271503,0
0.37000000000000016,21.0,2.2397794356141127,-1.264040606791167,1.3631914615059488,17.802938,0.48985285,-3.855545,0.022547144,14.76562,-11.0671,1.4860468,0.5511517,0.0957806,0.51928526,0.6460654,-13.530876,-2.8868468,0.16986515,4.181713,-4.3458934,-1.5755064,0
0.38000000000000017,21.0,2.2397794356141127,-1.264040606791167,1.3631914615059488,17.802938,0.48985285,-3.855545,0.022547144,14.631052,-11.095385,1.4877164,0.56447375,0.11617292,0.5214874,0.62922484,-13.38153,-2.7713218,0.16362204,3.8797293,-3.8646035,-1.4313037,0
0.3900000000000002,21.0,2.2397794356141127,-1.264040606791167,1.3631914615059488,17.802938,0.48985285,-3.855545,0.022547144,14.498015,-11.122556,1.4893095,0.5759059,0.13466145,0.52356213,0.61325455,-13.224493,-2.6640818,0.1545681,3.6246696,-3.458484,-1.294177,0
0.4000000000000002,20.99999992009316,0.5127661715428641,1.4540870247635491,1.192122540873671,17.421522,-0.60737187,-1.4864868,0.15155758,14.366584,-11.148694,1.4907978,0.5857207,0.15158825,0.5255499,0.59812146,-13.060836,-2.5646653,0.14263438,3.409252,-3.1157892,-1.1637793,0
0.4100000000000002,20.99999992009316,0.5127661715428641,1.4540870247635491,1.192122540873671,17.421522,-0.60737187,-1.4864868,0.15155758,14.236819,-11.173875,1.4921521,0.593702,0.1661792,0.5277151,0.5843107,-12.8914995,-2.4725344,0.12778427,2.9582713,-2.4025524,-1.0481745,0
0.4200000000000002,20.99999992009316,0.5127661715428641,1.4540870247635491,1.192122540873671,17.421522,-0.60737187,-1.4864868,0.15155758,14.108771,-11.198167,1.4933435,0.5997318,0.17785278,0.53031117,0.5722413,-12.717575,-2.3865871,0.110052064,2.5774384,-1.8006653,-0.9382425,0
0.4300000000000002,20.99999992009316,0.5127661715428641,1.4540870247635491,1.192122540873671,17.421522,-0.60737187,-1.4864868,0.15155758,13.982481,-11.221623,1.4943435,0.6041342,0.18712674,0.5333237,0.5617572,-12.540016,-2.305626,0.089506716,2.2558541,-1.2927369,-0.8337048,0
0.4400000000000002,20.99999992009316,0.5127661715428641,1.4540870247635491,1.192122540873671,17.619192,-1.0792433,1.8965417,-0.3389128,13.857982,-11.244291,1.4951242,0.6071667,0.19443062,0.5367195,0.55270004,-12.359552,-2.2285988,0.06622094,1.984311,-0.86409444,-0.7342969,0
0.45000000000000023,20.99999992009316,0.5127661715428641,1.4540870247635491,1.192122540873671,17.619192,-1.0792433,1.8965417,-0.3389128,13.735298,-11.266206,1.4956588,0.60903543,0.20012039,0.54045606,0.5449171,-12.176749,-2.1545901,0.04026298,1.7550296,-0.5023568,-0.63976693,0
0.46000000000000024,20.99999992009316,0.5127661715428641,1.4540870247635491,1.192122540873671,17.619192,-1.0792433,1.8965417,-0.3389128,13.614453,-11.287391,1.4959207,0.60990703,0.20449096,0.54448736,0.5382658,-11.992054,-2.0828116,0.011692606,1.5614389,-0.19707792,-0.54987556,0
0.47000000000000025,20.99999992009316,0.5127661715428641,1.4540870247635491,1.192122540873671,17.619192,-1.0792433,1.8965417,-0.3389128,13.495462,-11.307868,1.4958838,0.6099174,0.20778659,0.5487675,0.5326157,-11.8058195,-2.0125875,-0.01944031,1.3979888,0.06055733,-0.46439523,0
0.48000000000000026,20.99999972597515,-1.3217705821426493,3.6062830655819136,1.0874819619197256,15.322691,-1.4125394,3.4009953,-0.59837973,13.378342,-11.327647,1.4955231,0.6091781,0.21020955,0.55325305,0.5278492,-11.618333,-1.9433415,-0.05309557,1.2599906,0.2779864,-0.38310942,0
0.49000000000000027,20.99999972597515,-1.3217705821426493,3.6062830655819136,1.0874819619197256,15.322691,-1.4125394,3.4009953,-0.59837973,13.2631,-11.346737,1.4948134,0.6074664,0.21102013,0.55804545,0.5244428,-11.429871,-1.8744888,-0.08922068,0.8574597,0.7971742,-0.31094706,0
0.5000000000000002,20.99999972597515,-1.3217705821426493,3.6062830655819136,1.0874819619197256,15.322691,-1.4125394,3.4009953,-0.59837973,13.149746,-11.365135,1.4937308,0.6046049,0.20964132,0.5632214,0.52276665,-11.240904,-1.8049855,-0.12765296,0.5176445,1.2353462,-0.24232572,0
0.5100000000000002,20.99999972597515,-1.3217705821426493,3.6062830655819136,1.0874819619197256,15.322691,-1.4125394,3.4009953,-0.59837973,13.038281,-11.382832,1.4922532,0.6007326,0.20644207,0.56870174,0.5225707,-11.051916,-1.7337625,-0.16822097,0.2307798,1.6051481,-0.17707169,0
0.5200000000000002,20.999999730360457,-3.1973075099234487,5.028359610338088,1.020382095774554,15.51853,-1.9867764,4.357761,-0.62296355,12.928706,-11.399802,1.4903597,0.5959591,0.20172817,0.5744105,0.52363235,-10.863334,-1.659924,-0.21079022,-0.011380468,1.9172518,-0.11501967,0
0.5300000000000002,20.999999730360457,-3.1973075099234487,5.028359610338088,1.020382095774554,15.51853,-1.9867764,4.357761,-0.62296355,12.821012,-11.416019,1.488031,0.590196,0.19500363,0.5802211,0.5262941,-10.67559,-1.582654,-0.25522465,-0.5082737,2.4024472,-0.05930519,0
0.5400000000000003,20.999999730360457,-3.1973075099234487,5.028359610338088,1.020382095774554,15.51853,-1.9867764,4.357761,-0.62296355,12.715188,-11.431441,1.4852499,0.5833518,0.18588342,0.58600503,0.53079754,-10.489324,-1.5008719,-0.30122903,-0.9277075,2.8119416,-0.0063246386,0
0.5500000000000003,20.999999730360457,-3.1973075099234487,5.028359610338088,1.020382095774554,15.51853,-1.9867764,4.357761,-0.62296355,12.611217,-11.446018,1.4820021,0.575498,0.1747485,0.5916873,0.5368157,-10.30523,-1.4135599,-0.34850842,-1.2817519,3.1575506,0.044056155,0
0.5600000000000003,20.999999896952513,-4.495601046005404,5.258358700921914,0.9483891800617096,16.448887,-2.7965388,4.697157,-0.43713865,12.509073,-11.459691,1.4782761,0.5666899,0.16191766,0.59719586,0.5440608,-10.123991,-1.3199072,-0.39683703,-1.5805974,3.4492447,0.091964744,0
0.5700000000000003,20.999999896952513,-4.495601046005404,5.258358700921914,0.9483891800617096,16.448887,-2.7965388,4.697157,-0.43713865,12.408725,-11.472392,1.4740626,0.55700207,0.14731011,0.6022313,0.55259895,-9.946306,-1.2192631,-0.44601136,-2.0353093,3.7312927,0.13398975,0
0.5800000000000003,20.999999896952513,-4.495601046005404,5.258358700921914,0.9483891800617096,16.448887,-2.7965388,4.697157,-0.43713865,12.310132,-11.48405,1.4693544,0.5464773,0.13087752,0.60653186,0.56245226,-9.773016,-1.1110129,-0.4956766,-2.419114,3.9693415,0.17395256,0
0.5900000000000003,20.999999896952513,-4.495601046005404,5.258358700921914,0.9483891800617096,16.448887,-2.7965388,4.697157,-0.43713865,12.213246,-11.494584,1.4641485,0.5351156,0.11291188,0.6100852,0.57332206,-9.605003,-0.9946842,-0.54549104,-2.743067,4.1702585,0.21195439,0
0.6000000000000003,20.999999963593282,-4.776401658716657,4.469088158043173,0.7828062701585764,17.441479,-4.033689,5.202624,-0.69150555,12.1180105,-11.503915,1.458445,0.5229195,0.093661815,0.61287814,0.584947,-9.443141,-0.8699868,-0.5951969,-3.0164993,4.3398385,0.24809144,0
0.6100000000000003,20.999999963593282,-4.776401658716657,4.469088158043173,0.7828062701585764,17.441479,-4.033689,5.202624,-0.69150555,12.02436,-11.511955,1.4522456,0.5101127,0.07345589,0.61467284,0.59713185,-9.288279,-0.73681414,-0.6445828,-3.291033,4.3598948,0.27433005,0
0.6200000000000003,20.999999963593282,-4.776401658716657,4.469088158043173,0.7828062701585764,17.441479,-4.033689,5.202624,-0.69150555,11.9322195,-11.518622,1.4455553,0.49688512,0.052574247,0.6152922,0.60971844,-9.141199,-0.5953067,-0.69335985,-3.5227497,4.3768253,0.29928112,0
0.6300000000000003,20.999999963593282,-4.776401658716657,4.469088158043173,0.7828062701585764,17.441479,-4.033689,5.202624,-0.69150555,11.841507,-11.523834,1.4383814,0.48319918,0.031148626,0.61480767,0.622543,-9.002633,-0.4457446,-0.7412643,-3.7183266,4.391118,0.32300785,0
0.6400000000000003,20.999999963593282,-4.776401658716657,4.469088158043173,0.7828062701585764,18.966496,-5.1525183,4.8283205,-0.6750456,11.752135,-11.527512,1.4307338,0.46902847,0.009292519,0.61328155,0.6354618,-8.873276,-0.28849548,-0.78810245,-3.8834002,4.4031854,0.34557027,0
0.6500000000000004,20.999999963593282,-4.776401658716657,4.469088158043173,0.7828062701585764,18.966496,-5.1525183,4.8283205,-0.6750456,11.664009,-11.52958,1.4226236,0.45435604,-0.012895679,0.6107682,0.64834917,-8.753781,-0.124006234,-0.8337406,-4.022727,4.413376,0.36702555,0
0.6600000000000004,20.999999963593282,-4.776401658716657,4.469088158043173,0.7828062701585764,18.966496,-5.1525183,4.8283205,-0.6750456,11.577025,-11.529969,1.4140635,0.43917292,-0.035330128,0.6073159,0.66109484,-8.644758,0.047204573,-0.8780969,-4.1403227,4.4219813,0.38742802,0
0.6700000000000004,20.999999963593282,-4.776401658716657,4.469088158043173,0.7828062701585764,18.966496,-5.1525183,4.8283205,-0.6750456,11.491076,-11.528615,1.4050663,0.4234769,-0.057935447,0.60296804,0.6736025,-8.546767,0.2245545,-0.9211337,-4.239577,4.4292493,0.40682936,0
0.6800000000000004,20.99999997620139,-4.262522328241096,3.129619437078186,0.5508213104394358,21.573471,-5.9833064,5.560442,-0.38210544,11.406051,-11.525459,1.3956454,0.40727136,-0.080644995,0.5977635,0.6857881,-8.460317,0.4074046,-0.9628515,-4.323349,4.4353886,0.42527863,0
0.6900000000000004,20.99999997620139,-4.262522328241096,3.129619437078186,0.5508213104394358,21.573471,-5.9833064,5.560442,-0.38210544,11.321829,-11.520451,1.3858138,0.39092574,-0.10296527,0.5916683,0.69749826,-8.385813,0.59504426,-1.0032676,-4.3138237,4.23174,0.43143904,0
0.7000000000000004,20.99999997620139,-4.262522328241096,3.129619437078186,0.5508213104394358,21.573471,-5.9833064,5.560442,-0.38210544,11.238293,-11.513545,1.3755848,0.37475884,-0.124503255,0.5846969,0.70864964,-8.323337,0.78661525,-1.0423342,-4.305791,4.0598507,0.43729717,0
0.7100000000000004,20.99999997620139,-4.262522328241096,3.129619437078186,0.5508213104394358,21.573471,-5.9833064,5.560442,-0.38210544,11.155321,-11.504707,1.3649721,0.35870844,-0.14534114,0.57694334,0.71926385,-8.272852,0.98126084,-1.0799989,-4.299016,3.9147682,0.4428678,0
0.7200000000000004,20.99999989595804,-3.2163550833308063,1.4942644853588234,0.20254641005776916,22.672924,-6.244255,4.7970123,-0.48927912,11.072795,-11.493912,1.3539898,0.34272295,-0.1655489,0.5684858,0.72935474,-8.234304,1.178176,-1.116237,-4.293302,3.7923117,0.4481651,0
0.7300000000000004,20.99999989595804,-3.2163550833308063,1.4942644853588234,0.20254641005776916,22.672924,-6.244255,4.7970123,-0.48927912,10.990594,-11.48114,1.3426523,0.32723853,-0.18459195,0.5594756,0.7388016,-8.207555,1.3765868,-1.1510376,-4.1252213,3.4340138,0.4361125,0
0.7400000000000004,20.99999989595804,-3.2163550833308063,1.4942644853588234,0.20254641005776916,22.672924,-6.244255,4.7970123,-0.48927912,10.908605,-11.466379,1.3309742,0.31262407,-0.20206358,0.5500784,0.7475628,-8.19205,1.5757138,-1.1843411,-3.9833746,3.1315813,0.42465132,0
0.7500000000000004,20.99999989595804,-3.2163550833308063,1.4942644853588234,0.20254641005776916,22.672924,-6.244255,4.7970123,-0.48927912,10.826717,-11.449627,1.3189709,0.29874566,-0.21819149,0.5403655,0.75574374,-8.18715,1.774871,-1.2160794,-3.8636675,2.8763032,0.41375256,0
0.7600000000000005,20.999999755648176,-1.941511290584589,-0.36347198020975424,-0.18715034332288538,22.074604,-5.9367824,3.2071147,-1.0731097,10.744827,-11.430885,1.3066581,0.28548706,-0.23316874,0.53038925,0.7634243,-8.192286,1.9734771,-1.2461977,-3.762643,2.6608279,0.40338862,0
0.7700000000000005,20.999999755648176,-1.941511290584589,-0.36347198020975424,-0.18715034332288538,22.074604,-5.9367824,3.2071147,-1.0731097,10.662839,-11.410162,1.2940527,0.27330148,-0.24647437,0.5203651,0.7705691,-8.20687,2.1710336,-1.2746418,-3.4784727,2.1893306,0.3744107,0
0.7800000000000005,20.999999755648176,-1.941511290584589,-0.36347198020975424,-0.18715034332288538,22.074604,-5.9367824,3.2071147,-1.0731097,10.580662,-11.38747,1.2811716,0.26255822,-0.25771976,0.5104963,0.7771983,-8.229908,2.3671405,-1.3012859,-3.2386549,1.7913394,0.34685472,0
0.7900000000000005,20.999999755648176,-1.941511290584589,-0.36347198020975424,-0.18715034332288538,22.074604,-5.9367824,3.2071147,-1.0731097,10.498217,-11.362826,1.2680336,0.25304696,-0.26723188,0.5007912,0.7834299,-8.260384,2.56151,-1.3259872,-3.036265,1.4553953,0.32065096,0
0.8000000000000005,20.999999356718266,-0.6457518774784949,-1.9707180040005239,-0.5224835310706463,20.036919,-5.545732,1.2108105,-1.7220906,10.415433,-11.336247,1.254659,0.24458574,-0.27528515,0.49124548,0.7893501,-8.297431,2.7539375,-1.3486183,-2.8654604,1.1718264,0.295733,0
0.8100000000000005,20.999999356718266,-0.6457518774784949,-1.9707180040005239,-0.5224835310706463,20.036919,-5.545732,1.2108105,-1.7220906,10.332248,-11.3077545,1.2410688,0.2375105,-0.28149742,0.4820941,0.79494214,-8.340241,2.9442878,-1.3690583,-2.5191853,0.6818813,0.25558287,0
0.8200000000000005,20.999999356718266,-0.6457518774784949,-1.9707180040005239,-0.5224835310706463,20.036919,-5.545732,1.2108105,-1.7220906,10.248611,-11.2773695,1.2272859,0.23208447,-0.28558522,0.4735335,0.8002147,-8.387692,3.132553,-1.387143,-2.2269483,0.26831442,0.21740294,0
0.8300000000000005,20.999999356718266,-0.6457518774784949,-1.9707180040005239,-0.5224835310706463,20.036919,-5.545732,1.2108105,-1.7220906,10.164482,-11.245111,1.2133346,0.22806251,-0.2878903,0.4654923,0.8052473,-8.438695,3.318792,-1.4027061,-1.9803137,-0.08077927,0.18109646,0
0.8400000000000005,20.999999356718266,-0.6457518774784949,-1.9707180040005239,-0.5224835310706463,18.722435,-4.0579886,-0.23044553,-1.8691124,10.079828,-11.211,1.1992409,0.22523458,-0.28869724,0.45790038,0.8100927,-8.492331,3.5030801,-1.4156017,-1.7721628,-0.3754494,0.14657158,0
0.8500000000000005,20.999999356718266,-0.6457518774784949,-1.9707180040005239,-0.5224835310706463,18.722435,-4.0579886,-0.23044553,-1.8691124,9.994629,-11.1750555,1.1850321,0.22342154,-0.28824362,0.4506917,0.8147853,-8.547829,3.6854954,-1.4257048,-1.596489,-0.62417954,0.113740854,0
0.8600000000000005,20.999999356718266,-0.6457518774784949,-1.9707180040005239,-0.5224835310706463,18.722435,-4.0579886,-0.23044553,-1.8691124,9.908868,-11.137296,1.1707368,0.22247113,-0.28672814,0.44380593,0.819347,-8.604539,3.866109,-1.4329112,-1.4482232,-0.83413076,0.082521126,0
0.8700000000000006,20.999999356718266,-0.6457518774784949,-1.9707180040005239,-0.5224835310706463,18.722435,-4.0579886,-0.23044553,-1.8691124,9.8225355,-11.097739,1.1563842,0.22225414,-0.28431714,0.4371891,0.8237914,-8.661911,4.0449796,-1.4371356,-1.323088,-1.0113485,0.05283338,0
0.8800000000000006,20.999998986167682,0.37593686981443153,-2.9594467575182213,-0.8312242585779294,16.666624,-2.1717691,-1.473833,-1.5362338,9.735628,-11.056403,1.1420046,0.22266115,-0.2811503,0.43079355,0.8281262,-8.71948,4.2221527,-1.4383107,-1.217474,-1.1609355,0.024602415,0
0.8900000000000006,20.999998986167682,0.37593686981443153,-2.9594467575182213,-0.8312242585779294,16.666624,-2.1717691,-1.473833,-1.5362338,9.648147,-11.013303,1.1276287,0.22391526,-0.27694193,0.42481795,0.83228266,-8.776798,4.3976755,-1.4363836,-0.969017,-1.4413816,-0.017393254,0
0.9000000000000006,20.999998986167682,0.37593686981443153,-2.9594467575182213,-0.8312242585779294,16.666624,-2.1717691,-1.473833,-1.5362338,9.560096,-10.968454,1.1132878,0.22618766,-0.27147013,0.41941556,0.8362017,-8.833196,4.5716653,-1.4313055,-0.75931835,-1.6781051,-0.057328187,0
0.9100000000000006,20.999998986167682,0.37593686981443153,-2.9594467575182213,-0.8312242585779294,16.666624,-2.1717691,-1.473833,-1.5362338,9.471488,-10.921875,1.0990136,0.22932246,-0.26492837,0.41448477,0.83989656,-8.8880005,4.744239,-1.4230409,-0.58232975,-1.8779217,-0.09530349,0
0.9200000000000006,20.999996911846672,1.0724055609415915,-3.5595508273185037,-0.9970329969481283,15.946645,-1.3411945,-2.0241644,-1.507116,9.382343,-10.873575,1.0848382,0.23318744,-0.2574792,0.40993768,0.84337354,-8.940642,4.915475,-1.4115711,-0.4329471,-2.046584,-0.13141535,0
0.9300000000000006,20.999996911846672,1.0724055609415915,-3.5595508273185037,-0.9970329969481283,15.946645,-1.3411945,-2.0241644,-1.507116,9.2926855,-10.82357,1.0707933,0.2378566,-0.24899937,0.40587193,0.84657615,-8.990602,5.0854278,-1.3968952,-0.1982711,-2.2825444,-0.17389147,0
0.9400000000000006,20.999996911846672,1.0724055609415915,-3.5595508273185037,-0.9970329969481283,15.946645,-1.3411945,-2.0241644,-1.507116,9.202543,-10.771872,1.0569112,0.2433793,-0.23939538,0.40235668,0.84944993,-9.037246,5.254174,-1.3790334,-0.00019725412,-2.481715,-0.21428329,0
0.9500000000000006,20.999996911846672,1.0724055609415915,-3.5595508273185037,-0.9970329969481283,15.946645,-1.3411945,-2.0241644,-1.507116,9.111954,-10.718491,1.0432236,0.24961856,-0.22883381,0.39928284,0.85199684,-9.079969,5.4217625,-1.3580263,0.16698493,-2.64983,-0.25269306,0
0.9600000000000006,20.738664285008866,1.3975956156840308,-3.7960232131666323,-1.086916439284276,15.217791,-0.75279385,-1.7281209,-1.4733545,9.020958,-10.663439,1.0297614,0.25645804,-0.21745577,0.3965574,0.85421556,-9.118257,5.588196,-1.3339314,0.3080952,-2.7917309,-0.28921804,0
0.9700000000000006,20.738664285008866,1.3975956156840308,-3.7960232131666323,-1.086916439284276,15.217791,-0.75279385,-1.7281209,-1.4733545,8.929607,-10.606739,1.0165477,0.26387322,-0.20527084,0.39418522,0.8560681,-9.1512375,5.7513824,-1.3083832,0.47789755,-2.9483938,-0.32836133,0
0.9800000000000006,20.738664285008866,1.3975956156840308,-3.7960232131666323,-1.086916439284276,15.217791,-0.75279385,-1.7281209,-1.4733545,8.837953,-10.548414,1.0036037,0.2718369,-0.1922921,0.39216352,0.85751736,-9.178926,5.9133453,-1.2799623,0.6212211,-3.0806267,-0.36558387,0
0.9900000000000007,20.738664285008866,1.3975956156840308,-3.7960232131666323,-1.086916439284276,15.217791,-0.75279385,-1.7281209,-1.4733545,8.746049,-10.488477,0.99095774,0.28025377,-0.1786359,0.3904089,0.8585614,-9.200901,6.074004,-1.2487893,0.7421962,-3.1922383,-0.40097988,0
1.0000000000000007,20.057432595167214,1.292128965822348,-3.5792061179348473,-1.0911221359627823,15.162415,-0.8280576,-1.53765,-1.3367244,8.653955,-10.426939,0.9786368,0.28904256,-0.16440193,0.38885108,0.85919785,-9.216806,6.233243,-1.214998,0.8443088,-3.2864435,-0.43463898,0
1.0100000000000007,20.057432595167214,1.292128965822348,-3.5792061179348473,-1.0911221359627823,15.162415,-0.8280576,-1.53765,-1.3367244,8.561737,-10.363844,0.96664435,0.29809403,-0.1497631,0.38742042,0.85942775,-9.226044,6.3857374,-1.1831498,0.91406333,-3.3321383,-0.46685278,0
1.0200000000000007,20.057432595167214,1.292128965822348,-3.5792061179348473,-1.0911221359627823,15.162415,-0.8280576,-1.53765,-1.3367244,8.469458,-10.299232,0.95498157,0.30731958,-0.13486347,0.38606164,0.859257,-9.228952,6.5365596,-1.1490741,0.97294337,-3.3707058,-0.4974859,0
1.0300000000000007,20.057432595167214,1.292128965822348,-3.5792061179348473,-1.0911221359627823,15.162415,-0.8280576,-1.53765,-1.3367244,8.37718,-10.23312,0.94367003,0.31668216,-0.119743615,0.38473985,0.85869014,-9.225408,6.685538,-1.1129388,1.0226451,-3.403257,-0.5266158,0
1.0400000000000007,20.057432595167214,1.292128965822348,-3.5792061179348473,-1.0911221359627823,14.516452,-1.4158407,-0.9466197,-1.1596528,8.284972,-10.165528,0.93272936,0.32614964,-0.104438916,0.38342583,0.85773146,-9.215308,6.8324876,-1.0749147,1.0645994,-3.4307299,-0.5543162,0
1.0500000000000007,20.057432595167214,1.292128965822348,-3.5792061179348473,-1.0911221359627823,14.516452,-1.4158407,-0.9466197,-1.1596528,8.192897,-10.0964775,0.9221776,0.33569396,-0.08898028,0.3820955,0.85638475,-9.198586,6.9772162,-1.0351744,1.1000147,-3.453916,-0.58065736,0
1.0600000000000007,20.057432595167214,1.292128965822348,-3.5792061179348473,-1.0911221359627823,14.516452,-1.4158407,-0.9466197,-1.1596528,8.101023,-10.025992,0.9120311,0.3452905,-0.07339478,0.38072875,0.85465384,-9.175195,7.119522,-0.9938913,1.1299107,-3.4734848,-0.60570604,0
1.0700000000000007,20.057432595167214,1.292128965822348,-3.5792061179348473,-1.0911221359627823,14.516452,-1.4158407,-0.9466197,-1.1596528,8.009416,-9.954097,0.9023044,0.35491756,-0.05770628,0.37930906,0.8525421,-9.14511,7.2592,-0.9512407,1.1551479,-3.4899998,-0.6295255,0
1.0800000000000007,19.323069464788063,0.781850933156035,-2.729427516714282,-0.9460800221486305,15.219094,-1.7976631,-0.83518785,-0.9621266,7.9181433,-9.880817,0.8930104,0.36455578,-0.041935854,0.3778228,0.85005313,-9.108334,7.3960414,-0.9073982,1.1764525,-3.5039375,-0.6521762,0
1.0900000000000007,19.323069464788063,0.781850933156035,-2.729427516714282,-0.9460800221486305,15.219094,-1.7976631,-0.83518785,-0.9621266,7.8272643,-9.8062105,0.8841338,0.3740386,-0.026459478,0.37621307,0.8472654,-9.066505,7.524946,-0.8677732,1.1149341,-3.3831375,-0.6665982,0
1.1000000000000008,19.323069464788063,0.781850933156035,-2.729427516714282,-0.9460800221486305,15.219094,-1.7976631,-0.83518785,-0.9621266,7.736834,-9.7303295,0.8756578,0.3832414,-0.011577374,0.37444574,0.8442644,-9.018528,7.6507936,-0.8273262,1.0630049,-3.2811787,-0.68031245,0
1.1100000000000008,19.323069464788063,0.781850933156035,-2.729427516714282,-0.9460800221486305,15.219094,-1.7976631,-0.83518785,-0.9621266,7.646914,-9.653205,0.8675897,0.39220363,0.0027958634,0.3725397,0.8410604,-8.964691,7.77348,-0.78619844,1.0191698,-3.195123,-0.6933537,0
1.1200000000000008,18.45235121150733,-0.03691219051575674,-1.6690246513851554,-0.6881007826144501,14.895288,-2.5590696,-0.25416294,-0.6972209,7.5575604,-9.574871,0.85993576,0.40095726,0.016732652,0.37051007,0.83766073,-8.905252,7.8929086,-0.744518,0.9821675,-3.1224892,-0.70575505,0
1.1300000000000008,18.45235121150733,-0.03691219051575674,-1.6690246513851554,-0.6881007826144501,14.895288,-2.5590696,-0.25416294,-0.6972209,7.4688134,-9.495385,0.8526693,0.40935352,0.029818894,0.3682676,0.8342178,-8.843404,8.003772,-0.70871276,0.8233483,-2.8957489,-0.70488876,0
1.1400000000000008,18.45235121150733,-0.03691219051575674,-1.6690246513851554,-0.6881007826144501,14.895288,-2.5590696,-0.25416294,-0.6972209,7.380708,-9.414806,0.8457628,0.4172855,0.04173063,0.3657538,0.8308763,-8.776937,8.11146,-0.6725294,0.6892805,-2.70438,-0.70406497,0
1.1500000000000008,18.45235121150733,-0.03691219051575674,-1.6690246513851554,-0.6881007826144501,14.895288,-2.5590696,-0.25416294,-0.6972209,7.293289,-9.333167,0.8392199,0.424831,0.052646592,0.36301845,0.8276258,-8.70633,8.216018,-0.63598424,0.5761063,-2.542865,-0.7032816,0
1.1600000000000008,17.51544415306509,-0.9587322516637161,-0.6813132371426001,-0.280780334716528,14.381773,-2.8365836,0.36623892,-0.35395727,7.206595,-9.250498,0.83304435,0.43205318,0.062718384,0.36010104,0.82445353,-8.631994,8.317492,-0.5990861,0.48057014,-2.406546,-0.7025366,0
1.1700000000000008,17.51544415306509,-0.9587322516637161,-0.6813132371426001,-0.280780334716528,14.381773,-2.8365836,0.36623892,-0.35395727,7.120641,-9.166854,0.8272051,0.43884578,0.07160708,0.35689917,0.8215289,-8.55826,8.410936,-0.56869906,0.25626385,-2.1373909,-0.6818409,0
1.1800000000000008,17.51544415306509,-0.9587322516637161,-0.6813132371426001,-0.280780334716528,14.381773,-2.8365836,0.36623892,-0.35395727,7.035439,-9.082289,0.8216719,0.4451308,0.07905289,0.35333952,0.81899965,-8.481882,8.501633,-0.5378855,0.066911474,-1.9102314,-0.6621607,0
1.1900000000000008,17.51544415306509,-0.9587322516637161,-0.6813132371426001,-0.280780334716528,14.381773,-2.8365836,0.36623892,-0.35395727,6.951011,-8.996829,0.81644934,0.45099077,0.085281126,0.34948733,0.8168189,-8.403381,8.5897255,-0.50654185,-0.09293343,-1.7185144,-0.6434463,0
1.2000000000000008,16.655106624014856,-1.7800252151253866,0.10376424045348646,0.19839388152883664,15.520399,-3.290676,0.3747979,0.26219597,6.8673773,-8.910502,0.8115432,0.45649222,0.090482205,0.34539455,0.814942,-8.3231945,8.675346,-0.47457516,-0.22786832,-1.5567095,-0.6256502,0
1.2100000000000009,16.655106624014856,-1.7800252151253866,0.10376424045348646,0.19839388152883664,15.520399,-3.290676,0.3747979,0.26219597,6.784532,-8.823352,0.8069282,0.46156338,0.09443096,0.34097424,0.8134977,-8.24572,8.754537,-0.44831496,-0.46978647,-1.297673,-0.58521414,0
1.2200000000000009,16.655106624014856,-1.7800252151253866,0.10376424045348646,0.19839388152883664,15.520399,-3.290676,0.3747979,0.26219597,6.7024655,-8.735419,0.8025798,0.4661464,0.096958816,0.33616033,0.8125901,-8.16751,8.831673,-0.4212264,-0.6740068,-1.0790583,-0.5467622,0
1.2300000000000009,16.655106624014856,-1.7800252151253866,0.10376424045348646,0.19839388152883664,15.520399,-3.290676,0.3747979,0.26219597,6.621183,-8.646724,0.79850703,0.47030735,0.098290116,0.3310171,0.8121438,-8.089036,8.906927,-0.39316183,-0.84640265,-0.89455634,-0.5101972,0
1.2400000000000009,16.655106624014856,-1.7800252151253866,0.10376424045348646,0.19839388152883664,15.978884,-3.382039,0.28416666,0.62032306,6.5406847,-8.557285,0.79472035,0.47409934,0.09861395,0.3255965,0.812091,-8.0106945,8.98045,-0.36399856,-0.9919319,-0.73884284,-0.47542647,0
1.2500000000000009,16.655106624014856,-1.7800252151253866,0.10376424045348646,0.19839388152883664,15.978884,-3.382039,0.28416666,0.62032306,6.460967,-8.46712,0.7912313,0.47756538,0.0980897,0.3199407,0.81237143,-7.9328237,9.05237,-0.333637,-1.1147807,-0.60742456,-0.4423619,0
1.260000000000001,16.655106624014856,-1.7800252151253866,0.10376424045348646,0.19839388152883664,15.978884,-3.382039,0.28416666,0.62032306,6.382025,-8.376243,0.78805214,0.48074076,0.09685174,0.31408408,0.81293225,-7.8557096,9.122798,-0.30199847,-1.2184829,-0.4965102,-0.4109198,0
1.270000000000001,16.655106624014856,-1.7800252151253866,0.10376424045348646,0.19839388152883664,15.978884,-3.382039,0.28416666,0.62032306,6.3038497,-8.284669,0.78519595,0.4836545,0.09501331,0.30805513,0.8137275,-7.7795978,9.191829,-0.26902282,-1.306022,-0.40289983,-0.3810206,0
1.280000000000001,16.533105129181422,-2.4348135389629904,0.8940859002755899,0.7045405791116872,15.835149,-3.246403,0.23145089,0.71992075,6.2264295,-8.192411,0.78267646,0.48633084,0.09266994,0.30187735,0.8147173,-7.7046995,9.259536,-0.23466615,-1.379917,-0.32389295,-0.3525886,1
1.290000000000001,16.533105129181422,-2.4348135389629904,0.8940859002755899,0.7045405791116872,15.835149,-3.246403,0.23145089,0.71992075,6.1497326,-8.0995,0.78047466,0.48877463,0.08959364,0.29511026,0.8160771,-7.634847,9.322703,-0.20546596,-1.6709664,-0.23727727,-0.29996026,1
1.300000000000001,16.533105129181422,-2.4348135389629904,0.8940859002755899,0.7045405791116872,15.835149,-3.246403,0.23145089,0.71992075,6.073726,-8.005962,0.7785724,0.4909754,0.08560717,0.28740063,0.8179333,-7.56672,9.384636,-0.1747345,-1.916635,-0.16419357,-0.24991442,1
1.310000000000001,16.533105129181422,-2.4348135389629904,0.8940859002755899,0.7045405791116872,15.835149,-3.246403,0.23145089,0.71992075,5.9983907,-7.9118114,0.7769858,0.4929306,0.08085316,0.2788839,0.82018626,-7.500702,9.445284,-0.1423053,-2.1239984,-0.10252481,-0.20232433,1
1.320000000000001,16.135186699749116,-2.864703826664326,1.2912053804490766,1.1311406312038281,16.036158,-3.5603266,-0.08238092,1.1450175,5.9237037,-7.8170605,0.77573246,0.49463728,0.07545195,0.26967412,0.82274926,-7.4371276,9.504593,-0.10806127,-2.2990284,-0.05048598,-0.15706949,0
1.330000000000001,16.135186699749116,-2.864703826664326,1.2912053804490766,1.1311406312038281,16.036158,-3.5603266,-0.08238092,1.1450175,5.8496447,-7.7217183,0.7748437,0.49592748,0.069245234,0.26020035,0.8255642,-7.375146,9.563639,-0.06939469,-2.3872297,0.15866089,-0.09385664,0
1.340000000000001,16.135186699749116,-2.864703826664326,1.2912053804490766,1.1311406312038281,16.036158,-3.5603266,-0.08238092,1.1450175,5.7761903,-7.6257925,0.77435106,0.49666965,0.06211351,0.25081006,0.82858616,-7.3162656,9.621441,-0.02883938,-2.4616935,0.3351889,-0.033745676,0
1.350000000000001,16.135186699749116,-2.864703826664326,1.2912053804490766,1.1311406312038281,16.036158,-3.5603266,-0.08238092,1.1450175,5.703308,-7.5292935,0.77427316,0.49690977,0.0542029,0.2414823,0.8317623,-7.2607656,9.67817,0.01354068,-2.5245574,0.4841866,0.023415612,0
1.360000000000001,15.496184763464182,-2.9093671366585494,1.2161196534511378,1.4540170526756901,15.360069,-3.6203337,-0.13085714,1.6712972,5.6309633,-7.432232,0.77462786,0.496686,0.04563701,0.2321996,0.8350468,-7.208886,9.733962,0.057668958,-2.5776262,0.60994846,0.077771984,0
1.370000000000001,15.496184763464182,-2.9093671366585494,1.2161196534511378,1.4540170526756901,15.360069,-3.6203337,-0.13085714,1.6712972,5.5591083,-7.334628,0.7754038,0.49600473,0.036545888,0.22291589,0.8384222,-7.1627398,9.78674,0.09775999,-2.6293964,0.7043621,0.14530472,0
1.380000000000001,15.496184763464182,-2.9093671366585494,1.2161196534511378,1.4540170526756901,15.360069,-3.6203337,-0.13085714,1.6712972,5.487695,-7.2365,0.77658826,0.4948671,0.027039235,0.21359451,0.84187424,-7.1204457,9.838774,0.13935804,-2.673098,0.78405446,0.2095236,0
1.390000000000001,15.496184763464182,-2.9093671366585494,1.2161196534511378,1.4540170526756901,15.360069,-3.6203337,-0.13085714,1.6712972,5.416685,-7.137855,0.7781958,0.4932964,0.017186185,0.2042352,0.8453702,-7.0821543,9.890093,0.1823671,-2.709987,0.851322,0.27059126,0
1.400000000000001,14.773714178307955,-2.826284171629602,0.6628416048838821,1.6577391613875554,16.99514,-3.751917,-1.5147122,2.125913,5.346038,-7.0387006,0.78024006,0.49131334,0.007045239,0.19483842,0.84888107,-7.0479956,9.940714,0.22668296,-2.7411246,0.90810275,0.3286623,0
1.410000000000001,14.773714178307955,-2.826284171629602,0.6628416048838821,1.6577391613875554,16.99514,-3.751917,-1.5147122,2.125913,5.275704,-6.9390554,0.78270006,0.48895767,-0.0031246545,0.18532503,0.8523877,-7.0194674,9.988299,0.26550105,-2.7544339,0.86973464,0.3938805,0
1.420000000000001,14.773714178307955,-2.826284171629602,0.6628416048838821,1.6577391613875554,16.99514,-3.751917,-1.5147122,2.125913,5.2056346,-6.838938,0.7855536,0.4862596,-0.013114451,0.17563473,0.85588056,-6.995005,10.035124,0.30536422,-2.7656643,0.8373552,0.4558984,0
1.430000000000001,14.773714178307955,-2.826284171629602,0.6628416048838821,1.6577391613875554,16.99514,-3.751917,-1.5147122,2.125913,5.1357894,-6.7383566,0.7888106,0.48322424,-0.022945976,0.16579418,0.85934836,-6.974614,10.081084,0.34617656,-2.775141,0.81003064,0.5148731,0
1.440000000000001,14.773714178307955,-2.826284171629602,0.6628416048838821,1.6577391613875554,17.338024,-3.7030926,-2.451367,2.5681093,5.0661283,-6.6373196,0.79248005,0.4798575,-0.03263793,0.15582629,0.8627799,-6.9582953,10.126082,0.38783962,-2.7831378,0.7869721,0.57095385,0
1.450000000000001,14.773714178307955,-2.826284171629602,0.6628416048838821,1.6577391613875554,17.338024,-3.7030926,-2.451367,2.5681093,4.99661,-6.535838,0.79656994,0.47616592,-0.042206325,0.1457508,0.8661645,-6.9460483,10.170025,0.4302527,-2.789886,0.7675146,0.62428266,0
1.460000000000001,14.773714178307955,-2.826284171629602,0.6628416048838821,1.6577391613875554,17.338024,-3.7030926,-2.451367,2.5681093,4.9271936,-6.433923,0.8010873,0.47215655,-0.051664826,0.13558486,0.86949134,-6.937868,10.212823,0.4733133,-2.7955801,0.7510961,0.67499465,0
1.470000000000001,14.773714178307955,-2.826284171629602,0.6628416048838821,1.6577391613875554,17.338024,-3.7030926,-2.451367,2.5681093,4.857838,-6.3315854,0.80603814,0.46783683,-0.061025083,0.12534331,0.87275046,-6.933747,10.25439,0.5169174,-2.8003857,0.7372428,0.72321814,0
1.480000000000001,14.451486317070609,-2.496320937583196,0.4360721905585168,1.6729069226213915,18.661777,-3.9273567,-3.4719326,3.1265438,4.7885046,-6.2288394,0.81142724,0.4632143,-0.070296995,0.115039065,0.87593174,-6.9336724,10.294644,0.56095976,-2.804441,0.7255544,0.7690753,0
1.490000000000001,14.451486317070609,-2.496320937583196,0.4360721905585168,1.6729069226213915,18.661777,-3.9273567,-3.4719326,3.1265438,4.7191515,-6.125702,0.8172429,0.4583157,-0.07934833,0.10475772,0.8790199,-6.9375343,10.332658,0.6022272,-2.756387,0.68035424,0.81342655,0
1.500000000000001,14.451486317070609,-2.496320937583196,0.4360721905585168,1.6729069226213915,18.661777,-3.9273567,-3.4719326,3.1265438,4.64974,-6.022191,0.8234725,0.45316628,-0.08807563,0.09456959,0.8820087,-6.9452434,10.369233,0.64371955,-2.7158275,0.64220524,0.8556015,0
1.5100000000000011,14.451486317070609,-2.496320937583196,0.4360721905585168,1.6729069226213915,18.661777,-3.9273567,-3.4719326,3.1265438,4.580233,-5.9183226,0.83011776,0.4477719,-0.09652538,0.0844644,0.88490033,-6.956701,10.404302,0.6853415,-2.6815934,0.6100078,0.8957069,0
1.5200000000000011,14.089782060772094,-2.104490820614285,-0.09873144221460532,1.6173227047162855,18.199986,-3.6643867,-3.8647375,3.2641652,4.510593,-5.8141108,0.8371795,0.44213855,-0.104736835,0.07443338,0.88769543,-6.9718146,10.437797,0.72700185,-2.652699,0.5828336,0.9338443,0
1.5300000000000011,14.089782060772094,-2.104490820614285,-0.09873144221460532,1.6173227047162855,18.199986,-3.6643867,-3.8647375,3.2641652,4.440787,-5.709576,0.8446402,0.43631107,-0.11248462,0.0645138,0.89040303,-6.9900193,10.468853,0.7651191,-2.567152,0.47653967,0.96738285,0
1.5400000000000011,14.089782060772094,-2.104490820614285,-0.09873144221460532,1.6173227047162855,18.199986,-3.6643867,-3.8647375,3.2641652,4.370782,-5.604739,0.85248154,0.4303291,-0.11959297,0.05473699,0.89303863,-7.011513,10.498224,0.80313116,-2.4949517,0.38681996,0.99927557,0
1.5500000000000012,14.089782060772094,-2.104490820614285,-0.09873144221460532,1.6173227047162855,18.199986,-3.6643867,-3.8647375,3.2641652,4.300546,-5.499618,0.86070234,0.42419127,-0.12615927,0.045087535,0.8956073,-7.036106,10.5258255,0.8409891,-2.4340167,0.31108987,1.0296034,0
1.5600000000000012,13.49460545559089,-1.6329940677668235,-0.8075759212278399,1.431903880253084,17.104305,-3.6495953,-4.033729,2.871257,4.2300496,-5.39423,0.8693007,0.4178969,-0.13226564,0.03555189,0.8981112,-7.063632,10.551582,0.87864685,-2.3825893,0.24716808,1.058443,0
1.5700000000000012,13.49460545559089,-1.6329940677668235,-0.8075759212278399,1.431903880253084,17.104305,-3.6495953,-4.033729,2.871257,4.159271,-5.288598,0.8782459,0.41150215,-0.13764897,0.026167098,0.9005741,-7.0926433,10.574417,0.9103412,-2.2655785,0.08273479,1.0767688,0
1.5800000000000012,13.49460545559089,-1.6329940677668235,-0.8075759212278399,1.431903880253084,17.104305,-3.6495953,-4.033729,2.871257,4.0881896,-5.1827474,0.8875068,0.40505594,-0.14210555,0.016963705,0.9030214,-7.124049,10.595329,0.94180226,-2.1668293,-0.05606422,1.0941954,0
1.5900000000000012,13.49460545559089,-1.6329940677668235,-0.8075759212278399,1.431903880253084,17.104305,-3.6495953,-4.033729,2.871257,4.016783,-5.0766983,0.89708114,0.3985487,-0.14577918,0.007921248,0.90545255,-7.1575933,10.614233,0.97303593,-2.0834925,-0.17322531,1.1107669,0
1.6000000000000012,13.090155883715545,-1.2026355552837031,-1.5512868250130922,1.1756155891494529,19.205824,-4.1524625,-4.9869018,3.0089467,3.9450316,-4.97047,0.90696675,0.39197257,-0.14879093,-0.0009784072,0.9078643,-7.1930513,10.631061,1.0040457,-2.0131636,-0.27212176,1.1265253,0
1.6100000000000012,13.090155883715545,-1.2026355552837031,-1.5512868250130922,1.1756155891494529,19.205824,-4.1524625,-4.9869018,3.0089467,3.872922,-4.8640866,0.917142,0.38537526,-0.15090534,-0.009715293,0.91028494,-7.2290964,10.645308,1.0309756,-1.8866152,-0.47151694,1.1289341,0
1.6200000000000012,13.090155883715545,-1.2026355552837031,-1.5512868250130922,1.1756155891494529,19.205824,-4.1524625,-4.9869018,3.0089467,3.800445,-4.757571,0.92758566,0.37879753,-0.1519415,-0.018273044,0.9127386,-7.266503,10.657394,1.0577329,-1.7798243,-0.63983065,1.1312249,0
1.6300000000000012,13.090155883715545,-1.2026355552837031,-1.5512868250130922,1.1756155891494529,19.205824,-4.1524625,-4.9869018,3.0089467,3.7275884,-4.6509466,0.9382962,0.37222418,-0.1520666,-0.026672026,0.915212,-7.304985,10.667248,1.0843598,-1.6897063,-0.78190774,1.1334032,0
1.6400000000000012,13.090155883715545,-1.2026355552837031,-1.5512868250130922,1.1756155891494529,18.953571,-3.8915057,-5.2332993,2.8362634,3.6543427,-4.5442348,0.9492725,0.3656426,-0.15142147,-0.034930304,0.9176908,-7.344295,10.674807,1.1108886,-1.6136583,-0.90183806,1.1354744,0
1.6500000000000012,13.090155883715545,-1.2026355552837031,-1.5512868250130922,1.1756155891494529,18.953571,-3.8915057,-5.2332993,2.8362634,3.5807002,-4.437459,0.9605137,0.3590425,-0.1501247,-0.0430638,0.9201609,-7.384217,10.680026,1.1373429,-1.5494834,-1.0030739,1.1374441,0
1.6600000000000013,13.090155883715545,-1.2026355552837031,-1.5512868250130922,1.1756155891494529,18.953571,-3.8915057,-5.2332993,2.8362634,3.5066566,-4.330642,0.97201914,0.3524157,-0.14827618,-0.0510865,0.92260885,-7.424561,10.682867,1.1637381,-1.4953282,-1.0885291,1.1393172,0
1.6700000000000013,13.090155883715545,-1.2026355552837031,-1.5512868250130922,1.1756155891494529,18.953571,-3.8915057,-5.2332993,2.8362634,3.432208,-4.2238092,0.9837883,0.34575585,-0.14596017,-0.05901064,0.92502207,-7.4651613,10.683302,1.1900816,-1.449628,-1.1606638,1.1410984,0
1.6800000000000013,13.325708877002878,-0.7645689149033971,-1.2035506036335601,0.9412664992577418,20.24978,-3.3967865,-5.357638,2.852384,3.357353,-4.116984,0.99582064,0.3390581,-0.14324771,-0.06684687,0.9273892,-7.50587,10.681311,1.2163745,-1.411063,-1.2215542,1.1427921,0
1.6900000000000013,13.325708877002878,-0.7645689149033971,-1.2035506036335601,0.9412664992577418,20.24978,-3.3967865,-5.357638,2.852384,3.282087,-4.010192,1.0081269,0.33238086,-0.14026722,-0.07439915,0.92968404,-7.5472875,10.676813,1.2448499,-1.3102524,-1.2186629,1.1329032,0
1.7000000000000013,13.325708877002878,-0.7645689149033971,-1.2035506036335601,0.9412664992577418,20.24978,-3.3967865,-5.357638,2.852384,3.2064075,-3.9034564,1.0207175,0.32577717,-0.13712549,-0.081514366,0.931891,-7.5885615,10.669923,1.2732646,-1.2251627,-1.2162359,1.1234996,0
1.7100000000000013,13.325708877002878,-0.7645689149033971,-1.2035506036335601,0.9412664992577418,20.24978,-3.3967865,-5.357638,2.852384,3.1303167,-3.7968013,1.033592,0.31923622,-0.1338483,-0.088258885,0.93401444,-7.6295877,10.660736,1.3016142,-1.153342,-1.2141982,1.1145573,0
1.7200000000000013,13.161256058676829,-0.28405056022930164,-0.77746278287604,0.6924164632093002,20.34433,-3.0864646,-5.5835857,2.7505627,3.053817,-3.6902492,1.0467496,0.31274873,-0.1304569,-0.094688796,0.93605715,-7.6702747,10.649336,1.3298931,-1.0927212,-1.2124877,1.1060538,0
1.7300000000000013,13.161256058676829,-0.28405056022930164,-0.77746278287604,0.6924164632093002,20.34433,-3.0864646,-5.5835857,2.7505627,2.976915,-3.583821,1.0601819,0.3063774,-0.12706636,-0.10062256,0.9380095,-7.7100487,10.635977,1.3565372,-0.96667373,-1.1445422,1.0857565,0
1.7400000000000013,13.161256058676829,-0.28405056022930164,-0.77746278287604,0.6924164632093002,20.34433,-3.0864646,-5.5835857,2.7505627,2.8996174,-3.4775364,1.0738801,0.30017775,-0.1237703,-0.10592064,0.9398695,-7.749353,10.620682,1.3831079,-0.8602732,-1.0872103,1.0664552,0
1.7500000000000013,13.161256058676829,-0.28405056022930164,-0.77746278287604,0.6924164632093002,20.34433,-3.0864646,-5.5835857,2.7505627,2.8219295,-3.3714137,1.0878435,0.29413202,-0.12055559,-0.11068308,0.9416484,-7.7881436,10.603617,1.4096102,-0.7704577,-1.0388336,1.0481012,0
1.7600000000000013,12.710552299202142,0.1537037938404201,-0.4118440232738162,0.4412648607020031,17.337803,-1.9082922,-5.4564986,2.1535933,2.7438562,-3.26547,1.1020719,0.2882246,-0.11741051,-0.114994146,0.94335437,-7.826382,10.584927,1.4360497,-0.6946419,-0.9980133,1.0306476,0
1.7700000000000014,12.710552299202142,0.1537037938404201,-0.4118440232738162,0.4412648607020031,17.337803,-1.9082922,-5.4564986,2.1535933,2.6654098,-3.159717,1.1165429,0.28250867,-0.11440928,-0.11872131,0.9449891,-7.86275,10.565438,1.458171,-0.56242144,-0.90650123,1.0017264,0
1.7800000000000014,12.710552299202142,0.1537037938404201,-0.4118440232738162,0.4412648607020031,17.337803,-1.9082922,-5.4564986,2.1535933,2.586603,-3.0541656,1.1312351,0.27703035,-0.111610964,-0.12176452,0.9465571,-7.8985434,10.544696,1.4802551,-0.4508074,-0.8292787,0.9742244,0
1.7900000000000014,12.710552299202142,0.1537037938404201,-0.4118440232738162,0.4412648607020031,17.337803,-1.9082922,-5.4564986,2.1535933,2.5074408,-2.948827,1.146148,0.27176672,-0.10898502,-0.12423267,0.94806707,-7.9337564,10.52288,1.5023209,-0.3565885,-0.7641139,0.94807184,0
1.8000000000000014,11.943491750739827,0.5626318039328172,-0.068147077942232,0.2161959348948013,18.80909,-2.7251194,-5.702856,2.7314918,2.4279299,-2.8437114,1.1612815,0.26669753,-0.10650512,-0.12621734,0.9495252,-7.968386,10.500145,1.5243858,-0.27705437,-0.70912385,0.92320263,0
1.8100000000000014,11.943491750739827,0.5626318039328172,-0.068147077942232,0.2161959348948013,18.80909,-2.7251194,-5.702856,2.7314918,2.3480856,-2.7388198,1.1765995,0.26186606,-0.10423253,-0.12760666,0.95093536,-8.00038,10.478053,1.539215,-0.14617978,-0.60908175,0.8885096,0
1.8200000000000014,11.943491750739827,0.5626318039328172,-0.068147077942232,0.2161959348948013,18.80909,-2.7251194,-5.702856,2.7314918,2.267924,-2.6341522,1.1920658,0.25730923,-0.102215044,-0.1283168,0.95230174,-8.031841,10.455409,1.5540842,-0.035701178,-0.5246585,0.85551894,0
1.8300000000000014,11.943491750739827,0.5626318039328172,-0.068147077942232,0.2161959348948013,18.80909,-2.7251194,-5.702856,2.7314918,2.1874506,-2.529713,1.2076813,0.25300083,-0.10041326,-0.12845623,0.953628,-8.06279,10.432384,1.5690181,0.057559453,-0.453415,0.8241471,0
1.8400000000000014,11.943491750739827,0.5626318039328172,-0.068147077942232,0.2161959348948013,18.50109,-2.3606076,-5.60562,2.5173118,2.10667,-2.4255054,1.2234465,0.24891788,-0.09879347,-0.12811615,0.9549166,-8.093244,10.409122,1.5840381,0.13628535,-0.393293,0.79431474,0
1.8500000000000014,11.943491750739827,0.5626318039328172,-0.068147077942232,0.2161959348948013,18.50109,-2.3606076,-5.60562,2.5173118,2.0255873,-2.321531,1.2393624,0.24504001,-0.09732691,-0.12737319,0.9561687,-8.123219,10.385749,1.5991626,0.20274134,-0.34255606,0.7659463,0
1.8600000000000014,11.943491750739827,0.5626318039328172,-0.068147077942232,0.2161959348948013,18.50109,-2.3606076,-5.60562,2.5173118,1.9442073,-2.2177906,1.25543,0.24134934,-0.09598909,-0.1262918,0.9573853,-8.152733,10.362364,1.6144061,0.2588395,-0.29973865,0.7389699,0
1.8700000000000014,11.943491750739827,0.5626318039328172,-0.068147077942232,0.2161959348948013,18.50109,-2.3606076,-5.60562,2.5173118,1.8625343,-2.1142838,1.2716509,0.23783001,-0.094759196,-0.124926224,0.95856696,-8.1818,10.339059,1.6297811,0.30619386,-0.26360428,0.7133172,0
1.8800000000000014,12.248246462589899,0.6020383920243821,0.5827881030977393,0.06619388089542053,19.01432,-1.5272187,-4.466528,1.19447,1.7805728,-2.0110092,1.2880263,0.23446801,-0.09361956,-0.12332206,0.95971423,-8.210433,10.315906,1.6452975,0.3461674,-0.23310986,0.6889233,0
1.8900000000000015,12.248246462589899,0.6020383920243821,0.5827881030977393,0.06619388089542053,19.01432,-1.5272187,-4.466528,1.19447,1.6983232,-1.907968,1.304572,0.23130217,-0.0927994,-0.121443585,0.96080106,-8.239378,10.29239,1.6638643,0.38601092,-0.105860785,0.65836585,0
1.9000000000000015,12.248246462589899,0.6020383920243821,0.5827881030977393,0.06619388089542053,19.01432,-1.5272187,-4.466528,1.19447,1.6157861,-1.8051604,1.3213042,0.22836418,-0.09247968,-0.11926557,0.96180695,-8.267995,10.269205,1.6825784,0.41965422,0.0015401132,0.62930787,0
1.9100000000000015,12.248246462589899,0.6020383920243821,0.5827881030977393,0.06619388089542053,19.01432,-1.5272187,-4.466528,1.19447,1.532964,-1.7025824,1.3382242,0.22563246,-0.09258151,-0.11683723,0.96273947,-8.296387,10.246455,1.701433,0.44806126,0.09218918,0.6016757,0
1.9200000000000015,11.926830858582466,0.6663627041092053,1.1208875892257268,-0.047834235136938505,18.905666,-1.366016,-4.2941465,1.1084281,1.4498589,-1.6002294,1.3553333,0.22308806,-0.09303818,-0.11419977,0.9636045,-8.324639,10.224224,1.7204204,0.47204676,0.16869909,0.5753994,0
1.9300000000000015,11.926830858582466,0.6663627041092053,1.1208875892257268,-0.047834235136938505,18.905666,-1.366016,-4.2941465,1.1084281,1.3664753,-1.498093,1.3726177,0.2207547,-0.09399359,-0.11131638,0.9643863,-8.352098,10.203157,1.7364565,0.50230086,0.31719372,0.54481715,0
1.9400000000000015,11.926830858582466,0.6663627041092053,1.1208875892257268,-0.047834235136938505,18.905666,-1.366016,-4.2941465,1.1084281,1.2828169,-1.3961638,1.3900628,0.21865074,-0.09555882,-0.10816012,0.9650707,-8.379631,10.182771,1.7525985,0.52785003,0.4425282,0.51573557,0
1.9500000000000015,11.926830858582466,0.6663627041092053,1.1208875892257268,-0.047834235136938505,18.905666,-1.366016,-4.2941465,1.1084281,1.1988822,-1.2944348,1.4076698,0.21675321,-0.097637594,-0.10477588,0.9656639,-8.407362,10.163159,1.768828,0.5494253,0.5483154,0.48808104,0
1.9600000000000015,11.30993106384833,0.6570404155962434,1.4018674375630913,-0.13818465972772073,18.410728,-2.27661,-4.9361863,2.8987658,1.1146687,-1.1928977,1.4254396,0.21504205,-0.10014854,-0.10120126,0.96617043,-8.4354,10.144405,1.7851264,0.5676441,0.63760364,0.46178353,0
1.9700000000000015,11.30993106384833,0.6570404155962434,1.4018674375630913,-0.13818465972772073,18.410728,-2.27661,-4.9361863,2.8987658,1.0301802,-1.0915389,1.4433429,0.21352133,-0.10313125,-0.09744838,0.9665796,-8.462368,10.127499,1.7955543,0.581564,0.7567832,0.4323429,0
1.9800000000000015,11.30993106384833,0.6570404155962434,1.4018674375630913,-0.13818465972772073,18.410728,-2.27661,-4.9361863,2.8987658,0.94541967,-0.9903445,1.4613507,0.21219361,-0.10661331,-0.09352866,0.9668814,-8.489822,10.11154,1.8060033,0.59332174,0.8573761,0.40434688,0
1.9900000000000015,11.30993106384833,0.6570404155962434,1.4018674375630913,-0.13818465972772073,18.410728,-2.27661,-4.9361863,2.8987658,0.8603817,-0.8893047,1.479463,0.21104032,-0.11051516,-0.08947006,0.96707976,-8.517861,10.096588,1.8164462,0.6032527,0.9422815,0.3777247,0
2.0000000000000013,,,,,17.464117,-2.1647797,-4.8245482,2.705644,0.7750602,-0.7884091,1.4976796,0.21004526,-0.114769585,-0.08529607,0.967178,-8.546571,10.082697,1.826855,0.61163986,1.0139457,0.3524089,0
2.010000000000001,,,,,17.464117,-2.1647797,-4.8245482,2.705644,0.689455,-0.68764377,1.5159733,0.20919937,-0.11936513,-0.08104924,0.9671703,-8.574579,10.070535,1.83189,0.6063698,1.0902123,0.32606924,0
2.020000000000001,,,,,17.464117,-2.1647797,-4.8245482,2.705644,0.6035659,-0.58699465,1.5343171,0.20849462,-0.12428967,-0.07676441,0.9670517,-8.603365,10.059454,1.8368331,0.6019254,1.1545863,0.30102205,0
2.0300000000000007,,,,,17.464117,-2.1647797,-4.8245482,2.705644,0.51738477,-0.48645088,1.5527097,0.20791891,-0.12948988,-0.07244936,0.9668262,-8.632988,10.049477,1.8416512,0.5981769,1.2089218,0.27720398,0
2.0400000000000005,,,,,17.464117,-2.1647797,-4.8245482,2.705644,0.43090302,-0.38600126,1.5711497,0.20746154,-0.13492078,-0.06811061,0.9664972,-8.663503,10.040625,1.8463118,0.59501535,1.2547845,0.25455463,0
2.0500000000000003,,,,,17.648571,-2.202745,-5.016126,2.4693568,0.3441115,-0.28563446,1.5896354,0.207113,-0.14054433,-0.06375364,0.9660677,-8.694951,10.032915,1.8507826,0.5923483,1.2934953,0.23301671,1
2.06,,,,,17.648571,-2.202745,-5.016126,2.4693568,0.2568703,-0.18536659,1.6085796,0.20636949,-0.1444272,-0.0603866,0.9658704,-8.753248,10.020977,1.9372276,0.33731902,0.49027067,0.32655057,1
2.07,,,,,17.648571,-2.202745,-5.016126,2.4693568,0.16904935,-0.08521009,1.6283629,0.2047498,-0.14490534,-0.059007067,0.9662287,-8.810729,10.010453,2.0186694,0.069126636,-0.24073927,0.42023534,1
2.0799999999999996,,,,,17.648571,-2.202745,-5.016126,2.4693568,0.08066186,0.0148436185,1.6489375,0.20227174,-0.14231351,-0.059593007,0.96709955,-8.866422,10.000262,2.0955822,-0.20788603,-0.90849763,0.51385784,1
2.0899999999999994,,,,,21.06934,-4.7565722,-6.2705383,3.3522632,-0.008270159,0.11479299,1.6702603,0.19894561,-0.13693626,-0.06211092,0.9684065,-8.919522,9.989447,2.1683726,-0.4902192,-1.520735,0.6072304,1
2.099999999999999,,,,,21.06934,-4.7565722,-6.2705383,3.3522632,-0.0977896,0.21461017,1.692532,0.19462949,-0.12917154,-0.06707682,0.97001785,-8.9836645,9.973589,2.2852056,-1.0083025,-2.0726845,0.7287529,1
2.109999999999999,,,,,21.06934,-4.7565722,-6.2705383,3.3522632,-0.18792717,0.3142536,1.7159485,0.1891898,-0.11931452,-0.07493252,0.97177994,-9.043071,9.9544935,2.397393,-1.5028738,-2.5959795,0.8494407,1
2.1199999999999988,,,,,21.06934,-4.7565722,-6.2705383,3.3522632,-0.27863306,0.4136847,1.7404641,0.18264021,-0.10745311,-0.08552953,0.9735404,-9.097253,9.9309435,2.5050197,-1.9755073,-3.0929842,0.9691469,1
2.1299999999999986,,,,,21.172222,-6.323545,-6.3784475,4.544046,-0.36985382,0.5128529,1.7660381,0.17499675,-0.09368889,-0.09869206,0.97511965,-9.146148,9.901648,2.6097775,-2.4083383,-3.5464666,1.0860572,1
2.1399999999999983,,,,,21.172222,-6.323545,-6.3784475,4.544046,-0.46155468,0.61168,1.7927338,0.16623862,-0.078655325,-0.11409556,0.9762992,-9.192982,9.862617,2.728658,-2.8259945,-3.7877722,1.2430179,1
2.149999999999998,,,,,21.172222,-6.323545,-6.3784475,4.544046,-0.55369014,0.7100787,1.8205943,0.15632227,-0.06280131,-0.13156724,0.9768875,-9.233039,9.81588,2.8426783,-3.2254448,-4.038484,1.3964763,1
2.159999999999998,,,,,21.172222,-6.323545,-6.3784475,4.544046,-0.6461915,0.80796945,1.8495687,0.14526227,-0.04606556,-0.15100586,0.97671586,-9.266121,9.76097,2.951302,-3.6087291,-4.296329,1.5465325,1
2.1699999999999977,,,,,21.452656,-5.5986185,-6.0094466,3.7037914,-0.7389878,0.90526867,1.8796002,0.13307199,-0.02840629,-0.17230332,0.9756005,-9.292017,9.697449,3.0542462,-3.973721,-4.5555305,1.6929511,1
2.1799999999999975,,,,,21.452656,-5.5986185,-6.0094466,3.7037914,-0.8320085,1.0018793,1.910656,0.11989782,-0.009838952,-0.19508748,0.97337985,-9.310949,9.623037,3.1564274,-4.2265677,-4.781345,1.7916236,1
2.1899999999999973,,,,,21.452656,-5.5986185,-6.0094466,3.7037914,-0.92517996,1.0976933,1.9427161,0.10591007,0.009516094,-0.21890925,0.9699335,-9.322079,9.538108,3.254973,-4.4400125,-4.971914,1.8854542,1
2.199999999999997,,,,,21.452656,-5.5986185,-6.0094466,3.7037914,-1.0184214,1.1926053,1.9757396,0.091169424,0.02950509,-0.24351795,0.96515095,-9.32485,9.4426365,3.348922,-4.620201,-5.1327333,1.9746804,1
2.209999999999997,,,,,21.292963,-5.852428,-6.2343707,3.1520107,-1.1116465,1.2865105,2.0096755,0.075736046,0.04998788,-0.2686929,0.9589417,-9.318763,9.336796,3.4372747,-4.7723193,-5.268442,2.0595284,1
2.2199999999999966,,,,,21.292963,-5.852428,-6.2343707,3.1520107,-1.2047652,1.3793111,2.0444558,0.059740826,0.07084774,-0.29433218,0.95119923,-9.303493,9.2217865,3.5176697,-4.94042,-5.3829265,2.113137,1
