time-since-start [s],throttle_mpc,roll_mpc,pitch_mpc,yaw_mpc,throttle_nw,roll_nw,pitch_nw,yaw_nw,position_x [m],position_y [m],position_z [m],rotation_w [quaternion],rotation_x [quaternion],rotation_y [quaternion],rotation_z [quaternion],velocity_x [m/s],velocity_y [m/s],velocity_z [m/s],omega_x [rad/s],omega_y [rad/s],omega_z [rad/s],network_used
0.0,18.024476013376454,5.999999979224292,-6.0,-2.9757134467905506,11.345939,4.7097864,-3.9881666,1.8255644,21.09548,-9.51396,2.4517832,-0.009682721,0.50194746,-0.16189204,-0.8495563,-11.462409,-5.489108,-3.2911074,4.5711474,0.19929206,-1.2356576,0
0.01,18.024476013376454,5.999999979224292,-6.0,-2.9757134467905506,19.652233,3.5381765,-3.2379353,-0.5381142,20.980074,-9.568579,2.4187891,-0.027032627,0.50145173,-0.1784123,-0.8461587,-11.618076,-5.433722,-3.3083982,4.7553554,-0.73004997,-1.3176154,0
0.02,18.024476013376454,5.999999979224292,-6.0,-2.9757134467905506,19.652233,3.5381765,-3.2379353,-0.5381142,20.863138,-9.62261,2.3856046,-0.045975775,0.4969746,-0.19531174,-0.8442487,-11.768293,-5.3712616,-3.3286564,4.947484,-1.5511332,-1.3988675,0
0.03,18.024476013376454,5.999999979224292,-6.0,-2.9757134467905506,19.652233,3.5381765,-3.2379353,-0.5381142,20.744719,-9.675975,2.3522146,-0.06639919,0.4889821,-0.21245153,-0.8434169,-11.914741,-5.3003635,-3.3492467,5.11088,-2.245338,-1.4762437,0
0.04,18.024476013376454,5.999999979224292,-6.0,-2.9757134467905506,17.480436,5.2177153,-4.4698486,-0.23040728,20.624859,-9.728588,2.3186216,-0.08812943,0.47791955,-0.229653,-0.84325904,-12.056316,-5.220803,-3.3692043,5.2488403,-2.8312593,-1.5498232,0
0.05,18.024476013376454,5.999999979224292,-6.0,-2.9757134467905506,17.480436,5.2177153,-4.4698486,-0.23040728,20.503614,-9.780362,2.2848353,-0.11099912,0.464158,-0.24676397,-0.8434123,-12.191863,-5.132568,-3.387802,5.365334,-3.325785,-1.619792,0
0.060000000000000005,18.024476013376454,5.999999979224292,-6.0,-2.9757134467905506,17.480436,5.2177153,-4.4698486,-0.23040728,20.381048,-9.831211,2.2508721,-0.13484736,0.4480109,-0.26365533,-0.843557,-12.32026,-5.03581,-3.4044783,5.4637084,-3.743168,-1.6863273,0
0.07,18.024476013376454,5.999999979224292,-6.0,-2.9757134467905506,17.480436,5.2177153,-4.4698486,-0.23040728,20.257236,-9.88105,2.2167537,-0.15951957,0.42974678,-0.28021753,-0.8434154,-12.440433,-4.9308352,-3.4188192,5.546788,-4.09544,-1.7495979,0
0.08,20.999999984216796,5.999999987169211,-6.0,-2.4109434463392985,20.39143,4.088895,-3.3637073,-0.46429664,20.132269,-9.9298,2.1825047,-0.18486752,0.409599,-0.29635763,-0.84274846,-12.551357,-4.818095,-3.4305408,5.616956,-4.392755,-1.8097636,0
0.09,20.999999984216796,5.999999987169211,-6.0,-2.4109434463392985,20.39143,4.088895,-3.3637073,-0.46429664,20.006159,-9.977289,2.1482255,-0.21069057,0.38775212,-0.31202534,-0.8413669,-12.668696,-4.678377,-3.4247549,5.676307,-4.6435833,-1.8392636,0
0.09999999999999999,20.999999984216796,5.999999987169211,-6.0,-2.4109434463392985,20.39143,4.088895,-3.3637073,-0.46429664,19.878939,-10.023342,2.114021,-0.23679888,0.36436865,-0.32717893,-0.8391162,-12.773103,-4.5311136,-3.4156456,5.726445,-4.85528,-1.8673161,0
0.10999999999999999,20.999999984216796,5.999999987169211,-6.0,-2.4109434463392985,20.39143,4.088895,-3.3637073,-0.46429664,19.750742,-10.067889,2.079924,-0.2630698,0.33961385,-0.341757,-0.8358583,-12.863638,-4.377251,-3.4032462,5.768801,-5.03395,-1.893992,0
0.11999999999999998,20.999999984216796,5.999999987169211,-6.0,-2.4109434463392985,20.39143,4.088895,-3.3637073,-0.46429664,19.621714,-10.110868,2.045967,-0.2893871,0.31363794,-0.35570687,-0.8314801,-12.939468,-4.2178445,-3.3876853,5.8045845,-5.1847453,-1.919359,0
0.12999999999999998,21.0,5.999999918382531,-5.999999982470229,-2.159623805929097,23.366175,2.7278814,-5.2071066,-0.31270176,19.492004,-10.152232,2.0121806,-0.31564048,0.2865784,-0.36898342,-0.8258906,-12.999882,-4.054042,-3.3691761,5.834817,-5.3120136,-1.9434812,0
0.13999999999999999,21.0,5.999999918382531,-5.999999982470229,-2.159623805929097,23.366175,2.7278814,-5.2071066,-0.31270176,19.361773,-10.19194,1.9785926,-0.34170005,0.2585508,-0.3815567,-0.8190282,-13.044291,-3.887068,-3.348004,5.860404,-5.419378,-1.9540874,0
0.15,21.0,5.999999918382531,-5.999999982470229,-2.159623805929097,23.366175,2.7278814,-5.2071066,-0.31270176,19.231176,-10.229968,1.9452283,-0.3674439,0.22966212,-0.39340067,-0.8108492,-13.07224,-3.718208,-3.3245184,5.882023,-5.5099916,-1.9641732,0
0.16,21.0,4.739058008525597,-5.999999751596671,-0.6074342916442375,23.967495,2.0056067,-6.453426,-1.2993331,19.100384,-10.266302,1.9121089,-0.39278224,0.20002355,-0.4044846,-0.8013146,-13.083413,-3.5487921,-3.2991238,5.900289,-5.5864687,-1.9737641,0
0.17,21.0,4.739058008525597,-5.999999751596671,-0.6074342916442375,23.967495,2.0056067,-6.453426,-1.2993331,18.969566,-10.300946,1.8792511,-0.4173857,0.16986647,-0.41442135,-0.79068935,-13.077669,-3.3801951,-3.272246,5.7193604,-5.650476,-1.9067179,0
0.18000000000000002,21.0,4.739058008525597,-5.999999751596671,-0.6074342916442375,23.967495,2.0056067,-6.453426,-1.2993331,18.838888,-10.333915,1.8466681,-0.44099817,0.1393975,-0.4229254,-0.77924526,-13.0552225,-3.2138708,-3.2442102,5.5666523,-5.7045627,-1.8429617,0
0.19000000000000003,21.0,4.739058008525597,-5.999999751596671,-0.6074342916442375,23.967495,2.0056067,-6.453426,-1.2993331,18.708519,-10.365236,1.8143699,-0.4636372,0.1086789,-0.43010816,-0.76696575,-13.01646,-3.0512292,-3.215332,5.437762,-5.750266,-1.782334,0
0.20000000000000004,21.0,2.1583046319217303,-4.246019928023277,1.022424419285253,24.901773,0.62803656,-5.6086,-0.6741972,18.578617,-10.394956,1.7823632,-0.48531216,0.07776731,-0.4360632,-0.753839,-12.961853,-2.8935952,-3.185964,5.328972,-5.788885,-1.7246813,0
0.21000000000000005,21.0,2.1583046319217303,-4.246019928023277,1.022424419285253,24.901773,0.62803656,-5.6086,-0.6741972,18.449337,-10.423129,1.750651,-0.5055134,0.04766392,-0.44047067,-0.74038494,-12.892056,-2.742178,-3.1564672,4.8352675,-5.547294,-1.58988,0
0.22000000000000006,21.0,2.1583046319217303,-4.246019928023277,1.022424419285253,24.901773,0.62803656,-5.6086,-0.6741972,18.320824,-10.449823,1.7192335,-0.5239111,0.019171728,-0.4431625,-0.7271564,-12.808391,-2.5978634,-3.127071,4.418455,-5.343558,-1.4616934,0
0.23000000000000007,21.0,2.1583046319217303,-4.246019928023277,1.022424419285253,24.901773,0.62803656,-5.6086,-0.6741972,18.19321,-10.475113,1.6881087,-0.5407421,-0.007937388,-0.44440433,-0.7141706,-12.712265,-2.4612882,-3.097926,4.0665617,-5.1717377,-1.339797,0
0.24000000000000007,21.0,2.1583046319217303,-4.246019928023277,1.022424419285253,24.40713,-1.0504311,-1.6798964,-0.030276,18.066616,-10.499078,1.6572737,-0.55619884,-0.033863276,-0.44441,-0.7014241,-12.6049385,-2.3329442,-3.0691626,3.769477,-5.026827,-1.2238821,0
0.25000000000000006,21.0,2.1583046319217303,-4.246019928023277,1.022424419285253,24.40713,-1.0504311,-1.6798964,-0.030276,17.941147,-10.521801,1.6267239,-0.57043767,-0.05877898,-0.4433519,-0.68890125,-12.487531,-2.213215,-3.0409007,3.5186658,-4.904607,-1.1136552,0
0.26000000000000006,21.0,2.1583046319217303,-4.246019928023277,1.022424419285253,24.40713,-1.0504311,-1.6798964,-0.030276,17.816898,-10.543372,1.5964538,-0.5835861,-0.08283288,-0.4413692,-0.676579,-12.361049,-2.1024048,-3.0132585,3.3069212,-4.8015203,-1.0088371,0
0.2700000000000001,21.0,2.1583046319217303,-4.246019928023277,1.022424419285253,24.40713,-1.0504311,-1.6798964,-0.030276,17.693954,-10.563881,1.5664564,-0.59574825,-0.10615114,-0.43857464,-0.66443074,-12.226398,-2.0007555,-2.9863558,3.1281588,-4.714569,-0.9091625,0
0.2800000000000001,21.0,-0.5455164859898574,-0.2281915329817337,1.0150198512133628,23.147516,-1.8688314,0.38696748,0.38704067,17.572393,-10.583419,1.5367237,-0.6070093,-0.12884016,-0.43505952,-0.6524287,-12.084408,-1.9084626,-2.9603198,2.9772408,-4.641225,-0.814379,0
0.2900000000000001,21.0,-0.5455164859898574,-0.2281915329817337,1.0150198512133628,23.147516,-1.8688314,0.38696748,0.38704067,17.45229,-10.602082,1.5072465,-0.61690974,-0.14929013,-0.4311935,-0.6412541,-11.935928,-1.8255341,-2.935263,2.4284675,-3.9525797,-0.72460985,0
0.3000000000000001,21.0,-0.5455164859898574,-0.2281915329817337,1.0150198512133628,23.147516,-1.8688314,0.38696748,0.38704067,17.333694,-10.619959,1.4780151,-0.6251951,-0.16625762,-0.42735493,-0.63155127,-11.782262,-1.7510766,-2.9111488,1.9651399,-3.3714342,-0.6392457,0
0.3100000000000001,21.0,-0.5455164859898574,-0.2281915329817337,1.0150198512133628,23.147516,-1.8688314,0.38696748,0.38704067,17.216656,-10.637129,1.4490207,-0.63218117,-0.18031684,-0.4236018,-0.6232127,-11.624617,-1.683966,-2.8878415,1.5739625,-2.8809998,-0.55807036,0
0.3200000000000001,21.0,-3.134800753038971,3.5206897341812797,1.4554274362168238,23.84998,-3.6585371,3.5960038,0.5544992,17.101213,-10.65366,1.4202561,-0.63811123,-0.19194981,-0.4199621,-0.6161176,-11.463933,-1.6231976,-2.8651743,1.243707,-2.4671125,-0.48087838,0
0.3300000000000001,21.0,-3.134800753038971,3.5206897341812797,1.4554274362168238,23.84998,-3.6585371,3.5960038,0.5544992,16.987389,-10.66961,1.3917158,-0.64272285,-0.20000169,-0.41676378,-0.6109128,-11.301019,-1.5677366,-2.8429365,0.5612718,-1.5330675,-0.38586327,0
0.34000000000000014,21.0,-3.134800753038971,3.5206897341812797,1.4554274362168238,23.84998,-3.6585371,3.5960038,0.5544992,16.875198,-10.685025,1.3633974,-0.64583737,-0.20358855,-0.4142824,-0.60812473,-11.13692,-1.515814,-2.820725,-0.014884308,-0.74479115,-0.29551062,0
0.35000000000000014,21.0,-3.134800753038971,3.5206897341812797,1.4554274362168238,23.84998,-3.6585371,3.5960038,0.5544992,16.76465,-10.699931,1.3353028,-0.6477072,-0.20343691,-0.41243187,-0.6074443,-10.97259,-1.4656092,-2.7980967,-0.5012992,-0.07952447,-0.20959157,0
0.36000000000000015,21.0,-4.950111996040966,5.928040526298906,2.0114085249256846,23.702105,-5.098938,5.6926165,0.5230595,16.655745,-10.714337,1.3074384,-0.64850855,-0.20014788,-0.4111141,-0.6085741,-10.808804,-1.4155718,-2.774665,-0.91193956,0.48193538,-0.12788862,0
0.37000000000000016,21.0,-4.950111996040966,5.928040526298906,2.0114085249256846,23.702105,-5.098938,5.6926165,0.5230595,16.54847,-10.728237,1.2798135,-0.64806765,-0.19318922,-0.4103959,-0.6117689,-10.646261,-1.364294,-2.7500873,-1.5417074,1.3312018,-0.0229127,0
0.38000000000000017,21.0,-4.950111996040966,5.928040526298906,2.0114085249256846,23.702105,-5.098938,5.6926165,0.5230595,16.44281,-10.7416115,1.2524419,-0.6462007,-0.18215308,-0.410294,-0.61717373,-10.485883,-1.3100342,-2.7239594,-2.0733662,2.0479515,0.076912045,0
0.3900000000000002,21.0,-4.950111996040966,5.928040526298906,2.0114085249256846,23.702105,-5.098938,5.6926165,0.5230595,16.338741,-10.754422,1.2253407,-0.6429883,-0.1676632,-0.41063678,-0.6243654,-10.3286295,-1.2511604,-2.6959572,-2.5221856,2.6528723,0.17183833,0
0.4000000000000002,21.0,-5.321673447669823,5.6710468821517654,2.03625775434617,23.44297,-5.779599,3.3637652,1.0354747,16.236223,-10.766615,1.1985297,-0.63847506,-0.15024304,-0.41126427,-0.63295966,-10.175434,-1.1863459,-2.6658971,-2.9010603,3.163421,0.26210657,0
0.4100000000000002,21.0,-5.321673447669823,5.6710468821517654,2.03625775434617,23.44297,-5.779599,3.3637652,1.0354747,16.135212,-10.778124,1.17203,-0.63274664,-0.13030812,-0.41187164,-0.6426608,-10.027229,-1.1145467,-2.6337156,-3.2788208,3.5542343,0.34916466,0
0.4200000000000002,21.0,-5.321673447669823,5.6710468821517654,2.03625775434617,23.44297,-5.779599,3.3637652,1.0354747,16.035658,-10.788878,1.1458628,-0.62586105,-0.108217575,-0.41220325,-0.6532037,-9.884994,-1.0350068,-2.5994003,-3.597686,3.8840845,0.4319508,0
0.4300000000000002,21.0,-5.321673447669823,5.6710468821517654,2.03625775434617,23.44297,-5.779599,3.3637652,1.0354747,15.9374895,-10.798796,1.1200491,-0.6178052,-0.084308915,-0.41219282,-0.66430837,-9.749713,-0.94720614,-2.5630383,-3.866832,4.1624866,0.5106746,0
0.4400000000000002,21.0,-5.321673447669823,5.6710468821517654,2.03625775434617,22.741484,-5.6235504,3.430577,1.4998825,15.840635,-10.807794,1.0946085,-0.60856986,-0.058875136,-0.41178438,-0.67572916,-9.622355,-0.8508268,-2.5248318,-4.0940056,4.397471,0.58553535,0
0.45000000000000023,21.0,-5.321673447669823,5.6710468821517654,2.03625775434617,22.741484,-5.6235504,3.430577,1.4998825,15.745012,-10.8157835,1.0695579,-0.5981514,-0.03217243,-0.41093192,-0.6872515,-9.503863,-0.74573636,-2.4850812,-4.285748,4.595813,0.6567227,0
0.46000000000000024,21.0,-5.321673447669823,5.6710468821517654,2.03625775434617,22.741484,-5.6235504,3.430577,1.4998825,15.650525,-10.8226795,1.0449109,-0.58655226,-0.0044262963,-0.40959862,-0.6986885,-9.3951435,-0.6319729,-2.444171,-4.4475813,4.76323,0.7244169,0
0.47000000000000025,21.0,-5.321673447669823,5.6710468821517654,2.03625775434617,22.741484,-5.6235504,3.430577,1.4998825,15.557074,-10.828395,1.0206769,-0.57378125,0.024163581,-0.407756,-0.7098775,-9.297055,-0.5097308,-2.4025545,-4.5841675,4.904547,0.78878933,0
0.48000000000000026,21.0,-4.198806656870261,3.526426390619239,1.56274967606661,21.799864,-4.390583,3.7097247,1.0959775,15.464546,-10.832846,0.9968604,-0.55985296,0.053419407,-0.40538293,-0.72067714,-9.210403,-0.37934723,-2.3607411,-4.6994424,5.0238357,0.850003,1
0.49000000000000027,21.0,-4.198806656870261,3.526426390619239,1.56274967606661,21.799864,-4.390583,3.7097247,1.0959775,15.372837,-10.835932,0.9734844,-0.54522306,0.0824553,-0.40230015,-0.73081285,-9.133357,-0.23669001,-2.314557,-4.651201,4.818891,0.86207306,1
0.5000000000000002,21.0,-4.198806656870261,3.526426390619239,1.56274967606661,21.799864,-4.390583,3.7097247,1.0959775,15.281834,-10.837555,0.9505666,-0.53032535,0.11056412,-0.39841095,-0.7401346,-9.069108,-0.08708212,-2.269146,-4.6104946,4.6459055,0.87355083,1
0.5100000000000002,21.0,-4.198806656870261,3.526426390619239,1.56274967606661,21.799864,-4.390583,3.7097247,1.0959775,15.191409,-10.837652,0.92809755,-0.51514524,0.13784227,-0.3938095,-0.74869144,-9.017751,0.0684782,-2.2248726,-4.5761485,4.4998956,0.88446534,1
0.5200000000000002,21.0,-2.196080955681166,0.44486855999784036,1.0388059411139017,21.242905,-2.465752,-0.37644032,0.7139171,15.101434,-10.836168,0.9060641,-0.49967054,0.16437088,-0.38857388,-0.75651956,-8.97934,0.22905058,-2.182088,-4.5471683,4.3766546,0.8948443,1
0.5300000000000002,21.0,-2.196080955681166,0.44486855999784036,1.0388059411139017,21.242905,-2.465752,-0.37644032,0.7139171,15.011775,-10.833075,0.8844348,-0.4847098,0.18861999,-0.38255084,-0.7636319,-8.954302,0.39013904,-2.1440372,-4.22212,3.6356258,0.8859661,1
0.5400000000000003,21.0,-2.196080955681166,0.44486855999784036,1.0388059411139017,21.242905,-2.465752,-0.37644032,0.7139171,14.922308,-10.828357,0.8631781,-0.47097844,0.209408,-0.37570044,-0.7701796,-8.940899,0.55388963,-2.1075187,-3.9478374,3.0101266,0.87752366,1
0.5500000000000003,21.0,-2.196080955681166,0.44486855999784036,1.0388059411139017,21.242905,-2.465752,-0.37644032,0.7139171,14.832922,-10.821993,0.8422804,-0.458322,0.22726816,-0.36821607,-0.77634203,-8.938036,0.7191229,-2.0721729,-3.7163923,2.482145,0.86949545,1
0.5600000000000003,21.0,0.0003248142904809883,-2.4290369296751346,0.8496471304657621,20.987797,-1.0188838,-4.1085315,0.70483255,14.743515,-10.813973,0.8217318,-0.44659284,0.2426514,-0.36024296,-0.7822404,-8.944748,0.88490605,-2.0376437,-3.5210934,2.0364783,0.86186117,0
0.5700000000000003,21.0,0.0003248142904809883,-2.4290369296751346,0.8496471304657621,20.987797,-1.0188838,-4.1085315,0.70483255,14.653997,-10.804306,0.8015183,-0.4361864,0.25485504,-0.35231066,-0.78782445,-8.959897,1.0485946,-2.0050848,-2.9715393,1.3403933,0.8612618,0
0.5800000000000003,21.0,0.0003248142904809883,-2.4290369296751346,0.8496471304657621,20.987797,-1.0188838,-4.1085315,0.70483255,14.564293,-10.793005,0.78163016,-0.42742768,0.26336083,-0.3448687,-0.79310286,-8.9820595,1.2114753,-1.9725109,-2.507749,0.75281364,0.86069185,0
0.5900000000000003,21.0,0.0003248142904809883,-2.4290369296751346,0.8496471304657621,20.987797,-1.0188838,-4.1085315,0.70483255,14.474338,-10.780081,0.7620699,-0.42008215,0.26876116,-0.33789462,-0.7982015,-9.009724,1.3731061,-1.9394312,-2.1163385,0.25682592,0.86014986,0
0.6000000000000003,21.0,1.3249930111836346,-3.7336310784890623,0.8091021449457364,21.371166,-0.25090092,-4.3759203,0.74496245,14.384084,-10.765549,0.7428448,-0.413937,0.2715488,-0.33135208,-0.80319566,-9.041609,1.5331783,-1.9053991,-1.7860118,-0.16184738,0.85963446,0
0.6100000000000003,21.0,1.3249930111836346,-3.7336310784890623,0.8091021449457364,21.371166,-0.25090092,-4.3759203,0.74496245,14.293494,-10.749425,0.72396654,-0.40912405,0.27149782,-0.3254091,-0.8080937,-9.07656,1.6914699,-1.8700027,-1.3005419,-0.7185915,0.85715485,0
0.6200000000000003,21.0,1.3249930111836346,-3.7336310784890623,0.8091021449457364,21.371166,-0.25090092,-4.3759203,0.74496245,14.202546,-10.731727,0.7054511,-0.4057296,0.26844698,-0.32019395,-0.8128934,-9.113212,1.847813,-1.832778,-0.89083076,-1.1885552,0.8547969,0
0.6300000000000003,21.0,1.3249930111836346,-3.7336310784890623,0.8091021449457364,21.371166,-0.25090092,-4.3759203,0.74496245,14.111228,-10.712476,0.68731874,-0.40351254,0.26285785,-0.3156059,-0.81760406,-9.150268,2.0020826,-1.793303,-0.5450557,-1.5852654,0.8525546,0
0.6400000000000003,21.0,1.3249930111836346,-3.7336310784890623,0.8091021449457364,21.259787,0.1384578,-4.4149814,0.55501765,14.019543,-10.691694,0.6695939,-0.40226278,0.25511506,-0.31155044,-0.8222149,-9.186625,2.1541767,-1.7512441,-0.25323954,-1.9201396,0.8504224,0
0.6500000000000004,21.0,1.3249930111836346,-3.7336310784890623,0.8091021449457364,21.259787,0.1384578,-4.4149814,0.55501765,13.927501,-10.669402,0.6523036,-0.4017991,0.2455406,-0.307941,-0.8267041,-9.2213335,2.3039997,-1.7063515,-0.0069612786,-2.2028165,0.8483949,0
0.6600000000000004,21.0,1.3249930111836346,-3.7336310784890623,0.8091021449457364,21.259787,0.1384578,-4.4149814,0.55501765,13.835123,-10.645624,0.6354772,-0.40196654,0.23440503,-0.30469996,-0.8310446,-9.253583,2.451454,-1.6584537,0.20088498,-2.4414318,0.8464668,0
0.6700000000000004,21.0,1.3249930111836346,-3.7336310784890623,0.8091021449457364,21.259787,0.1384578,-4.4149814,0.55501765,13.742439,-10.620382,0.6191452,-0.40263316,0.22193669,-0.30175874,-0.835208,-9.282674,2.5964353,-1.6074499,0.3762967,-2.6428535,0.8446333,0
0.6800000000000004,21.0,1.711924164579145,-3.472171259390738,0.6952518425406676,20.68502,0.16651422,-3.168332,0.40115035,13.649482,-10.593705,0.603339,-0.40368733,0.20832908,-0.29905713,-0.8391665,-9.307999,2.7388318,-1.553302,0.5243357,-2.8128788,0.8428897,0
0.6900000000000004,21.0,1.711924164579145,-3.472171259390738,0.6952518425406676,20.68502,0.16651422,-3.168332,0.40115035,13.5562935,-10.565617,0.5880899,-0.4050474,0.1937765,-0.2967126,-0.842822,-9.329032,2.8785348,-1.4960387,0.70958203,-2.915597,0.8356451,0
0.7000000000000004,21.0,1.711924164579145,-3.472171259390738,0.6952518425406676,20.68502,0.16651422,-3.168332,0.40115035,13.462918,-10.536145,0.5734285,-0.40664467,0.17844418,-0.29481593,-0.8460977,-9.345284,3.0155017,-1.4357952,0.8659303,-3.0023131,0.8287559,0
0.7100000000000004,21.0,1.711924164579145,-3.472171259390738,0.6952518425406676,20.68502,0.16651422,-3.168332,0.40115035,13.369406,-10.505317,0.5593837,-0.40841046,0.16244535,-0.29328248,-0.8489981,-9.356332,3.1496985,-1.3727566,0.99788904,-3.0755203,0.8222048,0
0.7200000000000004,21.0,1.3384989245209788,-1.836916902623342,0.4505841014328415,20.831718,-0.11988274,-0.9083012,0.2784047,13.27581,-10.473161,0.5459823,-0.4102874,0.14587705,-0.29204,-0.85152614,-9.361809,3.2810743,-1.307129,1.1092628,-3.1373227,0.8159752,0
0.7300000000000004,21.0,1.3384989245209788,-1.836916902623342,0.4505841014328415,20.831718,-0.11988274,-0.9083012,0.2784047,13.182189,-10.439705,0.53324914,-0.41204485,0.1294517,-0.29116607,-0.8536297,-9.361458,3.4095953,-1.2391609,1.1448699,-2.9345193,0.7980454,0
0.7400000000000004,21.0,1.3384989245209788,-1.836916902623342,0.4505841014328415,20.831718,-0.11988274,-0.9083012,0.2784047,13.088601,-10.404978,0.52120584,-0.4135176,0.113746226,-0.2907279,-0.8553025,-9.355348,3.5353994,-1.169235,1.1749467,-2.7633462,0.7809953,0
0.7500000000000004,21.0,1.3384989245209788,-1.836916902623342,0.4505841014328415,20.831718,-0.11988274,-0.9083012,0.2784047,12.995102,-10.369004,0.50986993,-0.4147486,0.09865358,-0.2906541,-0.8566046,-9.34364,3.658666,-1.0977317,1.2003516,-2.6188698,0.76478195,0
0.7600000000000005,20.999999993631384,0.6903669018574543,0.12955864954723556,0.25485678293710473,19.503551,-0.37091976,1.6678741,0.08579317,12.901748,-10.331811,0.4992555,-0.4157735,0.084082656,-0.2908835,-0.85758346,-9.326479,3.7795484,-1.0249804,1.2218099,-2.4969265,0.7493642,0
0.7700000000000005,20.999999993631384,0.6903669018574543,0.12955864954723556,0.25485678293710473,19.503551,-0.37091976,1.6678741,0.08579317,12.808591,-10.293421,0.48937356,-0.41639596,0.070746735,-0.29146883,-0.8582862,-9.304054,3.8982136,-0.95128596,1.1386987,-2.0873866,0.7250986,0
0.7800000000000005,20.999999993631384,0.6903669018574543,0.12955864954723556,0.25485678293710473,19.503551,-0.37091976,1.6678741,0.08579317,12.715682,-10.253854,0.4802318,-0.4164788,0.05921009,-0.2924567,-0.8587833,-9.276915,4.015025,-0.8770006,1.068592,-1.7417043,0.7020237,0
0.7900000000000005,20.999999993631384,0.6903669018574543,0.12955864954723556,0.25485678293710473,19.503551,-0.37091976,1.6678741,0.08579317,12.623066,-10.213125,0.4718345,-0.41612506,0.049199086,-0.29378873,-0.8591319,-9.245653,4.1303782,-0.8024303,1.0094537,-1.4499234,0.680081,0
0.8000000000000005,20.999999928804286,-0.19187180857956881,2.0946886574510297,0.1028690279369644,18.428265,-1.1501828,2.4984193,0.20160568,12.530781,-10.171249,0.46418336,-0.4154179,0.040481254,-0.29541388,-0.8593718,-9.210775,4.244619,-0.7278117,0.9595667,-1.2036393,0.65921515,0
0.8100000000000005,20.999999928804286,-0.19187180857956881,2.0946886574510297,0.1028690279369644,18.428265,-1.1501828,2.4984193,0.20160568,12.438861,-10.128236,0.45727783,-0.41419643,0.0336876,-0.2973105,-0.8596005,-9.172782,4.35808,-0.65333587,0.77976716,-0.6893582,0.63191503,0
0.8200000000000005,20.999999928804286,-0.19187180857956881,2.0946886574510297,0.1028690279369644,18.428265,-1.1501828,2.4984193,0.20160568,12.347333,-10.084088,0.45111555,-0.41234204,0.029308194,-0.2994602,-0.85990626,-9.132514,4.4712524,-0.5791857,0.6280573,-0.2552608,0.6059546,0
0.8300000000000005,20.999999928804286,-0.19187180857956881,2.0946886574510297,0.1028690279369644,18.428265,-1.1501828,2.4984193,0.20160568,12.256215,-10.03881,0.4456925,-0.4099691,0.02697083,-0.30182314,-0.8602911,-9.090827,4.584626,-0.5055056,0.50004673,0.11115387,0.581268,0
0.8400000000000005,20.999999928804286,-0.19187180857956881,2.0946886574510297,0.1028690279369644,18.053228,-2.1080227,3.8596647,0.18996708,12.165518,-9.9923935,0.44100344,-0.40716872,0.026360745,-0.30436268,-0.86074513,-9.048445,4.698614,-0.43240294,0.3920316,0.42043793,0.55779284,0
0.8500000000000005,20.999999928804286,-0.19187180857956881,2.0946886574510297,0.1028690279369644,18.053228,-2.1080227,3.8596647,0.18996708,12.075246,-9.944833,0.43704218,-0.40401417,0.027211912,-0.30704597,-0.86125195,-9.005983,4.8135605,-0.3599623,0.30088696,0.6814988,0.53546965,0
0.8600000000000005,20.999999928804286,-0.19187180857956881,2.0946886574510297,0.1028690279369644,18.053228,-2.1080227,3.8596647,0.18996708,11.985396,-9.896118,0.4338017,-0.40056476,0.029299527,-0.309844,-0.86179245,-8.963966,4.92975,-0.28825527,0.22397688,0.9018549,0.5142418,0
0.8700000000000006,20.999999928804286,-0.19187180857956881,2.0946886574510297,0.1028690279369644,18.053228,-2.1080227,3.8596647,0.18996708,11.895963,-9.846234,0.43127435,-0.39686885,0.03243361,-0.31273144,-0.862347,-8.922844,5.0474124,-0.21734612,0.1590774,1.0878527,0.49405563,0
0.8800000000000006,20.999999771402052,-0.7332152186420153,2.6876761512154035,0.032564797343716964,17.450977,-2.596459,4.455391,0.16707627,11.806935,-9.795166,0.42945185,-0.39296624,0.03645356,-0.31568658,-0.86289674,-8.882996,5.1667323,-0.1472958,0.104312085,1.2448492,0.47485995,0
0.8900000000000006,20.999999771402052,-0.7332152186420153,2.6876761512154035,0.032564797343716964,17.450977,-2.596459,4.455391,0.16707627,11.718299,-9.742894,0.4283253,-0.38881356,0.041515913,-0.31859595,-0.8634798,-8.844782,5.2878585,-0.078160696,-0.026348928,1.4698173,0.4531564,0
0.9000000000000006,20.999999771402052,-0.7332152186420153,2.6876761512154035,0.032564797343716964,17.450977,-2.596459,4.455391,0.16707627,11.6300335,-9.689402,0.42788535,-0.38437477,0.04773678,-0.32136554,-0.864119,-8.808681,5.4109287,-0.009979343,-0.13661782,1.6597112,0.43251786,0
0.9100000000000006,20.999999771402052,-0.7332152186420153,2.6876761512154035,0.032564797343716964,17.450977,-2.596459,4.455391,0.16707627,11.542116,-9.634668,0.42812228,-0.37968975,0.054936223,-0.32400414,-0.864777,-8.77516,5.5360513,0.057207268,-0.22967866,1.8199986,0.41289207,0
0.9200000000000006,20.99999951989428,-1.2594397460105389,2.92980305425661,-0.06567857656119308,17.386484,-3.448579,4.734928,0.18731199,11.454519,-9.578673,0.4290259,-0.37479168,0.06296196,-0.32651874,-0.8654206,-8.744618,5.663296,0.12334694,-0.30821753,1.9552952,0.3942293,0
0.9300000000000006,20.99999951989428,-1.2594397460105389,2.92980305425661,-0.06567857656119308,17.386484,-3.448579,4.734928,0.18731199,11.367211,-9.521395,0.43058538,-0.36967304,0.07185133,-0.32876784,-0.8660781,-8.717422,5.792699,0.18838409,-0.456568,2.1072376,0.37166148,0
0.9400000000000006,20.99999951989428,-1.2594397460105389,2.92980305425661,-0.06567857656119308,17.386484,-3.448579,4.734928,0.18731199,11.280157,-9.462811,0.43278965,-0.36432692,0.08162591,-0.33063722,-0.86676556,-8.693994,5.9242406,0.2522911,-0.58177525,2.235494,0.35020107,0
0.9500000000000006,20.99999951989428,-1.2594397460105389,2.92980305425661,-0.06567857656119308,17.386484,-3.448579,4.734928,0.18731199,11.193316,-9.402903,0.4356272,-0.3587799,0.092145175,-0.33216885,-0.8674391,-8.674738,6.0578694,0.3150345,-0.68745023,2.3437557,0.32979375,0
0.9600000000000006,20.999998137029515,-1.498595807111847,1.9426963735832135,-0.13029148456573217,17.010733,-3.8480265,4.3922186,0.009856574,11.106647,-9.341647,0.43908614,-0.35305476,0.10328991,-0.33339804,-0.8680609,-8.659996,6.1935163,0.37656096,-0.7766406,2.4351401,0.31038782,0
0.9700000000000006,20.999998137029515,-1.498595807111847,1.9426963735832135,-0.13029148456573217,17.010733,-3.8480265,4.3922186,0.009856574,11.020101,-9.279025,0.443154,-0.34730053,0.114652425,-0.33413303,-0.86867297,-8.650039,6.3310695,0.4368205,-0.8891803,2.3583336,0.28876358,0
0.9800000000000006,20.999998137029515,-1.498595807111847,1.9426963735832135,-0.13029148456573217,17.010733,-3.8480265,4.3922186,0.009856574,10.93363,-9.215019,0.44781837,-0.3416408,0.12590471,-0.33422968,-0.8693218,-8.644971,6.4702716,0.49586672,-0.9841753,2.293511,0.26820046,0
0.9900000000000007,20.999998137029515,-1.498595807111847,1.9426963735832135,-0.13029148456573217,17.010733,-3.8480265,4.3922186,0.009856574,10.847184,-9.149615,0.45306742,-0.33605918,0.13706082,-0.33377925,-0.8699829,-8.64484,6.610842,0.5537725,-1.0643606,2.238801,0.24864638,0
1.0000000000000007,20.2757669576435,-1.6143537614969068,1.2446980472266442,-0.2405229379625114,16.085949,-3.7940805,1.9449934,-0.20003961,10.760716,-9.082799,0.45889005,-0.3305419,0.14813258,-0.33285847,-0.87063444,-8.649678,6.752531,0.610588,-1.1320451,2.1926262,0.23005177,0
1.0100000000000007,20.2757669576435,-1.6143537614969068,1.2446980472266442,-0.2405229379625114,16.085949,-3.7940805,1.9449934,-0.20003961,10.674175,-9.014586,0.465249,-0.3251758,0.1589066,-0.3313983,-0.8713122,-8.659157,6.890181,0.661052,-1.2072079,2.0448043,0.20696054,0
1.0200000000000007,20.2757669576435,-1.6143537614969068,1.2446980472266442,-0.2405229379625114,16.085949,-3.7940805,1.9449934,-0.20003961,10.587517,-8.944994,0.47210798,-0.320032,0.1692154,-0.32935062,-0.8720518,-8.673356,7.0283923,0.71061677,-1.2706579,1.9200379,0.1850024,0
1.0300000000000007,20.2757669576435,-1.6143537614969068,1.2446980472266442,-0.2405229379625114,16.085949,-3.7940805,1.9449934,-0.20003961,10.500693,-8.874018,0.4794586,-0.31507856,0.17912987,-0.32680255,-0.8728336,-8.692166,7.166888,0.75939804,-1.3242195,1.8147304,0.16412175,0
1.0400000000000007,20.2757669576435,-1.6143537614969068,1.2446980472266442,-0.2405229379625114,14.752152,-3.8272119,1.0093027,-0.47610682,10.413658,-8.801656,0.48729354,-0.31028822,0.18870978,-0.32382703,-0.8736397,-8.715493,7.3054285,0.8074879,-1.3694339,1.725847,0.14426571,0
1.0500000000000007,20.2757669576435,-1.6143537614969068,1.2446980472266442,-0.2405229379625114,14.752152,-3.8272119,1.0093027,-0.47610682,10.326368,-8.727909,0.49560624,-0.30563784,0.19800542,-0.32048512,-0.87445366,-8.743251,7.4438047,0.85495746,-1.4076016,1.6508259,0.12538402,0
1.0600000000000007,20.2757669576435,-1.6143537614969068,1.2446980472266442,-0.2405229379625114,14.752152,-3.8272119,1.0093027,-0.47610682,10.238779,-8.652781,0.5043908,-0.30110776,0.20705913,-0.3168281,-0.87526065,-8.775366,7.5818343,0.90185964,-1.4398208,1.5875045,0.10742885,0
1.0700000000000007,20.2757669576435,-1.6143537614969068,1.2446980472266442,-0.2405229379625114,14.752152,-3.8272119,1.0093027,-0.47610682,10.150846,-8.576274,0.51364166,-0.2966813,0.21590647,-0.312899,-0.8760476,-8.8117695,7.7193546,0.94823134,-1.467018,1.5340585,0.09035478,0
1.0800000000000007,17.37380800673514,-1.4753271219611965,-0.41916617017053187,-0.2567910870567059,13.210171,-3.532357,-0.29337716,-0.63314855,10.062529,-8.498395,0.52335364,-0.2923443,0.22457726,-0.30873406,-0.87680316,-8.852403,7.856221,0.9940955,-1.4899765,1.4889473,0.07411852,0
1.0900000000000007,17.37380800673514,-1.4753271219611965,-0.41916617017053187,-0.2567910870567059,13.210171,-3.532357,-0.29337716,-0.63314855,9.973815,-8.41925,0.53341913,-0.28830466,0.23249772,-0.30421942,-0.87765396,-8.890756,7.9728117,1.0189576,-1.4876649,1.191394,0.05788068,0
1.1000000000000008,17.37380800673514,-1.4753271219611965,-0.41916617017053187,-0.2567910870567059,13.210171,-3.532357,-0.29337716,-0.63314855,9.884701,-8.338943,0.54373205,-0.2847271,0.23921673,-0.29927304,-0.87871623,-8.932336,8.0885105,1.0436133,-1.4857216,0.94024307,0.042439647,0
1.1100000000000008,17.37380800673514,-1.4753271219611965,-0.41916617017053187,-0.2567910870567059,13.210171,-3.532357,-0.29337716,-0.63314855,9.7951565,-8.257483,0.55429137,-0.28154156,0.24492206,-0.29396415,-0.8799621,-8.976801,8.203117,1.0682819,-1.4840875,0.7282583,0.02775632,0
1.1200000000000008,15.460828689817268,-1.2897089981510856,-0.668057503436282,-0.33219635995666813,12.025607,-3.259034,-2.1752648,-0.75019205,9.705154,-8.174884,0.56509835,-0.2786883,0.2497715,-0.2883495,-0.8813638,-9.023865,8.316467,1.0931503,-1.482713,0.5493317,0.013793497,0
1.1300000000000008,15.460828689817268,-1.2897089981510856,-0.668057503436282,-0.33219635995666813,12.025607,-3.259034,-2.1752648,-0.75019205,9.614697,-8.09122,0.57608783,-0.27617216,0.25379214,-0.28251156,-0.8828965,-9.067834,8.416092,1.1047989,-1.4526082,0.359497,-0.0031843232,0
1.1400000000000008,15.460828689817268,-1.2897089981510856,-0.668057503436282,-0.33219635995666813,12.025607,-3.259034,-2.1752648,-0.75019205,9.523791,-8.006566,0.58719593,-0.27399552,0.25701272,-0.27651775,-0.884539,-9.113653,8.514377,1.1168998,-1.4272023,0.19926566,-0.019329045,0
1.1500000000000008,15.460828689817268,-1.2897089981510856,-0.668057503436282,-0.33219635995666813,12.025607,-3.259034,-2.1752648,-0.75019205,9.432419,-7.9209366,0.5984278,-0.27210823,0.2595578,-0.27039066,-0.88627094,-9.161102,8.611239,1.1295681,-1.4057614,0.06402106,-0.034681518,0
1.1600000000000008,13.026418387485844,-1.1320949349613494,-1.9858332744274643,-0.2656247362183992,12.307882,-2.6479034,-3.8646843,-1.359212,9.340565,-7.834346,0.60978955,-0.27046764,0.26153207,-0.2641488,-0.88807327,-9.21,8.70661,1.1428989,-1.3876661,-0.050133444,-0.049280662,0
1.1700000000000008,13.026418387485844,-1.1320949349613494,-1.9858332744274643,-0.2656247362183992,12.307882,-2.6479034,-3.8646843,-1.359212,9.248255,-7.7468834,0.62120014,-0.2691852,0.26253584,-0.25772324,-0.89005256,-9.252261,8.785648,1.1393254,-1.347822,-0.35199648,-0.059896726,0
1.1800000000000008,13.026418387485844,-1.1320949349613494,-1.9858332744274643,-0.2656247362183992,12.307882,-2.6479034,-3.8646843,-1.359212,9.155518,-7.6586375,0.63257885,-0.26834184,0.26225498,-0.25106072,-0.8922915,-9.295315,8.8632765,1.1365604,-1.3141931,-0.6067849,-0.06999184,0
1.1900000000000008,13.026418387485844,-1.1320949349613494,-1.9858332744274643,-0.2656247362183992,12.307882,-2.6479034,-3.8646843,-1.359212,9.062347,-7.569623,0.64393467,-0.26786324,0.2608855,-0.24419558,-0.8947386,-9.3388815,8.939393,1.1347762,-1.2858099,-0.82184017,-0.0795916,0
1.2000000000000008,12.288524120766223,-0.9179403152421428,-0.5701200131434145,-0.31914546598704785,11.687919,-2.230795,-3.3825603,-0.85185534,8.9687395,-7.4798555,0.65527815,-0.2676867,0.2585922,-0.23715575,-0.89734703,-9.382724,9.013909,1.1341119,-1.2618535,-1.0033579,-0.0887203,0
1.2100000000000009,12.288524120766223,-0.9179403152421428,-0.5701200131434145,-0.31914546598704785,11.687919,-2.230795,-3.3825603,-0.85185534,8.874705,-7.3893714,0.6665932,-0.26765493,0.256002,-0.23019181,-0.89990896,-9.42417,9.082635,1.1290696,-1.2082232,-0.9357888,-0.10002733,0
1.2200000000000009,12.288524120766223,-0.9179403152421428,-0.5701200131434145,-0.31914546598704785,11.687919,-2.230795,-3.3825603,-0.85185534,8.780256,-7.2982078,0.67786336,-0.2676486,0.2536231,-0.2235054,-0.90226686,-9.46567,9.149818,1.1251222,-1.1629562,-0.87875783,-0.110779524,0
1.2300000000000009,12.288524120766223,-0.9179403152421428,-0.5701200131434145,-0.31914546598704785,11.687919,-2.230795,-3.3825603,-0.85185534,8.685391,-7.20638,0.6890992,-0.2676694,0.25142327,-0.21705177,-0.9044493,-9.507235,9.215513,1.1221905,-1.1247481,-0.8306212,-0.1210041,0
1.2400000000000009,12.288524120766223,-0.9179403152421428,-0.5701200131434145,-0.31914546598704785,11.3378725,-2.0103052,-3.0088916,-0.70029175,8.590111,-7.1139026,0.70031047,-0.26771823,0.24937508,-0.21079312,-0.9064799,-9.548874,9.279767,1.1202068,-1.0924984,-0.78999174,-0.13072695,0
1.2500000000000009,12.288524120766223,-0.9179403152421428,-0.5701200131434145,-0.31914546598704785,11.3378725,-2.0103052,-3.0088916,-0.70029175,8.494414,-7.02079,0.71150637,-0.26779526,0.2474551,-0.20469745,-0.9083783,-9.590593,9.342616,1.1191128,-1.0652778,-0.7556986,-0.13997269,0
1.260000000000001,12.288524120766223,-0.9179403152421428,-0.5701200131434145,-0.31914546598704785,11.3378725,-2.0103052,-3.0088916,-0.70029175,8.398299,-6.9270554,0.7226956,-0.26790038,0.24564344,-0.19873774,-0.9101607,-9.632399,9.404092,1.1188579,-1.0423019,-0.7267537,-0.14876476,0
1.270000000000001,12.288524120766223,-0.9179403152421428,-0.5701200131434145,-0.31914546598704785,11.3378725,-2.0103052,-3.0088916,-0.70029175,8.301766,-6.8327127,0.7338863,-0.268033,0.24392307,-0.19289123,-0.9118406,-9.674296,9.46422,1.1193976,-1.0229092,-0.702323,-0.1571254,0
1.280000000000001,10.662775490069606,-0.9557680301039355,-1.2795452471200779,-0.19900841434734554,10.504894,-1.7866204,-3.2242658,-0.14756545,8.204814,-6.7377753,0.7450862,-0.2681924,0.24227959,-0.18713868,-0.91342926,-9.71629,9.523021,1.1206933,-1.0065409,-0.68170255,-0.16507578,0
1.290000000000001,10.662775490069606,-0.9557680301039355,-1.2795452471200779,-0.19900841434734554,10.504894,-1.7866204,-3.2242658,-0.14756545,8.107469,-6.642295,0.7562365,-0.26841277,0.24044234,-0.18137732,-0.9150108,-9.752805,9.572902,1.1094724,-0.9986336,-0.7749356,-0.16674088,0
1.300000000000001,10.662775490069606,-0.9557680301039355,-1.2795452471200779,-0.19900841434734554,10.504894,-1.7866204,-3.2242658,-0.14756545,8.009759,-6.5463214,0.7672779,-0.26871625,0.23819464,-0.17552482,-0.9166496,-9.789334,9.621613,1.0989066,-0.99195826,-0.8536289,-0.16832426,0
1.310000000000001,10.662775490069606,-0.9557680301039355,-1.2795452471200779,-0.19900841434734554,10.504894,-1.7866204,-3.2242658,-0.14756545,7.911683,-6.4498672,0.77821696,-0.269086,0.23559791,-0.1695937,-0.9183271,-9.825807,9.669116,1.0890253,-0.98632264,-0.9200499,-0.16982995,0
1.320000000000001,10.279509092677191,-0.8768641844537433,0.6047936903610832,-0.2467557760541207,9.6936865,-1.785091,-4.4710135,-0.0718171,7.8132434,-6.3529434,0.7890608,-0.26950806,0.23270403,-0.16359465,-0.9200279,-9.862161,9.715379,1.0798495,-0.9815647,-0.97611284,-0.17126176,0
1.330000000000001,10.279509092677191,-0.8768641844537433,0.6047936903610832,-0.2467557760541207,9.6936865,-1.785091,-4.4710135,-0.0718171,7.714447,-6.255572,0.79980034,-0.2698623,0.23024401,-0.15776816,-0.9215593,-9.897068,9.758768,1.0681531,-0.9652111,-0.72957087,-0.17496628,0
1.340000000000001,10.279509092677191,-0.8768641844537433,0.6047936903610832,-0.2467557760541207,9.6936865,-1.785091,-4.4710135,-0.0718171,7.615302,-6.157772,0.8104258,-0.2700612,0.22880287,-0.15230687,-0.9227779,-9.931956,9.801024,1.0570232,-0.95141095,-0.5214768,-0.17848898,0
1.350000000000001,10.279509092677191,-0.8768641844537433,0.6047936903610832,-0.2467557760541207,9.6936865,-1.785091,-4.4710135,-0.0718171,7.515807,-6.059555,0.82094234,-0.2701363,0.22822347,-0.14715406,-0.923735,-9.966979,9.842251,1.0463337,-0.9397658,-0.3458348,-0.18183886,0
1.360000000000001,9.147682818137602,-1.0621041756186047,-0.8316316754476726,-0.08729345869656276,9.175003,-1.7158607,-2.8992255,0.625929,7.4159613,-5.960931,0.8313537,-0.27011263,0.22837232,-0.1422614,-0.9244713,-10.002266,9.882529,1.0359792,-0.9299394,-0.19758396,-0.18502435,0
1.370000000000001,9.147682818137602,-1.0621041756186047,-0.8316316754476726,-0.08729345869656276,9.175003,-1.7158607,-2.8992255,0.625929,7.3157806,-5.86193,0.8416144,-0.27005574,0.22862178,-0.13736837,-0.9251661,-10.033985,9.917581,1.0161946,-0.95056134,-0.29646388,-0.18022865,0
1.380000000000001,9.147682818137602,-1.0621041756186047,-0.8316316754476726,-0.08729345869656276,9.175003,-1.7158607,-2.8992255,0.625929,7.2152805,-5.762583,0.8516785,-0.27001113,0.22846699,-0.13226658,-0.9259604,-10.065996,9.951812,0.9966532,-0.9679651,-0.3799237,-0.17566828,0
1.390000000000001,9.147682818137602,-1.0621041756186047,-0.8316316754476726,-0.08729345869656276,9.175003,-1.7158607,-2.8992255,0.625929,7.1144595,-5.6628976,0.8615484,-0.26997098,0.22796905,-0.12698843,-0.92683333,-10.098249,9.985171,0.9773873,-0.9826528,-0.45036834,-0.17133172,0
1.400000000000001,9.366104735178048,-1.0148522733863834,0.25252725261893555,-0.0849041986217034,9.070678,-2.1901138,-2.645714,0.31669497,7.0133147,-5.562883,0.87122726,-0.26992896,0.22717954,-0.1215612,-0.9277667,-10.130701,10.017614,0.9584215,-0.99504846,-0.50982726,-0.16720793,0
1.410000000000001,9.366104735178048,-1.0148522733863834,0.25252725261893555,-0.0849041986217034,9.070678,-2.1901138,-2.645714,0.31669497,6.911841,-5.462545,0.8807274,-0.26983222,0.22653967,-0.116142794,-0.92864496,-10.164105,10.049864,0.94166255,-0.9981229,-0.3909407,-0.16316928,0
1.420000000000001,9.366104735178048,-1.0148522733863834,0.25252725261893555,-0.0849041986217034,9.070678,-2.1901138,-2.645714,0.31669497,6.8100324,-5.3618894,0.89006144,-0.26964247,0.22640245,-0.11085984,-0.9293789,-10.197742,10.08117,0.92517626,-1.0007205,-0.29059446,-0.15932879,0
1.430000000000001,9.366104735178048,-1.0148522733863834,0.25252725261893555,-0.0849041986217034,9.070678,-2.1901138,-2.645714,0.31669497,6.7078853,-5.260925,0.8992317,-0.26937383,0.22668904,-0.1056914,-0.929989,-10.231682,10.11157,0.9089065,-1.002915,-0.205897,-0.15567677,0
1.440000000000001,9.366104735178048,-1.0148522733863834,0.25252725261893555,-0.0849041986217034,8.983567,-2.2813544,-1.8660632,0.46468908,6.6053967,-5.1596613,0.90824014,-0.2690379,0.2273327,-0.10061971,-0.93049157,-10.265985,10.141097,0.89280516,-1.0047691,-0.13440809,-0.15220395,0
1.450000000000001,9.366104735178048,-1.0148522733863834,0.25252725261893555,-0.0849041986217034,8.983567,-2.2813544,-1.8660632,0.46468908,6.502564,-5.0581064,0.9170882,-0.26864406,0.22827692,-0.09562975,-0.93090034,-10.3007,10.169779,0.8768302,-1.0063356,-0.074067704,-0.14890154,0
1.460000000000001,9.366104735178048,-1.0148522733863834,0.25252725261893555,-0.0849041986217034,8.983567,-2.2813544,-1.8660632,0.46468908,6.3993816,-4.956269,0.925777,-0.26819998,0.22947396,-0.09070883,-0.9312265,-10.335872,10.197637,0.86094517,-1.0076588,-0.023137242,-0.14576116,0
1.470000000000001,9.366104735178048,-1.0148522733863834,0.25252725261893555,-0.0849041986217034,8.983567,-2.2813544,-1.8660632,0.46468908,6.295845,-4.8541565,0.9343074,-0.267712,0.23088346,-0.085846245,-0.93147945,-10.371532,10.22469,0.8451177,-1.0087767,0.019850569,-0.1427749,0
1.480000000000001,8.815772258143216,-1.1551122019349804,-2.566170664467526,0.0830204339020692,9.85369,-1.7145576,-2.0250287,0.40960848,6.191949,-4.7517776,0.9426796,-0.26718536,0.2324713,-0.08103294,-0.9316669,-10.407713,10.250954,0.82931936,-1.0097208,0.05613447,-0.13993517,0
1.490000000000001,8.815772258143216,-1.1551122019349804,-2.566170664467526,0.0830204339020692,9.85369,-1.7145576,-2.0250287,0.40960848,6.0876994,-4.6491475,0.95086974,-0.26668134,0.23317082,-0.075912505,-0.93206775,-10.4422455,10.274921,0.8087095,-1.0324293,-0.35281795,-0.12899469,0
1.500000000000001,8.815772258143216,-1.1551122019349804,-2.566170664467526,0.0830204339020692,9.85369,-1.7145576,-2.0250287,0.40960848,5.9831033,-4.5462823,0.9588543,-0.2662381,0.23213366,-0.070203155,-0.9329005,-10.477064,10.297999,0.78824186,-1.0515862,-0.6979946,-0.118591055,0
1.5100000000000011,8.815772258143216,-1.1551122019349804,-2.566170664467526,0.0830204339020692,9.85369,-1.7145576,-2.0250287,0.40960848,5.878158,-4.4431915,0.9666355,-0.26582795,0.2296258,-0.06399782,-0.9340837,-10.511941,10.320025,0.76805305,-1.0677472,-0.9893413,-0.108697936,0
1.5200000000000011,9.189283691979242,-1.0228299619850927,-2.2437383565385742,0.11510648900254636,10.134238,-1.3536729,-4.6492076,0.3612228,5.772865,-4.3398857,0.9742167,-0.2654275,0.22587061,-0.05737448,-0.93554235,-10.5466795,10.340861,0.74825186,-1.0813814,-1.2352526,-0.09929026,0
1.5300000000000011,9.189283691979242,-1.0228299619850927,-2.2437383565385742,0.11510648900254636,10.134238,-1.3536729,-4.6492076,0.3612228,5.6672177,-4.236374,0.9816188,-0.26501834,0.22116263,-0.050483458,-0.937179,-10.582576,10.361218,0.73225653,-1.0722513,-1.3925335,-0.088769756,0
1.5400000000000011,9.189283691979242,-1.0228299619850927,-2.2437383565385742,0.11510648900254636,10.134238,-1.3536729,-4.6492076,0.3612228,5.561214,-4.132666,0.98886365,-0.26458657,0.21574587,-0.04344751,-0.93891466,-10.618024,10.380136,0.7167981,-1.0645419,-1.5252858,-0.07876548,0
1.5500000000000012,9.189283691979242,-1.0228299619850927,-2.2437383565385742,0.11510648900254636,10.134238,-1.3536729,-4.6492076,0.3612228,5.454859,-4.028776,0.9959567,-0.26412037,0.20972562,-0.036290064,-0.94071215,-10.652915,10.3975525,0.70190436,-1.0580328,-1.6373351,-0.069252126,0
1.5600000000000012,9.26571645470887,-0.9682931804812713,-4.918876014083335,0.22390231816210668,11.307792,-1.2784472,-4.399308,0.49714452,5.3481574,-3.92472,1.0029038,-0.26361054,0.20319101,-0.029030943,-0.9425395,-10.687153,10.413418,0.6875898,-1.052537,-1.7319098,-0.060205597,0
1.5700000000000012,9.26571645470887,-0.9682931804812713,-4.918876014083335,0.22390231816210668,11.307792,-1.2784472,-4.399308,0.49714452,5.241116,-3.8205128,1.0097141,-0.26306832,0.19520044,-0.021428028,-0.94458103,-10.7209,10.427783,0.674577,-1.0393987,-2.2289252,-0.046264343,0
1.5800000000000012,9.26571645470887,-0.9682931804812713,-4.918876014083335,0.22390231816210668,11.307792,-1.2784472,-4.399308,0.49714452,5.133743,-3.7161705,1.0163977,-0.2624832,0.18500365,-0.013290862,-0.94694257,-10.75356,10.440339,0.66227055,-1.0282998,-2.6484306,-0.03300719,0
1.5900000000000012,9.26571645470887,-0.9682931804812713,-4.918876014083335,0.22390231816210668,11.307792,-1.2784472,-4.399308,0.49714452,5.02605,-3.6117127,1.0229622,-0.26181948,0.17292826,-0.004704886,-0.9494867,-10.784794,10.450891,0.65076065,-1.0189248,-3.0025136,-0.020400561,0
1.6000000000000012,9.64702440231426,-0.660941814315494,-2.9889066940958906,0.3000308586911868,10.877658,-1.0401608,-5.542514,0.20328763,4.9180536,-3.50716,1.029416,-0.26104715,0.15925168,0.0042570573,-0.95209026,-10.814302,10.4592705,0.6400887,-1.0110072,-3.3013775,-0.008412545,0
1.6100000000000012,9.64702440231426,-0.660941814315494,-2.9889066940958906,0.3000308586911868,10.877658,-1.0401608,-5.542514,0.20328763,4.809766,-3.4025335,1.0357852,-0.2601598,0.14491518,0.01321255,-0.954538,-10.8429785,10.465606,0.6338754,-0.9563823,-3.2526577,0.006722858,0
1.6200000000000012,9.64702440231426,-0.660941814315494,-2.9889066940958906,0.3000308586911868,10.877658,-1.0401608,-5.542514,0.20328763,4.7012014,-3.297856,1.0420961,-0.2591666,0.13068648,0.02185544,-0.9567011,-10.869532,10.469564,0.62843055,-0.91027844,-3.211534,0.021115564,0
1.6300000000000012,9.64702440231426,-0.660941814315494,-2.9889066940958906,0.3000308586911868,10.877658,-1.0401608,-5.542514,0.20328763,4.5923824,-3.1931505,1.048356,-0.25806585,0.11654886,0.030231183,-0.95859545,-10.89394,10.471203,0.623643,-0.8713666,-3.1768224,0.034802,0
1.6400000000000012,9.64702440231426,-0.660941814315494,-2.9889066940958906,0.3000308586911868,10.625101,-0.98223126,-4.6024117,0.5765325,4.48333,-3.0884397,1.0545709,-0.25685683,0.10248846,0.03837818,-0.96023357,-10.916187,10.47057,0.6194064,-0.8385248,-3.1475236,0.047816858,0
1.6500000000000012,9.64702440231426,-0.660941814315494,-2.9889066940958906,0.3000308586911868,10.625101,-0.98223126,-4.6024117,0.5765325,4.374066,-2.9837465,1.0607457,-0.2555394,0.08849386,0.04632882,-0.9616251,-10.936258,10.4677105,0.6156182,-0.8108065,-3.1227927,0.06019307,0
1.6600000000000013,9.64702440231426,-0.660941814315494,-2.9889066940958906,0.3000308586911868,10.625101,-0.98223126,-4.6024117,0.5765325,4.264612,-2.879093,1.0668845,-0.2541139,0.0745558,0.054110393,-0.96277744,-10.954138,10.462664,0.61217886,-0.78741235,-3.1019185,0.07196198,0
1.6700000000000013,9.64702440231426,-0.660941814315494,-2.9889066940958906,0.3000308586911868,10.625101,-0.98223126,-4.6024117,0.5765325,4.1549907,-2.7745006,1.0729903,-0.25258136,0.060666826,0.06174583,-0.96369624,-10.9698105,10.455466,0.60899097,-0.7676678,-3.084299,0.08315339,0
1.6800000000000013,9.871278665633165,-0.4430197766313652,-3.3433849537420204,0.35179306217731426,11.214241,-1.1574738,-4.0800924,0.71438783,4.045223,-2.669991,1.0790648,-0.2509429,0.046821028,0.06925435,-0.96438587,-10.983267,10.446154,0.60595924,-0.7510034,-3.0694273,0.09379564,0
1.6900000000000013,9.871278665633165,-0.4430197766313652,-3.3433849537420204,0.35179306217731426,11.214241,-1.1574738,-4.0800924,0.71438783,3.9353313,-2.565586,1.0851207,-0.24918705,0.032855585,0.07660307,-0.9648622,-10.994748,10.434494,0.6052022,-0.7029454,-3.1121538,0.106455654,0
1.7000000000000013,9.871278665633165,-0.4430197766313652,-3.3433849537420204,0.35179306217731426,11.214241,-1.1574738,-4.0800924,0.71438783,3.8253365,-2.4613082,1.0911689,-0.2473005,0.018641803,0.08376593,-0.9651316,-11.003886,10.420738,0.6044197,-0.662383,-3.1482165,0.11849443,0
1.7100000000000013,9.871278665633165,-0.4430197766313652,-3.3433849537420204,0.35179306217731426,11.214241,-1.1574738,-4.0800924,0.71438783,3.7152622,-2.3571782,1.0972086,-0.24528293,0.004221877,0.09076696,-0.9651843,-11.010616,10.40492,0.60352004,-0.62814736,-3.1786551,0.12994246,0
1.7200000000000013,10.012825465186896,-0.08784349079229614,-0.02387682455739756,0.41532127747155473,11.150726,-0.61404157,-2.9848995,0.7415469,3.6051328,-2.2532165,1.1032386,-0.24313506,-0.010367853,0.09762625,-0.9650119,-11.014886,10.3870735,0.6024082,-0.599252,-3.204347,0.14082874,0
1.7300000000000013,10.012825465186896,-0.08784349079229614,-0.02387682455739756,0.41532127747155473,11.150726,-0.61404157,-2.9848995,0.7415469,3.4949732,-2.1494446,1.1092628,-0.24098466,-0.023848075,0.103903025,-0.96465683,-11.0167265,10.366983,0.6023791,-0.5195197,-2.7083514,0.15429817,0
1.7400000000000013,10.012825465186896,-0.08784349079229614,-0.02387682455739756,0.41532127747155473,11.150726,-0.61404157,-2.9848995,0.7415469,3.3848062,-2.0458827,1.115285,-0.23895243,-0.035204604,0.109257676,-0.9642231,-11.016367,10.345157,0.60199577,-0.45222297,-2.289706,0.16710664,0
1.7500000000000013,10.012825465186896,-0.08784349079229614,-0.02387682455739756,0.41532127747155473,11.150726,-0.61404157,-2.9848995,0.7415469,3.2746525,-1.9425465,1.1213015,-0.23702617,-0.044766724,0.1138407,-0.9637717,-11.014151,10.321864,0.6012501,-0.39542097,-1.9363483,0.17928663,0
1.7600000000000013,10.219247920219768,0.18594664177592798,1.1886454458171527,0.4107271989280009,10.705088,-0.6739837,0.16529697,0.8410108,3.1645284,-1.8394496,1.1273088,-0.23519225,-0.052813135,0.11777791,-0.96334046,-11.01037,10.297336,0.6001525,-0.34747675,-1.6380966,0.19086891,0
1.7700000000000014,10.219247920219768,0.18594664177592798,1.1886454458171527,0.4107271989280009,10.705088,-0.6739837,0.16529697,0.8410108,3.0544498,-1.736606,1.1333134,-0.23348965,-0.05913789,0.1209554,-0.9629934,-11.00518,10.271248,0.6007217,-0.26433602,-1.1972592,0.20165743,0
1.7800000000000014,10.219247920219768,0.18594664177592798,1.1886454458171527,0.4107271989280009,10.705088,-0.6739837,0.16529697,0.8410108,2.9444284,-1.6340274,1.1393223,-0.23194957,-0.06359052,0.123289324,-0.96278584,-10.998989,10.244358,0.601018,-0.19415796,-0.82517076,0.21191655,0
1.7900000000000014,10.219247920219768,0.18594664177592798,1.1886454458171527,0.4107271989280009,10.705088,-0.6739837,0.16529697,0.8410108,2.8344727,-1.5317208,1.145333,-0.2305471,-0.06646276,0.12491611,-0.962719,-10.992105,10.216906,0.6011125,-0.1349208,-0.51111,0.22167225,0
1.8000000000000014,10.332116498912809,0.3874996731265267,3.9790796979331513,0.4239894987090703,10.465246,-0.12420749,1.3364974,0.8503492,2.724588,-1.4296906,1.1513441,-0.22925909,-0.068000555,0.12594949,-0.96278465,-10.984789,10.189085,0.6010725,-0.08491844,-0.24602725,0.23094922,0
1.8100000000000014,10.332116498912809,0.3874996731265267,3.9790796979331513,0.4239894987090703,10.465246,-0.12420749,1.3364974,0.8503492,2.614778,-1.3279413,1.1573596,-0.22819841,-0.06735419,0.12615149,-0.9630556,-10.977222,10.160778,0.6020516,-0.011346411,0.41288668,0.24042176,0
1.8200000000000014,10.332116498912809,0.3874996731265267,3.9790796979331513,0.4239894987090703,10.465246,-0.12420749,1.3364974,0.8503492,2.5050426,-1.2264746,1.1633853,-0.22745103,-0.06385984,0.12533794,-0.96357656,-10.969967,10.132595,0.60308915,0.050760925,0.9690424,0.24942948,0
1.8300000000000014,10.332116498912809,0.3874996731265267,3.9790796979331513,0.4239894987090703,10.465246,-0.12420749,1.3364974,0.8503492,2.3953757,-1.1252879,1.1694221,-0.22695777,-0.05795835,0.123666726,-0.9642816,-10.963514,10.104841,0.604303,0.10319104,1.4384652,0.25799516,0
1.8400000000000014,10.332116498912809,0.3874996731265267,3.9790796979331513,0.4239894987090703,10.419068,0.34973133,2.5312297,0.9034077,2.2857678,-1.0243756,1.1754724,-0.226665,-0.050021257,0.12126858,-0.9650991,-10.958283,10.077777,0.605778,0.14745277,1.8346808,0.26614058,0
1.8500000000000014,10.332116498912809,0.3874996731265267,3.9790796979331513,0.4239894987090703,10.419068,0.34973133,2.5312297,0.9034077,2.1762044,-0.9237293,1.1815388,-0.22652516,-0.040362366,0.1182523,-0.9659582,-10.954631,10.051622,0.6075656,0.18481922,2.1691062,0.2738863,0
1.8600000000000014,10.332116498912809,0.3874996731265267,3.9790796979331513,0.4239894987090703,10.419068,0.34973133,2.5312297,0.9034077,2.0666687,-0.8233393,1.1876248,-0.22649659,-0.029247284,0.11470883,-0.9667923,-10.952857,10.026569,0.6096854,0.21636517,2.4513774,0.2812519,0
1.8700000000000014,10.332116498912809,0.3874996731265267,3.9790796979331513,0.4239894987090703,10.419068,0.34973133,2.5312297,0.9034077,1.9571401,-0.7231936,1.1937337,-0.22654335,-0.016901318,0.11071449,-0.96754134,-10.95322,10.002782,0.6121277,0.24299778,2.6896276,0.28825605,0
1.8800000000000014,10.437198613786856,0.45632586157229443,3.6206976214896405,0.4212531976904495,10.810973,0.45871356,2.2597427,0.85287756,1.8475963,-0.6232788,1.1998683,-0.22663468,-0.0035159965,0.10633355,-0.9681524,-10.955937,9.980404,0.6148565,0.2654826,2.8907223,0.2949165,0
1.8900000000000015,10.437198613786856,0.45632586157229443,3.6206976214896405,0.4212531976904495,10.810973,0.45871356,2.2597427,0.85287756,1.7380126,-0.5235813,1.2060366,-0.22673008,0.010600366,0.10162633,-0.9685839,-10.961238,9.959344,0.6188407,0.2952106,3.0045688,0.3011159,0
1.9000000000000015,10.437198613786856,0.45632586157229443,3.6206976214896405,0.4212531976904495,10.810973,0.45871356,2.2597427,0.85287756,1.6283625,-0.4240863,1.2122456,-0.22679873,0.025193514,0.09664427,-0.96880805,-10.969204,9.939927,0.62297696,0.3203057,3.10066,0.30701107,0
1.9100000000000015,10.437198613786856,0.45632586157229443,3.6206976214896405,0.4212531976904495,10.810973,0.45871356,2.2597427,0.85287756,1.5186191,-0.32477686,1.2184964,-0.22682959,0.040185243,0.09142574,-0.9688015,-10.979914,9.922232,0.62717474,0.34149015,3.181765,0.31261697,0
1.9200000000000015,10.489037453559867,0.3328796475047145,2.8832886030421654,0.451323191722354,11.218843,0.6095186,1.2885674,0.8694656,1.4087546,-0.22563551,1.2247891,-0.2268134,0.055508375,0.08600348,-0.9685451,-10.99343,9.906326,0.6313338,0.35937342,3.2502213,0.31794778,0
1.9300000000000015,10.489037453559867,0.3328796475047145,2.8832886030421654,0.451323191722354,11.218843,0.6095186,1.2885674,0.8694656,1.2987403,-0.12664439,1.2311252,-0.22671184,0.070830986,0.08052028,-0.9680407,-11.0098715,9.892189,0.6358539,0.35524,3.1929991,0.32449254,0
1.9400000000000015,10.489037453559867,0.3328796475047145,2.8832886030421654,0.451323191722354,11.218843,0.6095186,1.2885674,0.8694656,1.1885475,-0.027785411,1.2375052,-0.2264977,0.08588723,0.075091876,-0.9673081,-11.029133,9.879893,0.6401204,0.35175034,3.1447005,0.33071613,0
1.9500000000000015,10.489037453559867,0.3328796475047145,2.8832886030421654,0.451323191722354,11.218843,0.6095186,1.2885674,0.8694656,1.0781481,0.07095972,1.2439263,-0.22617875,0.10071277,0.06970771,-0.9663552,-11.051156,9.869414,0.6440317,0.3488043,3.1039343,0.33663437,0
1.9600000000000015,10.494322833914419,0.1726176397181836,0.4574104924143663,0.48019732861833103,11.5232525,0.57091707,-2.2141356,0.7438436,0.967515,0.16960905,1.2503843,-0.22576165,0.115337335,0.064358935,-0.96518826,-11.075889,9.860732,0.6474901,0.34631708,3.0695252,0.34226218,0
1.9700000000000015,10.494322833914419,0.1726176397181836,0.4574104924143663,0.48019732861833103,11.5232525,0.57091707,-2.2141356,0.7438436,0.85662127,0.2681804,1.2568746,-0.22518224,0.12886485,0.059319098,-0.9639344,-11.103254,9.8538,0.6504611,0.31930774,2.6621628,0.3490307,0
1.9800000000000015,10.494322833914419,0.1726176397181836,0.4574104924143663,0.48019732861833103,11.5232525,0.57091707,-2.2141356,0.7438436,0.7454419,0.36669052,1.2633916,-0.2244021,0.14059244,0.05480578,-0.96274364,-11.132947,9.848452,0.65287095,0.2964998,2.3183289,0.3554671,0
1.9900000000000015,10.494322833914419,0.1726176397181836,0.4574104924143663,0.48019732861833103,11.5232525,0.57091707,-2.2141356,0.7438436,0.6339554,0.4651542,1.26993,-0.22345854,0.1508029,0.050736267,-0.9616403,-11.164642,9.844493,0.65473276,0.2772395,2.0281162,0.36158764,0
2.0000000000000013,,,,,11.993675,0.08804145,-3.9328191,1.0207922,0.5221431,0.5635846,1.2764844,-0.22238074,0.15973456,0.047040258,-0.9606354,-11.1980715,9.8417635,0.65607035,0.26097465,1.7831626,0.3674079,0
2.010000000000001,,,,,11.993675,0.08804145,-3.9328191,1.0207922,0.4099885,0.66199315,1.2830508,-0.2211156,0.16660587,0.044041354,-0.9599022,-11.233052,9.840092,0.65716803,0.18708743,1.1634443,0.3744099,0
2.020000000000001,,,,,11.993675,0.08804145,-3.9328191,1.0207922,0.29747856,0.76038903,1.2896264,-0.21962635,0.17081077,0.04199165,-0.9595969,-11.269058,9.83918,0.65790933,0.12470484,0.640373,0.38106835,0
2.0300000000000007,,,,,11.993675,0.08804145,-3.9328191,1.0207922,0.18460539,0.8587783,1.2962083,-0.21795228,0.17276856,0.040739648,-0.95968205,-11.305636,9.83872,0.6584435,0.0720348,0.19887622,0.38740003,0
2.0400000000000005,,,,,11.993675,0.08804145,-3.9328191,1.0207922,0.07136518,0.95716405,1.302795,-0.21612264,0.17283049,0.040157318,-0.9601092,-11.342408,9.838451,0.6589062,0.027564533,-0.17376794,0.39342102,0
2.0500000000000003,,,,,12.127796,-0.2526958,-5.2633805,0.8105341,-0.042242344,1.0555472,1.3093867,-0.21415944,0.17129123,0.040136665,-0.9608255,-11.379055,9.83816,0.6594158,-0.009982956,-0.48829687,0.39914656,1
2.06,,,,,12.127796,-0.2526958,-5.2633805,0.8105341,-0.15624218,1.1539261,1.3160595,-0.211991,0.1672205,0.04085744,-0.9619924,-11.420787,9.837556,0.6751857,-0.047624793,-1.2329788,0.41933343,1
2.07,,,,,12.127796,-0.2526958,-5.2633805,0.8105341,-0.27065408,1.2522962,1.322892,-0.20954956,0.15988804,0.04245287,-0.96370333,-11.461362,9.836325,0.69136703,-0.079411164,-1.8615274,0.43852973,1
2.0799999999999996,,,,,12.127796,-0.2526958,-5.2633805,0.8105341,-0.38546312,1.3506492,1.3298892,-0.20685247,0.1497894,0.044776343,-0.9658011,-11.500114,9.834108,0.7081633,-0.106255166,-2.3920534,0.45678413,1
2.0899999999999994,,,,,11.983853,-0.58543867,-4.984722,0.7385591,-0.5006481,1.4489739,1.3370577,-0.20391095,0.1373414,0.047704015,-0.968134,-11.536467,9.830614,0.7257086,-0.12892763,-2.8398435,0.47414276,1
2.099999999999999,,,,,11.983853,-0.58543867,-4.984722,0.7385591,-0.6161804,1.5472567,1.3443991,-0.20072928,0.12303114,0.051238947,-0.9705396,-11.569526,9.825659,0.7426858,-0.19999045,-3.1743598,0.48711774,1
2.109999999999999,,,,,11.983853,-0.58543867,-4.984722,0.7385591,-0.7320274,1.6454813,1.3519142,-0.19731529,0.10726487,0.055379026,-0.97288007,-11.5993395,9.818983,0.7604591,-0.25998375,-3.4567058,0.49945602,1
2.1199999999999988,,,,,11.983853,-0.58543867,-4.984722,0.7385591,-0.8481549,1.7436298,1.3596108,-0.19368085,0.0902603,0.060020484,-0.9750589,-11.625586,9.810405,0.778967,-0.3106325,-3.695018,0.5111889,1
2.1299999999999986,,,,,11.981087,-1.0532341,-5.364851,0.89278525,-0.9645259,1.8416823,1.3674958,-0.18983608,0.07220413,0.065075316,-0.97699314,-11.64798,9.799782,0.7981074,-0.35339308,-3.8961632,0.522346,1
2.1399999999999983,,,,,11.981087,-1.0532341,-5.364851,0.89278525,-1.0811005,1.939618,1.3755747,-0.18574832,0.053144682,0.07067893,-0.97861093,-11.6662655,9.786999,0.8177147,-0.4624062,-4.125247,0.54052365,1
2.149999999999998,,,,,11.981087,-1.0532341,-5.364851,0.89278525,-1.1978363,2.0374143,1.3838513,-0.18139133,0.033130504,0.07693334,-0.979838,-11.680209,9.771894,0.8376406,-0.55442894,-4.318601,0.55780923,1
2.159999999999998,,,,,11.981087,-1.0532341,-5.364851,0.89278525,-1.3146888,2.1350477,1.3923278,-0.17678195,0.012312476,0.08372404,-0.9806062,-11.6895895,9.75433,0.85767585,-0.6321102,-4.481798,0.5742465,1
2.1699999999999977,,,,,11.61274,-1.4113482,-4.189937,0.99363905,-1.4316115,2.2324922,1.4010042,-0.17193478,-0.009177942,0.09095332,-0.9808585,-11.6942215,9.734206,0.87758374,-0.6976858,-4.619541,0.58987725,1
2.1799999999999975,,,,,11.61274,-1.4113482,-4.189937,0.99363905,-1.5485563,2.3297262,1.4098599,-0.16689788,-0.03073918,0.09859922,-0.98055094,-11.693985,9.71216,0.89348924,-0.8089478,-4.5525975,0.6096899,1
2.1899999999999973,,,,,11.61274,-1.4113482,-4.189937,0.99363905,-1.6654752,2.4267268,1.4188719,-0.16172117,-0.0518868,0.1066448,-0.979685,-11.689067,9.687551,0.9087625,-0.9028589,-4.4960895,0.6285304,1
2.199999999999997,,,,,11.61274,-1.4113482,-4.189937,0.99363905,-1.7823219,2.5234683,1.4280323,-0.15641762,-0.0726723,0.11501911,-0.9782763,-11.67956,9.660375,0.9231546,-0.98212487,-4.448389,0.64644635,1
2.209999999999997,,,,,11.423864,-1.362223,-0.47125268,1.0473429,-1.899051,2.6199253,1.4373312,-0.15099728,-0.09313758,0.12366119,-0.9763375,-11.665551,9.630648,0.9364256,-1.04903,-4.408124,0.66348326,1
2.2199999999999966,,,,,11.423864,-1.362223,-0.47125268,1.0473429,-2.0156193,2.7160752,1.4467472,-0.14565095,-0.11186876,0.13228132,-0.9740506,-11.647493,9.598947,0.9465731,-1.0980905,-3.7942057,0.68231934,1
2.2299999999999964,,,,,11.423864,-1.362223,-0.47125268,1.0473429,-2.1319878,2.8118963,1.4562577,-0.14055403,-0.12775925,0.1406663,-0.97166705,-11.625697,9.564958,0.95533144,-1.1394734,-3.2760246,0.70023113,1
