time-since-start [s],throttle_mpc,roll_mpc,pitch_mpc,yaw_mpc,throttle_nw,roll_nw,pitch_nw,yaw_nw,position_x [m],position_y [m],position_z [m],rotation_w [quaternion],rotation_x [quaternion],rotation_y [quaternion],rotation_z [quaternion],velocity_x [m/s],velocity_y [m/s],velocity_z [m/s],omega_x [rad/s],omega_y [rad/s],omega_z [rad/s],network_used
0.0,12.324508218057458,5.999999112767486,-5.999999441067947,1.3517330614241962,13.190441,-0.5221727,-2.0981636,0.042618457,16.895943,-10.525616,1.9402275,0.35898176,-0.36687893,0.25025013,0.82091826,-9.020298,-1.2454412,-0.308133,0.8503667,0.090936854,-0.2329007,0
0.01,12.324508218057458,5.999999112767486,-5.999999441067947,1.3517330614241962,11.453396,0.29537156,-2.936368,-0.552885,16.80549,-10.537653,1.9370337,0.3716121,-0.32946345,0.2663519,0.8260841,-9.068893,-1.1618087,-0.3299121,5.999999,-5.9999995,1.3517331,0
0.02,12.324508218057458,5.999999112767486,-5.999999441067947,1.3517330614241962,11.453396,0.29537156,-2.936368,-0.552885,16.7146,-10.548848,1.9336433,0.38355666,-0.29144,0.2819622,0.82972544,-9.107954,-1.077053,-0.34756544,5.999999,-5.9999995,1.3517331,0
0.03,12.324508218057458,5.999999112767486,-5.999999441067947,1.3517330614241962,11.453396,0.29537156,-2.936368,-0.552885,16.623367,-10.559194,1.9300942,0.39479342,-0.25287876,0.2970521,0.83183557,-9.137167,-0.99168175,-0.36176586,5.999999,-5.9999995,1.3517331,0
0.04,12.324508218057458,5.999999112767486,-5.999999441067947,1.3517330614241962,11.588141,-0.7391434,-1.2386318,-0.55045193,16.531893,-10.568685,1.9264176,0.40530163,-0.21385083,0.31159383,0.8324107,-9.156299,-0.9062078,-0.3732116,5.999999,-5.9999995,1.3517331,0
0.05,12.324508218057458,5.999999112767486,-5.999999441067947,1.3517330614241962,11.588141,-0.7391434,-1.2386318,-0.55045193,16.440279,-10.577321,1.9226371,0.4150619,-0.17442824,0.32556057,0.8314497,-9.165188,-0.8211442,-0.38262117,5.999999,-5.9999995,1.3517331,0
0.060000000000000005,12.324508218057458,5.999999112767486,-5.999999441067947,1.3517330614241962,11.588141,-0.7391434,-1.2386318,-0.55045193,16.348627,-10.585111,1.9187697,0.4240562,-0.13468377,0.3389265,0.8289544,-9.163749,-0.7370014,-0.39072818,5.999999,-5.9999995,1.3517331,0
0.07,12.324508218057458,5.999999112767486,-5.999999441067947,1.3517330614241962,11.588141,-0.7391434,-1.2386318,-0.55045193,16.25704,-10.592066,1.9148246,0.43226796,-0.09469077,0.351667,0.8249293,-9.15197,-0.65428287,-0.3982759,5.999999,-5.9999995,1.3517331,0
0.08,15.724715924092028,5.0351973137606345,-5.999999140813478,0.3675643773034323,9.9768095,-2.0177877,1.0055696,-0.20434684,16.165623,-10.598203,1.9108037,0.439682,-0.05452302,0.36375847,0.8193819,-9.129919,-0.5734815,-0.4060116,5.999999,-5.9999995,1.3517331,0
0.09,15.724715924092028,5.0351973137606345,-5.999999140813478,0.3675643773034323,9.9768095,-2.0177877,1.0055696,-0.20434684,16.074518,-10.6034355,1.9068258,0.4501209,-0.018171016,0.37101546,0.81203973,-9.089288,-0.4736424,-0.38967332,5.0351973,-5.999999,0.36756438,0
0.09999999999999999,15.724715924092028,5.0351973137606345,-5.999999140813478,0.3675643773034323,9.9768095,-2.0177877,1.0055696,-0.20434684,15.983876,-10.607691,1.9030063,0.45986798,0.018208917,0.3777022,0.80344945,-9.0371275,-0.37797084,-0.37445486,5.0351973,-5.999999,0.36756438,0
0.10999999999999999,15.724715924092028,5.0351973137606345,-5.999999140813478,0.3675643773034323,9.9768095,-2.0177877,1.0055696,-0.20434684,15.893813,-10.6110115,1.8993304,0.4689082,0.054560866,0.38380843,0.7936242,-8.973748,-0.28702146,-0.36108208,5.0351973,-5.999999,0.36756438,0
0.11999999999999998,15.724715924092028,5.0351973137606345,-5.999999140813478,0.3675643773034323,9.9768095,-2.0177877,1.0055696,-0.20434684,15.804439,-10.613449,1.8957759,0.47722772,0.09082895,0.38932475,0.7825792,-8.899532,-0.20131996,-0.35026935,5.0351973,-5.999999,0.36756438,0
0.12999999999999998,16.306860797869117,0.6496800696482968,-2.885920449741267,0.25669678985188205,12.265838,-2.4607394,3.3982456,-0.6286151,15.715858,-10.615058,1.892314,0.48481375,0.12695743,0.39424267,0.7703313,-8.814924,-0.12135983,-0.34271538,5.0351973,-5.999999,0.36756438,0
0.13999999999999999,16.306860797869117,0.6496800696482968,-2.885920449741267,0.25669678985188205,12.265838,-2.4607394,3.3982456,-0.6286151,15.628184,-10.615881,1.888932,0.48904783,0.1401394,0.38954312,0.76775616,-8.719565,-0.043801486,-0.3336662,0.6496801,-2.8859205,0.2566968,0
0.15,16.306860797869117,0.6496800696482968,-2.885920449741267,0.25669678985188205,12.265838,-2.4607394,3.3982456,-0.6286151,15.541477,-10.615947,1.8856406,0.49317408,0.1532905,0.3847577,0.76501185,-8.621246,0.029948141,-0.32460272,0.6496801,-2.8859205,0.2566968,0
0.16,15.565565724616084,-1.5220834404042785,1.4160449154722659,0.19116308580787023,13.858592,-3.9025507,7.039936,-0.6845973,15.45577,-10.615295,1.8824395,0.49719167,0.1664078,0.3798875,0.76209885,-8.520048,0.099829525,-0.31562793,0.6496801,-2.8859205,0.2566968,0
0.17,15.565565724616084,-1.5220834404042785,1.4160449154722659,0.19116308580787023,13.858592,-3.9025507,7.039936,-0.6845973,15.3710575,-10.613974,1.8793048,0.49501297,0.15758234,0.37742814,0.7666018,-8.422707,0.16473553,-0.3110653,-1.5220834,1.416045,0.1911631,0
0.18000000000000002,15.565565724616084,-1.5220834404042785,1.4160449154722659,0.19116308580787023,13.858592,-3.9025507,7.039936,-0.6845973,15.287306,-10.611996,1.8762231,0.4927803,0.14873973,0.3749276,0.7710211,-8.32789,0.23104757,-0.30504802,-1.5220834,1.416045,0.1911631,0
0.19000000000000003,15.565565724616084,-1.5220834404042785,1.4160449154722659,0.19116308580787023,13.858592,-3.9025507,7.039936,-0.6845973,15.20449,-10.609347,1.8732088,0.49049392,0.1398809,0.37238628,0.7753565,-8.235641,0.29873204,-0.29761744,-1.5220834,1.416045,0.1911631,0
0.20000000000000004,14.7410624412057,-1.975713207650947,3.1315928582481996,-0.0565547125603296,14.197448,-4.129987,5.8749866,-0.23174888,15.122583,-10.606015,1.8702756,0.4881541,0.1310068,0.36980438,0.77960736,-8.145998,0.3677548,-0.28881544,-1.5220834,1.416045,0.1911631,0
0.21000000000000005,14.7410624412057,-1.975713207650947,3.1315928582481996,-0.0565547125603296,14.197448,-4.129987,5.8749866,-0.23174888,15.041535,-10.602004,1.8674085,0.48379493,0.113851435,0.36972013,0.7850398,-8.064249,0.4351008,-0.28440067,-1.9757133,3.1315928,-0.056554712,0
0.22000000000000006,14.7410624412057,-1.975713207650947,3.1315928582481996,-0.0565547125603296,14.197448,-4.129987,5.8749866,-0.23174888,14.961283,-10.597303,1.8645917,0.47926986,0.09665704,0.36950913,0.7902031,-7.9867887,0.50560033,-0.27878287,-1.9757133,3.1315928,-0.056554712,0
0.23000000000000007,14.7410624412057,-1.975713207650947,3.1315928582481996,-0.0565547125603296,14.197448,-4.129987,5.8749866,-0.23174888,14.8817835,-10.591882,1.8618366,0.47458053,0.0794295,0.36917147,0.7950955,-7.913723,0.5791588,-0.27210632,-1.9757133,3.1315928,-0.056554712,0
0.24000000000000007,14.7410624412057,-1.975713207650947,3.1315928582481996,-0.0565547125603296,13.5742655,-3.7291274,4.3020873,-0.29096276,14.802992,-10.58571,1.8591528,0.46972847,0.062174726,0.36870724,0.7997154,-7.8451505,0.65567744,-0.26451674,-1.9757133,3.1315928,-0.056554712,0
0.25000000000000006,14.7410624412057,-1.975713207650947,3.1315928582481996,-0.0565547125603296,13.5742655,-3.7291274,4.3020873,-0.29096276,14.724865,-10.578758,1.8565489,0.4647154,0.044898637,0.36811662,0.804061,-7.7811646,0.7350535,-0.2561611,-1.9757133,3.1315928,-0.056554712,0
0.26000000000000006,14.7410624412057,-1.975713207650947,3.1315928582481996,-0.0565547125603296,13.5742655,-3.7291274,4.3020873,-0.29096276,14.647354,-10.570999,1.8540317,0.45954296,0.027607154,0.36739975,0.808131,-7.721852,0.8171801,-0.24718745,-1.9757133,3.1315928,-0.056554712,0
0.2700000000000001,14.7410624412057,-1.975713207650947,3.1315928582481996,-0.0565547125603296,13.5742655,-3.7291274,4.3020873,-0.29096276,14.570412,-10.562406,1.8516066,0.454213,0.0103062065,0.36655694,0.8119239,-7.667292,0.9019467,-0.23774466,-1.9757133,3.1315928,-0.056554712,0
0.2800000000000001,14.149755976527084,-1.8997646304851596,2.5469827773039864,-0.2335499598124587,14.276576,-4.00135,3.1215198,-0.24811202,14.493992,-10.552951,1.8492777,0.4487273,-0.006998273,0.36558846,0.8154385,-7.61756,0.98923934,-0.22798228,-1.9757133,3.1315928,-0.056554712,0
0.2900000000000001,14.149755976527084,-1.8997646304851596,2.5469827773039864,-0.2335499598124587,14.276576,-4.00135,3.1215198,-0.24811202,14.418036,-10.542631,1.8470261,0.44490054,-0.022070583,0.36350277,0.81819445,-7.5743046,1.0751339,-0.22229867,-1.8997647,2.5469828,-0.23354995,0
0.3000000000000001,14.149755976527084,-1.8997646304851596,2.5469827773039864,-0.2335499598124587,14.276576,-4.00135,3.1215198,-0.24811202,14.342493,-10.531444,1.8448327,0.44096088,-0.037137296,0.36132488,0.8207427,-7.5352173,1.1626908,-0.2163507,-1.8997647,2.5469828,-0.23354995,0
0.3100000000000001,14.149755976527084,-1.8997646304851596,2.5469827773039864,-0.2335499598124587,14.276576,-4.00135,3.1215198,-0.24811202,14.267318,-10.519372,1.8426998,0.43690935,-0.05219458,0.35905528,0.8230828,-7.5003357,1.2518288,-0.21025053,-1.8997647,2.5469828,-0.23354995,0
0.3200000000000001,14.038877139351019,-1.9561032429165406,2.8091802691360197,-0.3921633607196356,14.201725,-3.9702845,3.5824256,-0.09373695,14.1924715,-10.506402,1.8406279,0.4327469,-0.06723863,0.35669455,0.825214,-7.4696927,1.3424654,-0.20411044,-1.8997647,2.5469828,-0.23354995,0
0.3300000000000001,14.038877139351019,-1.9561032429165406,2.8091802691360197,-0.3921633607196356,14.201725,-3.9702845,3.5824256,-0.09373695,14.117909,-10.49252,1.8386129,0.42863324,-0.083750606,0.35451716,0.82678723,-7.443631,1.4338748,-0.1989037,-1.9561032,2.8091803,-0.39216337,0
0.34000000000000014,14.038877139351019,-1.9561032429165406,2.8091802691360197,-0.3921633607196356,14.201725,-3.9702845,3.5824256,-0.09373695,14.043585,-10.477717,1.8366487,0.4243924,-0.10023774,0.35223457,0.828115,-7.4221153,1.5268104,-0.19401225,-1.9561032,2.8091803,-0.39216337,0
0.35000000000000014,14.038877139351019,-1.9561032429165406,2.8091802691360197,-0.3921633607196356,14.201725,-3.9702845,3.5824256,-0.09373695,13.969451,-10.461978,1.8347311,0.42002562,-0.11669512,0.34984744,0.82919693,-7.4051647,1.621176,-0.18956953,-1.9561032,2.8091803,-0.39216337,0
0.36000000000000015,13.77969444230348,-1.5573268524717014,1.564084379743935,-0.45114013799211455,12.309205,-3.0467677,2.6400068,-0.1122151,13.895464,-10.445289,1.8328552,0.41553414,-0.13311785,0.3473565,0.8300328,-7.3927946,1.716874,-0.18570839,-1.9561032,2.8091803,-0.39216337,0
0.37000000000000016,13.77969444230348,-1.5573268524717014,1.564084379743935,-0.45114013799211455,12.309205,-3.0467677,2.6400068,-0.1122151,13.821579,-10.427646,1.8310059,0.4136271,-0.14361955,0.34382075,0.83070654,-7.384598,1.8117232,-0.18419053,-1.5573268,1.5640844,-0.45114014,0
0.38000000000000017,13.77969444230348,-1.5573268524717014,1.564084379743935,-0.45114013799211455,12.309205,-3.0467677,2.6400068,-0.1122151,13.747762,-10.409053,1.8291711,0.41166756,-0.15410301,0.34024137,0.8312748,-7.3794155,1.9069408,-0.18282183,-1.5573268,1.5640844,-0.45114014,0
0.3900000000000002,13.77969444230348,-1.5573268524717014,1.564084379743935,-0.45114013799211455,12.309205,-3.0467677,2.6400068,-0.1122151,13.673981,-10.389506,1.827349,0.4096558,-0.16456692,0.33661884,0.83173764,-7.3772492,2.0024905,-0.18166022,-1.5573268,1.5640844,-0.45114014,0
0.4000000000000002,14.168633296679358,-1.3794264942331604,1.4405358233634307,-0.43566345980078974,11.973179,-2.912193,2.1466756,-0.25342685,13.600205,-10.369002,1.8255371,0.4075921,-0.17500995,0.33295357,0.83209497,-7.3780985,2.098335,-0.1807635,-1.5573268,1.5640844,-0.45114014,0
0.4100000000000002,14.168633296679358,-1.3794264942331604,1.4405358233634307,-0.43566345980078974,11.973179,-2.912193,2.1466756,-0.25342685,13.526407,-10.347526,1.8237464,0.40577826,-0.18453048,0.32975176,0.83219963,-7.3819547,2.1971564,-0.17740503,-1.3794265,1.4405358,-0.43566346,0
0.4200000000000002,14.168633296679358,-1.3794264942331604,1.4405358233634307,-0.43566345980078974,11.973179,-2.912193,2.1466756,-0.25342685,13.452558,-10.325059,1.8219875,0.4039221,-0.19403179,0.3265156,0.83221763,-7.388599,2.2962265,-0.17443357,-1.3794265,1.4405358,-0.43566346,0
0.4300000000000002,14.168633296679358,-1.3794264942331604,1.4405358233634307,-0.43566345980078974,11.973179,-2.912193,2.1466756,-0.25342685,13.378627,-10.3016,1.8202562,0.40202388,-0.20351286,0.32324538,0.83214885,-7.398027,2.395514,-0.17189775,-1.3794265,1.4405358,-0.43566346,0
0.4400000000000002,14.168633296679358,-1.3794264942331604,1.4405358233634307,-0.43566345980078974,12.007654,-2.9548762,1.5180289,-0.21236914,13.304587,-10.277148,1.8185478,0.40008378,-0.21297272,0.3199415,0.8319934,-7.410233,2.4949877,-0.169846,-1.3794265,1.4405358,-0.43566346,0
0.45000000000000023,14.168633296679358,-1.3794264942331604,1.4405358233634307,-0.43566345980078974,12.007654,-2.9548762,1.5180289,-0.21236914,13.230413,-10.2517,1.8168575,0.398102,-0.2224104,0.31660426,0.8317513,-7.4252095,2.5946174,-0.16832662,-1.3794265,1.4405358,-0.43566346,0
0.46000000000000024,14.168633296679358,-1.3794264942331604,1.4405358233634307,-0.43566345980078974,12.007654,-2.9548762,1.5180289,-0.21236914,13.1560755,-10.225256,1.8151795,0.3960787,-0.2318249,0.31323403,0.83142245,-7.442949,2.694372,-0.16738762,-1.3794265,1.4405358,-0.43566346,0
0.47000000000000025,14.168633296679358,-1.3794264942331604,1.4405358233634307,-0.43566345980078974,12.007654,-2.9548762,1.5180289,-0.21236914,13.081545,-10.197813,1.8135077,0.39401415,-0.24121526,0.3098312,0.831007,-7.4634414,2.7942207,-0.1670768,-1.3794265,1.4405358,-0.43566346,0
0.48000000000000026,13.835729866758488,-0.9047356691694255,0.1796390846273753,-0.41090848508748545,12.669664,-2.3126986,1.2754847,-0.3250466,13.006797,-10.169371,1.8118356,0.39190856,-0.2505805,0.30639607,0.830505,-7.486677,2.8941324,-0.16744171,-1.3794265,1.4405358,-0.43566346,0
0.49000000000000027,13.835729866758488,-0.9047356691694255,0.1796390846273753,-0.41090848508748545,12.669664,-2.3126986,1.2754847,-0.3250466,12.931807,-10.139941,1.810146,0.39220116,-0.2537256,0.30247244,0.83085024,-7.511467,2.9915295,-0.17045282,-0.9047357,0.17963909,-0.4109085,0
0.5000000000000002,13.835729866758488,-0.9047356691694255,0.1796390846273753,-0.41090848508748545,12.669664,-2.3126986,1.2754847,-0.3250466,12.856564,-10.109541,1.8084273,0.39248374,-0.25686422,0.29854107,0.83117425,-7.537404,3.0884135,-0.17324618,-0.9047357,0.17963909,-0.4109085,0
0.5100000000000002,13.835729866758488,-0.9047356691694255,0.1796390846273753,-0.41090848508748545,12.669664,-2.3126986,1.2754847,-0.3250466,12.7810545,-10.078175,1.8066818,0.3927563,-0.25999632,0.2946021,0.83147705,-7.5644894,3.1847792,-0.1758336,-0.9047357,0.17963909,-0.4109085,0
0.5200000000000002,14.205662782174302,-0.6147533178634893,-0.0882255833350027,-0.3484063993843184,12.6383,-2.236994,0.95268995,-0.215725,12.70527,-10.045847,1.8049113,0.39301887,-0.26312175,0.2906556,0.8317587,-7.5927224,3.2806215,-0.1782269,-0.9047357,0.17963909,-0.4109085,0
0.5300000000000002,14.205662782174302,-0.6147533178634893,-0.0882255833350027,-0.3484063993843184,12.6383,-2.236994,0.95268995,-0.215725,12.629192,-10.012551,1.8031307,0.3937848,-0.26446757,0.2874654,0.8320783,-7.622685,3.3784933,-0.1778211,-0.6147533,-0.08822558,-0.3484064,0
0.5400000000000003,14.205662782174302,-0.6147533178634893,-0.0882255833350027,-0.3484063993843184,12.6383,-2.236994,0.95268995,-0.215725,12.552814,-9.97828,1.801356,0.3945457,-0.26581004,0.28427154,0.8323873,-7.6532836,3.475844,-0.17709516,-0.6147533,-0.08822558,-0.3484064,0
0.5500000000000003,14.205662782174302,-0.6147533178634893,-0.0882255833350027,-0.3484063993843184,12.6383,-2.236994,0.95268995,-0.215725,12.476125,-9.943036,1.79959,0.3953016,-0.26714912,0.2810741,0.8326857,-7.6845193,3.5726714,-0.17605482,-0.6147533,-0.08822558,-0.3484064,0
0.5600000000000003,13.749226429608733,-0.17412295986500256,-0.9920143408259102,-0.29863377026084553,12.757536,-1.7472605,0.486708,-0.15005976,12.399119,-9.906828,1.797836,0.3960525,-0.2684848,0.2778731,0.8329736,-7.716392,3.6689732,-0.17470583,-0.6147533,-0.08822558,-0.3484064,0
0.5700000000000003,13.749226429608733,-0.17412295986500256,-0.9920143408259102,-0.29863377026084553,12.757536,-1.7472605,0.486708,-0.15005976,12.3218,-9.869676,1.7960817,0.39843532,-0.2651092,0.27477878,0.8339444,-7.7474227,3.7615514,-0.17600529,-0.17412296,-0.99201435,-0.29863378,0
0.5800000000000003,13.749226429608733,-0.17412295986500256,-0.9920143408259102,-0.29863377026084553,12.757536,-1.7472605,0.486708,-0.15005976,12.244173,-9.831601,1.7943192,0.40080717,-0.26172632,0.27167684,0.8348921,-7.777908,3.8532963,-0.1763427,-0.17412296,-0.99201435,-0.29863378,0
0.5900000000000003,13.749226429608733,-0.17412295986500256,-0.9920143408259102,-0.29863377026084553,12.757536,-1.7472605,0.486708,-0.15005976,12.166244,-9.792613,1.7925581,0.40316793,-0.2583362,0.2685674,0.8358168,-7.807848,3.9441965,-0.17572743,-0.17412296,-0.99201435,-0.29863378,0
0.6000000000000003,13.990480266106882,-0.15257333226641964,-0.17814150078142182,-0.22808256514746927,13.275045,-1.2932281,0.8634382,-0.077130616,12.088017,-9.752721,1.7908078,0.40551758,-0.25493893,0.26545057,0.8367185,-7.8372445,4.034241,-0.17416897,-0.17412296,-0.99201435,-0.29863378,0
0.6100000000000003,13.990480266106882,-0.15257333226641964,-0.17814150078142182,-0.22808256514746927,13.275045,-1.2932281,0.8634382,-0.077130616,12.009497,-9.711924,1.7890859,0.40651318,-0.25480542,0.26415995,0.8366845,-7.866826,4.125223,-0.17018767,-0.15257333,-0.1781415,-0.22808257,0
0.6200000000000003,13.990480266106882,-0.15257333226641964,-0.17814150078142182,-0.22808256514746927,13.275045,-1.2932281,0.8634382,-0.077130616,11.93068,-9.6702175,1.7874048,0.40750772,-0.2546712,0.26286867,0.8366483,-7.8964467,4.2159557,-0.16599631,-0.15257333,-0.1781415,-0.22808257,0
0.6300000000000003,13.990480266106882,-0.15257333226641964,-0.17814150078142182,-0.22808256514746927,13.275045,-1.2932281,0.8634382,-0.077130616,11.851567,-9.627605,1.7857666,0.40850115,-0.2545363,0.26157668,0.8366098,-7.9261074,4.306439,-0.16159572,-0.15257333,-0.1781415,-0.22808257,0
0.6400000000000003,13.990480266106882,-0.15257333226641964,-0.17814150078142182,-0.22808256514746927,13.493033,-1.0647928,0.95081943,-0.010619696,11.772158,-9.584089,1.7841735,0.4094935,-0.25440073,0.26028398,0.8365691,-7.9558086,4.3966722,-0.15698656,-0.15257333,-0.1781415,-0.22808257,0
0.6500000000000004,13.990480266106882,-0.15257333226641964,-0.17814150078142182,-0.22808256514746927,13.493033,-1.0647928,0.95081943,-0.010619696,11.6924515,-9.539673,1.7826275,0.41048476,-0.25426447,0.25899056,0.8365261,-7.985551,4.4866543,-0.15216964,-0.15257333,-0.1781415,-0.22808257,0
0.6600000000000004,13.990480266106882,-0.15257333226641964,-0.17814150078142182,-0.22808256514746927,13.493033,-1.0647928,0.95081943,-0.010619696,11.612448,-9.494357,1.7811308,0.4114749,-0.25412753,0.25769648,0.8364809,-8.015335,4.576386,-0.14714567,-0.15257333,-0.1781415,-0.22808257,0
0.6700000000000004,13.990480266106882,-0.15257333226641964,-0.17814150078142182,-0.22808256514746927,13.493033,-1.0647928,0.95081943,-0.010619696,11.5321455,-9.448146,1.7796854,0.41246396,-0.2539899,0.2564017,0.83643353,-8.045161,4.6658664,-0.14191543,-0.15257333,-0.1781415,-0.22808257,0
0.6800000000000004,13.312086586844579,0.1046522859625747,-1.2039077128008668,-0.19603549853777177,13.567968,-1.0129994,0.17821331,-0.026992615,11.451545,-9.40104,1.7782933,0.4134519,-0.25385162,0.25510624,0.8363839,-8.07503,4.7550936,-0.13647963,-0.15257333,-0.1781415,-0.22808257,0
0.6900000000000004,13.312086586844579,0.1046522859625747,-1.2039077128008668,-0.19603549853777177,13.567968,-1.0129994,0.17821331,-0.026992615,11.370653,-9.353066,1.7769321,0.41593242,-0.24884596,0.25280157,0.83735746,-8.103116,4.8395324,-0.13557318,0.104652286,-1.2039077,-0.1960355,0
0.7000000000000004,13.312086586844579,0.1046522859625747,-1.2039077128008668,-0.19603549853777177,13.567968,-1.0129994,0.17821331,-0.026992615,11.289485,-9.304253,1.7755849,0.41839734,-0.24383098,0.25048736,0.8382998,-8.130237,4.9231315,-0.13369024,0.104652286,-1.2039077,-0.1960355,0
0.7100000000000004,13.312086586844579,0.1046522859625747,-1.2039077128008668,-0.19603549853777177,13.567968,-1.0129994,0.17821331,-0.026992615,11.208051,-9.254606,1.7742615,0.42084655,-0.23880684,0.24816377,0.8392107,-8.156391,5.0058765,-0.13084458,0.104652286,-1.2039077,-0.1960355,0
0.7200000000000004,13.32230113555908,0.09975726663453777,-0.6043518073120515,-0.13614578894584303,13.582432,-0.77486086,0.07569032,0.0701043,11.12636,-9.204137,1.7729714,0.42328003,-0.23377377,0.2458309,0.8400901,-8.18158,5.0877547,-0.12705007,0.104652286,-1.2039077,-0.1960355,1
0.7300000000000004,13.32230113555908,0.09975726663453777,-0.6043518073120515,-0.13614578894584303,13.582432,-0.77486086,0.07569032,0.0701043,11.044417,-9.152845,1.7717334,0.42198357,-0.23564366,0.2428164,0.841096,-8.207008,5.1705527,-0.1205268,-0.77486086,0.07569032,0.0701043,1
0.7400000000000004,13.32230113555908,0.09975726663453777,-0.6043518073120515,-0.13614578894584303,13.582432,-0.77486086,0.07569032,0.0701043,10.962215,-9.100729,1.7705616,0.42068067,-0.23750995,0.2397982,0.842089,-8.23336,5.252859,-0.11384404,-0.77486086,0.07569032,0.0701043,1
0.7500000000000004,13.32230113555908,0.09975726663453777,-0.6043518073120515,-0.13614578894584303,13.582432,-0.77486086,0.07569032,0.0701043,10.8797455,-9.047791,1.7694572,0.41937134,-0.23937261,0.23677634,0.84306914,-8.2606325,5.334668,-0.10700767,-0.77486086,0.07569032,0.0701043,1
0.7600000000000005,12.545542831452032,0.50106485839264,-1.7360477987449832,-0.11443878503429504,14.105519,-1.3362468,0.24367137,0.41584867,10.796999,-8.994037,1.7684219,0.41805562,-0.24123162,0.23375084,0.8440364,-8.288823,5.4159746,-0.10002359,-0.77486086,0.07569032,0.0701043,0
0.7700000000000005,12.545542831452032,0.50106485839264,-1.7360477987449832,-0.11443878503429504,14.105519,-1.3362468,0.24367137,0.41584867,10.71398,-8.939504,1.7674183,0.4211548,-0.2329818,0.232089,0.84527093,-8.314762,5.4904222,-0.10053562,0.50106484,-1.7360477,-0.11443879,0
0.7800000000000005,12.545542831452032,0.50106485839264,-1.7360477987449832,-0.11443878503429504,14.105519,-1.3362468,0.24367137,0.41584867,10.63071,-8.8842325,1.7664152,0.42421943,-0.2247129,0.23040815,0.84643614,-8.339017,5.5638957,-0.09988346,0.50106484,-1.7360477,-0.11443879,0
0.7900000000000005,12.545542831452032,0.50106485839264,-1.7360477987449832,-0.11443878503429504,14.105519,-1.3362468,0.24367137,0.41584867,10.547205,-8.828231,1.7654245,0.4272493,-0.21642555,0.22870843,0.84753203,-8.361583,5.6363697,-0.09809844,0.50106484,-1.7360477,-0.11443879,0
0.8000000000000005,12.480541526786771,0.4102161998276586,-0.6089014536426129,-0.08913368834061497,13.679275,-0.04696319,0.24702352,0.36311358,10.463485,-8.771509,1.7644571,0.43024418,-0.20812048,0.22698995,0.8485585,-8.382452,5.707818,-0.095212266,0.50106484,-1.7360477,-0.11443879,0
0.8100000000000005,12.480541526786771,0.4102161998276586,-0.6089014536426129,-0.08913368834061497,13.679275,-0.04696319,0.24702352,0.36311358,10.379562,-8.714079,1.7635205,0.43173733,-0.20475431,0.22732621,0.848529,-8.401843,5.778167,-0.092063405,0.4102162,-0.60890144,-0.08913369,0
0.8200000000000005,12.480541526786771,0.4102161998276586,-0.6089014536426129,-0.08913368834061497,13.679275,-0.04696319,0.24702352,0.36311358,10.29545,-8.655947,1.7626169,0.43322462,-0.20138535,0.22765937,0.8484879,-8.420399,5.8482985,-0.08860766,0.4102162,-0.60890144,-0.08913369,0
0.8300000000000005,12.480541526786771,0.4102161998276586,-0.6089014536426129,-0.08913368834061497,13.679275,-0.04696319,0.24702352,0.36311358,10.211158,-8.597114,1.7617493,0.43470597,-0.19801363,0.22798944,0.8484352,-8.438118,5.9182086,-0.08485013,0.4102162,-0.60890144,-0.08913369,0
0.8400000000000005,12.480541526786771,0.4102161998276586,-0.6089014536426129,-0.08913368834061497,13.735599,-0.15893075,0.1763234,0.38626903,10.126691,-8.537583,1.7609209,0.43618137,-0.1946392,0.22831638,0.8483709,-8.455,5.9878917,-0.08079593,0.4102162,-0.60890144,-0.08913369,0
0.8500000000000005,12.480541526786771,0.4102161998276586,-0.6089014536426129,-0.08913368834061497,13.735599,-0.15893075,0.1763234,0.38626903,10.04206,-8.477357,1.7601345,0.4376508,-0.19126211,0.22864018,0.84829503,-8.4710455,6.057345,-0.076450154,0.4102162,-0.60890144,-0.08913369,0
0.8600000000000005,12.480541526786771,0.4102161998276586,-0.6089014536426129,-0.08913368834061497,13.735599,-0.15893075,0.1763234,0.38626903,9.9572735,-8.416437,1.759393,0.43911424,-0.18788241,0.22896089,0.84820753,-8.486253,6.1265635,-0.071817935,0.4102162,-0.60890144,-0.08913369,0
0.8700000000000006,12.480541526786771,0.4102161998276586,-0.6089014536426129,-0.08913368834061497,13.735599,-0.15893075,0.1763234,0.38626903,9.872338,-8.354826,1.7586992,0.4405717,-0.18450014,0.22927843,0.8481084,-8.500621,6.1955423,-0.06690443,0.4102162,-0.60890144,-0.08913369,0
0.8800000000000006,11.88011165537655,0.33987504144760844,-1.6613805881215762,-0.05478633185286045,13.030744,-0.8516623,0.46643174,0.5197372,9.787265,-8.292526,1.7580558,0.4420231,-0.18111534,0.22959286,0.8479977,-8.51415,6.2642775,-0.061714802,0.4102162,-0.60890144,-0.08913369,0
0.8900000000000006,11.88011165537655,0.33987504144760844,-1.6613805881215762,-0.05478633185286045,13.030744,-0.8516623,0.46643174,0.5197372,9.702064,-8.229558,1.7574415,0.44445443,-0.17337641,0.22730425,0.84896046,-8.526,6.3291397,-0.0609926,0.33987504,-1.6613805,-0.054786332,0
0.9000000000000006,11.88011165537655,0.33987504144760844,-1.6613805881215762,-0.05478633185286045,13.030744,-0.8516623,0.46643174,0.5197372,9.61675,-8.165948,1.756839,0.4468538,-0.165625,0.22499928,0.84986216,-8.536439,6.3928733,-0.059380665,0.33987504,-1.6613805,-0.054786332,0
0.9100000000000006,11.88011165537655,0.33987504144760844,-1.6613805881215762,-0.05478633185286045,13.030744,-0.8516623,0.46643174,0.5197372,9.531339,-8.1017065,1.7562568,0.449221,-0.15786168,0.22267811,0.8507026,-8.5454645,6.4554586,-0.056907326,0.33987504,-1.6613805,-0.054786332,0
0.9200000000000006,11.709209394002329,0.07153578605006149,-0.7918259807498786,-0.024139186172309385,12.70124,-0.7024417,0.628477,0.56579846,9.445846,-8.036843,1.7557036,0.45155582,-0.15008698,0.22034092,0.85148185,-8.553074,6.516877,-0.05360114,0.33987504,-1.6613805,-0.054786332,0
0.9300000000000006,11.709209394002329,0.07153578605006149,-0.7918259807498786,-0.024139186172309385,12.70124,-0.7024417,0.628477,0.56579846,9.360282,-7.9713764,1.7551798,0.45258108,-0.14657976,0.21883786,0.85193604,-8.559485,6.576456,-0.051104143,0.07153579,-0.791826,-0.024139186,0
0.9400000000000006,11.709209394002329,0.07153578605006149,-0.7918259807498786,-0.024139186172309385,12.70124,-0.7024417,0.628477,0.56579846,9.274657,-7.905317,1.7546828,0.45359918,-0.1430702,0.21733132,0.8523767,-8.565318,6.6354213,-0.04821126,0.07153579,-0.791826,-0.024139186,0
0.9500000000000006,11.709209394002329,0.07153578605006149,-0.7918259807498786,-0.024139186172309385,12.70124,-0.7024417,0.628477,0.56579846,9.188977,-7.8386703,1.7542168,0.4546101,-0.1395584,0.21582136,0.85280395,-8.570575,6.6937695,-0.04492881,0.07153579,-0.791826,-0.024139186,0
0.9600000000000006,11.275530238362286,-0.05328156088138635,-1.1643536943519066,0.019888242116145576,11.6605015,0.37125674,-0.3964548,0.2808233,9.103248,-7.7714434,1.7537856,0.4556138,-0.13604438,0.21430798,0.8532176,-8.575253,6.7514963,-0.041263137,0.07153579,-0.791826,-0.024139186,1
0.9700000000000006,11.275530238362286,-0.05328156088138635,-1.1643536943519066,0.019888242116145576,11.6605015,0.37125674,-0.3964548,0.2808233,9.017474,-7.703643,1.7533904,0.455091,-0.13320577,0.21517865,0.85372525,-8.579321,6.80855,-0.03775081,0.37125674,-0.3964548,0.2808233,1
0.9800000000000006,11.275530238362286,-0.05328156088138635,-1.1643536943519066,0.019888242116145576,11.6605015,0.37125674,-0.3964548,0.2808233,8.9316635,-7.6352725,1.7530308,0.45456392,-0.13036592,0.21604733,0.85422486,-8.582774,6.8654838,-0.034148883,0.37125674,-0.3964548,0.2808233,1
0.9900000000000007,11.275530238362286,-0.05328156088138635,-1.1643536943519066,0.019888242116145576,11.6605015,0.37125674,-0.3964548,0.2808233,8.845821,-7.5663333,1.7527076,0.45403266,-0.12752484,0.21691398,0.85471654,-8.58561,6.9222984,-0.030461196,0.37125674,-0.3964548,0.2808233,1
1.0000000000000007,11.126038767831497,-0.4100707047042733,-0.6650663434976813,0.010595314513814015,11.791578,-0.24385235,-0.21667776,0.41323012,8.759954,-7.4968266,1.7524217,0.4534971,-0.12468257,0.21777861,0.8552002,-8.587831,6.9789934,-0.026691582,0.37125674,-0.3964548,0.2808233,1
1.0100000000000007,11.126038767831497,-0.4100707047042733,-0.6650663434976813,0.010595314513814015,11.791578,-0.24385235,-0.21667776,0.41323012,8.674067,-7.4267507,1.7521797,0.45181248,-0.12385859,0.21650144,0.85653484,-8.589722,7.036128,-0.021659655,-0.24385235,-0.21667776,0.41323012,1
1.0200000000000007,11.126038767831497,-0.4100707047042733,-0.6650663434976813,0.010595314513814015,11.791578,-0.24385235,-0.21667776,0.41323012,8.58816,-7.3561053,1.751989,0.4501247,-0.12303376,0.21522278,0.85786355,-8.591708,7.0929356,-0.01644896,-0.24385235,-0.21667776,0.41323012,1
1.0300000000000007,11.126038767831497,-0.4100707047042733,-0.6650663434976813,0.010595314513814015,11.791578,-0.24385235,-0.21667776,0.41323012,8.502233,-7.2848926,1.7518513,0.44843385,-0.122208074,0.21394262,0.8591863,-8.593787,7.149415,-0.011060387,-0.24385235,-0.21667776,0.41323012,1
1.0400000000000007,11.126038767831497,-0.4100707047042733,-0.6650663434976813,0.010595314513814015,11.843857,-0.4555826,-0.4257652,0.41999406,8.416284,-7.2131176,1.7517684,0.44673988,-0.12138154,0.21266098,0.8605031,-8.595958,7.2055655,-0.005494831,-0.24385235,-0.21667776,0.41323012,1
1.0500000000000007,11.126038767831497,-0.4100707047042733,-0.6650663434976813,0.010595314513814015,11.843857,-0.4555826,-0.4257652,0.41999406,8.330312,-7.1407814,1.7517444,0.44510594,-0.12011988,0.21000321,0.86217797,-8.598253,7.2615185,0.00076815346,-0.4555826,-0.4257652,0.41999406,1
1.0600000000000007,11.126038767831497,-0.4100707047042733,-0.6650663434976813,0.010595314513814015,11.843857,-0.4555826,-0.4257652,0.41999406,8.244317,-7.067889,1.7517848,0.44346568,-0.11885652,0.20734248,0.86384064,-8.6007,7.3168316,0.007368016,-0.4555826,-0.4257652,0.41999406,1
1.0700000000000007,11.126038767831497,-0.4100707047042733,-0.6650663434976813,0.010595314513814015,11.843857,-0.4555826,-0.4257652,0.41999406,8.158298,-6.994447,1.7518928,0.44181916,-0.11759147,0.2046788,0.8654911,-8.603296,7.3715034,0.01430104,-0.4555826,-0.4257652,0.41999406,1
1.0800000000000007,10.690051470794398,-0.4828795066592434,-1.5247307629941202,0.0016662095685773416,11.026284,0.12619045,-1.8650912,0.65432364,8.072251,-6.920462,1.7520719,0.44016638,-0.11632477,0.20201221,0.8671294,-8.606037,7.4255304,0.021563482,-0.4555826,-0.4257652,0.41999406,1
1.0900000000000007,10.690051470794398,-0.4828795066592434,-1.5247307629941202,0.0016662095685773416,11.026284,0.12619045,-1.8650912,0.65432364,7.986179,-6.8459587,1.7522893,0.43926516,-0.1072942,0.19882528,0.86948425,-8.608177,7.4749255,0.022018488,0.12619045,-1.8650912,0.65432364,1
1.1000000000000008,10.690051470794398,-0.4828795066592434,-1.5247307629941202,0.0016662095685773416,11.026284,0.12619045,-1.8650912,0.65432364,7.9000916,-6.7709684,1.7525147,0.43832085,-0.098253116,0.19561888,0.87175375,-8.608991,7.5229135,0.023186196,0.12619045,-1.8650912,0.65432364,1
1.1100000000000008,10.690051470794398,-0.4828795066592434,-1.5247307629941202,0.0016662095685773416,11.026284,0.12619045,-1.8650912,0.65432364,7.814003,-6.695505,1.7527552,0.43733355,-0.0892024,0.19239327,0.87393785,-8.608468,7.5694847,0.025028182,0.12619045,-1.8650912,0.65432364,1
1.1200000000000008,10.418336807249519,-0.6644154559659111,-1.034879392569438,-0.03895472117222241,11.142357,0.044362094,-1.8183016,0.7214897,7.7279267,-6.6195836,1.7530174,0.43630335,-0.08014293,0.1891488,0.87603617,-8.606599,7.6146317,0.02750577,0.12619045,-1.8650912,0.65432364,1
1.1300000000000008,10.418336807249519,-0.6644154559659111,-1.034879392569438,-0.03895472117222241,11.142357,0.044362094,-1.8183016,0.7214897,7.6418753,-6.5432153,1.7533127,0.43485966,-0.07139563,0.18565656,0.8782549,-8.603376,7.6588016,0.031648263,0.044362094,-1.8183016,0.7214897,1
1.1400000000000008,10.418336807249519,-0.6644154559659111,-1.034879392569438,-0.03895472117222241,11.142357,0.044362094,-1.8183016,0.7214897,7.5558634,-6.4664125,1.7536525,0.43337438,-0.06264149,0.18214656,0.88038945,-8.598879,7.7015057,0.03636364,0.044362094,-1.8183016,0.7214897,1
1.1500000000000008,10.418336807249519,-0.6644154559659111,-1.034879392569438,-0.03895472117222241,11.142357,0.044362094,-1.8183016,0.7214897,7.4699025,-6.38919,1.7540419,0.4318476,-0.05388135,0.17861913,0.88243973,-8.593093,7.7427387,0.041613914,0.044362094,-1.8183016,0.7214897,1
1.1600000000000008,10.117746584120956,-1.0044388247581857,-0.7418729188801177,-0.06807399175937201,11.346987,-0.30477557,-1.8658354,0.8154579,7.3840065,-6.311563,1.7544864,0.43027946,-0.04511606,0.17507459,0.88440555,-8.586011,7.782495,0.047360897,0.044362094,-1.8183016,0.7214897,0
1.1700000000000008,10.117746584120956,-1.0044388247581857,-0.7418729188801177,-0.06807399175937201,11.346987,-0.30477557,-1.8658354,0.8154579,7.298182,-6.233563,1.7549429,0.43099493,-0.044055138,0.16901812,0.8852884,-8.578963,7.8173285,0.043990545,-1.0044389,-0.7418729,-0.068073995,0
1.1800000000000008,10.117746584120956,-1.0044388247581857,-0.7418729188801177,-0.06807399175937201,11.346987,-0.30477557,-1.8658354,0.8154579,7.212426,-6.1552205,1.7553676,0.43169352,-0.042992495,0.16295506,0.88613665,-8.572236,7.85102,0.041055482,-1.0044389,-0.7418729,-0.068073995,0
1.1900000000000008,10.117746584120956,-1.0044388247581857,-0.7418729188801177,-0.06807399175937201,11.346987,-0.30477557,-1.8658354,0.8154579,7.126736,-6.076546,1.7557652,0.43237522,-0.04192817,0.15688562,0.88695025,-8.565832,7.883565,0.038540844,-1.0044389,-0.7418729,-0.068073995,0
1.2000000000000008,10.011244447647126,-0.9595193320351466,-0.26450558106459215,-0.030436166659036357,11.470795,-0.39199635,-3.3119924,0.5645074,7.041108,-5.997553,1.7561398,0.43304005,-0.040862206,0.15081005,0.88772917,-8.559753,7.9149585,0.036431715,-1.0044389,-0.7418729,-0.068073995,0
1.2100000000000009,10.011244447647126,-0.9595193320351466,-0.26450558106459215,-0.030436166659036357,11.470795,-0.39199635,-3.3119924,0.5645074,6.955539,-5.9182525,1.75649,0.4331732,-0.041788153,0.14597031,0.88842976,-8.55416,7.9450226,0.03365883,-0.9595193,-0.2645056,-0.030436167,0
1.2200000000000009,10.011244447647126,-0.9595193320351466,-0.26450558106459215,-0.030436166659036357,11.470795,-0.39199635,-3.3119924,0.5645074,6.8700233,-5.8386555,1.7568139,0.43329564,-0.04271306,0.14112695,0.8891084,-8.549153,7.974328,0.031154655,-0.9595193,-0.2645056,-0.030436167,0
1.2300000000000009,10.011244447647126,-0.9595193320351466,-0.26450558106459215,-0.030436166659036357,11.470795,-0.39199635,-3.3119924,0.5645074,6.7845545,-5.758769,1.7571139,0.43340728,-0.043636914,0.13628009,0.889765,-8.544734,8.0028715,0.028909676,-0.9595193,-0.2645056,-0.030436167,0
1.2400000000000009,10.011244447647126,-0.9595193320351466,-0.26450558106459215,-0.030436166659036357,11.201801,-0.21285066,-2.79012,0.5603488,6.699127,-5.678601,1.7573929,0.4335082,-0.04455968,0.13142985,0.8903996,-8.540902,8.03065,0.026914354,-0.9595193,-0.2645056,-0.030436167,0
1.2500000000000009,10.011244447647126,-0.9595193320351466,-0.26450558106459215,-0.030436166659036357,11.201801,-0.21285066,-2.79012,0.5603488,6.6137347,-5.5981584,1.7576531,0.43359837,-0.045481347,0.12657636,0.891012,-8.53766,8.057661,0.025159134,-0.9595193,-0.2645056,-0.030436167,0
1.260000000000001,10.011244447647126,-0.9595193320351466,-0.26450558106459215,-0.030436166659036357,11.201801,-0.21285066,-2.79012,0.5603488,6.528372,-5.51745,1.7578968,0.43367776,-0.046401884,0.12171973,0.8916024,-8.535006,8.083902,0.023634428,-0.9595193,-0.2645056,-0.030436167,0
1.270000000000001,10.011244447647126,-0.9595193320351466,-0.26450558106459215,-0.030436166659036357,11.201801,-0.21285066,-2.79012,0.5603488,6.4430323,-5.436483,1.7581265,0.43374643,-0.04732127,0.116860084,0.89217067,-8.532941,8.109371,0.022330627,-0.9595193,-0.2645056,-0.030436167,0
1.280000000000001,9.972359944384635,-0.7677511269002579,-0.8797388801486087,0.028330779971575678,11.513818,-0.28157339,-2.0049372,0.4604246,6.357711,-5.355265,1.7583442,0.43380436,-0.04823948,0.11199754,0.8927168,-8.5314665,8.134066,0.021238102,-0.9595193,-0.2645056,-0.030436167,0
1.290000000000001,9.972359944384635,-0.7677511269002579,-0.8797388801486087,0.028330779971575678,11.513818,-0.28157339,-2.0049372,0.4604246,6.272402,-5.273805,1.7585502,0.433978,-0.045961287,0.10666739,0.89340514,-8.530387,8.157759,0.02000007,-0.7677511,-0.87973887,0.02833078,0
1.300000000000001,9.972359944384635,-0.7677511269002579,-0.8797388801486087,0.028330779971575678,11.513818,-0.28157339,-2.0049372,0.4604246,6.1871033,-5.192114,1.7587451,0.43413684,-0.043681525,0.10133362,0.89406294,-8.529366,8.180319,0.019032344,-0.7677511,-0.87973887,0.02833078,0
1.310000000000001,9.972359944384635,-0.7677511269002579,-0.8797388801486087,0.028330779971575678,11.513818,-0.28157339,-2.0049372,0.4604246,6.1018143,-5.110203,1.7589316,0.43428084,-0.04140028,0.09599639,0.8946902,-8.528402,8.201745,0.018321678,-0.7677511,-0.87973887,0.02833078,0
1.320000000000001,9.91667569308727,-0.5249664164684513,-1.1741994628601773,0.06740157262367907,11.40482,-0.13938853,-1.9114213,0.51282173,6.016535,-5.0280833,1.7591124,0.43441,-0.03911762,0.09065588,0.895287,-8.527496,8.222034,0.017854797,-0.7677511,-0.87973887,0.02833078,0
1.330000000000001,9.91667569308727,-0.5249664164684513,-1.1741994628601773,0.06740157262367907,11.40482,-0.13938853,-1.9114213,0.51282173,5.9312644,-4.945767,1.7592869,0.43452886,-0.034970313,0.08576682,0.8958824,-8.526514,8.241047,0.017076327,-0.5249664,-1.1741995,0.06740157,0
1.340000000000001,9.91667569308727,-0.5249664164684513,-1.1741994628601773,0.06740157262367907,11.40482,-0.13938853,-1.9114213,0.51282173,5.8460054,-4.863266,1.7594546,0.43462968,-0.030821556,0.080874205,0.8964407,-8.525219,8.258843,0.016523805,-0.5249664,-1.1741995,0.06740157,0
1.350000000000001,9.91667569308727,-0.5249664164684513,-1.1741994628601773,0.06740157262367907,11.40482,-0.13938853,-1.9114213,0.51282173,5.760761,-4.7805943,1.7596179,0.43471247,-0.02667152,0.07597824,0.89696175,-8.523609,8.275422,0.01618105,-0.5249664,-1.1741995,0.06740157,0
1.360000000000001,9.932893286033801,-0.35315591614928754,-0.9016039586751728,0.09822043132589713,12.131246,0.14827803,-1.0524241,0.5960061,5.675534,-4.6977625,1.7597789,0.43477723,-0.022520378,0.07107912,0.8974456,-8.521686,8.29078,0.016031837,-0.5249664,-1.1741995,0.06740157,0
1.370000000000001,9.932893286033801,-0.35315591614928754,-0.9016039586751728,0.09822043132589713,12.131246,0.14827803,-1.0524241,0.5960061,5.5903277,-4.614783,1.7599399,0.434612,-0.019207235,0.06754468,0.89787555,-8.519456,8.305056,0.016203875,-0.3531559,-0.90160394,0.09822043,0
1.380000000000001,9.932893286033801,-0.35315591614928754,-0.9016039586751728,0.09822043132589713,12.131246,0.14827803,-1.0524241,0.5960061,5.5051455,-4.531665,1.7601032,0.43443647,-0.015893638,0.06400864,0.89828426,-8.516944,8.318419,0.01649723,-0.3531559,-0.90160394,0.09822043,0
1.390000000000001,9.932893286033801,-0.35315591614928754,-0.9016039586751728,0.09822043132589713,12.131246,0.14827803,-1.0524241,0.5960061,5.4199896,-4.4484177,1.7602701,0.43425068,-0.012579665,0.060471084,0.8986716,-8.51415,8.330871,0.016902618,-0.3531559,-0.90160394,0.09822043,0
1.400000000000001,9.91674848890861,-0.21749359409982746,-0.8150849021773621,0.1136615743612825,11.361916,0.27744934,-1.5230308,0.32257873,5.3348627,-4.3650503,1.7604417,0.43405458,-0.009265394,0.0569321,0.8990377,-8.511072,8.34241,0.017410744,-0.3531559,-0.90160394,0.09822043,0
1.410000000000001,9.91674848890861,-0.21749359409982746,-0.8150849021773621,0.1136615743612825,11.361916,0.27744934,-1.5230308,0.32257873,5.2497687,-4.2815723,1.7606179,0.4337617,-0.0060410243,0.054190222,0.8993759,-8.507696,8.353072,0.017845225,-0.2174936,-0.8150849,0.11366157,0
1.420000000000001,9.91674848890861,-0.21749359409982746,-0.8150849021773621,0.1136615743612825,11.361916,0.27744934,-1.5230308,0.32257873,5.16471,-4.1979914,1.7607987,0.43346092,-0.0028165458,0.051447365,0.8996979,-8.503984,8.362971,0.018347265,-0.2174936,-0.8150849,0.11366157,0
1.430000000000001,9.91674848890861,-0.21749359409982746,-0.8150849021773621,0.1136615743612825,11.361916,0.27744934,-1.5230308,0.32257873,5.07969,-4.114316,1.7609849,0.4331523,0.00040798367,0.04870358,0.90000343,-8.499937,8.3721075,0.018909778,-0.2174936,-0.8150849,0.11366157,0
1.440000000000001,9.91674848890861,-0.21749359409982746,-0.8150849021773621,0.1136615743612825,11.257663,0.24505511,-1.218795,0.34478706,4.9947124,-4.030552,1.7611771,0.43283582,0.0036325054,0.04595891,0.90029275,-8.495554,8.380481,0.019525671,-0.2174936,-0.8150849,0.11366157,0
1.450000000000001,9.91674848890861,-0.21749359409982746,-0.8150849021773621,0.1136615743612825,11.257663,0.24505511,-1.218795,0.34478706,4.90978,-3.9467084,1.7613757,0.4325115,0.0068569616,0.04321341,0.9005658,-8.490833,8.388088,0.020187853,-0.2174936,-0.8150849,0.11366157,0
1.460000000000001,9.91674848890861,-0.21749359409982746,-0.8150849021773621,0.1136615743612825,11.257663,0.24505511,-1.218795,0.34478706,4.824897,-3.8627927,1.761581,0.43217936,0.010081293,0.040467124,0.90082246,-8.485775,8.394932,0.020889219,-0.2174936,-0.8150849,0.11366157,0
1.470000000000001,9.91674848890861,-0.21749359409982746,-0.8150849021773621,0.1136615743612825,11.257663,0.24505511,-1.218795,0.34478706,4.7400665,-3.7788124,1.7617936,0.43183938,0.013305442,0.03772011,0.9010629,-8.480378,8.401011,0.021622669,-0.2174936,-0.8150849,0.11366157,0
1.480000000000001,9.994996375685131,-0.16748910495513153,0.1596748046955403,0.12587785594806275,11.546809,0.21597067,-0.7758594,0.5349681,4.655291,-3.694775,1.7620134,0.43149158,0.016529351,0.034972407,0.9012869,-8.474643,8.406325,0.022381095,-0.2174936,-0.8150849,0.11366157,0
1.490000000000001,9.994996375685131,-0.16748910495513153,0.1596748046955403,0.12587785594806275,11.546809,0.21597067,-0.7758594,0.5349681,4.5705743,-3.6106873,1.762245,0.43090987,0.015470434,0.03455168,0.9016002,-8.468736,8.411208,0.023936715,-0.16748911,0.15967481,0.12587786,0
1.500000000000001,9.994996375685131,-0.16748910495513153,0.1596748046955403,0.12587785594806275,11.546809,0.21597067,-0.7758594,0.5349681,4.4859157,-3.5265508,1.7624923,0.43032742,0.0144114895,0.034130894,0.9019119,-8.4630575,8.41611,0.025504766,-0.16748911,0.15967481,0.12587786,0
1.5100000000000011,9.994996375685131,-0.16748910495513153,0.1596748046955403,0.12587785594806275,11.546809,0.21597067,-0.7758594,0.5349681,4.4013124,-3.442365,1.7627553,0.42974418,0.01335252,0.033710048,0.90222204,-8.457608,8.421031,0.027084723,-0.16748911,0.15967481,0.12587786,0
1.5200000000000011,10.03145591008579,-0.07235454281594775,0.224703473310952,0.13417205352579195,11.466087,0.10054281,-0.801163,0.5393477,4.3167624,-3.3581302,1.763034,0.42916024,0.012293528,0.03328915,0.9025306,-8.452392,8.425971,0.028676068,-0.16748911,0.15967481,0.12587786,0
1.5300000000000011,10.03145591008579,-0.07235454281594775,0.224703473310952,0.13417205352579195,11.466087,0.10054281,-0.801163,0.5393477,4.2322636,-3.2738457,1.7633306,0.42852142,0.011146582,0.03343653,0.90284353,-8.447373,8.430989,0.030639298,-0.07235454,0.22470348,0.13417205,0
1.5400000000000011,10.03145591008579,-0.07235454281594775,0.224703473310952,0.13417205352579195,11.466087,0.10054281,-0.801163,0.5393477,4.1478143,-3.1895103,1.7636468,0.4278818,0.009999615,0.03358385,0.9031548,-8.4425535,8.436135,0.032605745,-0.07235454,0.22470348,0.13417205,0
1.5500000000000012,10.03145591008579,-0.07235454281594775,0.224703473310952,0.13417205352579195,11.466087,0.10054281,-0.801163,0.5393477,4.063412,-3.1051226,1.7639828,0.42724138,0.00885263,0.03373111,0.9034644,-8.437932,8.44141,0.034574877,-0.07235454,0.22470348,0.13417205,0
1.5600000000000012,10.17693866504426,-0.04942612037268561,1.2397515113521989,0.14633838846217354,11.587925,0.2384012,-1.528483,0.9005495,3.9790556,-3.0206814,1.7643384,0.42660022,0.0077056293,0.033878308,0.9037723,-8.433511,8.446814,0.03654616,-0.07235454,0.22470348,0.13417205,0
1.5700000000000012,10.17693866504426,-0.04942612037268561,1.2397515113521989,0.14633838846217354,11.587925,0.2384012,-1.528483,0.9005495,3.8947415,-2.9361844,1.7647208,0.42572254,0.0020226135,0.036293034,0.9041229,-8.429467,8.452729,0.039962348,-0.04942612,1.2397515,0.14633839,0
1.5800000000000012,10.17693866504426,-0.04942612037268561,1.2397515113521989,0.14633838846217354,11.587925,0.2384012,-1.528483,0.9005495,3.8104634,-2.8516235,1.7651374,0.42482823,-0.003660481,0.038706344,0.9044382,-8.426267,8.459584,0.043349493,-0.04942612,1.2397515,0.14633839,0
1.5900000000000012,10.17693866504426,-0.04942612037268561,1.2397515113521989,0.14633838846217354,11.587925,0.2384012,-1.528483,0.9005495,3.7262132,-2.7669895,1.7655877,0.42391735,-0.009343432,0.04111814,0.9047182,-8.423911,8.467378,0.046692092,-0.04942612,1.2397515,0.14633839,0
1.6000000000000012,10.19817153510377,-0.010344264450151712,0.05443004206702265,0.1619283228707384,11.094498,0.41012362,-0.5543855,0.21295351,3.6419823,-2.6822727,1.7660711,0.4229899,-0.01502602,0.04352834,0.90496296,-8.422401,8.476106,0.049974654,-0.04942612,1.2397515,0.14633839,1
1.6100000000000012,10.19817153510377,-0.010344264450151712,0.05443004206702265,0.1619283228707384,11.094498,0.41012362,-0.5543855,0.21295351,3.5577645,-2.597461,1.7666326,0.42217505,-0.0116037,0.04422729,0.9053598,-8.421055,8.486189,0.062352013,0.41012362,-0.5543855,0.21295351,1
1.6200000000000012,10.19817153510377,-0.010344264450151712,0.05443004206702265,0.1619283228707384,11.094498,0.41012362,-0.5543855,0.21295351,3.473564,-2.5125496,1.767318,0.4213547,-0.008181229,0.044925664,0.9057449,-8.418963,8.496094,0.07473396,0.41012362,-0.5543855,0.21295351,1
1.6300000000000012,10.19817153510377,-0.010344264450151712,0.05443004206702265,0.1619283228707384,11.094498,0.41012362,-0.5543855,0.21295351,3.3893876,-2.42754,1.7681273,0.4205289,-0.004758651,0.045623455,0.9061182,-8.416128,8.505821,0.08711509,0.41012362,-0.5543855,0.21295351,1
1.6400000000000012,10.19817153510377,-0.010344264450151712,0.05443004206702265,0.1619283228707384,11.316031,0.43612048,-0.59137905,0.50037485,3.3052437,-2.3424337,1.7690603,0.41969758,-0.0013360111,0.04632065,0.9064797,-8.412548,8.515371,0.099489994,0.41012362,-0.5543855,0.21295351,0
1.6500000000000012,10.19817153510377,-0.010344264450151712,0.05443004206702265,0.1619283228707384,11.316031,0.43612048,-0.59137905,0.50037485,3.2211368,-2.2572365,1.7700725,0.41895083,-0.0015669134,0.04638905,0.9068212,-8.408846,8.524063,0.102933176,-0.010344264,0.05443004,0.16192833,0
1.6600000000000013,10.19817153510377,-0.010344264450151712,0.05443004206702265,0.1619283228707384,11.316031,0.43612048,-0.59137905,0.50037485,3.1370666,-2.1719522,1.7711191,0.41820377,-0.0017978145,0.046457417,0.9071621,-8.4051895,8.53279,0.10637493,-0.010344264,0.05443004,0.16192833,0
1.6700000000000013,10.19817153510377,-0.010344264450151712,0.05443004206702265,0.1619283228707384,11.316031,0.43612048,-0.59137905,0.50037485,3.0530326,-2.0865808,1.7722001,0.41745642,-0.0020287144,0.04652575,0.90750223,-8.401575,8.5415535,0.10981521,-0.010344264,0.05443004,0.16192833,0
1.6800000000000013,10.181976560329021,-0.21415390501048034,1.7747990318155522,0.17391007069066253,13.002962,0.66205007,-1.2110745,0.5730961,2.969035,-2.0011215,1.7733154,0.41670874,-0.0022596128,0.04659405,0.90784174,-8.398006,8.550351,0.11325401,-0.010344264,0.05443004,0.16192833,0
1.6900000000000013,10.181976560329021,-0.21415390501048034,1.7747990318155522,0.17391007069066253,13.002962,0.66205007,-1.2110745,0.5730961,2.885071,-1.9155726,1.7744644,0.41548663,-0.010721274,0.04931988,0.90819734,-8.394975,8.559616,0.11650478,-0.2141539,1.774799,0.17391007,0
1.7000000000000013,10.181976560329021,-0.21415390501048034,1.7747990318155522,0.17391007069066253,13.002962,0.66205007,-1.2110745,0.5730961,2.8011305,-1.8299251,1.7756453,0.414231,-0.019182071,0.05204173,0.9084797,-8.3932905,8.570102,0.1196679,-0.2141539,1.774799,0.17391007,0
1.7100000000000013,10.181976560329021,-0.21415390501048034,1.7747990318155522,0.17391007069066253,13.002962,0.66205007,-1.2110745,0.5730961,2.7172005,-1.7441664,1.7768574,0.412942,-0.02764132,0.054759387,0.9086887,-8.392956,8.581802,0.12271131,-0.2141539,1.774799,0.17391007,0
1.7200000000000013,10.161473882762296,-0.22146255250024374,0.396445747824954,0.2046538998639094,12.780313,0.2298868,-1.2374516,0.2738133,2.633267,-1.6582848,1.7780992,0.41161966,-0.036098342,0.057472628,0.9088245,-8.393973,8.594713,0.12560292,-0.2141539,1.774799,0.17391007,0
1.7300000000000013,10.161473882762296,-0.22146255250024374,0.396445747824954,0.2046538998639094,12.780313,0.2298868,-1.2374516,0.2738133,2.5493171,-1.5722693,1.779368,0.4105345,-0.03829671,0.05731896,0.909235,-8.395995,8.608404,0.12817056,-0.22146255,0.39644575,0.2046539,0
1.7400000000000013,10.161473882762296,-0.22146255250024374,0.396445747824954,0.2046538998639094,12.780313,0.2298868,-1.2374516,0.2738133,2.4653451,-1.4861163,1.7806625,0.4094468,-0.04049484,0.05716494,0.90963984,-8.398452,8.622248,0.13070785,-0.22146255,0.39644575,0.2046539,0
1.7500000000000013,10.161473882762296,-0.22146255250024374,0.396445747824954,0.2046538998639094,12.780313,0.2298868,-1.2374516,0.2738133,2.3813465,-1.399824,1.7819822,0.40835658,-0.042692713,0.057010565,0.91003895,-8.401344,8.636241,0.13321276,-0.22146255,0.39644575,0.2046539,0
1.7600000000000013,10.370485862352634,-0.2380626721756333,1.0397959840422284,0.2196677460806978,11.324757,0.14211348,-0.2028899,0.44275588,2.2973166,-1.3133911,1.7833266,0.40726382,-0.044890326,0.05685583,0.9104325,-8.404673,8.650384,0.13568337,-0.22146255,0.39644575,0.2046539,0
1.7700000000000014,10.370485862352634,-0.2380626721756333,1.0397959840422284,0.2196677460806978,11.324757,0.14211348,-0.2028899,0.44275588,2.2132504,-1.2268139,1.7847059,0.4059088,-0.050045278,0.057937942,0.9107006,-8.408684,8.665148,0.14015296,-0.23806266,1.039796,0.21966775,0
1.7800000000000014,10.370485862352634,-0.2380626721756333,1.0397959840422284,0.2196677460806978,11.324757,0.14211348,-0.2028899,0.44275588,2.1291397,-1.1400859,1.7861292,0.40454176,-0.055198748,0.05901834,0.9109417,-8.413597,8.680538,0.144491,-0.23806266,1.039796,0.21966775,0
1.7900000000000014,10.370485862352634,-0.2380626721756333,1.0397959840422284,0.2196677460806978,11.324757,0.14211348,-0.2028899,0.44275588,2.0449753,-1.053201,1.7875953,0.4031627,-0.06035058,0.060096987,0.91115576,-8.419413,8.696554,0.14868607,-0.23806266,1.039796,0.21966775,0
1.8000000000000014,10.272881252159307,-0.22647168842187013,-1.223105237851067,0.27793589429292764,11.751277,-0.035365675,-1.5557307,0.36040622,1.9607484,-0.9661528,1.7891024,0.4017717,-0.06550062,0.06117385,0.9113428,-8.426131,8.71319,0.15272672,-0.23806266,1.039796,0.21966775,0
1.8100000000000014,10.272881252159307,-0.22647168842187013,-1.223105237851067,0.27793589429292764,11.751277,-0.035365675,-1.5557307,0.36040622,1.8764517,-0.8789377,1.7906449,0.400797,-0.060295925,0.057774644,0.91235244,-8.433096,8.7296505,0.15578802,-0.22647169,-1.2231052,0.2779359,0
1.8200000000000014,10.272881252159307,-0.22647168842187013,-1.223105237851067,0.27793589429292764,11.751277,-0.035365675,-1.5557307,0.36040622,1.7920887,-0.7915634,1.7922189,0.39980602,-0.05508878,0.05437309,0.9133251,-8.439389,8.745047,0.15906098,-0.22647169,-1.2231052,0.2779359,0
1.8300000000000014,10.272881252159307,-0.22647168842187013,-1.223105237851067,0.27793589429292764,11.751277,-0.035365675,-1.5557307,0.36040622,1.7076662,-0.70404047,1.7938268,0.39879882,-0.0498794,0.05096933,0.9142605,-8.445006,8.759375,0.16252984,-0.22647169,-1.2231052,0.2779359,0
1.8400000000000014,10.272881252159307,-0.22647168842187013,-1.223105237851067,0.27793589429292764,12.140351,-0.23761305,-1.2670414,0.9898241,1.6231909,-0.6163796,1.7954702,0.3977754,-0.04466799,0.047563493,0.915159,-8.449944,8.7726345,0.16617878,-0.22647169,-1.2231052,0.2779359,0
1.8500000000000014,10.272881252159307,-0.22647168842187013,-1.223105237851067,0.27793589429292764,12.140351,-0.23761305,-1.2670414,0.9898241,1.5386696,-0.52859145,1.7971511,0.39673588,-0.039454766,0.044155728,0.9160203,-8.454199,8.784827,0.16999197,-0.22647169,-1.2231052,0.2779359,0
1.8600000000000014,10.272881252159307,-0.22647168842187013,-1.223105237851067,0.27793589429292764,12.140351,-0.23761305,-1.2670414,0.9898241,1.4541092,-0.44068667,1.7988708,0.39568022,-0.03423994,0.04074617,0.91684437,-8.4577675,8.795955,0.17395353,-0.22647169,-1.2231052,0.2779359,0
1.8700000000000014,10.272881252159307,-0.22647168842187013,-1.223105237851067,0.27793589429292764,12.140351,-0.23761305,-1.2670414,0.9898241,1.3695166,-0.352676,1.8006307,0.39460847,-0.029023722,0.037334964,0.91763115,-8.460645,8.806014,0.17804755,-0.22647169,-1.2231052,0.2779359,0
1.8800000000000014,10.41497485774874,-0.2713839573908401,0.5425493224726405,0.2985561977528039,12.028329,-0.090133876,-2.0954688,0.88026386,1.2848988,-0.2645701,1.8024322,0.3935207,-0.023806326,0.033922236,0.9183806,-8.462829,8.815005,0.18225811,-0.22647169,-1.2231052,0.2779359,0
1.8900000000000015,10.41497485774874,-0.2713839573908401,0.5425493224726405,0.2985561977528039,12.028329,-0.090133876,-2.0954688,0.88026386,1.200261,-0.1763776,1.8042833,0.3920232,-0.026780857,0.033778932,0.91894436,-8.464826,8.823526,0.18793942,-0.27138397,0.5425493,0.2985562,0
1.9000000000000015,10.41497485774874,-0.2713839573908401,0.5425493224726405,0.2985561977528039,12.028329,-0.090133876,-2.0954688,0.88026386,1.1156003,-0.08809882,1.806191,0.3905212,-0.02975508,0.03363524,0.9194976,-8.467418,8.832258,0.19359,-0.27138397,0.5425493,0.2985562,0
1.9100000000000015,10.41497485774874,-0.2713839573908401,0.5425493224726405,0.2985561977528039,12.028329,-0.090133876,-2.0954688,0.88026386,1.0309107,0.00026830845,1.8081551,0.38901475,-0.032728966,0.03349117,0.92004013,-8.470605,8.841199,0.19920619,-0.27138397,0.5425493,0.2985562,0
1.9200000000000015,10.313284413921703,-0.30931404752339897,-0.8954042103772724,0.38877477308354264,12.162048,-0.24789783,-2.8324149,0.596777,0.9461862,0.08872588,1.8101751,0.38750386,-0.03570248,0.033346713,0.92057216,-8.474387,8.850347,0.20478432,-0.27138397,0.5425493,0.2985562,0
1.9300000000000015,10.313284413921703,-0.30931404752339897,-0.8954042103772724,0.38877477308354264,12.162048,-0.24789783,-2.8324149,0.596777,0.8614222,0.1772743,1.8122457,0.3858034,-0.032115083,0.030257098,0.92152476,-8.478344,8.859202,0.20935962,-0.30931404,-0.8954042,0.38877478,0
1.9400000000000015,10.313284413921703,-0.30931404752339897,-0.8954042103772724,0.38877477308354264,12.162048,-0.24789783,-2.8324149,0.596777,0.77662075,0.2659069,1.8143626,0.3840928,-0.02852685,0.02716669,0.9224532,-8.481883,8.867181,0.21402217,-0.30931404,-0.8954042,0.38877478,0
1.9500000000000015,10.313284413921703,-0.30931404752339897,-0.8954042103772724,0.38877477308354264,12.162048,-0.24789783,-2.8324149,0.596777,0.691786,0.35461488,1.8165264,0.3823722,-0.024937868,0.02407557,0.9233575,-8.485,8.874281,0.21876274,-0.30931404,-0.8954042,0.38877478,0
1.9600000000000015,10.313862257934458,-0.405043032401528,0.10326918092918898,0.4182178038547698,10.568179,-0.3867738,-1.4856321,0.25926083,0.6069222,0.44338948,1.818738,0.38064158,-0.021348232,0.020983819,0.92423755,-8.487689,8.880505,0.2235721,-0.30931404,-0.8954042,0.38877478,0
1.9700000000000015,10.313862257934458,-0.405043032401528,0.10326918092918898,0.4182178038547698,10.568179,-0.3867738,-1.4856321,0.25926083,0.5220328,0.5322227,1.820998,0.37865323,-0.022552365,0.019353133,0.9250609,-8.49025,8.886098,0.22842702,-0.40504304,0.10326918,0.4182178,0
1.9800000000000015,10.313862257934458,-0.405043032401528,0.10326918092918898,0.4182178038547698,10.568179,-0.3867738,-1.4856321,0.25926083,0.43711597,0.62111074,1.8233066,0.37666154,-0.023756301,0.017722279,0.9258762,-8.493179,8.891469,0.23328395,-0.40504304,0.10326918,0.4182178,0
1.9900000000000015,10.313862257934458,-0.405043032401528,0.10326918092918898,0.4182178038547698,10.568179,-0.3867738,-1.4856321,0.25926083,0.35216796,0.71005136,1.8256637,0.3746665,-0.024960028,0.016091269,0.92668337,-8.496478,8.896615,0.23814122,-0.40504304,0.10326918,0.4182178,0
2.0000000000000013,10.234722861668548,-0.47901650194121,-1.7884352990401242,0.5361006920884962,11.856573,-0.46667048,-2.7758417,0.24837703,0.26718515,0.7990423,1.8280693,0.37266827,-0.026163539,0.014460119,0.9274824,-8.500144,8.901534,0.24299714,-0.40504304,0.10326918,0.4182178,0
2.010000000000001,10.234722861668548,-0.47901650194121,-1.7884352990401242,0.5361006920884962,11.856573,-0.46667048,-2.7758417,0.24837703,0.18216547,0.8880795,1.8305198,0.37023154,-0.01872254,0.008975802,0.9287068,-8.50364,8.905669,0.24709968,-0.4790165,-1.7884353,0.5361007,0
2.020000000000001,10.234722861668548,-0.47901650194121,-1.7884352990401242,0.5361006920884962,11.856573,-0.46667048,-2.7758417,0.24837703,0.09711577,0.9771501,1.8330117,0.3677604,-0.011279799,0.0034906506,0.92984504,-8.506147,8.90819,0.2512838,-0.4790165,-1.7884353,0.5361007,0
2.0300000000000007,10.234722861668548,-0.47901650194121,-1.7884352990401242,0.5361006920884962,11.856573,-0.46667048,-2.7758417,0.24837703,0.0120459795,1.0662378,1.8355457,0.3652551,-0.003836011,-0.0019948252,0.9308969,-8.507656,8.909101,0.25551447,-0.4790165,-1.7884353,0.5361007,0
2.0400000000000005,10.234722861668548,-0.47901650194121,-1.7884352990401242,0.5361006920884962,11.856573,-0.46667048,-2.7758417,0.24837703,-0.073033884,1.1553266,1.838122,0.36271587,0.0036081332,-0.0074801156,0.93186224,-8.508158,8.908406,0.25975674,-0.4790165,-1.7884353,0.5361007,0
2.0500000000000003,10.234722861668548,-0.47901650194121,-1.7884352990401242,0.5361006920884962,11.464172,-0.60391533,-1.7789441,0.48595577,-0.15811367,1.2444003,1.8407408,0.36014298,0.011051943,-0.012964711,0.93274105,-8.507643,8.906113,0.2639756,-0.4790165,-1.7884353,0.5361007,0
2.06,10.234722861668548,-0.47901650194121,-1.7884352990401242,0.5361006920884962,11.464172,-0.60391533,-1.7789441,0.48595577,-0.24318321,1.3334432,1.8434014,0.35753658,0.018494725,-0.018448101,0.9335332,-8.506103,8.902226,0.26813602,-0.4790165,-1.7884353,0.5361007,0
2.07,10.234722861668548,-0.47901650194121,-1.7884352990401242,0.5361006920884962,11.464172,-0.60391533,-1.7789441,0.48595577,-0.32823217,1.4224392,1.8461032,0.35489702,0.02593579,-0.02392978,0.93423855,-8.5035305,8.896754,0.2722031,-0.4790165,-1.7884353,0.5361007,0
2.0799999999999996,10.234722861668548,-0.47901650194121,-1.7884352990401242,0.5361006920884962,11.464172,-0.60391533,-1.7789441,0.48595577,-0.41325024,1.5113729,1.848845,0.35222453,0.033374444,-0.029409237,0.93485713,-8.499918,8.889703,0.27614185,-0.4790165,-1.7884353,0.5361007,0
2.0899999999999994,10.17972709723215,-0.5708999937090382,0.5814351872395452,0.5916348613033477,11.542656,-0.15035889,-2.0427635,0.24451286,-0.49822694,1.6002281,1.8516254,0.34951925,0.040809996,-0.03488596,0.9353889,-8.495258,8.881081,0.2799174,-0.4790165,-1.7884353,0.5361007,0
2.099999999999999,10.17972709723215,-0.5708999937090382,0.5814351872395452,0.5916348613033477,11.542656,-0.15035889,-2.0427635,0.24451286,-0.583154,1.6889911,1.8544402,0.34696573,0.036989253,-0.036660187,0.93643004,-8.490279,8.871513,0.28304136,-0.5709,0.5814352,0.59163487,0
2.109999999999999,10.17972709723215,-0.5708999937090382,0.5814351872395452,0.5916348613033477,11.542656,-0.15035889,-2.0427635,0.24451286,-0.6680354,1.7776582,1.8572865,0.3444034,0.033167575,-0.038433485,0.9374475,-8.486127,8.861889,0.2861973,-0.5709,0.5814352,0.59163487,0
