time-since-start [s],throttle_mpc,roll_mpc,pitch_mpc,yaw_mpc,throttle_nw,roll_nw,pitch_nw,yaw_nw,position_x [m],position_y [m],position_z [m],rotation_w [quaternion],rotation_x [quaternion],rotation_y [quaternion],rotation_z [quaternion],velocity_x [m/s],velocity_y [m/s],velocity_z [m/s],omega_x [rad/s],omega_y [rad/s],omega_z [rad/s],network_used
0.0,11.21731457236168,5.999999837019976,-5.999999956136244,-4.436355866633756,8.004021,2.4567003,-4.5523233,-2.3488634,20.626408,-8.230616,2.044788,-0.13812575,-0.46158785,0.18039548,0.8575053,-10.338477,-7.58793,0.1962376,2.1898634,0.009198047,-0.62177753,0
0.01,11.21731457236168,5.999999837019976,-5.999999956136244,-4.436355866633756,15.230694,-0.080336645,-6.015724,-1.0766312,20.522308,-8.306336,2.0466914,-0.12997541,-0.46299756,0.1882668,0.8563266,-10.481424,-7.5557814,0.18397011,2.183696,-0.3279286,-0.75528467,0
0.02,11.21731457236168,5.999999837019976,-5.999999956136244,-4.436355866633756,15.230694,-0.080336645,-6.015724,-1.0766312,20.41679,-8.381721,2.0484579,-0.120912895,-0.46307755,0.19606397,0.85586107,-10.62178,-7.520747,0.16893049,2.2096567,-0.6437033,-0.8850305,0
0.03,11.21731457236168,5.999999837019976,-5.999999956136244,-4.436355866633756,15.230694,-0.080336645,-6.015724,-1.0766312,20.309883,-8.45674,2.050062,-0.110892,-0.46192464,0.20389065,0.85601234,-10.759197,-7.4827213,0.15152788,2.2625654,-0.94128567,-1.0111841,0
0.04,11.21731457236168,5.999999837019976,-5.999999956136244,-4.436355866633756,11.160908,0.05527155,-6.563051,-1.6725005,20.201618,-8.531364,2.0514817,-0.099874996,-0.45961305,0.21183072,0.85668457,-10.893351,-7.4415917,0.13211402,2.3380148,-1.2233074,-1.133903,0
0.05,11.21731457236168,5.999999837019976,-5.999999956136244,-4.436355866633756,11.160908,0.05527155,-6.563051,-1.6725005,20.092028,-8.605561,2.0526984,-0.08783193,-0.45619825,0.21995081,0.8577821,-11.023937,-7.3972487,0.11099032,2.4322546,-1.4919573,-1.2533344,0
0.060000000000000005,11.21731457236168,5.999999837019976,-5.999999956136244,-4.436355866633756,11.160908,0.05527155,-6.563051,-1.6725005,19.981152,-8.679298,2.0536964,-0.07474008,-0.4517199,0.22830263,0.8592094,-11.15066,-7.3495927,0.08841423,2.542089,-1.7490542,-1.3696154,0
0.07,11.21731457236168,5.999999837019976,-5.999999956136244,-4.436355866633756,11.160908,0.05527155,-6.563051,-1.6725005,19.86903,-8.752542,2.0544622,-0.060583487,-0.44620457,0.2369246,0.8608703,-11.273228,-7.29854,0.064604476,2.6647956,-1.996107,-1.4828748,0
0.08,14.53291562030229,5.999999939092787,-5.999999989627567,-3.9219025638874037,11.986404,1.1069902,-7.4652333,-1.951928,19.755703,-8.825256,2.0549848,-0.045352545,-0.4396679,0.24584343,0.86266804,-11.391348,-7.244028,0.039745737,2.7980533,-2.2343667,-1.5932325,0
0.09,14.53291562030229,5.999999939092787,-5.999999989627567,-3.9219025638874037,11.986404,1.1069902,-7.4652333,-1.951928,19.64115,-8.897374,2.055298,-0.028786687,-0.43176937,0.25545496,0.8645745,-11.518395,-7.178984,0.02273455,3.1010835,-2.626384,-1.6899709,0
0.09999999999999999,14.53291562030229,5.999999939092787,-5.999999989627567,-3.9219025638874037,11.986404,1.1069902,-7.4652333,-1.951928,19.525356,-8.9688225,2.0554354,-0.010658846,-0.42217982,0.26608354,0.86651593,-11.6390915,-7.11006,0.0045733494,3.39658,-2.9970396,-1.785516,0
0.10999999999999999,14.53291562030229,5.999999939092787,-5.999999989627567,-3.9219025638874037,11.986404,1.1069902,-7.4652333,-1.951928,19.408388,-9.039561,2.0553863,0.008981811,-0.41091853,0.27763677,0.86832184,-11.752977,-7.0370684,-0.014545021,3.684467,-3.3484094,-1.8798145,0
0.11999999999999998,14.53291562030229,5.999999939092787,-5.999999989627567,-3.9219025638874037,11.986404,1.1069902,-7.4652333,-1.951928,19.29032,-9.1095495,2.055142,0.030081175,-0.3979967,0.29001865,0.86981755,-11.859585,-6.9599247,-0.034480043,3.964749,-3.682314,-1.9728216,0
0.12999999999999998,19.258241283558906,5.9999999653037435,-5.999999997487627,-3.3119426017696956,13.888765,2.2774167,-7.35679,-1.9435357,19.171225,-9.178745,2.0546944,0.052579217,-0.3834203,0.30312943,0.87082523,-11.958436,-6.8786507,-0.05514025,4.237492,-4.0003533,-2.0645003,0
0.13999999999999999,19.258241283558906,5.9999999653037435,-5.999999997487627,-3.3119426017696956,13.888765,2.2774167,-7.35679,-1.9435357,19.051037,-9.246976,2.054157,0.07637198,-0.3671351,0.3169231,0.8711708,-12.077763,-6.7663217,-0.05214256,4.5117636,-4.312745,-2.1257126,0
0.15,19.258241283558906,5.9999999653037435,-5.999999997487627,-3.3119426017696956,13.888765,2.2774167,-7.35679,-1.9435357,18.9297,-9.314045,2.0536566,0.10125976,-0.3491992,0.33125296,0.8706765,-12.188082,-6.6463246,-0.047741685,4.743316,-4.576371,-2.1839213,0
0.16,20.99999988049708,5.9999998992900245,-5.999999957275269,-2.6984333047304516,16.886524,1.7688435,-7.360243,-1.6412832,18.80731,-9.379876,2.0532067,0.12704575,-0.3297745,0.34588993,0.8691766,-12.288328,-6.518874,-0.042005617,4.9388065,-4.7988415,-2.239274,0
0.17,20.99999988049708,5.9999998992900245,-5.999999957275269,-2.6984333047304516,16.886524,1.7688435,-7.360243,-1.6412832,18.683931,-9.444338,2.052868,0.15348412,-0.30898246,0.36066186,0.8665421,-12.385564,-6.372215,-0.025565412,5.1039524,-4.986477,-2.261805,0
0.18000000000000002,20.99999988049708,5.9999998992900245,-5.999999957275269,-2.6984333047304516,16.886524,1.7688435,-7.360243,-1.6412832,18.559645,-9.507297,2.052699,0.18034843,-0.2869341,0.37542132,0.8626713,-12.469708,-6.218504,-0.008016265,5.243386,-5.1448135,-2.2832305,0
0.19000000000000003,20.99999988049708,5.9999998992900245,-5.999999957275269,-2.6984333047304516,16.886524,1.7688435,-7.360243,-1.6412832,18.434584,-9.5686865,2.0527103,0.20749334,-0.2637577,0.3900181,0.8574754,-12.539849,-6.058538,0.010383927,5.361111,-5.278425,-2.3036046,0
0.20000000000000004,21.0,4.903002829085216,-5.9999992086792,-1.1037217759300724,17.91476,3.1055021,-5.998109,-3.0414321,18.308895,-9.62845,2.052909,0.2347847,-0.23957345,0.40432265,0.8508841,-12.595181,-5.8932557,0.029331889,5.460509,-5.3911724,-2.322979,0
0.21000000000000005,21.0,4.903002829085216,-5.9999992086792,-1.1037217759300724,17.91476,3.1055021,-5.998109,-3.0414321,18.182732,-9.686538,2.053298,0.26183152,-0.21452408,0.41790083,0.8430791,-12.635049,-5.723739,0.04851127,5.3736367,-5.4857774,-2.2631497,0
0.22000000000000006,21.0,4.903002829085216,-5.9999992086792,-1.1037217759300724,17.91476,3.1055021,-5.998109,-3.0414321,18.056248,-9.742915,2.0538793,0.28830862,-0.18874645,0.43042165,0.8342601,-12.659073,-5.5512786,0.06771371,5.3003297,-5.565665,-2.2062564,0
0.23000000000000007,21.0,4.903002829085216,-5.9999992086792,-1.1037217759300724,17.91476,3.1055021,-5.998109,-3.0414321,17.929604,-9.797558,2.0546517,0.3141877,-0.16233808,0.44191992,0.82440215,-12.667048,-5.3772173,0.08674006,5.2384686,-5.633125,-2.1521547,0
0.24000000000000007,21.0,4.903002829085216,-5.9999992086792,-1.1037217759300724,16.543537,1.0523413,-4.6784534,-0.5570501,17.80296,-9.850458,2.0556126,0.3394388,-0.13538751,0.45242444,0.81348836,-12.658889,-5.2028875,0.105353676,5.1862636,-5.6900916,-2.100708,0
0.25000000000000006,21.0,4.903002829085216,-5.9999992086792,-1.1037217759300724,16.543537,1.0523413,-4.6784534,-0.5570501,17.67648,-9.901619,2.0567565,0.36403129,-0.10797602,0.46195856,0.8015088,-12.63462,-5.029605,0.12328695,5.1422067,-5.738197,-2.0517857,0
0.26000000000000006,21.0,4.903002829085216,-5.9999992086792,-1.1037217759300724,16.543537,1.0523413,-4.6784534,-0.5570501,17.550322,-9.951057,2.0580752,0.38793418,-0.08017894,0.47054148,0.7884597,-12.594379,-4.858662,0.14024754,5.1050243,-5.7788205,-2.0052638,0
0.2700000000000001,21.0,4.903002829085216,-5.9999992086792,-1.1037217759300724,16.543537,1.0523413,-4.6784534,-0.5570501,17.424648,-9.998803,2.0595572,0.4111167,-0.052066743,0.47818878,0.7743431,-12.538416,-4.691323,0.15592399,5.0736423,-5.8131256,-1.9610248,0
0.2800000000000001,20.99999999698697,3.3829332560610466,-4.145269664540974,-0.23575223303064943,16.16676,-0.21022375,-3.410974,-0.42710456,17.29961,-10.0449,2.061188,0.43354866,-0.02370591,0.4849132,0.7591655,-12.46708,-4.528814,0.16999096,5.0471544,-5.8420963,-1.9189566,0
0.2900000000000001,20.99999999698697,3.3829332560610466,-4.145269664540974,-0.23575223303064943,16.16676,-0.21022375,-3.410974,-0.42710456,17.175358,-10.0894,2.0629501,0.45476037,0.0040645357,0.49060884,0.74328923,-12.380906,-4.37228,0.18212453,4.788252,-5.5768948,-1.8363612,0
0.3000000000000001,20.99999999698697,3.3829332560610466,-4.145269664540974,-0.23575223303064943,16.16676,-0.21022375,-3.410974,-0.42710456,17.052038,-10.132368,2.064823,0.47442532,0.030579517,0.49526593,0.7271153,-12.28095,-4.22256,0.19207194,4.5696354,-5.353138,-1.7578188,0
0.3100000000000001,20.99999999698697,3.3829332560610466,-4.145269664540974,-0.23575223303064943,16.16676,-0.21022375,-3.410974,-0.42710456,16.929785,-10.173877,2.0667834,0.49270758,0.056019228,0.49901482,0.7106932,-12.168358,-4.0802875,0.19963679,4.385038,-5.164346,-1.6831306,0
0.3200000000000001,20.99999984464768,1.5254326704363503,-1.6007644684493894,0.31181937939046034,16.274378,-1.8751551,-1.8231314,-0.48049793,16.808712,-10.214002,2.068807,0.5097441,0.08053738,0.5019582,0.69405484,-12.044188,-3.945998,0.20465194,4.229167,-5.0050545,-1.6121073,0
0.3300000000000001,20.99999984464768,1.5254326704363503,-1.6007644684493894,0.31181937939046034,16.274378,-1.8751551,-1.8231314,-0.48049793,16.688934,-10.252825,2.070867,0.5251697,0.10321658,0.50419813,0.6777365,-11.909501,-3.8200684,0.20698899,3.808356,-4.4734797,-1.5176997,0
0.34000000000000014,20.99999984464768,1.5254326704363503,-1.6007644684493894,0.31181937939046034,16.274378,-1.8751551,-1.8231314,-0.48049793,16.57055,-10.290431,2.0729373,0.5387639,0.12335939,0.505894,0.66225874,-11.765735,-3.702328,0.20664927,3.4530153,-4.0249267,-1.4279246,0
0.35000000000000014,20.99999984464768,1.5254326704363503,-1.6007644684493894,0.31181937939046034,16.274378,-1.8751551,-1.8231314,-0.48049793,16.453648,-10.326898,2.074991,0.55081743,0.14138359,0.5071799,0.6475947,-11.61424,-3.5923939,0.2037039,3.1529658,-3.6464243,-1.3425549,0
0.36000000000000015,20.999998890211902,-0.46835621175036407,0.915649049014652,1.3488196380840538,16.2602,-3.2049565,-0.5806305,-0.07029424,16.338293,-10.362303,2.0770025,0.5615668,0.15764253,0.5081519,0.63369757,-11.456124,-3.4898741,0.19824243,2.899609,-3.3270292,-1.2613744,0
0.37000000000000016,20.999998890211902,-0.46835621175036407,0.915649049014652,1.3488196380840538,16.2602,-3.2049565,-0.5806305,-0.07029424,16.224548,-10.396718,2.0789475,0.57075197,0.17141768,0.5089341,0.62116313,-11.292372,-3.394296,0.19038758,2.3751462,-2.6647544,-1.1332912,0
0.38000000000000017,20.999998890211902,-0.46835621175036407,0.915649049014652,1.3488196380840538,16.2602,-3.2049565,-0.5806305,-0.07029424,16.112463,-10.430209,2.080803,0.5782084,0.1821804,0.509666,0.61051226,-11.124161,-3.304662,0.18041913,1.9322858,-2.1059103,-1.0114933,0
0.3900000000000002,20.999998890211902,-0.46835621175036407,0.915649049014652,1.3488196380840538,16.2602,-3.2049565,-0.5806305,-0.07029424,16.002077,-10.462829,2.0825496,0.5842278,0.19045588,0.5104118,0.60156757,-10.952536,-3.2198746,0.16865309,1.5583429,-1.6343343,-0.8956721,0
0.4000000000000002,20.99999889604687,-2.8836553227408253,3.7614499071447067,1.648281813537917,17.71587,-3.116785,1.7430521,0.65554225,15.89342,-10.49462,2.0841708,0.58903986,0.19668105,0.5112047,0.5941528,-10.778304,-3.1389573,0.15537345,1.2426028,-1.2363912,-0.78553426,0
0.4100000000000002,20.99999889604687,-2.8836553227408253,3.7614499071447067,1.648281813537917,17.71587,-3.116785,1.7430521,0.65554225,15.786516,-10.525618,2.0856528,0.59241784,0.19999434,0.51215506,0.5888462,-10.602166,-3.0609374,0.14086597,0.59955287,-0.45660228,-0.6661062,0
0.4200000000000002,20.99999889604687,-2.8836553227408253,3.7614499071447067,1.648281813537917,17.71587,-3.116785,1.7430521,0.65554225,15.681379,-10.555843,2.0869856,0.59418905,0.19973499,0.51335514,0.5860982,-10.425061,-2.9842954,0.12558761,0.05662185,0.20144258,-0.5525386,0
0.4300000000000002,20.99999889604687,-2.8836553227408253,3.7614499071447067,1.648281813537917,17.71587,-3.116785,1.7430521,0.65554225,15.578015,-10.585303,2.0881639,0.5945736,0.19649933,0.51477236,0.58555865,-10.247876,-2.9074943,0.10999253,-0.4017639,0.7567622,-0.44454366,0
0.4400000000000002,20.99999889604687,-2.8836553227408253,3.7614499071447067,1.648281813537917,18.05036,-3.9022,4.391778,1.327511,15.47642,-10.613988,2.089186,0.5937345,0.19078037,0.51635677,0.5869048,-10.071357,-2.829231,0.09444916,-0.7887579,1.2254022,-0.34184813,0
0.45000000000000023,20.99999889604687,-2.8836553227408253,3.7614499071447067,1.648281813537917,18.05036,-3.9022,4.391778,1.327511,15.376584,-10.641879,2.090054,0.5917945,0.18298705,0.518051,0.5898454,-9.896157,-2.7484114,0.07924655,-1.1154697,1.6209003,-0.24419186,0
0.46000000000000024,20.99999889604687,-2.8836553227408253,3.7614499071447067,1.648281813537917,18.05036,-3.9022,4.391778,1.327511,15.278491,-10.668945,2.0907726,0.58884805,0.17346007,0.5197971,0.5941212,-9.722865,-2.6641297,0.06460273,-1.3912815,1.9546783,-0.15132762,0
0.47000000000000025,20.99999889604687,-2.8836553227408253,3.7614499071447067,1.648281813537917,18.05036,-3.9022,4.391778,1.327511,15.182118,-10.695147,2.0913484,0.5849698,0.1624843,0.52153987,0.59950376,-9.552033,-2.5756462,0.05067363,-1.6241164,2.2363737,-0.063020274,0
0.48000000000000026,20.99999941325472,-4.609131796884042,5.0052713146299554,1.5920590767060838,17.780596,-3.0553796,4.3245783,0.236483,15.08744,-10.720442,2.091789,0.5802204,0.15029898,0.52322906,0.60579306,-9.384184,-2.482369,0.037561823,-1.8206656,2.474117,0.020953793,0
0.49000000000000027,20.99999941325472,-4.609131796884042,5.0052713146299554,1.5920590767060838,17.780596,-3.0553796,4.3245783,0.236483,14.994422,-10.744777,2.0921028,0.5744894,0.13639855,0.5246847,0.6132395,-9.219869,-2.3837829,0.025356472,-2.2556736,2.868731,0.09804838,0
0.5000000000000002,20.99999941325472,-4.609131796884042,5.0052713146299554,1.5920590767060838,17.780596,-3.0553796,4.3245783,0.236483,14.903027,-10.768096,2.0923002,0.56765795,0.12038765,0.52573043,0.6219954,-9.05992,-2.2791967,0.014279353,-2.6228676,3.2017753,0.17135993,0
0.5100000000000002,20.99999941325472,-4.609131796884042,5.0052713146299554,1.5920590767060838,17.780596,-3.0553796,4.3245783,0.236483,14.813205,-10.790338,2.0923932,0.5597597,0.102601856,0.5263273,0.6317603,-8.905245,-2.168003,0.004525859,-2.9328134,3.4828627,0.24107404,0
0.5200000000000002,20.999999771975308,-5.43821239897006,5.219179805124622,1.3794813292011916,18.739988,-3.530253,5.028851,0.5738667,14.7249,-10.811432,2.0923955,0.5508226,0.083327256,0.5264396,0.6422708,-8.756726,-2.049787,-0.003799558,-3.194432,3.7201035,0.30736727,0
0.5300000000000002,20.999999771975308,-5.43821239897006,5.219179805124622,1.3794813292011916,18.739988,-3.530253,5.028851,0.5738667,14.638046,-10.831307,2.092322,0.54086727,0.06255809,0.5258685,0.6534607,-8.615243,-1.9242983,-0.0106513435,-3.5445302,3.9536927,0.3599762,0
0.5400000000000003,20.999999771975308,-5.43821239897006,5.219179805124622,1.3794813292011916,18.739988,-3.530253,5.028851,0.5738667,14.5525675,-10.849892,2.0921881,0.5298985,0.04030687,0.52443886,0.66524136,-8.481781,-1.7913895,-0.015945308,-3.84003,4.1508503,0.4100036,0
0.5500000000000003,20.999999771975308,-5.43821239897006,5.219179805124622,1.3794813292011916,18.739988,-3.530253,5.028851,0.5738667,14.468379,-10.867109,2.0920088,0.51792234,0.016828042,0.5221556,0.677367,-8.357332,-1.6510669,-0.019650005,-4.0894437,4.3172626,0.45757613,0
0.5600000000000003,20.999999789682363,-5.419081920072746,4.4585349537384,1.0416950726171008,19.349047,-4.6166477,5.4009056,1.7733825,14.385386,-10.882888,2.0918002,0.5049495,-0.007656963,0.5190245,0.68962324,-8.242836,-1.5035013,-0.021820799,-4.2999563,4.457727,0.5028143,0
0.5700000000000003,20.999999789682363,-5.419081920072746,4.4585349537384,1.0416950726171008,19.349047,-4.6166477,5.4009056,1.7733825,14.303485,-10.897156,2.0915775,0.49118462,-0.03276108,0.51490855,0.70180684,-8.13916,-1.3490309,-0.022572156,-4.47456,4.457719,0.52925736,0
0.5800000000000003,20.999999789682363,-5.419081920072746,4.4585349537384,1.0416950726171008,19.349047,-4.6166477,5.4009056,1.7733825,14.222563,-10.909846,2.0913537,0.47681057,-0.058160488,0.50971663,0.71376276,-8.047018,-1.1882253,-0.02199386,-4.6219306,4.45772,0.5544028,0
0.5900000000000003,20.999999789682363,-5.419081920072746,4.4585349537384,1.0416950726171008,19.349047,-4.6166477,5.4009056,1.7733825,14.142502,-10.920901,2.0911417,0.46181518,-0.08376035,0.50351924,0.72538173,-7.967022,-1.0217673,-0.020204546,-4.7463155,4.4577284,0.5783144,0
0.6000000000000003,20.99999975929798,-4.61758786168406,3.249022322017334,0.7121265957417107,20.475378,-4.7008324,4.5837293,0.89088213,14.063179,-10.930265,2.090953,0.44619456,-0.10947641,0.49637914,0.7365679,-7.899712,-0.8503965,-0.01737543,-4.8513,4.4577427,0.60105264,0
0.6100000000000003,20.99999975929798,-4.61758786168406,3.249022322017334,0.7121265957417107,20.475378,-4.7008324,4.5837293,0.89088213,13.984463,-10.937895,2.090797,0.4302642,-0.13475536,0.48837847,0.7471275,-7.845506,-0.67492193,-0.013712546,-4.8147945,4.2692404,0.60650307,0
0.6200000000000003,20.99999975929798,-4.61758786168406,3.249022322017334,0.7121265957417107,20.475378,-4.7008324,4.5837293,0.89088213,13.906223,-10.943752,2.0906813,0.41431025,-0.15916093,0.47962278,0.7569519,-7.804459,-0.49628252,-0.009396373,-4.783991,4.1101336,0.6116861,0
0.6300000000000003,20.99999975929798,-4.61758786168406,3.249022322017334,0.7121265957417107,20.475378,-4.7008324,4.5837293,0.89088213,13.828329,-10.947812,2.090611,0.3982945,-0.1827822,0.47019303,0.76607454,-7.7764883,-0.31540608,-0.004599179,-4.758,3.9758396,0.6166148,0
0.6400000000000003,20.99999975929798,-4.61758786168406,3.249022322017334,0.7121265957417107,21.061684,-4.6292434,3.95675,0.4961199,13.750649,-10.950055,2.0905902,0.38218582,-0.20569414,0.46015623,0.774519,-7.7614884,-0.13316408,0.0004982982,-4.736069,3.862487,0.62130165,1
0.6500000000000004,20.99999975929798,-4.61758786168406,3.249022322017334,0.7121265957417107,21.061684,-4.6292434,3.95675,0.4961199,13.673056,-10.950471,2.0906227,0.36584833,-0.22819258,0.44966418,0.7822307,-7.7593417,0.050166298,0.0059929215,-4.7193995,3.877213,0.615159,1
0.6600000000000004,20.99999975929798,-4.61758786168406,3.249022322017334,0.7121265957417107,21.061684,-4.6292434,3.95675,0.4961199,13.595418,-10.949052,2.0907092,0.34917662,-0.25051442,0.4388264,0.7891446,-7.770053,0.2333229,0.011263286,-4.70533,3.8896403,0.6093177,1
0.6700000000000004,20.99999975929798,-4.61758786168406,3.249022322017334,0.7121265957417107,21.061684,-4.6292434,3.95675,0.4961199,13.51761,-10.945806,2.090846,0.3321899,-0.2726355,0.42763966,0.7952633,-7.7935762,0.41560405,0.015958037,-4.6934547,3.9001276,0.6037631,1
0.6800000000000004,20.99999956956037,-3.4134873849564396,1.8926717718238324,0.3448172916455344,20.669144,-3.826462,3.7232556,0.5366672,13.439503,-10.940744,2.0910254,0.31490666,-0.29453203,0.416103,0.8005889,-7.8298182,0.59630954,0.019733172,-4.683431,3.908978,0.5984811,0
0.6900000000000004,20.99999956956037,-3.4134873849564396,1.8926717718238324,0.3448172916455344,20.669144,-3.826462,3.7232556,0.5366672,13.3609705,-10.933889,2.091235,0.29785267,-0.31538105,0.40435466,0.8051804,-7.8784156,0.77422446,0.021993905,-4.4852324,3.59465,0.58603376,0
0.7000000000000004,20.99999956956037,-3.4134873849564396,1.8926717718238324,0.3448172916455344,20.669144,-3.826462,3.7232556,0.5366672,13.281894,-10.92527,2.0914607,0.2814701,-0.33455533,0.3925512,0.8091665,-7.938756,0.94924706,0.022965219,-4.3179674,3.3293247,0.57419723,0
0.7100000000000004,20.99999956956037,-3.4134873849564396,1.8926717718238324,0.3448172916455344,20.669144,-3.826462,3.7232556,0.5366672,13.202158,-10.914917,2.0916898,0.26565847,-0.35229632,0.38071102,0.81263244,-8.01003,1.120848,0.022657232,-4.1768074,3.105363,0.5629415,0
0.7200000000000004,20.999996345415717,-1.807166109600178,0.3024230548597108,-0.03695725288571188,19.505165,-2.9048657,2.346677,0.2008629,13.121658,-10.902867,2.0919096,0.25032982,-0.36880687,0.3688435,0.81564105,-8.0915165,1.2885803,0.02108011,-4.0576787,2.9163165,0.5522381,0
0.7300000000000004,20.999996345415717,-1.807166109600178,0.3024230548597108,-0.03695725288571188,19.505165,-2.9048657,2.346677,0.2008629,13.040296,-10.88916,2.0921073,0.23592272,-0.38360232,0.35730854,0.81824183,-8.182497,1.452091,0.01826278,-3.7065182,2.5088778,0.52332616,0
0.7400000000000004,20.999996345415717,-1.807166109600178,0.3024230548597108,-0.03695725288571188,19.505165,-2.9048657,2.346677,0.2008629,12.957979,-10.87384,2.092271,0.22279932,-0.39633754,0.34641537,0.820532,-8.281906,1.6112678,0.01436555,-3.410159,2.164945,0.4958329,0
0.7500000000000004,20.999996345415717,-1.807166109600178,0.3024230548597108,-0.03695725288571188,19.505165,-2.9048657,2.346677,0.2008629,12.87463,-10.85695,2.0923915,0.21078123,-0.40735218,0.33608997,0.8226046,-8.3887,1.7661244,0.009590078,-3.1600473,1.8746206,0.46968877,0
0.7600000000000005,19.500829504874943,-0.02707300449046352,-1.2717636136589723,-0.4271820520720509,18.279325,-2.486673,-0.09849396,-0.19142853,12.790181,-10.8385315,2.0924606,0.1997127,-0.4169281,0.32626098,0.82452345,-8.502002,1.9167138,0.0041243345,-2.9489648,1.6295497,0.44482753,0
0.7700000000000005,19.500829504874943,-0.02707300449046352,-1.2717636136589723,-0.4271820520720509,18.279325,-2.486673,-0.09849396,-0.19142853,12.704613,-10.818682,2.0924392,0.19000302,-0.42465934,0.31730893,0.82636416,-8.612512,2.0527003,-0.008414931,-2.4931326,1.1772937,0.40203777,0
0.7800000000000005,19.500829504874943,-0.02707300449046352,-1.2717636136589723,-0.4271820520720509,18.279325,-2.486673,-0.09849396,-0.19142853,12.617917,-10.79749,2.0922914,0.18197867,-0.43025517,0.30954215,0.82821935,-8.727309,2.1851985,-0.021120934,-2.1084301,0.7955217,0.36134773,0
0.7900000000000005,19.500829504874943,-0.02707300449046352,-1.2717636136589723,-0.4271820520720509,18.279325,-2.486673,-0.09849396,-0.19142853,12.530056,-10.774989,2.0920172,0.17539948,-0.43407872,0.30279437,0.83013594,-8.845436,2.3146443,-0.033682585,-1.7837554,0.4732515,0.32265437,0
0.8000000000000005,17.998553409930246,1.4997330668633522,-2.4456461039921384,-0.7074338403931987,15.049218,-1.2086827,-1.575575,-0.3995522,12.441,-10.751206,2.0916193,0.17005846,-0.4364279,0.2969169,0.8321362,-8.966107,2.4414387,-0.04582349,-1.5097398,0.2012116,0.28585967,0
0.8100000000000005,17.998553409930246,1.4997330668633522,-2.4456461039921384,-0.7074338403931987,15.049218,-1.2086827,-1.575575,-0.3995522,12.350775,-10.726215,2.0910697,0.16621299,-0.43706515,0.29219413,0.83424777,-9.079186,2.5563874,-0.063960545,-1.0403434,-0.2114433,0.23711848,0
0.8200000000000005,17.998553409930246,1.4997330668633522,-2.4456461039921384,-0.7074338403931987,15.049218,-1.2086827,-1.575575,-0.3995522,12.259414,-10.700083,2.090343,0.164059,-0.4358154,0.28884348,0.83649176,-9.193165,2.669799,-0.08118321,-0.6441825,-0.5597846,0.19076903,0
0.8300000000000005,17.998553409930246,1.4997330668633522,-2.4456461039921384,-0.7074338403931987,15.049218,-1.2086827,-1.575575,-0.3995522,12.166911,-10.672822,2.08945,0.16334787,-0.43298262,0.28664955,0.8388533,-9.30728,2.7822154,-0.09721632,-0.3098277,-0.85383266,0.14669394,0
0.8400000000000005,17.998553409930246,1.4997330668633522,-2.4456461039921384,-0.7074338403931987,13.651165,-0.7317415,-2.6315296,-0.7926434,12.07327,-10.644441,2.0884035,0.16386725,-0.42881614,0.28542525,0.8413061,-9.420887,2.894097,-0.11182922,-0.027633771,-1.1020471,0.10478166,0
0.8500000000000005,17.998553409930246,1.4997330668633522,-2.4456461039921384,-0.7074338403931987,13.651165,-0.7317415,-2.6315296,-0.7926434,11.9784975,-10.614941,2.0872188,0.16543613,-0.4235214,0.28500924,0.8438184,-9.5334425,3.0058298,-0.1248326,0.21053869,-1.3115695,0.06492601,0
0.8600000000000005,17.998553409930246,1.4997330668633522,-2.4456461039921384,-0.7074338403931987,13.651165,-0.7317415,-2.6315296,-0.7926434,11.8826065,-10.584323,2.0859127,0.16790049,-0.41726884,0.28526312,0.84635705,-9.644476,3.1177297,-0.1360746,0.411559,-1.4884295,0.027026094,0
0.8700000000000006,17.998553409930246,1.4997330668633522,-2.4456461039921384,-0.7074338403931987,13.651165,-0.7317415,-2.6315296,-0.7926434,11.785615,-10.552584,2.0845037,0.17112929,-0.41020045,0.2860688,0.84889,-9.753579,3.230052,-0.14543676,0.58122355,-1.6377175,-0.009014078,0
0.8800000000000006,17.21538671396454,2.42425006549145,-2.9837701411463593,-0.8898400449746176,13.467299,0.086435005,-2.2073894,-0.9572505,11.687543,-10.51972,2.0830107,0.17501102,-0.40243503,0.28732574,0.8513873,-9.860394,3.3429976,-0.15283006,0.72442466,-1.7637303,-0.043285742,0
0.8900000000000006,17.21538671396454,2.42425006549145,-2.9837701411463593,-0.8898400449746176,13.467299,0.086435005,-2.2073894,-0.9572505,11.58844,-10.485747,2.0814338,0.17967954,-0.3938291,0.28921625,0.8537957,-9.960048,3.4517927,-0.16222356,0.9894534,-1.9540286,-0.08482641,0
0.9000000000000006,17.21538671396454,2.42425006549145,-2.9837701411463593,-0.8898400449746176,13.467299,0.086435005,-2.2073894,-0.9572505,11.488353,-10.450682,2.079773,0.1852329,-0.38426828,0.29187572,0.85605747,-10.05675,3.561593,-0.16961369,1.213146,-2.1146595,-0.12432867,0
0.9100000000000006,17.21538671396454,2.42425006549145,-2.9837701411463593,-0.8898400449746176,13.467299,0.086435005,-2.2073894,-0.9572505,11.387316,-10.414512,2.0780482,0.19153479,-0.3738836,0.29516166,0.85813993,-10.150061,3.672617,-0.17496598,1.4019511,-2.250246,-0.16189253,0
0.9200000000000006,17.09862705997182,2.9824905075575674,-3.061022622022159,-1.1637287576334037,12.885403,0.6524829,-2.6002703,-1.1744615,11.285363,-10.377225,2.0762804,0.19846904,-0.3627858,0.29895294,0.8600133,-10.239588,3.7850187,-0.17827258,1.5613111,-2.3646917,-0.19761312,0
0.9300000000000006,17.09862705997182,2.9824905075575674,-3.061022622022159,-1.1637287576334037,12.885403,0.6524829,-2.6002703,-1.1744615,11.182539,-10.338811,2.0744865,0.20605485,-0.35100704,0.30332008,0.86158675,-10.324391,3.8981366,-0.18021043,1.7828529,-2.4733675,-0.24502069,0
0.9400000000000006,17.09862705997182,2.9824905075575674,-3.061022622022159,-1.1637287576334037,12.885403,0.6524829,-2.6002703,-1.1744615,11.078889,-10.299257,2.0726826,0.21430118,-0.338576,0.30831015,0.86277777,-10.404687,4.0128617,-0.18020439,1.969846,-2.5650992,-0.29010198,0
0.9500000000000006,17.09862705997182,2.9824905075575674,-3.061022622022159,-1.1637287576334037,12.885403,0.6524829,-2.6002703,-1.1744615,10.974461,-10.258549,2.0708888,0.22310224,-0.3255754,0.31379628,0.86357236,-10.4801035,4.129287,-0.1783479,2.1276789,-2.642527,-0.3329711,0
0.9600000000000006,16.527754716286424,2.986710549083085,-2.8465826523384994,-1.2854793068139398,13.004784,1.0498875,-2.5695286,-1.3569268,10.869303,-10.216667,2.069122,0.23236735,-0.31207663,0.3196707,0.863958,-10.550307,4.2474484,-0.17474788,2.2609003,-2.70788,-0.3737366,0
0.9700000000000006,16.527754716286424,2.986710549083085,-2.8465826523384994,-1.2854793068139398,13.004784,1.0498875,-2.5695286,-1.3569268,10.763483,-10.1736145,2.0673823,0.24200471,-0.29822025,0.3258595,0.8638942,-10.612841,4.363333,-0.17297721,2.374005,-2.729607,-0.41847605,0
0.9800000000000006,16.527754716286424,2.986710549083085,-2.8465826523384994,-1.2854793068139398,13.004784,1.0498875,-2.5695286,-1.3569268,10.657065,-10.129395,2.0656676,0.2519382,-0.28412405,0.33230048,0.8633518,-10.669819,4.480844,-0.16979276,2.469475,-2.7479436,-0.46102014,0
0.9900000000000007,16.527754716286424,2.986710549083085,-2.8465826523384994,-1.2854793068139398,13.004784,1.0498875,-2.5695286,-1.3569268,10.550106,-10.083992,2.063991,0.26211643,-0.26981506,0.33892527,0.8623362,-10.721043,4.5999074,-0.16535692,2.55006,-2.7634177,-0.5014766,0
1.0000000000000007,16.13542530212179,2.574779957615894,-2.4043265001404746,-1.3672249044865066,12.444324,0.3197462,-2.6359568,-1.1302656,10.442664,-10.037392,2.0623643,0.2724948,-0.2553175,0.34567595,0.8608525,-10.766338,4.720421,-0.15983142,2.6180816,-2.7764752,-0.5399478,0
1.0100000000000007,16.13542530212179,2.574779957615894,-2.4043265001404746,-1.3672249044865066,12.444324,0.3197462,-2.6359568,-1.1302656,10.334804,-9.9895935,2.0607853,0.28294086,-0.2408552,0.35240895,0.8589182,-10.804638,4.8393626,-0.1558615,2.611277,-2.7185054,-0.58054256,0
1.0200000000000007,16.13542530212179,2.574779957615894,-2.4043265001404746,-1.3672249044865066,12.444324,0.3197462,-2.6359568,-1.1302656,10.226591,-9.9406,2.0592499,0.29335257,-0.2266129,0.35901457,0.85656214,-10.836996,4.9594307,-0.15115628,2.6055365,-2.6695728,-0.6191453,0
1.0300000000000007,16.13542530212179,2.574779957615894,-2.4043265001404746,-1.3672249044865066,12.444324,0.3197462,-2.6359568,-1.1302656,10.118084,-9.890402,2.0577643,0.30373392,-0.21255764,0.3654925,0.8538029,-10.863431,5.0804534,-0.14587794,2.6006935,-2.628268,-0.6558538,0
1.0400000000000007,16.13542530212179,2.574779957615894,-2.4043265001404746,-1.3672249044865066,12.600536,0.1597716,-2.187986,-0.93142164,10.009342,-9.838989,2.0563335,0.31408682,-0.19866185,0.37184212,0.85065603,-10.88396,5.2022576,-0.14017704,2.5966082,-2.593402,-0.69076097,0
1.0500000000000007,16.13542530212179,2.574779957615894,-2.4043265001404746,-1.3672249044865066,12.600536,0.1597716,-2.187986,-0.93142164,9.900425,-9.786355,2.0549614,0.3244117,-0.18490237,0.37806255,0.84713405,-10.8986,5.3246703,-0.13419436,2.5931618,-2.5639706,-0.7239553,0
1.0600000000000007,16.13542530212179,2.574779957615894,-2.4043265001404746,-1.3672249044865066,12.600536,0.1597716,-2.187986,-0.93142164,9.79139,-9.732494,2.0536501,0.33470744,-0.17126001,0.38415283,0.8432477,-10.90737,5.4475164,-0.12806238,2.5902545,-2.5391262,-0.7555207,0
1.0700000000000007,16.13542530212179,2.574779957615894,-2.4043265001404746,-1.3672249044865066,12.600536,0.1597716,-2.187986,-0.93142164,9.682298,-9.677403,2.0524004,0.34497193,-0.15771882,0.39011183,0.839006,-10.910291,5.570621,-0.1219064,2.5878024,-2.5181537,-0.78553724,0
1.0800000000000007,15.90213205802863,1.8143076942341674,-1.8072510081382178,-1.3847231196369216,12.502443,-0.16984089,-1.9100589,-1.1407357,9.573205,-9.621081,2.0512118,0.35520205,-0.14426571,0.39593834,0.83441657,-10.907383,5.693806,-0.115845524,2.5857341,-2.5004494,-0.81408083,0
1.0900000000000007,15.90213205802863,1.8143076942341674,-1.8072510081382178,-1.3847231196369216,12.502443,-0.16984089,-1.9100589,-1.1407357,9.4641695,-9.563537,2.0500753,0.3652597,-0.13119966,0.40146494,0.82957643,-10.898828,5.815114,-0.11149286,2.465444,-2.392327,-0.8420823,0
1.1000000000000008,15.90213205802863,1.8143076942341674,-1.8072510081382178,-1.3847231196369216,12.502443,-0.16984089,-1.9100589,-1.1407357,9.3552475,-9.50478,2.0489807,0.37504387,-0.11876182,0.40657035,0.8245832,-10.88479,5.93615,-0.10742282,2.3639097,-2.3010705,-0.8687099,0
1.1100000000000008,15.90213205802863,1.8143076942341674,-1.8072510081382178,-1.3847231196369216,12.502443,-0.16984089,-1.9100589,-1.1407357,9.246492,-9.444815,2.0479255,0.38459963,-0.10686333,0.41131398,0.81944084,-10.865508,6.056755,-0.10369799,2.2782063,-2.2240486,-0.8940308,0
1.1200000000000008,15.228931837704556,0.8045179206477784,-1.1929957304849816,-1.2344916872853422,12.794554,-0.6696115,-1.2922486,-0.8591391,9.137955,-9.383646,2.0469053,0.39396343,-0.09542819,0.41574493,0.8141508,-10.8411875,6.176785,-0.10037238,2.2058656,-2.159042,-0.91810924,0
1.1300000000000008,15.228931837704556,0.8045179206477784,-1.1929957304849816,-1.2344916872853422,12.794554,-0.6696115,-1.2922486,-0.8591391,9.029679,-9.321305,2.045895,0.40301153,-0.08474448,0.41967672,0.80887,-10.813277,6.2910566,-0.10175969,1.9873959,-2.0082774,-0.9336342,0
1.1400000000000008,15.228931837704556,0.8045179206477784,-1.1929957304849816,-1.2344916872853422,12.794554,-0.6696115,-1.2922486,-0.8591391,8.921704,-9.257827,2.044869,0.41165495,-0.07503938,0.42297512,0.8037416,-10.781102,6.404543,-0.103546225,1.8029858,-1.88104,-0.9483974,0
1.1500000000000008,15.228931837704556,0.8045179206477784,-1.1929957304849816,-1.2344916872853422,12.794554,-0.6696115,-1.2922486,-0.8591391,8.81407,-9.193217,2.0438232,0.41996554,-0.066169634,0.42574543,0.79874307,-10.7450285,6.517159,-0.10569204,1.6473254,-1.773659,-0.9624361,0
1.1600000000000008,14.847379333617807,-0.19577644206459535,-0.7070980829764675,-1.01096417612352,12.946808,-1.0865117,-0.6144852,-0.60622895,8.706816,-9.127486,2.0427542,0.42800158,-0.058012836,0.42807406,0.793852,-10.705367,6.6288376,-0.10815821,1.515932,-1.683036,-0.9757859,0
1.1700000000000008,14.847379333617807,-0.19577644206459535,-0.7070980829764675,-1.01096417612352,12.946808,-1.0865117,-0.6144852,-0.60622895,8.599969,-9.0606575,2.0416472,0.4356842,-0.050779406,0.42980173,0.7892214,-10.6634865,6.7367535,-0.113286205,1.2490871,-1.530671,-0.97751206,0
1.1800000000000008,14.847379333617807,-0.19577644206459535,-0.7070980829764675,-1.01096417612352,12.946808,-1.0865117,-0.6144852,-0.60622895,8.493556,-8.992756,2.040488,0.44295645,-0.044631023,0.43081266,0.78498244,-10.618793,6.843674,-0.118573666,1.0238416,-1.402093,-0.9791536,0
1.1900000000000008,14.847379333617807,-0.19577644206459535,-0.7070980829764675,-1.01096417612352,12.946808,-1.0865117,-0.6144852,-0.60622895,8.387602,-8.923789,2.039276,0.44988954,-0.039404634,0.43122852,0.7810812,-10.571677,6.9495883,-0.12390363,0.83371055,-1.2935888,-0.9807145,0
1.2000000000000008,14.490319905452985,-1.0537485429994962,-0.3583518197892631,-0.7164659196941678,13.417315,-1.9164835,-0.118355185,-0.45676407,8.28213,-8.853768,2.0380104,0.45654115,-0.03496136,0.43114924,0.77746856,-10.52247,7.0544944,-0.12917317,0.6732198,-1.2020241,-0.98219883,0
1.2100000000000009,14.490319905452985,-1.0537485429994962,-0.3583518197892631,-0.7164659196941678,13.417315,-1.9164835,-0.118355185,-0.45676407,8.177153,-8.782716,2.0366817,0.46285865,-0.031433348,0.43045628,0.77426124,-10.4727,7.1559005,-0.1365186,0.40399343,-1.0702782,-0.96915925,0
1.2200000000000009,14.490319905452985,-1.0537485429994962,-0.3583518197892631,-0.7164659196941678,13.417315,-1.9164835,-0.118355185,-0.45676407,8.07268,-8.710653,2.035281,0.46880072,-0.028918361,0.42906222,0.7715533,-10.421557,7.2563515,-0.14356482,0.17673707,-0.9591087,-0.9567595,0
1.2300000000000009,14.490319905452985,-1.0537485429994962,-0.3583518197892631,-0.7164659196941678,13.417315,-1.9164835,-0.118355185,-0.45676407,7.9687247,-8.637592,2.033812,0.47442436,-0.027260486,0.42708272,0.7692711,-10.369401,7.355877,-0.15017048,-0.015091408,-0.8653016,-0.9449683,0
1.2400000000000009,14.490319905452985,-1.0537485429994962,-0.3583518197892631,-0.7164659196941678,13.34972,-2.3355813,-0.05296579,-0.2526897,7.8652945,-8.56354,2.0322797,0.4797758,-0.026327338,0.42461288,0.7673495,-10.316535,7.454508,-0.15621673,-0.17701493,-0.7861447,-0.93375564,0
1.2500000000000009,14.490319905452985,-1.0537485429994962,-0.3583518197892631,-0.7164659196941678,13.34972,-2.3355813,-0.05296579,-0.2526897,7.762395,-8.488505,2.0306902,0.48489267,-0.026006589,0.42173123,0.7657316,-10.263218,7.552276,-0.16160469,-0.31369537,-0.71934986,-0.9230932,0
1.260000000000001,14.490319905452985,-1.0537485429994962,-0.3583518197892631,-0.7164659196941678,13.34972,-2.3355813,-0.05296579,-0.2526897,7.6600304,-8.4124975,2.02905,0.48980597,-0.026202973,0.41850293,0.7643678,-10.20967,7.6492105,-0.16625302,-0.42906797,-0.6629858,-0.912954,0
1.270000000000001,14.490319905452985,-1.0537485429994962,-0.3583518197892631,-0.7164659196941678,13.34972,-2.3355813,-0.05296579,-0.2526897,7.558202,-8.335523,2.0273678,0.49454117,-0.026835736,0.41498187,0.7632157,-10.15608,7.7453375,-0.1700956,-0.5264544,-0.6154237,-0.9033123,0
1.280000000000001,14.088826835624678,-1.5369939987664056,-0.14542386089032097,-0.4251053125379511,13.13623,-2.4398952,-0.42103627,0.12373652,7.456908,-8.257592,2.0256515,0.49911943,-0.027836438,0.41121304,0.76223886,-10.102608,7.8406816,-0.17307936,-0.60865855,-0.57528865,-0.89414376,1
1.290000000000001,14.088826835624678,-1.5369939987664056,-0.14542386089032097,-0.4251053125379511,13.13623,-2.4398952,-0.42103627,0.12373652,7.3561234,-8.178756,2.0238647,0.5034733,-0.029363241,0.40680125,0.7616853,-10.05439,7.926418,-0.18411513,-0.8942069,-0.55109555,-0.844196,1
1.300000000000001,14.088826835624678,-1.5369939987664056,-0.14542386089032097,-0.4251053125379511,13.13623,-2.4398952,-0.42103627,0.12373652,7.2558184,-8.099066,2.0219727,0.50753486,-0.031535435,0.40143356,0.7617509,-10.006702,8.011432,-0.19415501,-1.1352284,-0.5307152,-0.7966993,1
1.310000000000001,14.088826835624678,-1.5369939987664056,-0.14542386089032097,-0.4251053125379511,13.13623,-2.4398952,-0.42103627,0.12373652,7.1559863,-8.018529,2.019986,0.5113194,-0.034246802,0.395254,0.7623341,-9.959834,8.095686,-0.20303401,-1.3386663,-0.5135446,-0.7515332,1
1.320000000000001,14.020448614168513,-1.6837611415678253,-0.09404370096599522,-0.16996399387742345,13.254507,-2.7611299,-0.6798406,0.3682882,7.056618,-7.937154,2.0179167,0.5148394,-0.0374074,0.38838306,0.76334727,-9.914032,8.179148,-0.21062335,-1.5103813,-0.49907613,-0.7085835,0
1.330000000000001,14.020448614168513,-1.6837611415678253,-0.09404370096599522,-0.16996399387742345,13.254507,-2.7611299,-0.6798406,0.3682882,6.957716,-7.854921,2.0158093,0.51809496,-0.04089894,0.38121974,0.7645756,-9.866505,8.267355,-0.21065378,-1.5373831,-0.43592554,-0.6821532,0
1.340000000000001,14.020448614168513,-1.6837611415678253,-0.09404370096599522,-0.16996399387742345,13.254507,-2.7611299,-0.6798406,0.3682882,6.859283,-7.77181,2.0137086,0.52109694,-0.044624683,0.37408838,0.7658485,-9.820459,8.354718,-0.2092332,-1.5601807,-0.3826248,-0.65702,0
1.350000000000001,14.020448614168513,-1.6837611415678253,-0.09404370096599522,-0.16996399387742345,13.254507,-2.7611299,-0.6798406,0.3682882,6.761302,-7.6878295,2.0116293,0.5238694,-0.048543602,0.36698171,0.7671559,-9.77598,8.441279,-0.20640917,-1.5794286,-0.33763713,-0.63312006,0
1.360000000000001,13.66619814192763,-1.3805791629953668,-0.2617680744403421,0.03571518032106945,14.143438,-2.6106126,-0.7722742,0.5250491,6.663758,-7.6029873,2.0095851,0.5264328,-0.052621208,0.35989356,0.76848906,-9.733139,8.52707,-0.20222785,-1.5956789,-0.29966584,-0.6103928,0
1.370000000000001,13.66619814192763,-1.3805791629953668,-0.2617680744403421,0.03571518032106945,14.143438,-2.6106126,-0.7722742,0.5250491,6.5666285,-7.5173016,2.0075762,0.5288159,-0.05670385,0.35287812,0.7698147,-9.693031,8.609965,-0.19935334,-1.5621258,-0.29380137,-0.5786881,0
1.380000000000001,13.66619814192763,-1.3805791629953668,-0.2617680744403421,0.03571518032106945,14.143438,-2.6106126,-0.7722742,0.5250491,6.4698915,-7.4307904,2.0056021,0.53104144,-0.060667045,0.34597924,0.771111,-9.654574,8.69214,-0.19525482,-1.533806,-0.28884676,-0.5485391,0
1.390000000000001,13.66619814192763,-1.3805791629953668,-0.2617680744403421,0.03571518032106945,14.143438,-2.6106126,-0.7722742,0.5250491,6.373532,-7.3434615,2.003675,0.53311723,-0.06452363,0.33917814,0.77238613,-9.617756,8.773596,-0.18998437,-1.5099036,-0.28466064,-0.51986957,0
1.400000000000001,13.32834702998176,-0.976464670863256,-0.39135102182302267,0.18257937237044553,12.922651,-2.0273452,-0.83307105,0.66393065,6.2775316,-7.2553215,2.0018065,0.5350505,-0.06828482,0.3324589,0.77364635,-9.582563,8.854332,-0.18358931,-1.4897292,-0.28112382,-0.49260685,0
1.410000000000001,13.32834702998176,-0.976464670863256,-0.39135102182302267,0.18257937237044553,12.922651,-2.0273452,-0.83307105,0.66393065,6.181871,-7.1663876,1.9999943,0.5368626,-0.07182764,0.325907,0.7748571,-9.549809,8.932369,-0.17872578,-1.4096848,-0.29836985,-0.45947525,0
1.420000000000001,13.32834702998176,-0.976464670863256,-0.39135102182302267,0.18257937237044553,12.922651,-2.0273452,-0.83307105,0.66393065,6.08653,-7.076677,1.9982355,0.53857094,-0.07505461,0.31959072,0.77599573,-9.518554,9.009698,-0.1728668,-1.3421223,-0.31291807,-0.42796946,0
1.430000000000001,13.32834702998176,-0.976464670863256,-0.39135102182302267,0.18257937237044553,12.922651,-2.0273452,-0.83307105,0.66393065,5.991495,-6.9861965,1.9965402,0.5401767,-0.07800927,0.3134744,0.7770823,-9.488719,9.086314,-0.16606626,-1.2850953,-0.32519057,-0.39800963,0
1.440000000000001,13.32834702998176,-0.976464670863256,-0.39135102182302267,0.18257937237044553,12.67643,-1.5822035,-0.9947724,0.67835224,5.896752,-6.8949533,1.9949174,0.5416812,-0.08072886,0.30752778,0.7781326,-9.460238,9.162211,-0.15837047,-1.2369611,-0.33554384,-0.36951995,1
1.450000000000001,13.32834702998176,-0.976464670863256,-0.39135102182302267,0.18257937237044553,12.67643,-1.5822035,-0.9947724,0.67835224,5.8022795,-6.8029737,1.9933498,0.54309154,-0.08316978,0.30141014,0.7792853,-9.434394,9.233694,-0.15502456,-1.2908118,-0.43838024,-0.31810054,1
1.460000000000001,13.32834702998176,-0.976464670863256,-0.39135102182302267,0.18257937237044553,12.67643,-1.5822035,-0.9947724,0.67835224,5.70806,-6.7102823,1.9918199,0.544402,-0.08529693,0.2948487,0.78065,-9.409794,9.304378,-0.15081261,-1.3362556,-0.5251822,-0.26920432,1
1.470000000000001,13.32834702998176,-0.976464670863256,-0.39135102182302267,0.18257937237044553,12.67643,-1.5822035,-0.9947724,0.67835224,5.6140795,-6.616889,1.9903365,0.54559726,-0.08715131,0.28791136,0.7821986,-9.386456,9.374147,-0.14568245,-1.3746058,-0.59844947,-0.22270744,1
1.480000000000001,13.265082964726714,-0.4989879164562466,-0.5336992038962562,0.2740033672256002,12.186203,-1.4846333,-1.2086941,1.0139661,5.520326,-6.5228033,1.9889094,0.54666555,-0.08876803,0.2806554,0.78390616,-9.364395,9.442903,-0.13959627,-1.4069705,-0.6602915,-0.17849216,0
1.490000000000001,13.265082964726714,-0.4989879164562466,-0.5336992038962562,0.2740033672256002,12.186203,-1.4846333,-1.2086941,1.0139661,5.426792,-6.428019,1.9875724,0.54762596,-0.090098955,0.27356645,0.7855881,-9.342643,9.513715,-0.1276581,-1.2653595,-0.6405845,-0.15628806,0
1.500000000000001,13.265082964726714,-0.4989879164562466,-0.5336992038962562,0.2740033672256002,12.186203,-1.4846333,-1.2086941,1.0139661,5.3334694,-6.332533,1.9863596,0.5485072,-0.09111017,0.2670346,0.78710264,-9.322111,9.58341,-0.11477624,-1.145834,-0.6239437,-0.13517354,0
1.5100000000000011,13.265082964726714,-0.4989879164562466,-0.5336992038962562,0.2740033672256002,12.186203,-1.4846333,-1.2086941,1.0139661,5.2403464,-6.236355,1.9852798,0.5493133,-0.09184866,0.26097527,0.78848577,-9.302667,9.652036,-0.101035506,-1.0449495,-0.6098927,-0.115095116,0
1.5200000000000011,13.038115386924474,0.08570562286067802,-0.584549444487238,0.32289439404397985,12.478941,-1.0494062,-1.20277,1.0130213,5.147413,-6.1394954,1.9843415,0.5500476,-0.09235425,0.25531664,0.7897664,-9.284197,9.719634,-0.086506166,-0.9597988,-0.5980287,-0.096001945,0
1.5300000000000011,13.038115386924474,0.08570562286067802,-0.584549444487238,0.32289439404397985,12.478941,-1.0494062,-1.20277,1.0130213,5.0546584,-6.041971,1.9835426,0.5507352,-0.09251444,0.2501721,0.79091394,-9.266893,9.785103,-0.07318993,-0.79674506,-0.5959475,-0.07544658,0
1.5400000000000011,13.038115386924474,0.08570562286067802,-0.584549444487238,0.32289439404397985,12.478941,-1.0494062,-1.20277,1.0130213,4.9620733,-5.9437966,1.98288,0.55139667,-0.09224177,0.24562901,0.79190826,-9.250276,9.849644,-0.05923061,-0.65911984,-0.59418505,-0.055899873,0
1.5500000000000012,13.038115386924474,0.08570562286067802,-0.584549444487238,0.32289439404397985,12.478941,-1.0494062,-1.20277,1.0130213,4.869652,-5.844981,1.9823599,0.55202806,-0.091601215,0.24159558,0.7927831,-9.234179,9.913304,-0.044693194,-0.5429575,-0.5926933,-0.037312333,0
1.5600000000000012,12.608418282411773,0.5499863315301731,-0.8166558705909484,0.3608067115178116,12.411349,-0.5979915,-1.6197019,0.8483709,4.7773886,-5.745533,1.981988,0.55262583,-0.090647765,0.2379939,0.7935652,-9.21846,9.976125,-0.02963109,-0.44491097,-0.5914307,-0.019636884,0
1.5700000000000012,12.608418282411773,0.5499863315301731,-0.8166558705909484,0.3608067115178116,12.411349,-0.5979915,-1.6197019,0.8483709,4.685279,-5.645471,1.9817502,0.55322224,-0.089250386,0.2348544,0.79424304,-9.203502,10.036093,-0.017834697,-0.28975028,-0.62656015,-0.00096841715,0
1.5800000000000012,12.608418282411773,0.5499863315301731,-0.8166558705909484,0.3608067115178116,12.411349,-0.5979915,-1.6197019,0.8483709,4.593318,-5.5448136,1.9816327,0.55384135,-0.087307386,0.23219766,0.7948085,-9.188611,10.095296,-0.0056154192,-0.15878627,-0.65620744,0.016783997,0
1.5900000000000012,12.608418282411773,0.5499863315301731,-0.8166558705909484,0.3608067115178116,12.411349,-0.5979915,-1.6197019,0.8483709,4.501507,-5.4435678,1.9816394,0.5544696,-0.084901266,0.22994907,0.7952846,-9.173618,10.153747,0.0069905696,-0.04824578,-0.68122876,0.033665285,0
1.6000000000000012,12.309923045260241,0.6952682547176979,-0.7684957491639265,0.427871820162743,12.232553,-0.702962,-1.7500852,0.85958135,4.4098473,-5.341741,1.9817739,0.5550956,-0.08210177,0.22804534,0.79568994,-9.158381,10.211456,0.019952007,0.04505586,-0.70234597,0.0497182,0
1.6100000000000012,12.309923045260241,0.6952682547176979,-0.7684957491639265,0.427871820162743,12.232553,-0.702962,-1.7500852,0.85958135,4.318339,-5.239348,1.9820263,0.5557036,-0.078949064,0.2264904,0.7960287,-9.1431465,10.267084,0.030603047,0.14646515,-0.71265703,0.06827431,0
1.6200000000000012,12.309923045260241,0.6952682547176979,-0.7684957491639265,0.427871820162743,12.232553,-0.702962,-1.7500852,0.85958135,4.226986,-5.1364026,1.9823868,0.55627966,-0.075477846,0.22528452,0.7963051,-9.127437,10.322014,0.041540466,0.23205951,-0.72135854,0.08591989,0
1.6300000000000012,12.309923045260241,0.6952682547176979,-0.7684957491639265,0.427871820162743,12.232553,-0.702962,-1.7500852,0.85958135,4.1357927,-5.032911,1.982858,0.5568178,-0.07173526,0.22437312,0.7965322,-9.111148,10.3762665,0.052732673,0.30430496,-0.72870225,0.10269957,0
1.6400000000000012,12.309923045260241,0.6952682547176979,-0.7684957491639265,0.427871820162743,13.028092,-0.98201734,-2.3180926,1.3973638,4.044765,-4.9288797,1.9834422,0.5573135,-0.06776125,0.22370993,0.7967201,-9.094195,10.429853,0.06415116,0.36528358,-0.7349001,0.11865586,0
1.6500000000000012,12.309923045260241,0.6952682547176979,-0.7684957491639265,0.427871820162743,13.028092,-0.98201734,-2.3180926,1.3973638,3.9539108,-4.8243165,1.9841416,0.55776304,-0.06358963,0.22325574,0.79687685,-9.076505,10.482788,0.07576985,0.41675228,-0.7401312,0.13382918,0
1.6600000000000013,12.309923045260241,0.6952682547176979,-0.7684957491639265,0.427871820162743,13.028092,-0.98201734,-2.3180926,1.3973638,3.8632376,-4.719227,1.984958,0.55816376,-0.059249107,0.22297737,0.79700875,-9.058014,10.535081,0.08756465,0.46019402,-0.74454653,0.14825794,0
1.6700000000000013,12.309923045260241,0.6952682547176979,-0.7684957491639265,0.427871820162743,13.028092,-0.98201734,-2.3180926,1.3973638,3.7727537,-4.6136174,1.9858934,0.55851376,-0.054764003,0.2228467,0.7971209,-9.0386715,10.586739,0.0995131,0.49686086,-0.7482734,0.16197868,0
1.6800000000000013,11.932294644182008,0.5030554522015126,-0.6977707774331308,0.5480219963121971,13.16229,-0.8637851,-2.6226368,1.590978,3.6824675,-4.507494,1.9869488,0.5588119,-0.050154995,0.22283994,0.79721725,-9.018435,10.637767,0.11159404,0.52780896,-0.75141937,0.17502612,0
1.6900000000000013,11.932294644182008,0.5030554522015126,-0.6977707774331308,0.5480219963121971,13.16229,-0.8637851,-2.6226368,1.590978,3.5923848,-4.4008713,1.9881088,0.55903566,-0.045501877,0.22289215,0.7973249,-8.99792,10.6866255,0.12040472,0.5239566,-0.7430471,0.19332914,0
1.7000000000000013,11.932294644182008,0.5030554522015126,-0.6977707774331308,0.5480219963121971,13.16229,-0.8637851,-2.6226368,1.590978,3.502512,-4.2937636,1.9893572,0.5591668,-0.040868495,0.22295101,0.7974674,-8.976505,10.734883,0.12931176,0.5207046,-0.7359808,0.21073401,0
1.7100000000000013,11.932294644182008,0.5030554522015126,-0.6977707774331308,0.5480219963121971,13.16229,-0.8637851,-2.6226368,1.590978,3.4128578,-4.1861763,1.9906952,0.5592105,-0.036249597,0.2230148,0.79764223,-8.954198,10.782543,0.13830386,0.51795936,-0.7300167,0.22728483,0
1.7200000000000013,11.569744943908228,0.11748332620505525,-0.6592803083369809,0.7424916718812764,13.953253,-1.3090118,-3.0958498,1.957342,3.323431,-4.078115,1.9921236,0.55917126,-0.031640872,0.22308205,0.79784703,-8.931005,10.829611,0.14737011,0.5156417,-0.7249831,0.24302351,0
1.7300000000000013,11.569744943908228,0.11748332620505525,-0.6592803083369809,0.7424916718812764,13.953253,-1.3090118,-3.0958498,1.957342,3.234237,-3.9695933,1.9936266,0.5590263,-0.027131982,0.2230377,0.798127,-8.907669,10.874674,0.15324424,0.4535589,-0.7147394,0.2675326,0
1.7400000000000013,11.569744943908228,0.11748332620505525,-0.6592803083369809,0.7424916718812764,13.953253,-1.3090118,-3.0958498,1.957342,3.1452804,-3.8606236,1.9951886,0.5587566,-0.022793146,0.22279061,0.79852045,-8.883542,10.919155,0.15918808,0.40115732,-0.70609355,0.29083896,0
1.7500000000000013,11.569744943908228,0.11748332620505525,-0.6592803083369809,0.7424916718812764,13.953253,-1.3090118,-3.0958498,1.957342,3.0565686,-3.7512121,1.9968106,0.5583713,-0.018595003,0.22237171,0.79901534,-8.858683,10.963045,0.16521057,0.3569272,-0.6987963,0.3130017,0
1.7600000000000013,11.174995995568365,-0.5134816588028958,-0.790449227344413,0.9927338929461949,13.31572,-1.2821866,-2.7713463,1.7775797,2.9681091,-3.6413648,1.9984933,0.5578784,-0.014512917,0.22180705,0.7996009,-8.83314,11.006336,0.17131881,0.31959435,-0.6926368,0.33407688,0
1.7700000000000014,11.174995995568365,-0.5134816588028958,-0.790449227344413,0.9927338929461949,13.31572,-1.2821866,-2.7713463,1.7775797,2.8799038,-3.5310948,2.0002196,0.55726844,-0.0106181735,0.2208877,0.80034155,-8.807862,11.04756,0.17396446,0.18969493,-0.7079147,0.36639735,0
1.7800000000000014,11.174995995568365,-0.5134816588028958,-0.790449227344413,0.9927338929461949,13.31572,-1.2821866,-2.7713463,1.7775797,2.7919536,-3.4204156,2.0019732,0.5565321,-0.006965179,0.21944894,0.8012893,-8.782079,11.088147,0.17673975,0.08005244,-0.72081023,0.39713186,0
1.7900000000000014,11.174995995568365,-0.5134816588028958,-0.790449227344413,0.9927338929461949,13.31572,-1.2821866,-2.7713463,1.7775797,2.7042632,-3.3093343,2.003755,0.5556755,-0.0035123357,0.21757035,0.8024179,-8.755895,11.128052,0.17968489,-0.012491966,-0.73169434,0.42635822,0
1.8000000000000014,10.961900200081194,-1.3669884944862212,-0.4693384202781472,1.3086221464934944,16.057432,-2.2988105,-3.6852026,2.7952993,2.6168365,-3.1978571,2.0055676,0.55470407,-0.00022480416,0.21531896,0.803704,-8.7294,11.167229,0.18283297,-0.09060508,-0.7408803,0.45415044,0
1.8100000000000014,10.961900200081194,-1.3669884944862212,-0.4693384202781472,1.3086221464934944,16.057432,-2.2988105,-3.6852026,2.7952993,2.5296733,-3.0859957,2.007403,0.5535633,0.0026423074,0.21254776,0.8052224,-8.703194,11.20491,0.18427993,-0.28964975,-0.6986,0.4960796,0
1.8200000000000014,10.961900200081194,-1.3669884944862212,-0.4693384202781472,1.3086221464934944,16.057432,-2.2988105,-3.6852026,2.7952993,2.4427726,-2.9737613,2.009254,0.5522075,0.0048893797,0.20914212,0.80703247,-8.676947,11.241817,0.18600592,-0.4576544,-0.6629126,0.53595126,0
1.8300000000000014,10.961900200081194,-1.3669884944862212,-0.4693384202781472,1.3086221464934944,16.057432,-2.2988105,-3.6852026,2.7952993,2.356134,-2.8611617,2.011124,0.55065125,0.006617762,0.20519763,0.8090935,-8.65084,11.277926,0.18805982,-0.59945935,-0.63278896,0.5738664,0
1.8400000000000014,10.961900200081194,-1.3669884944862212,-0.4693384202781472,1.3086221464934944,16.640142,-2.793665,-3.736909,3.063338,2.2697546,-2.7482054,2.0130162,0.5489062,0.007912597,0.20079494,0.811369,-8.625024,11.313215,0.19048104,-0.7191502,-0.60736036,0.60992104,0
1.8500000000000014,10.961900200081194,-1.3669884944862212,-0.4693384202781472,1.3086221464934944,16.640142,-2.793665,-3.736909,3.063338,2.1836317,-2.6349006,2.0149348,0.54698205,0.008845361,0.19600208,0.81382704,-8.5996275,11.347662,0.19330026,-0.8201755,-0.5858943,0.6442065,0
1.8600000000000014,10.961900200081194,-1.3669884944862212,-0.4693384202781472,1.3086221464934944,16.640142,-2.793665,-3.736909,3.063338,2.0977602,-2.5212555,2.0168836,0.544887,0.009476021,0.19087659,0.81643945,-8.574758,11.381245,0.1965405,-0.9054463,-0.5677723,0.67680955,0
1.8700000000000014,10.961900200081194,-1.3669884944862212,-0.4693384202781472,1.3086221464934944,16.640142,-2.793665,-3.736909,3.063338,2.0121343,-2.407279,2.0188668,0.54262817,0.009854856,0.18546721,0.8191815,-8.550504,11.413944,0.20021811,-0.97741914,-0.5524732,0.7078128,0
1.8800000000000014,10.891616124603917,-2.1003161852194503,-0.27853445568970825,1.6704912133515981,16.506737,-3.019356,-3.7962382,3.0789773,1.9267476,-2.29298,2.0208893,0.54021174,0.010023992,0.1798152,0.8220318,-8.526938,11.445739,0.20434351,-1.0381677,-0.53955626,0.73729473,0
1.8900000000000015,10.891616124603917,-2.1003161852194503,-0.27853445568970825,1.6704912133515981,16.506737,-3.019356,-3.7962382,3.0789773,1.8415921,-2.1783686,2.022952,0.5375954,0.009805625,0.1737545,0.82504743,-8.504288,11.476408,0.2082674,-1.2038137,-0.4989652,0.7830869,0
1.9000000000000015,10.891616124603917,-2.1003161852194503,-0.27853445568970825,1.6704912133515981,16.506737,-3.019356,-3.7962382,3.0789773,1.7566586,-2.063455,2.0250564,0.5347388,0.009061797,0.1671534,0.8282698,-8.482543,11.506124,0.21266952,-1.343627,-0.4646984,0.8266321,0
1.9100000000000015,10.891616124603917,-2.1003161852194503,-0.27853445568970825,1.6704912133515981,16.506737,-3.019356,-3.7962382,3.0789773,1.6719375,-1.9482492,2.0272074,0.5316496,0.007878367,0.1600908,0.8316588,-8.461854,11.53485,0.21757115,-1.461636,-0.43576905,0.8680405,0
1.9200000000000015,10.816529779888958,-2.724105724253711,-0.13768513648393538,1.9688702527013906,16.925236,-3.4144,-3.746896,3.1824996,1.5874174,-1.8327613,2.0294096,0.52833456,0.00632737,0.15263368,0.83517915,-8.442348,11.56255,0.22298317,-1.5612409,-0.41134462,0.907417,0
1.9300000000000015,10.816529779888958,-2.724105724253711,-0.13768513648393538,1.9688702527013906,16.925236,-3.4144,-3.746896,3.1824996,1.5030853,-1.7170026,2.0316653,0.5247611,0.0042961324,0.14465946,0.8388562,-8.424264,11.589001,0.22819284,-1.7426015,-0.3688335,0.9595028,0
1.9400000000000015,10.816529779888958,-2.724105724253711,-0.13768513648393538,1.9688702527013906,16.925236,-3.4144,-3.746896,3.1824996,1.418927,-1.600985,2.0339756,0.52089614,0.0016993461,0.13607231,0.8427024,-8.407635,11.614338,0.23392393,-1.895678,-0.3329426,1.0090328,0
1.9500000000000015,10.816529779888958,-2.724105724253711,-0.13768513648393538,1.9688702527013906,16.925236,-3.4144,-3.746896,3.1824996,1.334927,-1.4847199,2.0363457,0.516745,-0.0013707178,0.12696145,0.8466713,-8.392619,11.638505,0.24017853,-2.0248816,-0.30263913,1.0561323,0
1.9600000000000015,10.80313516479762,-3.061404261374834,-0.07195819200750651,2.1170308382746867,16.799507,-3.5993156,-3.8815105,3.140619,1.2510685,-1.3682191,2.0387807,0.51231235,-0.004836605,0.117403045,0.8507221,-8.379352,11.661443,0.24694587,-2.1339347,-0.27705175,1.1009207,0
1.9700000000000015,10.80313516479762,-3.061404261374834,-0.07195819200750651,2.1170308382746867,16.799507,-3.5993156,-3.8815105,3.140619,1.1673334,-1.2514956,2.0412858,0.50758296,-0.008722468,0.10736055,0.85484266,-8.367962,11.683065,0.25407457,-2.2785878,-0.24524504,1.1507815,0
1.9800000000000015,10.80313516479762,-3.061404261374834,-0.07195819200750651,2.1170308382746867,16.799507,-3.5993156,-3.8815105,3.140619,1.0837024,-1.1345626,2.0438643,0.5025409,-0.013043647,0.096808165,0.8590166,-8.358567,11.703332,0.2616689,-2.400681,-0.21838647,1.1981956,0
1.9900000000000015,10.80313516479762,-3.061404261374834,-0.07195819200750651,2.1170308382746867,16.799507,-3.5993156,-3.8815105,3.140619,1.0001549,-1.017434,2.0465207,0.49719003,-0.017728483,0.08582106,0.8632041,-8.351285,11.722169,0.2696932,-2.5037324,-0.19570486,1.243283,0
2.0000000000000013,,,,,16.598263,-3.8334002,-3.9393618,3.3885975,0.91666913,-0.90012443,2.0492597,0.49153453,-0.022716748,0.07446384,0.8673706,-8.346214,11.739506,0.27810088,-2.5907114,-0.1765493,1.2861581,0
2.010000000000001,,,,,16.598263,-3.8334002,-3.9393618,3.3885975,0.8332233,-0.7826465,2.052103,0.48553973,-0.028078081,0.062681824,0.8715117,-8.343341,11.755836,0.2906429,-2.7255046,-0.13986965,1.3410369,0
2.020000000000001,,,,,16.598263,-3.8334002,-3.9393618,3.3885975,0.7497938,-0.6650136,2.0550733,0.4791717,-0.033864293,0.050434582,0.87561584,-8.342958,11.770456,0.3034599,-2.8392746,-0.10889571,1.3932227,0
2.0300000000000007,,,,,16.598263,-3.8334002,-3.9393618,3.3885975,0.66635525,-0.5472435,2.0581727,0.47243607,-0.040004756,0.03779353,0.8796445,-8.345175,11.783283,0.31647685,-2.9352999,-0.082738265,1.4428478,0
2.0400000000000005,,,,,16.598263,-3.8334002,-3.9393618,3.3885975,0.58288115,-0.42935437,2.061403,0.46533906,-0.046439927,0.024820479,0.88356423,-8.350069,11.794235,0.32960847,-3.016348,-0.060647026,1.4900378,0
2.0500000000000003,,,,,16.937195,-3.9728804,-4.106553,3.5080583,0.4993444,-0.3113655,2.0647647,0.45788732,-0.053119548,0.011569097,0.8873458,-8.3577,11.803233,0.34276107,-3.0847542,-0.041988604,1.5349121,1
2.06,,,,,16.937195,-3.9728804,-4.106553,3.5080583,0.41569167,-0.19327794,2.0685477,0.4499683,-0.058621585,-0.002817983,0.8911133,-8.373441,11.813706,0.4135064,-3.217302,-0.6709033,1.6312442,1
2.07,,,,,16.937195,-3.9728804,-4.106553,3.5080583,0.33186272,-0.075105235,2.073033,0.44143274,-0.061791968,-0.019052604,0.8949607,-8.3928995,11.820128,0.4835265,-3.3344944,-1.2070156,1.7233399,1
2.0799999999999996,,,,,16.937195,-3.9728804,-4.106553,3.5080583,0.24782239,0.043107633,2.0782175,0.43224436,-0.06297833,-0.036823444,0.8988,-8.415638,11.821607,0.55324996,-3.4334495,-1.6595037,1.8109165,1
2.0899999999999994,,,,,16.527998,-4.360835,-4.5923014,3.9754255,0.16354027,0.1613072,2.0840967,0.42237532,-0.062478833,-0.055860043,0.9025376,-8.441188,11.81736,0.6225196,-3.5170138,-2.0414093,1.8941958,1
2.099999999999999,,,,,16.527998,-4.360835,-4.5923014,3.9754255,0.07899386,0.27943403,2.0906453,0.41173065,-0.060440242,-0.07615008,0.90610427,-8.468422,11.806978,0.68709797,-3.6479557,-2.4396234,1.9963224,1
2.109999999999999,,,,,16.527998,-4.360835,-4.5923014,3.9754255,-0.00583457,0.39742312,2.0978353,0.40022084,-0.05699327,-0.09766588,0.9094149,-8.497519,11.789722,0.75076556,-3.758518,-2.775714,2.0934374,1
2.1199999999999988,,,,,16.527998,-4.360835,-4.5923014,3.9754255,-0.0909614,0.51520294,2.1056561,0.38783935,-0.052353323,-0.12017208,0.91235816,-8.528035,11.765043,0.813203,-3.8518794,-3.0593688,2.185787,1
2.1299999999999986,,,,,16.081102,-3.7635355,-4.658292,3.6845977,-0.1763986,0.63269705,2.1140938,0.37458798,-0.04670616,-0.14346568,0.9148327,-8.5595255,11.732511,0.87404335,-3.930722,-3.2987664,2.2736053,1
2.1399999999999983,,,,,16.081102,-3.7635355,-4.658292,3.6845977,-0.26214936,0.7498304,2.1231089,0.36051682,-0.04009496,-0.16716367,0.91677433,-8.590662,11.692912,0.9286436,-3.9041777,-3.5109205,2.3428433,1
2.149999999999998,,,,,16.081102,-3.7635355,-4.658292,3.6845977,-0.34821177,0.86652744,2.1326585,0.34568086,-0.032568544,-0.19095017,0.9181399,-8.621774,11.645227,0.980919,-3.8818135,-3.689985,2.4086835,1
2.159999999999998,,,,,16.081102,-3.7635355,-4.658292,3.6845977,-0.43458292,0.982707,2.1427178,0.330099,-0.024283675,-0.21475218,0.91887176,-8.652333,11.589414,1.0304848,-3.862975,-3.8411202,2.471293,1
2.1699999999999977,,,,,15.2855015,-3.32305,-4.254241,3.0328088,-0.5212548,1.0982878,2.1532576,0.31379482,-0.015375333,-0.2385048,0.9189182,-8.681836,11.525499,1.0769483,-3.8471086,-3.9686816,2.5308301,1
2.1799999999999975,,,,,15.2855015,-3.32305,-4.254241,3.0328088,-0.60820735,1.2132069,2.16421,0.2969135,-0.006034972,-0.2619407,0.91825473,-8.708419,11.457154,1.1129428,-3.7652445,-4.0131397,2.5554621,1
2.1899999999999973,,,,,15.2855015,-3.32305,-4.254241,3.0328088,-0.6954167,1.3274056,2.1755042,0.27959758,0.003579268,-0.28484985,0.91688144,-8.733122,11.38146,1.1453004,-3.69616,-4.050681,2.5788858,1
2.199999999999997,,,,,15.2855015,-3.32305,-4.254241,3.0328088,-0.782862,1.4408119,2.1871026,0.26187012,0.013405043,-0.30725497,0.9147881,-8.755559,11.298716,1.173728,-3.6378613,-4.082381,2.6011598,1
