time-since-start [s],throttle_mpc,roll_mpc,pitch_mpc,yaw_mpc,throttle_nw,roll_nw,pitch_nw,yaw_nw,position_x [m],position_y [m],position_z [m],rotation_w [quaternion],rotation_x [quaternion],rotation_y [quaternion],rotation_z [quaternion],velocity_x [m/s],velocity_y [m/s],velocity_z [m/s],omega_x [rad/s],omega_y [rad/s],omega_z [rad/s],network_used
0.0,7.4772936821716565,1.2480730571421292,-5.999999876189848,-0.5566767262643865,9.784131,0.43211192,-5.3026466,-0.1707414,12.650957,-9.632461,1.9267949,0.23032247,-0.19729881,0.26576498,0.9150922,-8.533484,3.2831693,0.084172994,0.484171,-0.29873988,0.170638,0
0.01,7.4772936821716565,1.2480730571421292,-5.999999876189848,-0.5566767262643865,11.277104,-0.23263125,-5.5810437,-0.16348332,12.565516,-9.599372,1.9274944,0.23095559,-0.19344376,0.2672821,0.9153137,-8.554435,3.334444,0.055367652,0.45854023,-1.0430291,0.14792044,0
0.02,7.4772936821716565,1.2480730571421292,-5.999999876189848,-0.5566767262643865,11.277104,-0.23263125,-5.5810437,-0.16348332,12.479874,-9.565778,1.9278952,0.23261668,-0.18641609,0.26792258,0.91616374,-8.573818,3.3840606,0.024497755,0.46744207,-1.70181,0.12358388,0
0.03,7.4772936821716565,1.2480730571421292,-5.999999876189848,-0.5566767262643865,11.277104,-0.23263125,-5.5810437,-0.16348332,12.394046,-9.531696,1.9279785,0.235227,-0.17653576,0.26790196,0.9174595,-8.59127,3.4319305,-0.008070052,0.5037202,-2.2866461,0.09786646,0
0.04,7.4772936821716565,1.2480730571421292,-5.999999876189848,-0.5566767262643865,11.197424,-0.049838904,-5.8095427,-0.46564555,12.308055,-9.497146,1.9277288,0.23870666,-0.16407795,0.26738945,0.9190214,-8.606494,3.4779985,-0.042059366,0.56147856,-2.8074405,0.070981726,0
0.05,7.4772936821716565,1.2480730571421292,-5.999999876189848,-0.5566767262643865,11.197424,-0.049838904,-5.8095427,-0.46564555,12.221924,-9.462144,1.9271331,0.24297555,-0.14928131,0.26651713,0.92067724,-8.6192465,3.5222287,-0.077271834,0.63587195,-3.2726831,0.043121,0
0.060000000000000005,7.4772936821716565,1.2480730571421292,-5.999999876189848,-0.5566767262643865,11.197424,-0.049838904,-5.8095427,-0.46564555,12.135679,-9.426709,1.9261795,0.2479543,-0.1323545,0.26538733,0.92226374,-8.629336,3.5645988,-0.1135729,0.722888,-3.6896179,0.014459077,0
0.07,7.4772936821716565,1.2480730571421292,-5.999999876189848,-0.5566767262643865,11.197424,-0.049838904,-5.8095427,-0.46564555,12.049347,-9.390857,1.9248624,0.25355136,-0.113514334,0.26405996,0.92363334,-8.636741,3.6058443,-0.14975105,0.80472,-4.0499344,-0.0135667175,0
0.08,9.171978981122864,0.8670319980149496,-5.999999891591588,-0.35305444809614345,11.129306,-0.13578115,-5.5645027,-0.24813287,11.962954,-9.354595,1.9231873,0.25964722,-0.09303612,0.26253232,0.92466444,-8.641301,3.6463087,-0.18514533,0.8737826,-4.354062,-0.040217277,0
0.09,9.171978981122864,0.8670319980149496,-5.999999891591588,-0.35305444809614345,11.129306,-0.13578115,-5.5645027,-0.24813287,11.876528,-9.317888,1.9212337,0.266096,-0.07120395,0.2606553,0.9253008,-8.643126,3.6948206,-0.20543513,0.8726771,-4.610754,-0.05556829,0
0.09999999999999999,9.171978981122864,0.8670319980149496,-5.999999891591588,-0.35305444809614345,11.129306,-0.13578115,-5.5645027,-0.24813287,11.790105,-9.280704,1.9190813,0.27277502,-0.04826125,0.2583109,0.9254944,-8.640966,3.7420113,-0.22492611,0.87174326,-4.8274145,-0.07016603,0
0.10999999999999999,9.171978981122864,0.8670319980149496,-5.999999891591588,-0.35305444809614345,11.129306,-0.13578115,-5.5645027,-0.24813287,11.703723,-9.243053,1.9167376,0.27961314,-0.024387037,0.2555322,0.925162,-8.634656,3.7876763,-0.24374342,0.87095493,-5.0102863,-0.084047444,0
0.11999999999999998,9.171978981122864,0.8670319980149496,-5.999999891591588,-0.35305444809614345,11.129306,-0.13578115,-5.5645027,-0.24813287,11.617427,-9.204955,1.9142082,0.28654805,0.0002626083,0.2523484,0.9242349,-8.624067,3.8316162,-0.26204398,0.8702904,-5.164639,-0.0972477,0
0.12999999999999998,13.264475260235304,0.13034517014997232,-5.999999840961651,0.18181378782805707,12.142787,-1.0111912,-5.595569,-0.19842695,11.531258,-9.166428,1.9114978,0.2935252,0.025550954,0.24878547,0.9226569,-8.609108,3.873636,-0.28001145,0.8697308,-5.2949204,-0.10980021,0
0.13999999999999999,13.264475260235304,0.13034517014997232,-5.999999840961651,0.18181378782805707,12.142787,-1.0111912,-5.595569,-0.19842695,11.445301,-9.1274,1.9087876,0.30044594,0.0512869,0.24459329,0.9204758,-8.58108,3.9313455,-0.26203105,0.7544664,-5.4048615,-0.09549062,0
0.15,13.264475260235304,0.13034517014997232,-5.999999840961651,0.18181378782805707,12.142787,-1.0111912,-5.595569,-0.19842695,11.359657,-9.087812,1.906257,0.3072293,0.07730793,0.23957567,0.9177346,-8.546681,3.9856565,-0.2441245,0.6571779,-5.497661,-0.08188322,0
0.16,15.916571435935058,-0.37949583977316964,-5.999999640597614,0.28797023703491864,12.885352,-1.1543455,-5.014421,-0.21627946,11.274389,-9.0477,1.9039041,0.31385288,0.103539884,0.23382762,0.9143851,-8.505985,4.0362344,-0.2265694,0.57506156,-5.575991,-0.06894353,0
0.17,15.916571435935058,-0.37949583977316964,-5.999999640597614,0.28797023703491864,12.885352,-1.1543455,-5.014421,-0.21627946,11.189605,-9.007054,1.9018387,0.32030636,0.1298548,0.2272434,0.9104403,-8.449727,4.0920725,-0.18666668,0.4262604,-5.642103,-0.051429663,0
0.18000000000000002,15.916571435935058,-0.37949583977316964,-5.999999640597614,0.28797023703491864,12.885352,-1.1543455,-5.014421,-0.21627946,11.105419,-8.965877,1.9001669,0.32658327,0.15614292,0.21974574,0.90591073,-8.386251,4.1426644,-0.14787734,0.3006631,-5.697909,-0.034775198,0
0.19000000000000003,15.916571435935058,-0.37949583977316964,-5.999999640597614,0.28797023703491864,12.885352,-1.1543455,-5.014421,-0.21627946,11.021903,-8.92422,1.898876,0.33266702,0.18236578,0.21144946,0.90075755,-8.315803,4.1876445,-0.11054808,0.19465098,-5.7450147,-0.018937973,0
0.20000000000000004,16.191024690885172,-0.6821442329970732,-5.999999375447829,0.47968694404129,11.794464,-1.7727573,-2.0979388,-0.49243715,10.939126,-8.882144,1.8979496,0.3385409,0.20848738,0.2024532,0.8949499,-8.238647,4.2266927,-0.07504629,0.105169445,-5.784777,-0.0038778845,0
0.21000000000000005,16.191024690885172,-0.6821442329970732,-5.999999375447829,0.47968694404129,11.794464,-1.7727573,-2.0979388,-0.49243715,10.85716,-8.8397045,1.8973788,0.34419343,0.23443733,0.19272877,0.88849604,-8.153635,4.2600956,-0.039484788,-0.01752155,-5.8183403,0.019850777,0
0.22000000000000006,16.191024690885172,-0.6821442329970732,-5.999999375447829,0.47968694404129,11.794464,-1.7727573,-2.0979388,-0.49243715,10.776074,-8.796965,1.8971508,0.34961358,0.2601542,0.18225959,0.88140297,-8.062442,4.2869024,-0.006538558,-0.12108263,-5.846673,0.042415075,0
0.23000000000000007,16.191024690885172,-0.6821442329970732,-5.999999375447829,0.47968694404129,11.794464,-1.7727573,-2.0979388,-0.49243715,10.695931,-8.75399,1.8972378,0.3547852,0.2856171,0.17114058,0.873648,-7.9654336,4.3068724,0.023418186,-0.2084971,-5.8705897,0.06387212,0
0.24000000000000007,16.191024690885172,-0.6821442329970732,-5.999999375447829,0.47968694404129,11.04652,-1.9989542,-0.06964734,-0.64594054,10.616784,-8.710852,1.8976076,0.35969275,0.31080508,0.15945373,0.8652141,-7.862993,4.319813,0.050002847,-0.28228307,-5.8907776,0.08427626,0
0.25000000000000006,16.191024690885172,-0.6821442329970732,-5.999999375447829,0.47968694404129,11.04652,-1.9989542,-0.06964734,-0.64594054,10.538688,-8.667619,1.8982247,0.36432153,0.33569694,0.14727026,0.85608906,-7.755515,4.325575,0.072828636,-0.34456557,-5.9078183,0.10367916,0
0.26000000000000006,16.191024690885172,-0.6821442329970732,-5.999999375447829,0.47968694404129,11.04652,-1.9989542,-0.06964734,-0.64594054,10.46169,-8.624364,1.8990498,0.36865783,0.36027157,0.13465226,0.8462649,-7.643409,4.324053,0.09150857,-0.39713863,-5.922202,0.122129954,0
0.2700000000000001,16.191024690885172,-0.6821442329970732,-5.999999375447829,0.47968694404129,11.04652,-1.9989542,-0.06964734,-0.64594054,10.385835,-8.5811615,1.9000392,0.37268904,0.38450783,0.12165417,0.83573717,-7.5270953,4.315181,0.105659045,-0.441516,-5.934343,0.13967538,0
0.2800000000000001,15.635992389829433,-0.9517328379296126,-4.970005185150998,0.5584588260938915,10.355893,-1.8649398,2.4987388,-0.50990593,10.311161,-8.538085,1.9011459,0.3764038,0.40838456,0.10832402,0.8245046,-7.407008,4.298933,0.11490312,-0.47897637,-5.9445906,0.15635985,0
0.2900000000000001,15.635992389829433,-0.9517328379296126,-4.970005185150998,0.5584588260938915,10.355893,-1.8649398,2.4987388,-0.50990593,10.237684,-8.495204,1.9023014,0.37978908,0.4315062,0.09476827,0.8127616,-7.2878366,4.276146,0.11539578,-0.5526433,-5.7926188,0.17609099,0
0.3000000000000001,15.635992389829433,-0.9517328379296126,-4.970005185150998,0.5584588260938915,10.355893,-1.8649398,2.4987388,-0.50990593,10.165413,-8.452586,1.9034358,0.38285366,0.45357424,0.08108049,0.80069923,-7.1659856,4.246404,0.110622145,-0.6148263,-5.664347,0.19485387,0
0.3100000000000001,15.635992389829433,-0.9517328379296126,-4.970005185150998,0.5584588260938915,10.355893,-1.8649398,2.4987388,-0.50990593,10.094371,-8.410298,1.9044954,0.38561517,0.474699,0.06728195,0.78831136,-7.041972,4.2098913,0.10044142,-0.6673157,-5.5560794,0.21269606,0
0.3200000000000001,13.859907943869059,-1.1041121493237454,0.36812798801580887,0.799855691254721,10.923437,-2.1087267,3.8245716,0.1629061,10.024578,-8.36841,1.9054255,0.3880864,0.49497157,0.053390864,0.775591,-6.916277,4.1667953,0.08471901,-0.7116224,-5.4646955,0.22966273,0
0.3300000000000001,13.859907943869059,-1.1041121493237454,0.36812798801580887,0.799855691254721,10.923437,-2.1087267,3.8245716,0.1629061,9.9559765,-8.326958,1.9061265,0.39019382,0.5128151,0.040193237,0.7636451,-6.8037963,4.1230116,0.0547127,-0.77288306,-4.5550933,0.2576423,0
0.34000000000000014,13.859907943869059,-1.1041121493237454,0.36812798801580887,0.799855691254721,10.923437,-2.1087267,3.8245716,0.1629061,9.888502,-8.285967,1.9065049,0.39196014,0.5270805,0.028320385,0.7534927,-6.6907654,4.074349,0.0203528,-0.82460046,-3.7873425,0.2842489,0
0.35000000000000014,13.859907943869059,-1.1041121493237454,0.36812798801580887,0.799855691254721,10.923437,-2.1087267,3.8245716,0.1629061,9.822161,-8.245484,1.9065211,0.3935029,0.53839314,0.017572723,0.74496937,-6.577603,4.021546,-0.01763186,-0.8682576,-3.1393216,0.30954987,0
0.36000000000000015,12.454029722445865,-1.2613344913081668,5.99999847443936,0.8667567808949455,10.731782,-2.740193,5.7070737,0.33688092,9.756948,-8.205548,1.906142,0.39490184,0.54726195,0.0077768527,0.73789996,-6.464606,3.965204,-0.05858829,-0.905108,-2.592358,0.3336093,0
0.37000000000000016,12.454029722445865,-1.2613344913081668,5.99999847443936,0.8667567808949455,10.731782,-2.740193,5.7070737,0.33688092,9.692831,-8.166173,1.9053245,0.39632574,0.5524763,-0.00053809816,0.73327726,-6.3594723,3.9098225,-0.10546633,-1.0109279,-1.3024278,0.35526046,0
0.38000000000000017,12.454029722445865,-1.2613344913081668,5.99999847443936,0.8667567808949455,10.731782,-2.740193,5.7070737,0.33688092,9.629745,-8.127353,1.9040235,0.39783767,0.5530617,-0.0067882617,0.7319848,-6.2582936,3.854286,-0.15493292,-1.0572364,-0.17064548,0.37971076,0
0.3900000000000002,12.454029722445865,-1.2613344913081668,5.99999847443936,0.8667567808949455,10.731782,-2.740193,5.7070737,0.33688092,9.567661,-8.08909,1.9022261,0.39938086,0.5497193,-0.011156829,0.7336068,-6.15843,3.797936,-0.20443213,-1.0893147,0.79163814,0.40361026,0
0.4000000000000002,9.708109371566213,-2.6183038302001904,5.999999843951053,-0.8717366421243804,9.049644,-3.3975172,6.082551,-0.49704447,9.506574,-8.051395,1.8999392,0.40094712,0.54304034,-0.013929482,0.73766816,-6.059438,3.7411425,-0.2526818,-1.1163775,1.6038555,0.426337,1
0.4100000000000002,9.708109371566213,-2.6183038302001904,5.999999843951053,-0.8717366421243804,9.049644,-3.3975172,6.082551,-0.49704447,9.44639,-8.014222,1.8971376,0.40286893,0.5335775,-0.01578894,0.74346626,-5.977832,3.6939254,-0.30752784,-1.3347661,2.151939,0.39334255,1
0.4200000000000002,9.708109371566213,-2.6183038302001904,5.999999843951053,-0.8717366421243804,9.049644,-3.3975172,6.082551,-0.49704447,9.387004,-7.977512,1.8937917,0.40547308,0.52164996,-0.017316867,0.7504483,-5.8998065,3.6485164,-0.36150682,-1.5528731,2.648374,0.358943,1
0.4300000000000002,9.708109371566213,-2.6183038302001904,5.999999843951053,-0.8717366421243804,9.049644,-3.3975172,6.082551,-0.49704447,9.328381,-7.9412456,1.8899119,0.40871865,0.50738466,-0.01860493,0.7583952,-5.825411,3.6049833,-0.41423535,-1.7689197,3.0993896,0.3233707,1
0.4400000000000002,9.708109371566213,-2.6183038302001904,5.999999843951053,-0.8717366421243804,8.369147,-3.370919,5.53938,-1.8953485,9.270484,-7.905405,1.8855124,0.4125534,0.49088895,-0.019728715,0.7670971,-5.754714,3.5633798,-0.4654229,-1.9815495,3.5103877,0.2868336,0
0.45000000000000023,9.708109371566213,-2.6183038302001904,5.999999843951053,-0.8717366421243804,8.369147,-3.370919,5.53938,-1.8953485,9.2133,-7.8699865,1.8806279,0.41679522,0.47240013,-0.02048422,0.7763374,-5.6826487,3.5207121,-0.5111229,-2.063225,3.8811443,0.23157257,0
0.46000000000000024,9.708109371566213,-2.6183038302001904,5.999999843951053,-0.8717366421243804,8.369147,-3.370919,5.53938,-1.8953485,9.156819,-7.834985,1.8752989,0.42128637,0.4521445,-0.020700464,0.7859097,-5.6138825,3.479795,-0.5541724,-2.1491718,4.2111216,0.17748146,0
0.47000000000000025,9.708109371566213,-2.6183038302001904,5.999999843951053,-0.8717366421243804,8.369147,-3.370919,5.53938,-1.8953485,9.101015,-7.8003864,1.8695573,0.42596087,0.43028,-0.020457964,0.7956113,-5.5475063,3.4401584,-0.5935685,-2.2222145,4.490162,0.12599601,0
0.48000000000000026,9.899028971152596,-3.042467540133494,5.999999891066028,-1.669180629266647,8.719412,-2.5426524,5.5000806,-1.9272765,9.045861,-7.766177,1.8634404,0.4307388,0.4069872,-0.01981523,0.805253,-5.4837584,3.4019992,-0.62919503,-2.283853,4.7256885,0.07703699,0
0.49000000000000027,9.899028971152596,-3.042467540133494,5.999999891066028,-1.669180629266647,8.719412,-2.5426524,5.5000806,-1.9272765,8.991354,-7.7323546,1.8570111,0.43562672,0.3825343,-0.018871596,0.81457984,-5.418487,3.3628705,-0.65622556,-2.348519,4.871147,-0.0038621984,0
0.5000000000000002,9.899028971152596,-3.042467540133494,5.999999891066028,-1.669180629266647,8.719412,-2.5426524,5.5000806,-1.9272765,8.937477,-7.69891,1.8503252,0.4406666,0.35707387,-0.01773098,0.8234053,-5.3576965,3.3263812,-0.6805758,-2.4220862,5.012919,-0.082489505,0
0.5100000000000002,9.899028971152596,-3.042467540133494,5.999999891066028,-1.669180629266647,8.719412,-2.5426524,5.5000806,-1.9272765,8.884185,-7.6658173,1.8434082,0.44583437,0.33059645,-0.016448038,0.831665,-5.301541,3.292622,-0.7024819,-2.5030415,5.151454,-0.15894517,0
0.5200000000000002,11.710935716945224,-2.2281768056603357,5.999999890177947,-0.7535656718973733,9.325649,-2.8091094,5.779634,-2.466819,8.83143,-7.633048,1.8362838,0.4510979,0.30310285,-0.015069399,0.8392924,-5.2499714,3.2615576,-0.72189707,-2.585947,5.2829676,-0.23296401,0
0.5300000000000002,11.710935716945224,-2.2281768056603357,5.999999890177947,-0.7535656718973733,9.325649,-2.8091094,5.779634,-2.466819,8.779216,-7.600604,1.8290563,0.45621088,0.27481398,-0.013376543,0.84626794,-5.1938214,3.227664,-0.72299594,-2.5300465,5.394822,-0.25851008,0
0.5400000000000003,11.710935716945224,-2.2281768056603357,5.999999890177947,-0.7535656718973733,9.325649,-2.8091094,5.779634,-2.466819,8.727537,-7.5684843,1.8218366,0.46095973,0.2459646,-0.011185412,0.85257953,-5.1426907,3.196839,-0.72036755,-2.482867,5.489231,-0.28280264,0
0.5500000000000003,11.710935716945224,-2.2281768056603357,5.999999890177947,-0.7535656718973733,9.325649,-2.8091094,5.779634,-2.466819,8.676344,-7.5366554,1.8146605,0.46534178,0.2166229,-0.0085699195,0.85817105,-5.0967574,3.1693292,-0.714333,-2.44305,5.5689144,-0.3059031,0
0.5600000000000003,13.962828918925966,-1.2547535750855126,5.999999857511998,0.18560836216083554,11.98906,-2.5624049,6.346022,-1.3014361,8.625584,-7.5050845,1.8075603,0.46935263,0.18685228,-0.005594464,0.8629963,-5.0561843,3.1453543,-0.7052433,-2.4094465,5.63617,-0.32787004,0
0.5700000000000003,13.962828918925966,-1.2547535750855126,5.999999857511998,0.18560836216083554,11.98906,-2.5624049,6.346022,-1.3014361,8.575236,-7.473755,1.80067,0.47281885,0.1568953,-0.0019995454,0.8670765,-5.0143533,3.1212304,-0.6723527,-2.229454,5.6928344,-0.3026735,0
0.5800000000000003,13.962828918925966,-1.2547535750855126,5.999999857511998,0.18560836216083554,11.98906,-2.5624049,6.346022,-1.3014361,8.525275,-7.4426436,1.7941226,0.47560555,0.12695642,0.002418834,0.8704453,-4.9790835,3.101857,-0.63676983,-2.0775304,5.7406745,-0.27871338,0
0.5900000000000003,13.962828918925966,-1.2547535750855126,5.999999857511998,0.18560836216083554,11.98906,-2.5624049,6.346022,-1.3014361,8.475634,-7.4117002,1.7879422,0.47775665,0.097040005,0.0075328676,0.8730834,-4.950348,3.087503,-0.59900737,-1.9492973,5.7810636,-0.255929,0
0.6000000000000003,16.0466199114541,-0.4967870153816968,5.999999706918219,0.7803249290165065,14.018135,-2.1104443,6.397394,-0.32659298,8.426247,-7.3808756,1.7821481,0.4793063,0.0671535,0.01323269,0.8749745,-4.9281178,3.0783877,-0.5595824,-1.84106,5.8151627,-0.23426263,0
0.6100000000000003,16.0466199114541,-0.4967870153816968,5.999999706918219,0.7803249290165065,14.018135,-2.1104443,6.397394,-0.32659298,8.377062,-7.3501177,1.7768577,0.48020026,0.037453864,0.019684825,0.8761376,-4.9099894,3.0741458,-0.49832332,-1.6316066,5.843902,-0.18447652,0
0.6200000000000003,16.0466199114541,-0.4967870153816968,5.999999706918219,0.7803249290165065,14.018135,-2.1104443,6.397394,-0.32659298,8.328023,-7.3193703,1.772184,0.48039958,0.00807117,0.027017143,0.8765962,-4.8991127,3.0763667,-0.43636465,-1.4548104,5.868179,-0.13713345,0
0.6300000000000003,16.0466199114541,-0.4967870153816968,5.999999706918219,0.7803249290165065,14.018135,-2.1104443,6.397394,-0.32659298,8.279057,-7.2885675,1.7681309,0.47994703,-0.021019991,0.03508927,0.8763433,-4.895295,3.085244,-0.37431267,-1.3055781,5.8886847,-0.092113495,0
0.6400000000000003,16.0466199114541,-0.4967870153816968,5.999999706918219,0.7803249290165065,15.375301,-0.7713463,6.232318,0.32834855,8.230093,-7.2576423,1.7646961,0.478876,-0.049837604,0.043780807,0.8753725,-4.898353,3.1009142,-0.31276563,-1.1796113,5.9060035,-0.049302686,1
0.6500000000000004,16.0466199114541,-0.4967870153816968,5.999999706918219,0.7803249290165065,15.375301,-0.7713463,6.232318,0.32834855,8.181068,-7.2265306,1.7618386,0.47725508,-0.07844827,0.05288906,0.8736567,-4.907709,3.122513,-0.25894713,-1.1160136,5.9206467,-0.030771233,1
0.6600000000000004,16.0466199114541,-0.4967870153816968,5.999999706918219,0.7803249290165065,15.375301,-0.7713463,6.232318,0.32834855,8.131918,-7.195169,1.7595115,0.47514132,-0.10690221,0.062244095,0.8711705,-4.9233685,3.1507027,-0.20673613,-1.0623308,5.933008,-0.013149135,1
0.6700000000000004,16.0466199114541,-0.4967870153816968,5.999999706918219,0.7803249290165065,15.375301,-0.7713463,6.232318,0.32834855,8.08258,-7.163493,1.7576963,0.47254384,-0.13518594,0.0717939,0.8679127,-4.945211,3.1854444,-0.15668358,-1.0170168,5.9434443,0.0036082515,1
0.6800000000000004,16.75562856886146,-0.24538677705032805,5.9999993436924015,0.898811985718201,16.89394,0.029402075,6.6304617,0.09849296,8.032992,-7.1314383,1.7563685,0.46947056,-0.1632841,0.08149306,0.8638833,-4.9731064,3.2266638,-0.10933231,-0.9787665,5.952254,0.019543352,1
0.6900000000000004,16.75562856886146,-0.24538677705032805,5.9999993436924015,0.898811985718201,16.89394,0.029402075,6.6304617,0.09849296,7.9830813,-7.0989156,1.7555689,0.4660086,-0.19103226,0.091573395,0.859044,-5.0102286,3.2789683,-0.051167827,-0.82155836,5.9596996,0.023417441,1
0.7000000000000004,16.75562856886146,-0.24538677705032805,5.9999993436924015,0.898811985718201,16.89394,0.029402075,6.6304617,0.09849296,7.9327674,-7.0658355,1.7553308,0.46224314,-0.21829826,0.10221166,0.8533637,-5.0535154,3.3382235,0.002875273,-0.688866,5.965985,0.027101422,1
0.7100000000000004,16.75562856886146,-0.24538677705032805,5.9999993436924015,0.898811985718201,16.89394,0.029402075,6.6304617,0.09849296,7.881991,-7.0321274,1.7556103,0.4581753,-0.24510808,0.11329592,0.8468536,-5.1026263,3.4043481,0.052247833,-0.5768661,5.97129,0.030604618,1
0.7200000000000004,16.587509004677912,-0.19984426185952744,5.999996989460501,0.852139646046499,18.11281,0.40483582,6.6491976,0.33752337,7.8306956,-6.9977245,1.756358,0.45380387,-0.27148005,0.12472993,0.8395252,-5.1572294,3.4772158,0.09641982,-0.48233196,5.975768,0.033935934,0
0.7300000000000004,16.587509004677912,-0.19984426185952744,5.999996989460501,0.852139646046499,18.11281,0.40483582,6.6491976,0.33752337,7.778834,-6.9625673,1.7575066,0.44902238,-0.29745558,0.1363797,0.83144414,-5.2159204,3.555214,0.13240379,-0.43843487,5.9795356,0.07408544,0
0.7400000000000004,16.587509004677912,-0.19984426185952744,5.999996989460501,0.852139646046499,18.11281,0.40483582,6.6491976,0.33752337,7.7263603,-6.926599,1.758985,0.4437321,-0.3230608,0.1481408,0.82267106,-5.2794104,3.639436,0.16229819,-0.4013758,5.9827185,0.11226478,0
0.7500000000000004,16.587509004677912,-0.19984426185952744,5.999996989460501,0.852139646046499,18.11281,0.40483582,6.6491976,0.33752337,7.673229,-6.8897586,1.76073,0.43794245,-0.34828442,0.15997557,0.8132109,-5.3474283,3.729612,0.1856422,-0.37008905,5.985407,0.14857066,0
0.7600000000000005,15.29814231698158,-0.28073385750044083,3.295678690077115,0.7954704264214467,17.883806,0.053067356,5.662068,0.687751,7.619397,-6.851988,1.7626737,0.43166292,-0.37311345,0.17185053,0.80306953,-5.4196978,3.825444,0.20199852,-0.34367442,5.987677,0.183095,0
0.7700000000000005,15.29814231698158,-0.28073385750044083,3.295678690077115,0.7954704264214467,17.883806,0.053067356,5.662068,0.687751,7.5648518,-6.813271,1.7647026,0.4250957,-0.39669162,0.18324625,0.7926853,-5.4899874,3.9187,0.20269011,-0.3339185,5.567856,0.21314444,0
0.7800000000000005,15.29814231698158,-0.28073385750044083,3.295678690077115,0.7954704264214467,17.883806,0.053067356,5.662068,0.687751,7.5095863,-6.773599,1.7667043,0.41845104,-0.41838312,0.19377153,0.7825002,-5.563512,4.016252,0.19665287,-0.32567266,5.2135057,0.24171934,0
0.7900000000000005,15.29814231698158,-0.28073385750044083,3.295678690077115,0.7954704264214467,17.883806,0.053067356,5.662068,0.687751,7.4535713,-6.732933,1.7686129,0.4117416,-0.4384695,0.20356977,0.7725104,-5.639883,4.117521,0.18405493,-0.31870475,4.914417,0.26889205,0
0.8000000000000005,13.71954756678525,-0.33882619479171644,-1.8518014646862622,0.7480302786490036,17.56855,-0.01790246,1.3909489,0.70204395,7.39678,-6.6912384,1.7703633,0.40497243,-0.45718557,0.21276024,0.7627001,-5.7187715,4.222011,0.16505982,-0.3128179,4.6619716,0.2947314,0
0.8100000000000005,13.71954756678525,-0.33882619479171644,-1.8518014646862622,0.7480302786490036,17.56855,-0.01790246,1.3909489,0.70204395,7.33923,-6.6485395,1.7718546,0.39859363,-0.4731866,0.2205984,0.75402486,-5.791495,4.318173,0.13241325,-0.31673273,3.6461465,0.31697494,0
0.8200000000000005,13.71954756678525,-0.33882619479171644,-1.8518014646862622,0.7480302786490036,17.56855,-0.01790246,1.3909489,0.70204395,7.280945,-6.6048694,1.7729956,0.39301652,-0.48548383,0.22653514,0.7473452,-5.865802,4.416141,0.09515447,-0.32004037,2.7887394,0.33812696,0
0.8300000000000005,13.71954756678525,-0.33882619479171644,-1.8518014646862622,0.7480302786490036,17.56855,-0.01790246,1.3909489,0.70204395,7.2219095,-6.5602126,1.7737453,0.38816693,-0.49471617,0.23091358,0.74246943,-5.941347,4.5153303,0.054291088,-0.3228385,2.0650449,0.35824105,0
0.8400000000000005,13.71954756678525,-0.33882619479171644,-1.8518014646862622,0.7480302786490036,15.602932,0.27224338,-3.8676717,0.572383,7.1621137,-6.5145593,1.7740722,0.38396126,-0.50140154,0.23401164,0.73919445,-6.017874,4.615299,0.01070794,-0.32520804,1.4542104,0.37736812,0
0.8500000000000005,13.71954756678525,-0.33882619479171644,-1.8518014646862622,0.7480302786490036,15.602932,0.27224338,-3.8676717,0.572383,7.101549,-6.4679046,1.7739528,0.38031477,-0.5059613,0.23605484,0.73732054,-6.095186,4.7157087,-0.034827445,-0.32721657,0.9386353,0.39555666,0
0.8600000000000005,13.71954756678525,-0.33882619479171644,-1.8518014646862622,0.7480302786490036,15.602932,0.27224338,-3.8676717,0.572383,7.0402083,-6.4202447,1.7733712,0.3771464,-0.5087396,0.23722675,0.73665977,-6.173133,4.816297,-0.081655025,-0.32892108,0.50346404,0.41285262,0
0.8700000000000006,13.71954756678525,-0.33882619479171644,-1.8518014646862622,0.7480302786490036,15.602932,0.27224338,-3.8676717,0.572383,6.978085,-6.3715787,1.7723172,0.37438118,-0.510019,0.23767725,0.73704034,-6.2515907,4.916857,-0.12921083,-0.33036885,0.13615772,0.4292999,0
0.8800000000000006,12.954604471474374,-0.3749762696020492,-5.999991740074139,0.6508064238429526,13.627508,-0.12542433,-5.273122,0.37197983,6.915175,-6.321908,1.770786,0.37195185,-0.51003224,0.23752905,0.7383079,-6.330459,5.01722,-0.17701538,-0.33159956,-0.17386714,0.44494006,1
0.8900000000000006,12.954604471474374,-0.3749762696020492,-5.999991740074139,0.6508064238429526,13.627508,-0.12542433,-5.273122,0.37197983,6.8514776,-6.271239,1.7687759,0.3702009,-0.5079385,0.23641375,0.7409845,-6.4090977,5.116556,-0.2249237,-0.29921848,-0.9690831,0.4413599,1
0.9000000000000006,12.954604471474374,-0.3749762696020492,-5.999991740074139,0.6508064238429526,13.627508,-0.12542433,-5.273122,0.37197983,6.786993,-6.219579,1.7662914,0.36939108,-0.5030668,0.23403771,0.74545294,-6.487814,5.215274,-0.2717482,-0.27192602,-1.6402869,0.43795544,1
0.9100000000000006,12.954604471474374,-0.3749762696020492,-5.999991740074139,0.6508064238429526,13.627508,-0.12542433,-5.273122,0.37197983,6.7217226,-6.166937,1.7633476,0.36935174,-0.49581364,0.23058869,0.7513832,-6.566359,5.3130927,-0.31662735,-0.24892235,-2.2068183,0.43471804,1
0.9200000000000006,11.993692946436303,-0.3833005776178026,-5.999999523375117,0.5305548727709646,12.193551,-0.0065663904,-5.869183,0.3021148,6.655668,-6.1133213,1.7599679,0.36993024,-0.4865037,0.22621915,0.758479,-6.644492,5.409752,-0.3588505,-0.2295327,-2.6850007,0.43163946,1
0.9300000000000006,11.993692946436303,-0.3833005776178026,-5.999999523375117,0.5305548727709646,12.193551,-0.0065663904,-5.869183,0.3021148,6.588876,-6.0587964,1.7561511,0.37107465,-0.47520736,0.22099732,0.7665777,-6.713815,5.4949746,-0.40404797,-0.19463487,-3.1815615,0.4252836,1
0.9400000000000006,11.993692946436303,-0.3833005776178026,-5.999999523375117,0.5305548727709646,12.193551,-0.0065663904,-5.869183,0.3021148,6.5213943,-6.0034266,1.7518986,0.3727282,-0.46198526,0.21497919,0.7755172,-6.782298,5.5786877,-0.44585165,-0.1652037,-3.6006858,0.41923967,1
0.9500000000000006,11.993692946436303,-0.3833005776178026,-5.999999523375117,0.5305548727709646,12.193551,-0.0065663904,-5.869183,0.3021148,6.4532337,-5.947228,1.747247,0.3747593,-0.44707268,0.20826322,0.78505266,-6.8496737,5.6606393,-0.48385924,-0.1403825,-3.9544494,0.41349232,1
0.9600000000000006,11.719043766020077,-0.389668951850595,-5.999999715769453,0.4479902377902376,12.583838,0.16211523,-5.998334,0.10463185,6.3844056,-5.8902206,1.7422355,0.37705445,-0.43066964,0.20093232,0.7949714,-6.9156756,5.7405753,-0.5177694,-0.119448744,-4.2530446,0.408027,1
0.9700000000000006,11.719043766020077,-0.389668951850595,-5.999999715769453,0.4479902377902376,12.583838,0.16211523,-5.998334,0.10463185,6.314915,-5.8324127,1.7369173,0.3795746,-0.4128857,0.19308087,0.8050888,-6.982092,5.820726,-0.5451758,-0.07551041,-4.525209,0.39313927,1
0.9800000000000006,11.719043766020077,-0.389668951850595,-5.999999715769453,0.4479902377902376,12.583838,0.16211523,-5.998334,0.10463185,6.2447705,-5.7738156,1.7313478,0.38228297,-0.39381897,0.18478756,0.81524205,-7.046509,5.8982763,-0.5679823,-0.038437776,-4.7549324,0.37898216,1
0.9900000000000007,11.719043766020077,-0.389668951850595,-5.999999715769453,0.4479902377902376,12.583838,0.16211523,-5.998334,0.10463185,6.1739926,-5.714457,1.7255735,0.38509306,-0.3736151,0.17609718,0.82529056,-7.1086226,5.9729686,-0.58611166,-0.007157141,-4.948832,0.36551973,1
1.0000000000000007,12.356989712390032,-0.38953405038797034,-5.999999703023271,0.32491196999161776,13.686877,0.1270933,-6.2486963,-0.1272736,6.1026073,-5.654367,1.7196416,0.38793153,-0.35240197,0.16704933,0.8351144,-7.1681385,6.0445485,-0.59955734,0.019237213,-5.112495,0.3527179,0
1.0100000000000007,12.356989712390032,-0.38953405038797034,-5.999999703023271,0.32491196999161776,13.686877,0.1270933,-6.2486963,-0.1272736,6.030645,-5.5935836,1.7135904,0.39063743,-0.33037347,0.15750346,0.84465855,-7.2237606,6.111527,-0.6099854,-0.04448341,-5.2509155,0.35135344,0
1.0200000000000007,12.356989712390032,-0.38953405038797034,-5.999999703023271,0.32491196999161776,13.686877,0.1270933,-6.2486963,-0.1272736,5.9581423,-5.5321484,1.7074572,0.39308205,-0.30769438,0.14735034,0.8538725,-7.276356,6.174903,-0.61598,-0.09827159,-5.3677464,0.35005596,0
1.0300000000000007,12.356989712390032,-0.38953405038797034,-5.999999703023271,0.32491196999161776,13.686877,0.1270933,-6.2486963,-0.1272736,5.8851295,-5.4700985,1.7012855,0.39525086,-0.28443238,0.1366664,0.8626686,-7.3257403,6.2343855,-0.6177002,-0.1436759,-5.466356,0.34882215,0
1.0400000000000007,12.356989712390032,-0.38953405038797034,-5.999999703023271,0.32491196999161776,13.75088,-0.07987325,-6.297849,0.06253412,5.8116393,-5.407475,1.6951171,0.3971309,-0.26064932,0.12551893,0.8709729,-7.371731,6.2897053,-0.6153488,-0.1820026,-5.5495853,0.34764886,0
1.0500000000000007,12.356989712390032,-0.38953405038797034,-5.999999703023271,0.32491196999161776,13.75088,-0.07987325,-6.297849,0.06253412,5.7377067,-5.3443193,1.6889917,0.39871082,-0.23640212,0.113967426,0.87872344,-7.414151,6.340615,-0.6091676,-0.21435528,-5.6198344,0.34653318,0
1.0600000000000007,12.356989712390032,-0.38953405038797034,-5.999999703023271,0.32491196999161776,13.75088,-0.07987325,-6.297849,0.06253412,5.6633687,-5.280678,1.6829461,0.39998078,-0.21174356,0.102064714,0.88586825,-7.452832,6.3868866,-0.59943265,-0.24166483,-5.679127,0.34547222,0
1.0700000000000007,12.356989712390032,-0.38953405038797034,-5.999999703023271,0.32491196999161776,13.75088,-0.07987325,-6.297849,0.06253412,5.588663,-5.216598,1.6770142,0.40093246,-0.1867227,0.0898579,0.8923638,-7.4876146,6.4283175,-0.58645046,-0.2647175,-5.729172,0.34446332,0
1.0800000000000007,13.594970087219679,-0.32046997269822763,-5.999999475275164,0.1588255950390316,14.372288,-0.07699825,-6.162536,0.23094577,5.51363,-5.152129,1.671227,0.4015586,-0.16138543,0.07738919,0.89817375,-7.518351,6.464727,-0.570554,-0.2841766,-5.771412,0.34350392,1
1.0900000000000007,13.594970087219679,-0.32046997269822763,-5.999999475275164,0.1588255950390316,14.372288,-0.07699825,-6.162536,0.23094577,5.438288,-5.0872955,1.6657065,0.40188286,-0.13572557,0.06480731,0.9032544,-7.549232,6.501055,-0.5330903,-0.25188008,-5.8070517,0.3379807,1
1.1000000000000008,13.594970087219679,-0.32046997269822763,-5.999999475275164,0.1588255950390316,14.372288,-0.07699825,-6.162536,0.23094577,5.3626633,-5.022129,1.6605738,0.40192187,-0.10974476,0.05223515,0.90757155,-7.575063,6.5312424,-0.493088,-0.22462064,-5.837135,0.33272845,1
1.1100000000000008,13.594970087219679,-0.32046997269822763,-5.999999475275164,0.1588255950390316,14.372288,-0.07699825,-6.162536,0.23094577,5.286805,-4.9566917,1.6558521,0.40166134,-0.08349548,0.039673656,0.9111106,-7.5956783,6.5552,-0.45100322,-0.20161249,-5.862528,0.32773393,1
1.1200000000000008,14.296688980313165,-0.14206199816550014,-5.9999989561986995,-0.0022709527292204264,15.357927,-0.009941068,-6.0532947,0.11223319,5.2107677,-4.8910465,1.6515594,0.40109006,-0.057026263,0.0271254,0.91385925,-7.6109357,6.5728602,-0.40730748,-0.18219274,-5.8839617,0.3229845,0
1.1300000000000008,14.296688980313165,-0.14206199816550014,-5.9999989561986995,-0.0022709527292204264,15.357927,-0.009941068,-6.0532947,0.11223319,5.1346054,-4.825257,1.647706,0.40022442,-0.030393388,0.0145690385,0.915797,-7.62067,6.584115,-0.36323664,-0.17599171,-5.9020543,0.3070241,0
1.1400000000000008,14.296688980313165,-0.14206199816550014,-5.9999989561986995,-0.0022709527292204264,15.357927,-0.009941068,-6.0532947,0.11223319,5.0583735,-4.759386,1.6442968,0.39908245,-0.0036474941,0.0019903863,0.9169055,-7.62488,6.5890255,-0.31853566,-0.17075594,-5.917326,0.29184687,0
1.1500000000000008,14.296688980313165,-0.14206199816550014,-5.9999989561986995,-0.0022709527292204264,15.357927,-0.009941068,-6.0532947,0.11223319,4.982127,-4.6934986,1.6413357,0.39765817,0.02317544,-0.010596242,0.9171796,-7.6235104,6.5875807,-0.27370226,-0.16633444,-5.9302163,0.27741444,0
1.1600000000000008,14.211003295311915,0.003525689258716336,-5.999996456618985,-0.1817476528790718,15.925682,0.22231068,-6.0044355,-0.12106922,4.9059224,-4.627657,1.6388215,0.39594674,0.05004113,-0.023176828,0.9166159,-7.616531,6.5797915,-0.22923817,-0.1626004,-5.941097,0.2636902,0
1.1700000000000008,14.211003295311915,0.003525689258716336,-5.999996456618985,-0.1817476528790718,15.925682,0.22231068,-6.0044355,-0.12106922,4.8298154,-4.5619245,1.6367437,0.3939613,0.07694035,-0.035683025,0.9152056,-7.6040063,6.5657806,-0.18649605,-0.13677621,-5.9502754,0.24183245,0
1.1800000000000008,14.211003295311915,0.003525689258716336,-5.999996456618985,-0.1817476528790718,15.925682,0.22231068,-6.0044355,-0.12106922,4.753862,-4.496363,1.6350869,0.39171344,0.10386055,-0.048057314,0.9129425,-7.585893,6.545575,-0.14512093,-0.114975646,-5.958024,0.22104725,0
1.1900000000000008,14.211003295311915,0.003525689258716336,-5.999996456618985,-0.1817476528790718,15.925682,0.22231068,-6.0044355,-0.12106922,4.6781163,-4.4310346,1.6338348,0.3891979,0.13076511,-0.06030079,0.9098293,-7.562211,6.5192733,-0.1056091,-0.09657121,-5.9645658,0.201282,0
1.2000000000000008,13.646993785566332,0.17559384175338752,-3.9696803649792187,-0.32680576230586145,15.648087,0.30951825,-4.727406,-0.33866623,4.6026363,-4.3659987,1.6329665,0.3864106,0.15761934,-0.07241266,0.9058694,-7.533004,6.486993,-0.0684516,-0.08103355,-5.970088,0.18248661,0
1.2100000000000009,13.646993785566332,0.17559384175338752,-3.9696803649792187,-0.32680576230586145,15.648087,0.30951825,-4.727406,-0.33866623,4.5274687,-4.301307,1.6324297,0.3834216,0.18368603,-0.084013574,0.9012153,-7.499747,6.450419,-0.039368935,-0.041142102,-5.65812,0.15749548,0
1.2200000000000009,13.646993785566332,0.17559384175338752,-3.9696803649792187,-0.32680576230586145,15.648087,0.30951825,-4.727406,-0.33866623,4.4526587,-4.2370076,1.6321689,0.38032112,0.20839298,-0.094809175,0.8960689,-7.461557,6.40865,-0.01330608,-0.0074530644,-5.3948054,0.13373068,0
1.2300000000000009,13.646993785566332,0.17559384175338752,-3.9696803649792187,-0.32680576230586145,15.648087,0.30951825,-4.727406,-0.33866623,4.378254,-4.1731505,1.6321526,0.37712926,0.23193277,-0.10491203,0.890491,-7.418742,6.362095,0.009504985,0.020997189,-5.172556,0.111132026,0
1.2400000000000009,13.646993785566332,0.17559384175338752,-3.9696803649792187,-0.32680576230586145,14.785244,0.31902087,-2.044151,-0.6956175,4.3042994,-4.1097813,1.6323472,0.37385944,0.25446782,-0.11441696,0.88452476,-7.3715806,6.311116,0.02886656,0.045022987,-4.9849668,0.08964229,0
1.2500000000000009,13.646993785566332,0.17559384175338752,-3.9696803649792187,-0.32680576230586145,14.785244,0.31902087,-2.044151,-0.6956175,4.2308364,-4.0469427,1.6327175,0.37052006,0.27613467,-0.12340368,0.8782005,-7.320323,6.2560368,0.044605892,0.06531172,-4.826633,0.069207065,0
1.260000000000001,13.646993785566332,0.17559384175338752,-3.9696803649792187,-0.32680576230586145,14.785244,0.31902087,-2.044151,-0.6956175,4.157906,-3.9846737,1.6332264,0.36711603,0.29704782,-0.13193911,0.8715392,-7.265198,6.197145,0.056568485,0.0824445,-4.692992,0.04977459,0
1.270000000000001,13.646993785566332,0.17559384175338752,-3.9696803649792187,-0.32680576230586145,14.785244,0.31902087,-2.044151,-0.6956175,4.085545,-3.9230118,1.6338354,0.36364976,0.31730288,-0.14007929,0.8645551,-7.2064185,6.1347027,0.06461342,0.09691221,-4.580193,0.03129568,0
1.280000000000001,12.67413019041468,0.3666562184434176,0.6005915972262058,-0.4404248836387939,13.530707,0.57787746,1.7733887,-0.7816618,4.0137897,-3.8619912,1.6345048,0.3601219,0.3369796,-0.1478711,0.8572579,-7.144181,6.0689473,0.06860994,0.10912914,-4.4849844,0.013723531,0
1.290000000000001,12.67413019041468,0.3666562184434176,0.6005915972262058,-0.4404248836387939,13.530707,0.57787746,1.7733887,-0.7816618,3.9426496,-3.801619,1.6351583,0.35680187,0.35461918,-0.15463093,0.8503099,-7.0833883,6.005062,0.061527178,0.1492291,-3.6918936,-0.0085616615,0
1.300000000000001,12.67413019041468,0.3666562184434176,0.6005915972262058,-0.4404248836387939,13.530707,0.57787746,1.7733887,-0.7816618,3.8721306,-3.7418976,1.6357236,0.35394856,0.36911634,-0.15983997,0.8443487,-7.0200744,5.938898,0.051037397,0.18309821,-3.0224857,-0.029753314,0
1.310000000000001,12.67413019041468,0.3666562184434176,0.6005915972262058,-0.4404248836387939,13.530707,0.57787746,1.7733887,-0.7816618,3.8022552,-3.6828465,1.6361691,0.35153428,0.38099912,-0.16375205,0.83931434,-6.9547086,5.8709908,0.037661914,0.21170224,-2.4574718,-0.049905084,0
1.320000000000001,12.0667930077563,0.5558774309562917,5.999659774458213,-0.536526764740253,12.510015,0.53842443,5.6911697,-0.89823174,3.733042,-3.624482,1.6364685,0.34952325,0.3907038,-0.16657716,0.83512634,-6.8876634,5.801768,0.021877117,0.2358577,-1.9805722,-0.06906801,1
1.330000000000001,12.0667930077563,0.5558774309562917,5.999659774458213,-0.536526764740253,12.510015,0.53842443,5.6911697,-0.89823174,3.6645188,-3.566827,1.6366146,0.34813517,0.39712352,-0.16762525,0.83246404,-6.817163,5.729463,0.006679706,0.3403836,-0.84149146,-0.104594655,1
1.340000000000001,12.0667930077563,0.5558774309562917,5.999659774458213,-0.536526764740253,12.510015,0.53842443,5.6911697,-0.89823174,3.5966938,-3.5098853,1.6365895,0.3476416,0.3992338,-0.16642638,0.83190125,-6.7480683,5.659199,-0.012141509,0.38514727,0.16345249,-0.14227098,1
1.350000000000001,12.0667930077563,0.5558774309562917,5.999659774458213,-0.536526764740253,12.510015,0.53842443,5.6911697,-0.89823174,3.529556,-3.4536397,1.6363695,0.34801817,0.39753556,-0.16339765,0.83315647,-6.6794043,5.5900526,-0.03179467,0.40915424,1.0254849,-0.17936619,1
1.360000000000001,11.650385707495968,0.6384014800514977,5.999999277936648,-0.5283211555910834,11.920624,0.6333944,6.540619,-0.63703436,3.4631047,-3.3980815,1.6359568,0.34913778,0.39258826,-0.1588195,0.8359147,-6.6108847,5.521778,-0.05056318,0.4294383,1.753084,-0.21464114,1
1.370000000000001,11.650385707495968,0.6384014800514977,5.999999277936648,-0.5283211555910834,11.920624,0.6333944,6.540619,-0.63703436,3.39732,-3.3431838,1.6353447,0.35084426,0.38477486,-0.15285152,0.83993614,-6.5461197,5.4579906,-0.071550734,0.46136972,2.4153776,-0.23536809,1
1.380000000000001,11.650385707495968,0.6384014800514977,5.999999277936648,-0.5283211555910834,11.920624,0.6333944,6.540619,-0.63703436,3.332179,-3.2889156,1.6345329,0.3529913,0.37441102,-0.14562926,0.84498835,-6.482238,5.3958964,-0.09044985,0.48832044,2.9743874,-0.25507796,1
1.390000000000001,11.650385707495968,0.6384014800514977,5.999999277936648,-0.5283211555910834,11.920624,0.6333944,6.540619,-0.63703436,3.267671,-3.2352586,1.6335444,0.35546717,0.36184695,-0.13732554,0.85079443,-6.419572,5.335892,-0.10680918,0.5110649,3.44622,-0.27382067,1
1.400000000000001,11.611329564353781,0.7160732091776688,5.999999536176304,-0.4355734544729486,11.697543,0.7771563,5.6324444,-0.79121584,3.2037826,-3.1821892,1.6324066,0.3581729,0.3473763,-0.12808666,0.85710865,-6.3584313,5.2783504,-0.1202951,0.53025734,3.844471,-0.29164368,1
1.410000000000001,11.611329564353781,0.7160732091776688,5.999999536176304,-0.4355734544729486,11.697543,0.7771563,5.6324444,-0.79121584,3.1404908,-3.1296766,1.631141,0.36100093,0.33139747,-0.11803471,0.8636675,-6.3002152,5.2246423,-0.1323262,0.56887954,4.123288,-0.31615785,1
1.420000000000001,11.611329564353781,0.7160732091776688,5.999999536176304,-0.4355734544729486,11.697543,0.7771563,5.6324444,-0.79121584,3.0777712,-3.0776858,1.6297709,0.36386785,0.31424546,-0.10727563,0.8702538,-6.2440114,5.1739993,-0.14122017,0.60147464,4.3586245,-0.3394691,1
1.430000000000001,11.611329564353781,0.7160732091776688,5.999999536176304,-0.4355734544729486,11.697543,0.7771563,5.6324444,-0.79121584,3.0156028,-3.026185,1.6283275,0.3667259,0.29606572,-0.09590452,0.8767322,-6.190029,5.1267066,-0.1469597,0.62898165,4.5572605,-0.36163643,1
1.440000000000001,11.611329564353781,0.7160732091776688,5.999999536176304,-0.4355734544729486,10.795063,0.7306177,5.879598,-0.6225314,2.9539623,-2.9751394,1.6268424,0.36953405,0.27698454,-0.0840046,0.8829876,-6.1384697,5.08303,-0.14958788,0.65219367,4.7249203,-0.382716,1
1.450000000000001,11.611329564353781,0.7160732091776688,5.999999536176304,-0.4355734544729486,10.795063,0.7306177,5.879598,-0.6225314,2.8928053,-2.9244957,1.6253083,0.37225088,0.25701582,-0.07163449,0.8889547,-6.093302,5.0462904,-0.1567966,0.6645064,4.9049835,-0.39448383,1
1.460000000000001,11.611329564353781,0.7160732091776688,5.999999536176304,-0.4355734544729486,10.795063,0.7306177,5.879598,-0.6225314,2.8320873,-2.8742006,1.6237155,0.3748345,0.23617807,-0.05884704,0.89457023,-6.050736,5.013342,-0.16133602,0.67489225,5.0569663,-0.4056742,1
1.470000000000001,11.611329564353781,0.7160732091776688,5.999999536176304,-0.4355734544729486,10.795063,0.7306177,5.879598,-0.6225314,2.771781,-2.8242152,1.6220901,0.37725168,0.2145818,-0.045703582,0.8997482,-6.010954,4.984394,-0.16336106,0.68365246,5.185248,-0.41631544,1
1.480000000000001,12.393042939519718,0.6119518901350434,5.999999451615823,-0.4160720031580448,11.452159,0.57662535,6.4489613,-0.40253845,2.7118578,-2.7744982,1.6204562,0.37947458,0.19232486,-0.032258842,0.9044166,-5.9741244,4.9596376,-0.16306636,0.6910408,5.293525,-0.4264345,1
1.490000000000001,12.393042939519718,0.6119518901350434,5.999999451615823,-0.4160720031580448,11.452159,0.57662535,6.4489613,-0.40253845,2.652298,-2.7250137,1.6188663,0.38146773,0.16942635,-0.018604454,0.9085322,-5.938351,4.937999,-0.15456304,0.6732242,5.403705,-0.4252619,1
1.500000000000001,12.393042939519718,0.6119518901350434,5.999999451615823,-0.4160720031580448,11.452159,0.57662535,6.4489613,-0.40253845,2.5930789,-2.6757216,1.6173716,0.38319483,0.14590994,-0.0048183966,0.91205734,-5.906048,4.9211373,-0.14410752,0.6581814,5.4967012,-0.42414686,1
1.5100000000000011,12.393042939519718,0.6119518901350434,5.999999451615823,-0.4160720031580448,11.452159,0.57662535,6.4489613,-0.40253845,2.534165,-2.6265738,1.6159899,0.38463417,0.121864624,0.009071296,0.91494435,-5.877374,4.9091825,-0.1319943,0.64548063,5.575194,-0.42308655,1
1.5200000000000011,13.512274914143735,0.4198167389836215,5.999998923217395,-0.38027452833020337,12.211566,0.3608843,6.7056165,-0.24278183,2.475519,-2.5775208,1.6147364,0.38576832,0.097370215,0.023038523,0.9171538,-5.852471,4.9022427,-0.11854353,0.6347572,5.641445,-0.42207825,0
1.5300000000000011,13.512274914143735,0.4198167389836215,5.999998923217395,-0.38027452833020337,12.211566,0.3608843,6.7056165,-0.24278183,2.4171216,-2.528514,1.6137239,0.3865866,0.0724745,0.037001044,0.9186561,-5.8276787,4.900069,-0.08384997,0.6012452,5.6973715,-0.42002693,0
1.5400000000000011,13.512274914143735,0.4198167389836215,5.999998923217395,-0.38027452833020337,12.211566,0.3608843,6.7056165,-0.24278183,2.358949,-2.4794984,1.6130623,0.38707873,0.047223583,0.050890133,0.9194292,-5.8076124,4.903965,-0.048400015,0.5729573,5.7445745,-0.41807628,0
1.5500000000000012,13.512274914143735,0.4198167389836215,5.999998923217395,-0.38027452833020337,12.211566,0.3608843,6.7056165,-0.24278183,2.3009527,-2.4304137,1.6127571,0.38723326,0.021683697,0.06470054,0.9194531,-5.7923856,4.913958,-0.01262825,0.54907894,5.784415,-0.41622135,0
1.5600000000000012,13.917883561099108,0.23965946488194678,5.999997457414714,-0.27911549012208464,12.763891,0.0650912,6.470178,-0.25113088,2.2430842,-2.3811984,1.6128093,0.3870417,-0.0040849545,0.07842582,0.9187118,-5.782086,4.9300513,0.023018647,0.52892303,5.818041,-0.4144574,0
1.5700000000000012,13.917883561099108,0.23965946488194678,5.999997457414714,-0.27911549012208464,12.763891,0.0650912,6.470178,-0.25113088,2.1852946,-2.3317885,1.6132355,0.3864857,-0.03005425,0.09199249,0.9172038,-5.7766194,4.952887,0.062083505,0.48379496,5.8464317,-0.40781614,0
1.5800000000000012,13.917883561099108,0.23965946488194678,5.999997457414714,-0.27911549012208464,12.763891,0.0650912,6.470178,-0.25113088,2.127534,-2.2821193,1.6140474,0.3855479,-0.056194548,0.10534069,0.9149307,-5.7763543,4.9819164,0.100081794,0.4457043,5.8703923,-0.40150076,0
1.5900000000000012,13.917883561099108,0.23965946488194678,5.999997457414714,-0.27911549012208464,12.763891,0.0650912,6.470178,-0.25113088,2.0697496,-2.2321293,1.615232,0.38422507,-0.082451046,0.11848111,0.9118854,-5.781329,5.017047,0.13654254,0.413554,5.8906145,-0.39549527,0
1.6000000000000012,13.489840341791222,0.05643823595878751,4.150954891504906,-0.19195807758983535,13.285718,-0.15371136,6.393634,-0.14043015,2.0118892,-2.181758,1.6167715,0.3825161,-0.1087735,0.13142107,0.9080628,-5.791554,5.058166,0.17099507,0.38641784,5.907681,-0.3897845,0
1.6100000000000012,13.489840341791222,0.05643823595878751,4.150954891504906,-0.19195807758983535,13.285718,-0.15371136,6.393634,-0.14043015,1.9539028,-2.130953,1.6186234,0.38050893,-0.13447317,0.14381915,0.9035739,-5.806511,5.1036634,0.1989867,0.33485237,5.6337357,-0.3800771,0
1.6200000000000012,13.489840341791222,0.05643823595878751,4.150954891504906,-0.19195807758983535,13.285718,-0.15371136,6.393634,-0.14043015,1.8957424,-2.0796664,1.6207418,0.37830317,-0.15901023,0.1554147,0.8985814,-5.826299,5.154449,0.22426596,0.29134396,5.402509,-0.370846,0
1.6300000000000012,13.489840341791222,0.05643823595878751,4.150954891504906,-0.19195807758983535,13.285718,-0.15371136,6.393634,-0.14043015,1.837361,-2.027847,1.6230986,0.3759116,-0.18254335,0.16632089,0.8931436,-5.850666,5.2101393,0.24657522,0.25463355,5.2073402,-0.36206794,0
1.6400000000000012,13.489840341791222,0.05643823595878751,4.150954891504906,-0.19195807758983535,12.269104,-0.15175891,4.908974,-0.15554759,1.7787142,-1.9754479,1.6256624,0.37334308,-0.20520636,0.17663296,0.8873025,-5.879381,5.2703905,0.26568878,0.22365877,5.0426064,-0.35372058,0
1.6500000000000012,13.489840341791222,0.05643823595878751,4.150954891504906,-0.19195807758983535,12.269104,-0.15175891,4.908974,-0.15554759,1.7197592,-1.9224247,1.6284007,0.3706037,-0.22711161,0.18643089,0.8810882,-5.912234,5.3348937,0.2814048,0.19752339,4.9035606,-0.34578285,0
1.6600000000000013,13.489840341791222,0.05643823595878751,4.150954891504906,-0.19195807758983535,12.269104,-0.15175891,4.908974,-0.15554759,1.660456,-1.8687363,1.6312783,0.3676976,-0.24835318,0.19578178,0.8745218,-5.9490304,5.4033666,0.29353967,0.17547137,4.786198,-0.3382346,0
1.6700000000000013,13.489840341791222,0.05643823595878751,4.150954891504906,-0.19195807758983535,12.269104,-0.15175891,4.908974,-0.15554759,1.6007657,-1.8143445,1.6342587,0.36462763,-0.26900953,0.2047417,0.8676181,-5.9895887,5.4755507,0.3019237,0.15686445,4.687137,-0.33105677,0
1.6800000000000013,12.87449418657793,-0.06675985772966676,0.05495987269539945,-0.13300262402867294,11.308097,-0.38145,1.8076025,-0.22991766,1.5406519,-1.7592132,1.6373035,0.36139587,-0.28914586,0.2133574,0.8603872,-6.0337377,5.5512066,0.30639833,0.14116435,4.6035237,-0.32423115,0
1.6900000000000013,12.87449418657793,-0.06675985772966676,0.05495987269539945,-0.13300262402867294,11.308097,-0.38145,1.8076025,-0.22991766,1.4800901,-1.7033271,1.6403505,0.35834572,-0.30743322,0.22104202,0.85335416,-6.0790935,5.626464,0.30238387,0.10856486,3.894185,-0.3148475,0
1.7000000000000013,12.87449418657793,-0.06675985772966676,0.05495987269539945,-0.13300262402867294,11.308097,-0.38145,1.8076025,-0.22991766,1.4190607,-1.6466752,1.6433393,0.35579252,-0.32286096,0.2273581,0.8470422,-6.127199,5.704273,0.29486576,0.0810811,3.2954662,-0.30592433,0
1.7100000000000013,12.87449418657793,-0.06675985772966676,0.05495987269539945,-0.13300262402867294,11.308097,-0.38145,1.8076025,-0.22991766,1.3575385,-1.5892346,1.6462371,0.35368872,-0.33590138,0.23253825,0.8414275,-6.177571,5.784146,0.28427002,0.057909153,2.7901158,-0.29743898,0
1.7200000000000013,12.317996025758646,-0.1232300512263855,-5.141230236110186,-0.07979068918197356,11.026716,0.076001436,-4.2300854,-0.15568453,1.2955029,-1.5309865,1.6490153,0.35198408,-0.3469469,0.23677412,0.8364645,-6.2298183,5.8656926,0.27099118,0.03837196,2.3635738,-0.28937006,0
1.7300000000000013,12.317996025758646,-0.1232300512263855,-5.141230236110186,-0.07979068918197356,11.026716,0.076001436,-4.2300854,-0.15568453,1.2329478,-1.471933,1.6516322,0.35111654,-0.35460255,0.23948881,0.832838,-6.2813187,5.9450884,0.25202468,0.014732204,1.1949989,-0.27925348,0
1.7400000000000013,12.317996025758646,-0.1232300512263855,-5.141230236110186,-0.07979068918197356,11.026716,0.076001436,-4.2300854,-0.15568453,1.1698738,-1.4120824,1.6540513,0.35143876,-0.35778704,0.24022248,0.83112705,-6.333563,6.0250726,0.23168218,-0.0069641788,0.20687135,-0.2694658,0
1.7500000000000013,12.317996025758646,-0.1232300512263855,-5.141230236110186,-0.07979068918197356,11.026716,0.076001436,-4.2300854,-0.15568453,1.1062759,-1.3514309,1.6562649,0.35277462,-0.35721442,0.23929115,0.83107615,-6.3860164,6.105224,0.21102616,-0.025238765,-0.627159,-0.26015842,0
1.7600000000000013,12.411043064749817,-0.13965886098668653,-5.999998148324553,-0.014736431662939567,11.364408,-0.04139931,-5.7244897,-0.12185758,1.0421546,-1.2899789,1.6582737,0.3549557,-0.35346702,0.23694949,0.83241963,-6.4381747,6.1850915,0.19086139,-0.040632136,-1.3311236,-0.25130773,0
1.7700000000000014,12.411043064749817,-0.13965886098668653,-5.999998148324553,-0.014736431662939567,11.364408,-0.04139931,-5.7244897,-0.12185758,0.977513,-1.2277282,1.6600893,0.35789764,-0.34673575,0.23327827,0.8350239,-6.4899874,6.264872,0.17247091,-0.05617916,-2.0592299,-0.23969914,0
1.7800000000000014,12.411043064749817,-0.13965886098668653,-5.999998148324553,-0.014736431662939567,11.364408,-0.04139931,-5.7244897,-0.12185758,0.9123588,-1.1646851,1.6617296,0.36151007,-0.33718276,0.22834328,0.8387357,-6.540624,6.3435483,0.15591049,-0.0692746,-2.673789,-0.22866015,0
1.7900000000000014,12.411043064749817,-0.13965886098668653,-5.999998148324553,-0.014736431662939567,11.364408,-0.04139931,-5.7244897,-0.12185758,0.8467059,-1.1008624,1.6632158,0.36563745,-0.32520777,0.2223131,0.8432829,-6.589681,6.4207196,0.14171824,-0.08030647,-3.1925085,-0.21816285,0
1.8000000000000014,12.600619289868947,-0.10551877110503967,-5.999998894782042,0.054810767615751585,11.628951,-0.55052006,-5.9045167,0.5058505,0.7805719,-1.036277,1.6645737,0.3701422,-0.31114504,0.21532783,0.8484205,-6.6367946,6.4960046,0.13030455,-0.089601025,-3.6303344,-0.20818064,1
1.8100000000000014,12.600619289868947,-0.10551877110503967,-5.999998894782042,0.054810767615751585,11.628951,-0.55052006,-5.9045167,0.5058505,0.71399206,-0.9709731,1.6658044,0.37479094,-0.29535663,0.20739958,0.85397977,-6.6788177,6.564432,0.11630844,-0.16143875,-3.9849858,-0.17314294,1
1.8200000000000014,12.600619289868947,-0.10551877110503967,-5.999998894782042,0.054810767615751585,11.628951,-0.55052006,-5.9045167,0.5058505,0.6470036,-0.90499693,1.6669103,0.3793855,-0.2781464,0.1985461,0.8598143,-6.7184877,6.6303887,0.10537224,-0.22205666,-4.284333,-0.13982452,1
1.8300000000000014,12.600619289868947,-0.10551877110503967,-5.999998894782042,0.054810767615751585,11.628951,-0.55052006,-5.9045167,0.5058505,0.57963103,-0.83837503,1.6679226,0.3838618,-0.25969818,0.18888472,0.86575365,-6.7556024,6.6935253,0.0975908,-0.27320996,-4.537,-0.10814107,1
1.8400000000000014,12.600619289868947,-0.10551877110503967,-5.999998894782042,0.054810767615751585,12.0100765,0.0074648187,-6.1387296,0.15450355,0.5119009,-0.77113724,1.668873,0.38816476,-0.24017122,0.17851646,0.8716523,-6.7899737,6.7535133,0.09298438,-0.3163783,-4.750267,-0.078012325,1
1.8500000000000014,12.600619289868947,-0.10551877110503967,-5.999998894782042,0.054810767615751585,12.0100765,0.0074648187,-6.1387296,0.15450355,0.44383633,-0.7033073,1.6698087,0.39234406,-0.21959157,0.1676987,0.87733847,-6.8224463,6.811901,0.094673835,-0.26584837,-4.9451666,-0.0666027,1
1.8600000000000014,12.600619289868947,-0.10551877110503967,-5.999998894782042,0.054810767615751585,12.0100765,0.0074648187,-6.1387296,0.15450355,0.37546316,-0.6349124,1.6707772,0.39643586,-0.19799072,0.15664275,0.8826672,-6.851657,6.866466,0.099485576,-0.22319652,-5.1096706,-0.05575295,1
1.8700000000000014,12.600619289868947,-0.10551877110503967,-5.999998894782042,0.054810767615751585,12.0100765,0.0074648187,-6.1387296,0.15450355,0.30681518,-0.56599194,1.6718087,0.40037957,-0.17550685,0.14536823,0.8875594,-6.8773746,6.916975,0.10725647,-0.18719472,-5.24852,-0.0454356,1
1.8800000000000014,13.179660285277489,0.030434188730899474,-5.999998655450409,0.11491398214869038,13.481602,0.1933561,-6.1817236,0.107253514,0.23792838,-0.4965876,1.6729318,0.40412486,-0.15226182,0.13389376,0.89194846,-6.899395,6.96321,0.11777725,-0.1568068,-5.3657146,-0.035624523,1
1.8900000000000015,13.179660285277489,0.030434188730899474,-5.999998655450409,0.11491398214869038,13.481602,0.1933561,-6.1817236,0.107253514,0.16882913,-0.42671713,1.6742406,0.4076462,-0.12833433,0.122302696,0.89576626,-6.9197607,7.0100865,0.14441311,-0.102176294,-5.4646325,-0.028613457,1
1.9000000000000015,13.179660285277489,0.030434188730899474,-5.999998655450409,0.11491398214869038,13.481602,0.1933561,-6.1817236,0.107253514,0.0995488,-0.3564038,1.6758286,0.4109208,-0.10379706,0.11066441,0.89895713,-6.9355807,7.051749,0.17353338,-0.056065597,-5.548124,-0.02194642,1
1.9100000000000015,13.179660285277489,0.030434188730899474,-5.999998655450409,0.11491398214869038,13.481602,0.1933561,-6.1817236,0.107253514,0.030133715,-0.28570065,1.6777186,0.41391486,-0.07874415,0.09897728,0.90148634,-6.9466877,7.088031,0.20478262,-0.017146232,-5.618594,-0.015606547,1
1.9200000000000015,13.428275705946072,0.17988306159845255,-5.999997241265849,0.14966174118369976,14.67943,0.25027457,-5.982186,0.23171522,-0.039368283,-0.21466218,1.6799304,0.41660088,-0.053259894,0.08724176,0.9033251,-6.9529443,7.1187816,0.23777828,0.015703164,-5.678075,-0.009577772,0
1.9300000000000015,13.428275705946072,0.17988306159845255,-5.999997241265849,0.14966174118369976,14.67943,0.25027457,-5.982186,0.23171522,-0.1089081,-0.14334495,1.6824764,0.4189518,-0.027421992,0.07545546,0.90445244,-6.954239,7.143773,0.2715913,0.04133583,-5.7282786,-0.0017638538,0
1.9400000000000015,13.428275705946072,0.17988306159845255,-5.999997241265849,0.14966174118369976,14.67943,0.25027457,-5.982186,0.23171522,-0.17843583,-0.07180648,1.6853653,0.42094547,-0.0013005692,0.06361824,0.90485156,-6.950521,7.163016,0.3063186,0.06297019,-5.770653,0.0056666424,0
1.9500000000000015,13.428275705946072,0.17988306159845255,-5.999997241265849,0.14966174118369976,14.67943,0.25027457,-5.982186,0.23171522,-0.24790113,-0.00010469742,1.6886044,0.42256862,0.025042417,0.051736154,0.90450674,-6.941742,7.1764226,0.34152403,0.08122945,-5.806419,0.0127325235,0
1.9600000000000015,13.138659990920434,0.27684574883970886,-5.190611574160552,0.16027704707645232,14.803603,0.16430491,-5.9174714,0.21200773,-0.3172532,0.071701676,1.692196,0.423811,0.05155031,0.039816074,0.90340567,-6.9278803,7.1839266,0.37676054,0.09664011,-5.836607,0.019451676,0
1.9700000000000015,13.138659990920434,0.27684574883970886,-5.190611574160552,0.16027704707645232,14.803603,0.16430491,-5.9174714,0.21200773,-0.38644323,0.14355317,1.6961238,0.4246523,0.077895515,0.028038152,0.9015636,-6.9093575,7.1854672,0.4087084,0.12476764,-5.7358637,0.02636202,0
1.9800000000000015,13.138659990920434,0.27684574883970886,-5.190611574160552,0.16027704707645232,14.803603,0.16430491,-5.9174714,0.21200773,-0.45542362,0.21539137,1.7003672,0.4250905,0.10381483,0.01654786,0.89902556,-6.885969,7.1812935,0.4398121,0.14850691,-5.6508307,0.03293327,0
1.9900000000000015,13.138659990920434,0.27684574883970886,-5.190611574160552,0.16027704707645232,14.803603,0.16430491,-5.9174714,0.21200773,-0.52414626,0.2871598,1.7049158,0.4251423,0.1293466,0.005305387,0.89582115,-6.857836,7.171529,0.46966255,0.16854247,-5.5790586,0.039182074,0
2.0000000000000013,,,,,14.673442,-0.026773077,-4.96782,0.042449098,-0.5925644,0.35880315,1.7097548,0.42482182,0.15452126,-0.0057222946,0.8919737,-6.8250833,7.1562967,0.49786976,0.18545195,-5.5184793,0.045124244,0
2.010000000000001,,,,,14.673442,-0.026773077,-4.96782,0.042449098,-0.66064286,0.43027306,1.7148315,0.424163,0.17811197,-0.01595148,0.88775426,-6.789967,7.136931,0.5171425,0.2043231,-4.9160986,0.050788045,0
2.020000000000001,,,,,14.673442,-0.026773077,-4.96782,0.042449098,-0.7283508,0.5015264,1.7200907,0.4232493,0.19917114,-0.024923794,0.88349867,-6.751075,7.113087,0.5343858,0.22024934,-4.4076586,0.056173924,0
2.0300000000000007,,,,,14.673442,-0.026773077,-4.96782,0.042449098,-0.79565287,0.57252127,1.7255121,0.42214823,0.21809708,-0.032834698,0.8792876,-6.708845,7.0853143,0.54956007,0.23369078,-3.97851,0.06129552,0
2.0400000000000005,,,,,14.673442,-0.026773077,-4.96782,0.042449098,-0.8625175,0.6432208,1.7310749,0.42090753,0.2352256,-0.03985033,0.87516737,-6.6636434,7.0540757,0.5626673,0.2450356,-3.6162865,0.0661658,0
2.0500000000000003,,,,,13.692638,0.059424836,0.30810225,-0.022994723,-0.9289166,0.71359223,1.7367586,0.41956094,0.25083938,-0.04611147,0.87116134,-6.6157737,7.0197616,0.57373434,0.25461084,-3.310552,0.070797086,1
2.06,,,,,13.692638,0.059424836,0.30810225,-0.022994723,-0.99479884,0.7835876,1.7425987,0.41821817,0.26445407,-0.05148837,0.86747146,-6.5602984,6.9788847,0.5939517,0.22413741,-2.746227,0.06619469,1
2.07,,,,,13.692638,0.059424836,0.30810225,-0.022994723,-1.060115,0.85316133,1.748631,0.41698456,0.27570853,-0.055885404,0.8642833,-6.5026107,6.935508,0.6122064,0.1984234,-2.2699077,0.061818145,1
2.0799999999999996,,,,,13.692638,0.059424836,0.30810225,-0.022994723,-1.1248449,0.9222908,1.7548372,0.4158692,0.28498486,-0.05945779,0.86156917,-6.4431133,6.890102,0.62876475,0.17672554,-1.86787,0.05765635,1
2.0899999999999994,,,,,13.251034,0.010159522,4.998112,-0.039533723,-1.1889721,0.99095774,1.7612014,0.41487232,0.29260203,-0.062335964,0.8592901,-6.3821354,6.8430576,0.64387625,0.15841597,-1.5285296,0.05369879,1
2.099999999999999,,,,,13.251034,0.010159522,4.998112,-0.039533723,-1.2524935,1.0591555,1.7676926,0.41411778,0.2972089,-0.0638682,0.8579595,-6.3220067,6.7963305,0.65421915,0.13525832,-0.5107046,0.049123846,1
2.109999999999999,,,,,13.251034,0.010159522,4.998112,-0.039533723,-1.3154104,1.1268829,1.7742841,0.4137076,0.29775238,-0.06354548,0.85799295,-6.26133,6.7491484,0.6640599,0.11572263,0.3483914,0.044773385,1
2.1199999999999988,,,,,13.251034,0.010159522,4.998112,-0.039533723,-1.3777201,1.1941395,1.7809743,0.4135907,0.29486752,-0.061658196,0.8591825,-6.2006874,6.7022796,0.6740557,0.09924168,1.0735121,0.040636428,1
2.1299999999999986,,,,,12.2494135,-0.18462105,6.293815,-0.28206497,-1.4394258,1.2609316,1.7877675,0.4137064,0.28907776,-0.05844868,0.8613159,-6.140573,6.656373,0.6847566,0.085337475,1.6855509,0.03670245,1
2.1399999999999983,,,,,12.2494135,-0.18462105,6.293815,-0.28206497,-1.5005574,1.327289,1.7946317,0.4140619,0.28044012,-0.054012332,0.86428523,-6.0859017,6.6153536,0.6883069,0.043245148,2.3583856,0.02106044,1
2.149999999999998,,,,,12.2494135,-0.18462105,6.293815,-0.28206497,-1.5611485,1.3932455,1.8015386,0.41464716,0.2690127,-0.048432942,0.8679599,-6.032574,6.5762787,0.69332516,0.007729656,2.9262927,0.0061859824,1
2.159999999999998,,,,,12.2494135,-0.18462105,6.293815,-0.28206497,-1.6212149,1.458823,1.8085043,0.4153773,0.2551965,-0.04188239,0.8721138,-5.981019,6.5396347,0.7001203,-0.022238249,3.4056356,-0.007958578,1
2.1699999999999977,,,,,12.387279,-0.3458023,6.0653114,-0.32492444,-1.6807761,1.524048,1.815548,0.41617507,0.23932958,-0.034506574,0.8765439,-5.931624,6.5058527,0.70889497,-0.047526617,3.8102257,-0.021409059,1
2.1799999999999975,,,,,12.387279,-0.3458023,6.0653114,-0.32492444,-1.7398533,1.5889493,1.8226956,0.4169916,0.22167225,-0.02648551,0.8810665,-5.884219,6.474966,0.72098273,-0.093997434,4.1517215,-0.036302652,1
