time-since-start [s],throttle_mpc,roll_mpc,pitch_mpc,yaw_mpc,throttle_nw,roll_nw,pitch_nw,yaw_nw,position_x [m],position_y [m],position_z [m],rotation_w [quaternion],rotation_x [quaternion],rotation_y [quaternion],rotation_z [quaternion],velocity_x [m/s],velocity_y [m/s],velocity_z [m/s],omega_x [rad/s],omega_y [rad/s],omega_z [rad/s],network_used
0.0,8.592170186834666,5.999999620403997,-5.999999935697329,-5.758901667564079,10.551792,0.7258698,-5.581778,-1.8162209,20.496525,-8.416842,1.864735,-0.21409737,-0.45685852,0.2695346,0.82024,-10.360852,-6.8645864,0.4285045,2.0541573,-0.5095245,-0.037589304,0
0.01,8.592170186834666,5.999999620403997,-5.999999935697329,-5.758901667564079,14.419334,1.1442039,-5.7261825,-2.8066206,20.392082,-8.485247,1.8689486,-0.20823438,-0.45679805,0.27800804,0.81895393,-10.526739,-6.815952,0.41362044,1.9340614,-0.6306182,-0.2196796,0
0.02,8.592170186834666,5.999999620403997,-5.999999935697329,-5.758901667564079,14.419334,1.1442039,-5.7261825,-2.8066206,20.286003,-8.553153,1.8729947,-0.20170963,-0.45636725,0.28570688,0.81817704,-10.688273,-6.765067,0.39505163,1.8332971,-0.7334229,-0.39726013,0
0.03,8.592170186834666,5.999999620403997,-5.999999935697329,-5.758901667564079,14.419334,1.1442039,-5.7261825,-2.8066206,20.178331,-8.620541,1.8768382,-0.19452246,-0.4556592,0.29269403,0.8178422,-10.845389,-6.7121196,0.37315008,1.7487433,-0.82068443,-0.57044256,0
0.04,8.592170186834666,5.999999620403997,-5.999999935697329,-5.758901667564079,17.498732,3.9766839,-5.9803,-3.148606,20.069109,-8.687389,1.8804473,-0.18667515,-0.45475042,0.29902294,0.8178873,-10.998051,-6.6572804,0.34821817,1.6777838,-0.89473987,-0.7393359,0
0.05,8.592170186834666,5.999999620403997,-5.999999935697329,-5.758901667564079,17.498732,3.9766839,-5.9803,-3.148606,19.958384,-8.75368,1.8837931,-0.17817226,-0.45370337,0.30473903,0.8182555,-11.146245,-6.6007104,0.32051706,1.6182268,-0.9575768,-0.9040463,0
0.060000000000000005,8.592170186834666,5.999999620403997,-5.999999935697329,-5.758901667564079,17.498732,3.9766839,-5.9803,-3.148606,19.846199,-8.819399,1.8868489,-0.16902018,-0.45256886,0.30988103,0.818894,-11.289975,-6.5425606,0.2902738,1.5682349,-1.0108851,-1.0646774,0
0.07,8.592170186834666,5.999999620403997,-5.999999935697329,-5.758901667564079,17.498732,3.9766839,-5.9803,-3.148606,19.7326,-8.884528,1.8895905,-0.15922672,-0.4513877,0.31448203,0.8197543,-11.42926,-6.4829745,0.25768727,1.5262676,-1.056102,-1.2213303,0
0.08,11.386358357984752,5.999999877147007,-5.9999999829745025,-5.685214284443371,16.183105,6.163706,-6.1388826,-4.906651,19.617628,-8.949054,1.8919952,-0.14880091,-0.45019242,0.31857044,0.82079107,-11.564131,-6.4220867,0.22293325,1.491033,-1.0944498,-1.3741034,0
0.09,11.386358357984752,5.999999877147007,-5.9999999829745025,-5.685214284443371,16.183105,6.163706,-6.1388826,-4.906651,19.50125,-9.012927,1.8940797,-0.1375902,-0.44887686,0.32235652,0.8219883,-11.710717,-6.3523526,0.19373393,1.5432421,-1.2089298,-1.5274606,0
0.09999999999999999,11.386358357984752,5.999999877147007,-5.9999999829745025,-5.685214284443371,16.183105,6.163706,-6.1388826,-4.906651,19.383425,-9.076093,1.895865,-0.12540627,-0.44728637,0.32609192,0.8233299,-11.853774,-6.280582,0.16309723,1.614963,-1.3332661,-1.6757666,0
0.10999999999999999,11.386358357984752,5.999999877147007,-5.9999999829745025,-5.685214284443371,16.183105,6.163706,-6.1388826,-4.906651,19.264187,-9.138531,1.8973371,-0.112209514,-0.44537315,0.32985368,0.8247717,-11.993106,-6.206722,0.13110335,1.7035569,-1.4663284,-1.8193055,0
0.11999999999999998,11.386358357984752,5.999999877147007,-5.9999999829745025,-5.685214284443371,16.183105,6.163706,-6.1388826,-4.906651,19.143576,-9.200219,1.8984827,-0.097967036,-0.44308847,0.33370456,0.82626647,-12.1285095,-6.1307087,0.09783007,1.806696,-1.6070614,-1.9583385,0
0.12999999999999998,15.578769169035414,5.999999965877518,-6.0,-5.079201370369782,17.155554,5.523767,-6.35805,-4.461639,19.021631,-9.261137,1.8992894,-0.08265225,-0.44038275,0.33769432,0.8277646,-12.259769,-6.052475,0.06335454,1.922327,-1.754483,-2.093106,0
0.13999999999999999,15.578769169035414,5.999999965877518,-6.0,-5.079201370369782,17.155554,5.523767,-6.35805,-4.461639,18.898304,-9.321204,1.8997903,-0.06587922,-0.436815,0.34232602,0.829256,-12.404533,-5.9605527,0.03657165,2.2461903,-2.1057765,-2.2117634,0
0.15,15.578769169035414,5.999999965877518,-6.0,-5.079201370369782,17.155554,5.523767,-6.35805,-4.461639,18.773561,-9.38034,1.9000156,-0.04730663,-0.4319666,0.34801638,0.8306935,-12.5431185,-5.8660607,0.008269547,2.5616388,-2.4444442,-2.3283644,0
0.16,19.608437629970876,5.999999992430449,-6.0,-4.191768900592057,17.460375,7.1840034,-6.6244597,-6.0445685,18.647465,-9.438516,1.8999509,-0.026981758,-0.42581686,0.3546723,0.83196133,-12.675066,-5.76861,-0.021403847,2.8689072,-2.7713704,-2.4429133,0
0.17,19.608437629970876,5.999999992430449,-6.0,-4.191768900592057,17.460375,7.1840034,-6.6244597,-6.0445685,18.520006,-9.495639,1.899625,-0.004619288,-0.4179053,0.36264697,0.8329593,-12.815778,-5.655021,-0.04373087,3.3562157,-3.275835,-2.5287302,0
0.18000000000000002,19.608437629970876,5.999999992430449,-6.0,-4.191768900592057,17.460375,7.1840034,-6.6244597,-6.0445685,18.39117,-9.551593,1.8990779,0.019872403,-0.40792844,0.3720682,0.83352566,-12.95052,-5.53469,-0.06562852,3.7676165,-3.7015438,-2.6103358,0
0.19000000000000003,19.608437629970876,5.999999992430449,-6.0,-4.191768900592057,17.460375,7.1840034,-6.6244597,-6.0445685,18.261023,-9.606308,1.8983145,0.0461782,-0.396078,0.38254386,0.8334568,-13.078089,-5.407124,-0.08696279,4.114941,-4.060785,-2.6879373,0
0.20000000000000004,20.99999980780298,5.9999999835298174,-6.0,-3.499770174085522,18.888367,7.5494266,-7.07489,-4.701224,18.129637,-9.65971,1.8973409,0.07401657,-0.38252088,0.39373744,0.8325685,-13.19731,-5.2721133,-0.10762294,4.408176,-4.363929,-2.7617307,0
0.21000000000000005,20.99999980780298,5.9999999835298174,-6.0,-3.499770174085522,18.888367,7.5494266,-7.07489,-4.701224,17.997068,-9.711676,1.8961923,0.10306238,-0.36737233,0.40539342,0.83070576,-13.314836,-5.119601,-0.12197317,4.655852,-4.619628,-2.7979467,0
0.22000000000000006,20.99999980780298,5.9999999835298174,-6.0,-3.499770174085522,18.888367,7.5494266,-7.07489,-4.701224,17.863379,-9.762075,1.8949045,0.13301867,-0.3507358,0.4172956,0.8277409,-13.421044,-4.9594684,-0.1354449,4.8649697,-4.8353868,-2.8323855,0
0.23000000000000007,20.99999980780298,5.9999999835298174,-6.0,-3.499770174085522,18.888367,7.5494266,-7.07489,-4.701224,17.72869,-9.81084,1.8934866,0.16368194,-0.3327387,0.42922974,0.8235625,-13.5148535,-4.7922387,-0.1480026,5.041535,-5.017441,-2.8651342,0
0.24000000000000007,20.99999980780298,5.9999999835298174,-6.0,-3.499770174085522,20.264277,6.5067196,-6.253892,-3.7178247,17.593128,-9.857899,1.8919479,0.19486548,-0.3134999,0.44101268,0.818079,-13.595271,-4.6186323,-0.1596382,5.1906157,-5.171054,-2.896276,0
0.25000000000000006,20.99999980780298,5.9999999835298174,-6.0,-3.499770174085522,20.264277,6.5067196,-6.253892,-3.7178247,17.456835,-9.9031925,1.890297,0.22639723,-0.29313117,0.45248803,0.81121707,-13.661411,-4.4395423,-0.17036884,5.316493,-5.3006673,-2.9258895,0
0.26000000000000006,20.99999980780298,5.9999999835298174,-6.0,-3.499770174085522,20.264277,6.5067196,-6.253892,-3.7178247,17.319952,-9.946672,1.8885434,0.25811803,-0.27173838,0.46352232,0.80292,-13.712509,-4.2560105,-0.18023455,5.4227777,-5.4100294,-2.95405,0
0.2700000000000001,20.99999980780298,5.9999999835298174,-6.0,-3.499770174085522,20.264277,6.5067196,-6.253892,-3.7178247,17.182636,-9.988301,1.8866951,0.28988016,-0.24942221,0.47400185,0.7931459,-13.74793,-4.069204,-0.1892957,5.512522,-5.5023036,-2.9808288,0
0.2800000000000001,21.0,5.999999672338284,-5.999999886523095,-2.86187474108059,19.916615,5.7547684,-5.445654,-2.3721828,17.045048,-10.028049,1.88476,0.321546,-0.22627872,0.48382986,0.78186625,-13.7671795,-3.8803904,-0.19763039,5.5883,-5.580159,-3.0062933,0
0.2900000000000001,21.0,5.999999672338284,-5.999999886523095,-2.86187474108059,19.916615,5.7547684,-5.445654,-2.3721828,16.907349,-10.065907,1.8827447,0.35292593,-0.20236185,0.49294212,0.76909107,-13.769908,-3.69092,-0.20533219,5.6524024,-5.6457324,-2.9992065,0
0.3000000000000001,21.0,5.999999672338284,-5.999999886523095,-2.86187474108059,19.916615,5.7547684,-5.445654,-2.3721828,16.769709,-10.1018715,1.8806552,0.3838453,-0.17772406,0.501285,0.7548446,-13.75592,-3.5022001,-0.21250966,5.706527,-5.701061,-2.9924679,0
0.3100000000000001,21.0,5.999999672338284,-5.999999886523095,-2.86187474108059,19.916615,5.7547684,-5.445654,-2.3721828,16.632292,-10.135959,1.8784959,0.41420156,-0.1524537,0.50879705,0.7391351,-13.725171,-3.3156738,-0.2192863,5.7522273,-5.7477455,-2.9860597,0
0.3200000000000001,21.0,3.4106401414392598,-5.485022834772272,0.721104578403776,20.053053,4.62385,-4.2922792,-1.4874088,16.495264,-10.168198,1.8762704,0.44389918,-0.126636,0.51542634,0.72197837,-13.677772,-3.1328018,-0.22579828,5.790814,-5.7871366,-2.9799657,0
0.3300000000000001,21.0,3.4106401414392598,-5.485022834772272,0.721104578403776,20.053053,4.62385,-4.2922792,-1.4874088,16.358791,-10.198633,1.8739805,0.47231433,-0.10074623,0.52055085,0.70412815,-13.614071,-2.955036,-0.23214313,5.4203997,-5.738659,-2.798353,0
0.34000000000000014,21.0,3.4106401414392598,-5.485022834772272,0.721104578403776,20.053053,4.62385,-4.2922792,-1.4874088,16.223034,-10.227322,1.8716286,0.49898854,-0.07517812,0.5237553,0.68632305,-13.535028,-2.783717,-0.23814967,5.107694,-5.697958,-2.625652,0
0.35000000000000014,21.0,3.4106401414392598,-5.485022834772272,0.721104578403776,20.053053,4.62385,-4.2922792,-1.4874088,16.088139,-10.254334,1.8692194,0.524061,-0.049890272,0.52527064,0.6685522,-13.44178,-2.6200058,-0.24360138,4.843704,-5.6637793,-2.461426,0
0.36000000000000015,21.0,1.9311152978642818,-3.0756127958481843,1.6643227302885872,20.578176,3.519727,-2.210906,-0.94558954,15.954243,-10.279751,1.8667591,0.5476468,-0.024844978,0.5252862,0.6507998,-13.335431,-2.464908,-0.24834356,4.620838,-5.6350727,-2.3052583,0
0.37000000000000016,21.0,1.9311152978642818,-3.0756127958481843,1.6643227302885872,20.578176,3.519727,-2.210906,-0.94558954,15.821476,-10.303658,1.8642589,0.56928927,-0.0008969391,0.5240766,0.6334453,-13.216474,-2.3183918,-0.25175697,4.1906266,-5.246747,-2.1115673,0
0.38000000000000017,21.0,1.9311152978642818,-3.0756127958481843,1.6643227302885872,20.578176,3.519727,-2.210906,-0.94558954,15.689948,-10.326154,1.8617249,0.58866215,0.021290319,0.52202946,0.61685425,-13.0877285,-2.1823742,-0.25494027,3.8393188,-4.9072104,-1.9262834,0
0.3900000000000002,21.0,1.9311152978642818,-3.0756127958481843,1.6643227302885872,20.578176,3.519727,-2.210906,-0.94558954,15.559752,-10.347338,1.8591623,0.6060685,0.04201283,0.51932675,0.60101235,-12.949972,-2.055994,-0.25744453,3.5426269,-4.6207924,-1.7500913,0
0.4000000000000002,20.999999958073573,0.4523469017273451,-0.6189559737729993,2.5601976350754505,21.347645,1.698151,-0.15140419,-0.4063666,15.430974,-10.367307,1.856578,0.62176967,0.06152434,0.5160834,0.58589715,-12.804426,-1.939158,-0.25934407,3.2920673,-4.379175,-1.582545,0
0.4100000000000002,20.999999958073573,0.4523469017273451,-0.6189559737729993,2.5601976350754505,21.347645,1.698151,-0.15140419,-0.4063666,15.303709,-10.386138,1.8539921,0.63557106,0.07914126,0.5124555,0.57199275,-12.647939,-1.828632,-0.25798956,2.78938,-3.8527672,-1.3847276,0
0.4200000000000002,20.999999958073573,0.4523469017273451,-0.6189559737729993,2.5601976350754505,21.347645,1.698151,-0.15140419,-0.4063666,15.178025,-10.403916,1.8514153,0.647316,0.09435924,0.50874686,0.5596922,-12.488196,-1.7284062,-0.25753456,2.3970408,-3.3765352,-1.1937444,0
0.4300000000000002,20.999999958073573,0.4523469017273451,-0.6189559737729993,2.5601976350754505,21.347645,1.698151,-0.15140419,-0.4063666,15.053951,-10.420738,1.8488386,0.6572413,0.10762362,0.5052109,0.54882914,-12.326052,-1.6371286,-0.25782275,2.092241,-2.948218,-1.0097443,0
0.4400000000000002,20.999999958073573,0.4523469017273451,-0.6189559737729993,2.5601976350754505,20.913671,0.6851891,1.2686,0.46412694,14.931516,-10.436684,1.84626,0.66558903,0.11930193,0.50193524,0.539277,-12.160585,-1.5528433,-0.25787792,1.837037,-2.5845914,-0.83456624,0
0.45000000000000023,20.999999958073573,0.4523469017273451,-0.6189559737729993,2.5601976350754505,20.913671,0.6851891,1.2686,0.46412694,14.81075,-10.451817,1.8436819,0.672596,0.1296933,0.49890092,0.5309355,-11.992268,-1.4747033,-0.25769362,1.6215113,-2.277757,-0.6679842,0
0.46000000000000024,20.999999958073573,0.4523469017273451,-0.6189559737729993,2.5601976350754505,20.913671,0.6851891,1.2686,0.46412694,14.691679,-10.466196,1.8411067,0.6784558,0.13904673,0.4960796,0.5237071,-11.821599,-1.4020528,-0.2573463,1.4395034,-2.0188386,-0.5095764,0
0.47000000000000025,20.999999958073573,0.4523469017273451,-0.6189559737729993,2.5601976350754505,20.913671,0.6851891,1.2686,0.46412694,14.574326,-10.479874,1.8385353,0.683327,0.14756912,0.49343988,0.51749885,-11.648976,-1.3343201,-0.25689617,1.2858074,-1.8003496,-0.3589417,0
0.48000000000000026,20.99999967275346,-0.9165512452253908,1.7040671069920308,2.748442649656857,20.688034,-0.93718743,0.8813507,1.2851051,14.458706,-10.492897,1.8359689,0.6873399,0.15543208,0.4909499,0.512224,-11.474713,-1.271011,-0.2563914,1.1560243,-1.6159728,-0.21569872,0
0.49000000000000027,20.99999967275346,-0.9165512452253908,1.7040671069920308,2.748442649656857,20.688034,-0.93718743,0.8813507,1.2851051,14.344835,-10.505307,1.8334075,0.6902252,0.16193806,0.48893863,0.50823694,-11.299087,-1.2116029,-0.25587913,0.83298707,-1.0980883,-0.07024744,0
0.5000000000000002,20.99999967275346,-0.9165512452253908,1.7040671069920308,2.748442649656857,20.688034,-0.93718743,0.8813507,1.2851051,14.232727,-10.5171385,1.8308511,0.691791,0.16654621,0.48767644,0.5058259,-11.122464,-1.1550881,-0.25543803,0.5602292,-0.6610293,0.06806651,0
0.5100000000000002,20.99999967275346,-0.9165512452253908,1.7040671069920308,2.748442649656857,20.688034,-0.93718743,0.8813507,1.2851051,14.122388,-10.528415,1.8282983,0.69222975,0.16959488,0.4870477,0.5048175,-10.945186,-1.1004128,-0.25513703,0.32993662,-0.29217452,0.19959334,0
0.5200000000000002,20.999999431080322,-2.5730796479042297,3.8354972957322975,2.7593901756972676,19.882616,-2.3766923,1.9946945,1.8315426,14.0138235,-10.539149,1.8257477,0.691693,0.17136489,0.48694637,0.5050531,-10.767515,-1.0466812,-0.2550247,0.1355071,0.019124962,0.3246661,0
0.5300000000000002,20.999999431080322,-2.5730796479042297,3.8354972957322975,2.7593901756972676,19.882616,-2.3766923,1.9946945,1.8315426,13.907037,-10.549348,1.8231971,0.6899987,0.17120042,0.4875311,0.5068592,-10.589696,-0.99303794,-0.25513023,-0.28706625,0.6141763,0.4441387,0
0.5400000000000003,20.999999431080322,-2.5730796479042297,3.8354972957322975,2.7593901756972676,19.882616,-2.3766923,1.9946945,1.8315426,13.802028,-10.559006,1.8206445,0.6869945,0.16858827,0.48891038,0.51047397,-10.412126,-0.93820935,-0.25544256,-0.6437945,1.11639,0.5577488,0
0.5500000000000003,20.999999431080322,-2.5730796479042297,3.8354972957322975,2.7593901756972676,19.882616,-2.3766923,1.9946945,1.8315426,13.698791,-10.568103,1.8180877,0.6828202,0.163932,0.4909211,0.5156353,-10.235226,-0.88093877,-0.2559411,-0.944926,1.5402586,0.66578394,0
0.5600000000000003,20.999999767716538,-4.023112592345466,5.163780780356379,2.608367313827703,20.851147,-3.571173,2.613918,2.1006067,13.597318,-10.5766115,1.815525,0.67758083,0.15756805,0.493417,0.522108,-10.059398,-0.8201801,-0.25661415,-1.1991165,1.8980103,0.7685178,0
0.5700000000000003,20.999999767716538,-4.023112592345466,5.163780780356379,2.608367313827703,20.851147,-3.571173,2.613918,2.1006067,13.497597,-10.584491,1.8129548,0.67118967,0.1490967,0.4963234,0.53003603,-9.885072,-0.7550064,-0.25744736,-1.6399117,2.4069898,0.85879964,0
0.5800000000000003,20.999999767716538,-4.023112592345466,5.163780780356379,2.608367313827703,20.851147,-3.571173,2.613918,2.1006067,13.39961,-10.591692,1.8103758,0.66355103,0.13820793,0.49954677,0.5394925,-9.712875,-0.6842946,-0.25836292,-2.0119681,2.8365908,0.9446514,0
0.5900000000000003,20.999999767716538,-4.023112592345466,5.163780780356379,2.608367313827703,20.851147,-3.571173,2.613918,2.1006067,13.30333,-10.598153,1.8077875,0.6547212,0.12528214,0.5029387,0.5501797,-9.543515,-0.6070214,-0.25929552,-2.325997,3.199199,1.0262905,0
0.6000000000000003,20.999999853525892,-4.528615540366779,5.101580733254254,2.2025202021145915,20.35682,-4.0164843,3.9392164,0.9916504,13.208727,-10.603806,1.80519,0.6447421,0.11064136,0.506369,0.5618337,-9.377716,-0.52238923,-0.2602249,-2.5910423,3.5052671,1.1039234,0
0.6100000000000003,20.999999853525892,-4.528615540366779,5.101580733254254,2.2025202021145915,20.35682,-4.0164843,3.9392164,0.9916504,13.115761,-10.608573,1.802583,0.6337091,0.094418675,0.50959927,0.5742883,-9.2162285,-0.42979836,-0.26115647,-2.893516,3.7538934,1.1578318,0
0.6200000000000003,20.999999853525892,-4.528615540366779,5.101580733254254,2.2025202021145915,20.35682,-4.0164843,3.9392164,0.9916504,13.0243845,-10.612373,1.7999669,0.6216978,0.076735675,0.5124283,0.5873851,-9.059881,-0.32880923,-0.26205072,-3.1487994,3.9637673,1.209095,0
0.6300000000000003,20.999999853525892,-4.528615540366779,5.101580733254254,2.2025202021145915,20.35682,-4.0164843,3.9392164,0.9916504,12.934543,-10.61512,1.7973422,0.6087153,0.05783208,0.5148026,0.60091585,-8.909529,-0.21914995,-0.2628893,-3.3642516,4.140932,1.2578427,0
0.6400000000000003,20.999999853525892,-4.528615540366779,5.101580733254254,2.2025202021145915,20.436203,-4.4770026,3.9040365,1.0631474,12.846169,-10.616727,1.7947092,0.5947717,0.037914775,0.51667804,0.61469775,-8.766011,-0.10071086,-0.26370165,-3.5460854,4.2904887,1.3041983,0
0.6500000000000004,20.999999853525892,-4.528615540366779,5.101580733254254,2.2025202021145915,20.436203,-4.4770026,3.9040365,1.0631474,12.759194,-10.617104,1.792068,0.57988054,0.01716321,0.51801866,0.62857056,-8.630154,0.026470672,-0.26455715,-3.6995444,4.416742,1.3482791,0
0.6600000000000004,20.999999853525892,-4.528615540366779,5.101580733254254,2.2025202021145915,20.436203,-4.4770026,3.9040365,1.0631474,12.673536,-10.616167,1.7894175,0.564059,-0.004266175,0.51879615,0.64239407,-8.502751,0.16222422,-0.26555818,-3.8290548,4.523324,1.3901969,0
0.6700000000000004,20.999999853525892,-4.528615540366779,5.101580733254254,2.2025202021145915,20.436203,-4.4770026,3.9040365,1.0631474,12.589107,-10.613831,1.7867559,0.5473277,-0.026236359,0.51898855,0.6560452,-8.38457,0.30625916,-0.2668337,-3.9383519,4.6133013,1.4300579,0
0.6800000000000004,20.999999867511278,-4.28788320462214,4.24477210391224,1.7064478179884965,19.547653,-4.2440743,3.6407166,1.3629875,12.505811,-10.610014,1.7840794,0.52971023,-0.04862676,0.51857954,0.6694163,-8.276333,0.45817664,-0.2685335,-4.03059,4.689263,1.4679629,0
0.6900000000000004,20.999999867511278,-4.28788320462214,4.24477210391224,1.7064478179884965,19.547653,-4.2440743,3.6407166,1.3629875,12.423543,-10.604641,1.7813832,0.511461,-0.07108145,0.51744354,0.6823545,-8.178694,0.6174597,-0.27080908,-4.0706835,4.619876,1.4796654,0
0.7000000000000004,20.999999867511278,-4.28788320462214,4.24477210391224,1.7064478179884965,19.547653,-4.2440743,3.6407166,1.3629875,12.342197,-10.597642,1.778661,0.49281216,-0.09331218,0.51550364,0.6947557,-8.092124,0.7833981,-0.27374005,-4.1045322,4.5613165,1.4907937,0
0.7100000000000004,20.999999867511278,-4.28788320462214,4.24477210391224,1.7064478179884965,19.547653,-4.2440743,3.6407166,1.3629875,12.261661,-10.588953,1.7759058,0.47375873,-0.11531173,0.512814,0.70659626,-8.016998,0.95521915,-0.2773907,-4.133109,4.511895,1.5013759,0
0.7200000000000004,20.999999831261537,-3.5275898798643466,2.8620718536436396,1.2016567642641913,19.925007,-4.324419,3.249872,1.3789738,12.181817,-10.57852,1.7731104,0.4543002,-0.13707222,0.50942063,0.71785355,-7.953639,1.1321424,-0.2818379,-4.1572347,4.4701867,1.5114388,0
0.7300000000000004,20.999999831261537,-3.5275898798643466,2.8620718536436396,1.2016567642641913,19.925007,-4.324419,3.249872,1.3789738,12.102547,-10.566295,1.7702662,0.43481544,-0.15808326,0.50533324,0.72841203,-7.9022665,1.3133581,-0.28715158,-4.058754,4.219539,1.4962378,0
0.7400000000000004,20.999999831261537,-3.5275898798643466,2.8620718536436396,1.2016567642641913,19.925007,-4.324419,3.249872,1.3789738,12.023731,-10.55224,1.7673645,0.4156409,-0.17795093,0.5006,0.7382251,-7.8627534,1.4979471,-0.29330522,-3.9756756,4.0079618,1.4817826,0
0.7500000000000004,20.999999831261537,-3.5275898798643466,2.8620718536436396,1.2016567642641913,19.925007,-4.324419,3.249872,1.3789738,11.945252,-10.536326,1.7643974,0.39671886,-0.19682525,0.4953042,0.7473608,-7.8348575,1.685032,-0.30024412,-3.90559,3.8293633,1.4680367,0
0.7600000000000005,20.999999605893475,-2.4361320683106777,1.196774354400966,0.6773516937220415,19.408194,-5.0443287,2.2687316,1.2270261,11.866996,-10.518534,1.7613571,0.3779986,-0.2148332,0.4895121,0.7558718,-7.818342,1.873821,-0.30792376,-3.8464658,3.6786041,1.4549652,0
0.7700000000000005,20.999999605893475,-2.4361320683106777,1.196774354400966,0.6773516937220415,19.408194,-5.0443287,2.2687316,1.2270261,11.788848,-10.498848,1.7582364,0.35991156,-0.2314488,0.48335287,0.76371825,-7.812904,2.0635815,-0.31628972,-3.6260765,3.2918632,1.4168075,0
0.7800000000000005,20.999999605893475,-2.4361320683106777,1.196774354400966,0.6773516937220415,19.408194,-5.0443287,2.2687316,1.2270261,11.710703,-10.4772625,1.7550293,0.34282583,-0.24628021,0.4769679,0.77092063,-7.817846,2.2536054,-0.325178,-3.4401336,2.9653883,1.3805223,0
0.7900000000000005,20.999999605893475,-2.4361320683106777,1.196774354400966,0.6773516937220415,19.408194,-5.0443287,2.2687316,1.2270261,11.632459,-10.453777,1.7517318,0.32660928,-0.2596061,0.4704132,0.77758783,-7.832408,2.4432936,-0.33439875,-3.2832515,2.6897888,1.3460175,0
0.8000000000000005,20.999997750968795,-1.2493330169152133,-0.4546199366791268,0.15660570100680796,17.437235,-3.395029,0.16140647,0.24415952,11.554024,-10.428399,1.748341,0.31114468,-0.27166077,0.4637272,0.78380287,-7.855923,2.63216,-0.3437824,-3.1508868,2.4571376,1.3132058,0
0.8100000000000005,20.999997750968795,-1.2493330169152133,-0.4546199366791268,0.15660570100680796,17.437235,-3.395029,0.16140647,0.24415952,11.475311,-10.401137,1.7448561,0.29681832,-0.28200907,0.45709404,0.78957915,-7.8877325,2.8198075,-0.3531603,-2.8538775,2.0034108,1.2564512,0
0.8200000000000005,20.999997750968795,-1.2493330169152133,-0.4546199366791268,0.15660570100680796,17.437235,-3.395029,0.16140647,0.24415952,11.396244,-10.372008,1.7412785,0.28394672,-0.29033282,0.45068246,0.7949634,-7.926841,3.0059457,-0.36226973,-2.6032784,1.6203793,1.2024815,0
0.8300000000000005,20.999997750968795,-1.2493330169152133,-0.4546199366791268,0.15660570100680796,17.437235,-3.395029,0.16140647,0.24415952,11.316753,-10.341024,1.7376126,0.27233538,-0.2969679,0.44448638,0.80004734,-7.9722543,3.1903882,-0.37083933,-2.3918343,1.2970302,1.15116,0
0.8400000000000005,20.999997750968795,-1.2493330169152133,-0.4546199366791268,0.15660570100680796,16.231474,-2.5535238,-1.2481041,-0.40968305,11.23678,-10.308207,1.7338647,0.26181433,-0.30219412,0.43849063,0.8048965,-8.0231285,3.3730195,-0.37863266,-2.213424,1.0240657,1.1023568,0
0.8500000000000005,20.999997750968795,-1.2493330169152133,-0.4546199366791268,0.15660570100680796,16.231474,-2.5535238,-1.2481041,-0.40968305,11.156274,-10.273571,1.7300434,0.2522362,-0.30624476,0.4326752,0.80955774,-8.078747,3.553772,-0.38544622,-2.0628846,0.79363614,1.0559484,0
0.8600000000000005,20.999997750968795,-1.2493330169152133,-0.4546199366791268,0.15660570100680796,16.231474,-2.5535238,-1.2481041,-0.40968305,11.07519,-10.237138,1.7261598,0.24347396,-0.3093144,0.42701796,0.8140646,-8.138501,3.7326088,-0.3911064,-1.9358606,0.5991144,1.0118173,0
0.8700000000000006,20.999997750968795,-1.2493330169152133,-0.4546199366791268,0.15660570100680796,16.231474,-2.5535238,-1.2481041,-0.40968305,10.99349,-10.198926,1.7222259,0.2354184,-0.3115654,0.42149657,0.8184414,-8.201876,3.9095132,-0.39546636,-1.8286767,0.43490592,0.9698519,0
0.8800000000000006,20.31495463854946,-0.16628988268137854,-1.6834372355591818,-0.2961291603306709,15.184591,-1.2480482,-3.0013273,-0.8811403,10.911141,-10.158955,1.7182554,0.2279759,-0.31313345,0.41608953,0.82270557,-8.268428,4.0844803,-0.39840278,-1.7382329,0.29628712,0.9299457,0
0.8900000000000006,20.31495463854946,-0.16628988268137854,-1.6834372355591818,-0.2961291603306709,15.184591,-1.2480482,-3.0013273,-0.8811403,10.828124,-10.117272,1.7142475,0.2214528,-0.31365302,0.41100684,0.82683396,-8.335465,4.251884,-0.40295696,-1.4929022,-0.012242064,0.86978185,0
0.9000000000000006,20.31495463854946,-0.16628988268137854,-1.6834372355591818,-0.2961291603306709,15.184591,-1.2480482,-3.0013273,-0.8811403,10.744426,-10.073924,1.710202,0.21609291,-0.31284603,0.40641925,0.8308159,-8.404481,4.4175544,-0.4058756,-1.2858799,-0.27269834,0.8125703,0
0.9100000000000006,20.31495463854946,-0.16628988268137854,-1.6834372355591818,-0.2961291603306709,15.184591,-1.2480482,-3.0013273,-0.8811403,10.660029,-10.028927,1.706136,0.21173672,-0.31093234,0.4022517,0.83467513,-8.474791,4.5816417,-0.40701613,-1.1111813,-0.49257007,0.758166,0
0.9200000000000006,18.927660446539907,0.7606052916692623,-2.6328423990095624,-0.6106732341454275,14.653978,-0.58494484,-4.214528,-0.9852065,10.574927,-9.982296,1.7020681,0.20824783,-0.30809495,0.3984371,0.8384262,-8.545819,4.7442837,-0.4062629,-0.96375674,-0.6781795,0.7064314,0
0.9300000000000006,18.927660446539907,0.7606052916692623,-2.6328423990095624,-0.6106732341454275,14.653978,-0.58494484,-4.214528,-0.9852065,10.489137,-9.934101,1.6979831,0.20580725,-0.30410606,0.39513734,0.8420389,-8.612169,4.8946,-0.4104055,-0.6947441,-0.9828545,0.64180064,0
0.9400000000000006,18.927660446539907,0.7606052916692623,-2.6328423990095624,-0.6106732341454275,14.653978,-0.58494484,-4.214528,-0.9852065,10.402686,-9.884408,1.6938665,0.20455264,-0.2987926,0.3924762,0.8454844,-8.678027,5.0438957,-0.4125962,-0.46772483,-1.240055,0.5803414,0
0.9500000000000006,18.927660446539907,0.7606052916692623,-2.6328423990095624,-0.6106732341454275,14.653978,-0.58494484,-4.214528,-0.9852065,10.315581,-9.833226,1.689738,0.2043172,-0.2923672,0.39034548,0.84876764,-8.742749,5.1923666,-0.41275507,-0.27614054,-1.4571759,0.5218979,0
0.9600000000000006,18.02572293853836,1.3439141561586545,-3.2489993547501665,-0.9044331411175235,15.361765,0.24146746,-4.737326,-1.3270974,10.2278385,-9.780562,1.6856184,0.20495866,-0.28500724,0.38865095,0.8518882,-8.805786,5.340171,-0.4108282,-0.11445747,-1.640461,0.46632233,0
0.9700000000000006,18.02572293853836,1.3439141561586545,-3.2489993547501665,-0.9044331411175235,15.361765,0.24146746,-4.737326,-1.3270974,10.13949,-9.726459,1.6815044,0.20654812,-0.27661672,0.3874491,0.85481256,-8.86374,5.4804215,-0.41164973,0.11296846,-1.8912469,0.39905894,0
0.9800000000000006,18.02572293853836,1.3439141561586545,-3.2489993547501665,-0.9044331411175235,15.361765,0.24146746,-4.737326,-1.3270974,10.050574,-9.670956,1.6773922,0.20913514,-0.2671253,0.3867759,0.8575029,-8.919059,5.6203036,-0.4104291,0.3049016,-2.10295,0.33509624,0
0.9900000000000007,18.02572293853836,1.3439141561586545,-3.2489993547501665,-0.9044331411175235,15.361765,0.24146746,-4.737326,-1.3270974,9.961121,-9.614054,1.6733028,0.2125781,-0.25670406,0.38652796,0.8599476,-8.971215,5.7599316,-0.4071624,0.4668841,-2.2816584,0.2742722,0
1.0000000000000007,17.266190117389364,1.4222637006810683,-3.400733771322603,-1.0829126081615101,15.76775,0.8580675,-4.95,-1.5968894,9.871163,-9.5557575,1.669256,0.21675609,-0.24549703,0.38661668,0.8621344,-9.019755,5.899376,-0.40186933,0.603592,-2.4325125,0.2164328,0
1.0100000000000007,17.266190117389364,1.4222637006810683,-3.400733771322603,-1.0829126081615101,15.76775,0.8580675,-4.95,-1.5968894,9.780749,-9.496096,1.66525,0.22161576,-0.23357502,0.38697496,0.8640484,-9.0624075,6.0328026,-0.39902878,0.73117757,-2.5835183,0.15267354,0
1.0200000000000007,17.266190117389364,1.4222637006810683,-3.400733771322603,-1.0829126081615101,15.76775,0.8580675,-4.95,-1.5968894,9.689929,-9.4351015,1.6612817,0.22711004,-0.22100106,0.38754383,0.8656728,-9.100857,6.166086,-0.39433086,0.838858,-2.7109847,0.09204295,0
1.0300000000000007,17.266190117389364,1.4222637006810683,-3.400733771322603,-1.0829126081615101,15.76775,0.8580675,-4.95,-1.5968894,9.598747,-9.372775,1.6573695,0.23315133,-0.20787728,0.38826495,0.86699367,-9.134789,6.2991986,-0.3878368,0.92974055,-2.81858,0.03438755,0
1.0400000000000007,17.266190117389364,1.4222637006810683,-3.400733771322603,-1.0829126081615101,15.093206,0.12974976,-4.468611,-1.4602462,9.507251,-9.309117,1.6535308,0.23966424,-0.19429047,0.38908923,0.8679989,-9.16393,6.4320827,-0.37962312,1.0064474,-2.9094002,-0.020438686,0
1.0500000000000007,17.266190117389364,1.4222637006810683,-3.400733771322603,-1.0829126081615101,15.093206,0.12974976,-4.468611,-1.4602462,9.415486,-9.244133,1.6497827,0.24658366,-0.18031465,0.3899756,0.8686786,-9.188048,6.564658,-0.36977908,1.0711913,-2.9860609,-0.07257458,0
1.0600000000000007,17.266190117389364,1.4222637006810683,-3.400733771322603,-1.0829126081615101,15.093206,0.12974976,-4.468611,-1.4602462,9.323507,-9.177825,1.6461406,0.25385317,-0.16601294,0.3908898,0.86902463,-9.206944,6.696825,-0.3584045,1.1258394,-3.050768,-0.12215216,0
1.0700000000000007,17.266190117389364,1.4222637006810683,-3.400733771322603,-1.0829126081615101,15.093206,0.12974976,-4.468611,-1.4602462,9.231366,-9.110198,1.6426194,0.26142377,-0.15143941,0.39180338,0.86903065,-9.220455,6.828465,-0.3456079,1.1719668,-3.1053843,-0.16929695,0
1.0800000000000007,16.726677098923773,1.0636664275164323,-2.8951034336749584,-1.13223333734707,13.996513,-0.87398577,-4.1191244,-1.366382,9.139117,-9.041259,1.6392329,0.26925263,-0.13664043,0.39269271,0.86869174,-9.228439,6.959447,-0.331505,1.2109035,-3.1514838,-0.21412833,0
1.0900000000000007,16.726677098923773,1.0636664275164323,-2.8951034336749584,-1.13223333734707,13.996513,-0.87398577,-4.1191244,-1.366382,9.046817,-8.971033,1.6359757,0.27720976,-0.12187338,0.39346907,0.8680347,-9.230732,7.08556,-0.3197601,1.1878562,-3.1115332,-0.25918,0
1.1000000000000008,16.726677098923773,1.0636664275164323,-2.8951034336749584,-1.13223333734707,13.996513,-0.87398577,-4.1191244,-1.366382,8.954522,-8.8995495,1.6328412,0.28519493,-0.10734761,0.39406765,0.86709374,-9.227617,7.210752,-0.30698654,1.1684086,-3.0778103,-0.302021,0
1.1100000000000008,16.726677098923773,1.0636664275164323,-2.8951034336749584,-1.13223333734707,13.996513,-0.87398577,-4.1191244,-1.366382,8.862284,-8.826821,1.6298391,0.2932126,-0.09303478,0.39450273,0.8658747,-9.21917,7.334881,-0.29329896,1.1519988,-3.0493448,-0.34275973,0
1.1200000000000008,16.18221090997398,0.39162190448698686,-2.1046998684133005,-1.0868480202960484,13.889685,-2.0193434,-3.4699848,-1.1115464,8.770155,-8.752857,1.6269778,0.30126473,-0.07891081,0.39478633,0.8643824,-9.205459,7.457808,-0.27880725,1.1381525,-3.0253167,-0.3814994,0
1.1300000000000008,16.18221090997398,0.39162190448698686,-2.1046998684133005,-1.0868480202960484,13.889685,-2.0193434,-3.4699848,-1.1115464,8.678188,-8.6776905,1.6242468,0.3092032,-0.0653083,0.39479458,0.86270845,-9.187195,7.5754395,-0.2673006,1.0217018,-2.8817413,-0.41611108,0
1.1400000000000008,16.18221090997398,0.39162190448698686,-2.1046998684133005,-1.0868480202960484,13.889685,-2.0193434,-3.4699848,-1.1115464,8.586429,-8.601355,1.6216339,0.31691766,-0.052492045,0.39443955,0.8609446,-9.164191,7.6916604,-0.2551819,0.9234147,-2.7605553,-0.44902435,0
1.1500000000000008,16.18221090997398,0.39162190448698686,-2.1046998684133005,-1.0868480202960484,13.889685,-2.0193434,-3.4699848,-1.1115464,8.49492,-8.523863,1.619145,0.32445762,-0.040350754,0.39377767,0.85909176,-9.136729,7.8063693,-0.24250153,0.8404574,-2.6582682,-0.4803225,0
1.1600000000000008,15.39102280902051,-0.5388093010483768,-1.2253457811042587,-0.8913452755043691,13.053448,-3.1073112,-3.4601793,-1.0525091,8.4037075,-8.445231,1.6167855,0.33186293,-0.02878938,0.3928554,0.85714835,-9.105053,7.9194803,-0.22930293,0.77043873,-2.5719328,-0.51008487,0
1.1700000000000008,15.39102280902051,-0.5388093010483768,-1.2253457811042587,-0.8913452755043691,13.053448,-3.1073112,-3.4601793,-1.0525091,8.312823,-8.365505,1.6145333,0.33899823,-0.01814336,0.39151216,0.85526013,-9.071152,8.025467,-0.22108032,0.566303,-2.3618727,-0.52879345,0
1.1800000000000008,15.39102280902051,-0.5388093010483768,-1.2253457811042587,-0.8913452755043691,13.053448,-3.1073112,-3.4601793,-1.0525091,8.222296,-8.284727,1.6123657,0.3457633,-0.008674715,0.38963062,0.8535579,-9.033875,8.129808,-0.21235974,0.39399704,-2.1845772,-0.546584,0
1.1900000000000008,15.39102280902051,-0.5388093010483768,-1.2253457811042587,-0.8913452755043691,13.053448,-3.1073112,-3.4601793,-1.0525091,8.132155,-8.202915,1.610288,0.3522322,-0.00020870334,0.38730243,0.85201514,-8.993628,8.23247,-0.20308974,0.24855705,-2.034937,-0.56350154,0
1.2000000000000008,14.758953282324134,-1.414575651111143,-0.46730942345424215,-0.5856348588401098,14.587971,-3.6292899,-2.279988,-0.7136178,8.042431,-8.120084,1.6083059,0.3584645,0.0074034166,0.3846026,0.85060555,-8.950752,8.333427,-0.19322263,0.12579392,-1.9086381,-0.57958895,0
1.2100000000000009,14.758953282324134,-1.414575651111143,-0.46730942345424215,-0.5856348588401098,14.587971,-3.6292899,-2.279988,-0.7136178,7.9531384,-8.036272,1.6064035,0.36436376,0.013918383,0.3814045,0.8494566,-8.907426,8.428593,-0.18716584,-0.11434137,-1.6837729,-0.57988566,0
1.2200000000000009,14.758953282324134,-1.414575651111143,-0.46730942345424215,-0.5856348588401098,14.587971,-3.6292899,-2.279988,-0.7136178,7.8642883,-7.951517,1.6045651,0.36985555,0.019150788,0.37761408,0.8486744,-8.862316,8.522116,-0.18038216,-0.31704083,-1.4939896,-0.58016783,0
1.2300000000000009,14.758953282324134,-1.414575651111143,-0.46730942345424215,-0.5856348588401098,14.587971,-3.6292899,-2.279988,-0.7136178,7.775897,-7.8658357,1.6027987,0.37501162,0.023295835,0.3733297,0.8482034,-8.81584,8.614016,-0.17276171,-0.4881406,-1.3338146,-0.58043605,0
1.2400000000000009,14.758953282324134,-1.414575651111143,-0.46730942345424215,-0.5856348588401098,15.032928,-4.0513024,-1.8379756,-0.24517643,7.6879754,-7.7792425,1.6011131,0.3798897,0.026519064,0.3686318,0.84799266,-8.7683525,8.7043085,-0.16421087,-0.63256675,-1.1986289,-0.58069116,0
1.2500000000000009,14.758953282324134,-1.414575651111143,-0.46730942345424215,-0.5856348588401098,15.032928,-4.0513024,-1.8379756,-0.24517643,7.6005325,-7.691755,1.599518,0.3845364,0.028960815,0.3635866,0.8479966,-8.720155,8.793015,-0.15465157,-0.7544776,-1.0845339,-0.58093375,0
1.260000000000001,14.758953282324134,-1.414575651111143,-0.46730942345424215,-0.5856348588401098,15.032928,-4.0513024,-1.8379756,-0.24517643,7.513574,-7.603388,1.5980239,0.38898933,0.030740034,0.35824868,0.8481749,-8.671502,8.880151,-0.14401999,-0.8573832,-0.9882391,-0.5811644,0
1.270000000000001,14.758953282324134,-1.414575651111143,-0.46730942345424215,-0.5856348588401098,15.032928,-4.0513024,-1.8379756,-0.24517643,7.427103,-7.514157,1.5966415,0.39327902,0.031957533,0.3526631,0.8484925,-8.622614,8.965733,-0.13226518,-0.9442464,-0.90696746,-0.5813838,0
1.280000000000001,14.545126264289953,-2.0403679056365815,0.28689435983383993,-0.22099598140029114,14.69339,-4.692838,-1.8303847,0.26726067,7.3411217,-7.424078,1.5953826,0.39743027,0.032698743,0.34686738,0.848919,-8.57368,9.049773,-0.11934766,-1.0175679,-0.8383751,-0.5815923,0
1.290000000000001,14.545126264289953,-2.0403679056365815,0.28689435983383993,-0.22099598140029114,14.69339,-4.692838,-1.8303847,0.26726067,7.2556257,-7.3331723,1.5942507,0.401329,0.03269548,0.34079906,0.8495425,-8.525592,9.131095,-0.106858015,-1.1769989,-0.6628431,-0.5638978,0
1.300000000000001,14.545126264289953,-2.0403679056365815,0.28689435983383993,-0.22099598140029114,14.69339,-4.692838,-1.8303847,0.26726067,7.1706085,-7.241461,1.5932498,0.4048816,0.031739738,0.33441052,0.8504314,-8.477938,9.210967,-0.09313095,-1.3115807,-0.51469696,-0.54707146,0
1.310000000000001,14.545126264289953,-2.0403679056365815,0.28689435983383993,-0.22099598140029114,14.69339,-4.692838,-1.8303847,0.26726067,7.0860643,-7.1489577,1.5923926,0.40813288,0.029979551,0.32774958,0.8515336,-8.431015,9.289444,-0.078114174,-1.4251859,-0.38966355,-0.5310709,0
1.320000000000001,14.073413386792982,-2.576766457464463,0.6811994750391948,0.21116889386949175,15.233969,-4.3673325,-2.2504916,0.49187088,7.0019846,-7.0556765,1.591692,0.41111964,0.027540157,0.3208558,0.85280377,-8.385084,9.366573,-0.061771575,-1.5210837,-0.28413662,-0.51585543,0
1.330000000000001,14.073413386792982,-2.576766457464463,0.6811994750391948,0.21116889386949175,15.233969,-4.3673325,-2.2504916,0.49187088,6.9183517,-6.9616427,1.5911429,0.41378155,0.02432142,0.3136421,0.85429645,-8.34183,9.439934,-0.047831103,-1.6856631,-0.13357663,-0.48018017,0
1.340000000000001,14.073413386792982,-2.576766457464463,0.6811994750391948,0.21116889386949175,15.233969,-4.3673325,-2.2504916,0.49187088,6.835144,-6.866882,1.59074,0.41606396,0.020250605,0.3060397,0.8560496,-8.300053,9.512061,-0.032537896,-1.8245901,-0.0065095723,-0.44625548,0
1.350000000000001,14.073413386792982,-2.576766457464463,0.6811994750391948,0.21116889386949175,15.233969,-4.3673325,-2.2504916,0.49187088,6.7523456,-6.7714057,1.5904969,0.4180021,0.015462515,0.2981031,0.8580037,-8.260033,9.58298,-0.015858324,-1.9418623,0.10073152,-0.41399547,0
1.360000000000001,13.611551701228553,-2.999844518381871,0.7106545185210124,0.6667808315051666,16.131077,-4.1651754,-3.08068,0.5746621,6.669937,-6.675226,1.5904275,0.41962525,0.010071158,0.28987792,0.8601073,-8.22201,9.652708,0.0022211685,-2.0408545,0.19124106,-0.38331848,0
1.370000000000001,13.611551701228553,-2.999844518381871,0.7106545185210124,0.6667808315051666,16.131077,-4.1651754,-3.08068,0.5746621,6.5878916,-6.5783668,1.5905267,0.42090705,0.0041079065,0.2812612,0.862388,-8.187374,9.718999,0.017843025,-2.1903973,0.2722073,-0.3317898,0
1.380000000000001,13.611551701228553,-2.999844518381871,0.7106545185210124,0.6667808315051666,16.131077,-4.1651754,-3.08068,0.5746621,6.506181,-6.4808497,1.5907891,0.4218179,-0.0023957826,0.27217203,0.86486226,-8.155105,9.784111,0.034833115,-2.3166258,0.34053624,-0.28278965,0
1.390000000000001,13.611551701228553,-2.999844518381871,0.7106545185210124,0.6667808315051666,16.131077,-4.1651754,-3.08068,0.5746621,6.424781,-6.3826885,1.5912281,0.42237654,-0.00935076,0.26267606,0.8674747,-8.125411,9.848002,0.05319266,-2.4231749,0.3982021,-0.23619393,0
1.400000000000001,13.159959626998235,-3.211831202539437,0.34138808112838664,1.084851540394808,15.726973,-4.4174953,-3.0997834,0.9537927,6.3436637,-6.283894,1.5918576,0.42259967,-0.016681664,0.25282916,0.87017757,-8.098476,9.910627,0.072902516,-2.5131116,0.4468702,-0.19188468,0
1.410000000000001,13.159959626998235,-3.211831202539437,0.34138808112838664,1.084851540394808,15.726973,-4.4174953,-3.0997834,0.9537927,6.2627974,-6.1844907,1.5926709,0.42249218,-0.024218945,0.24254362,0.8729758,-8.075253,9.969896,0.08997812,-2.622096,0.43032706,-0.12923488,0
1.420000000000001,13.159959626998235,-3.211831202539437,0.34138808112838664,1.084851540394808,15.726973,-4.4174953,-3.0997834,0.9537927,6.1821485,-6.0845013,1.5936613,0.42204976,-0.03182317,0.23175287,0.87587225,-8.054964,10.02778,0.10830576,-2.7140825,0.4163595,-0.069659315,0
1.430000000000001,13.159959626998235,-3.211831202539437,0.34138808112838664,1.084851540394808,15.726973,-4.4174953,-3.0997834,0.9537927,6.1016874,-5.9839406,1.5948411,0.42127487,-0.039476335,0.22053,0.87882644,-8.037707,10.084158,0.12785359,-2.7917216,0.40456843,-0.01300714,0
1.440000000000001,13.159959626998235,-3.211831202539437,0.34138808112838664,1.084851540394808,15.138395,-4.257885,-3.497395,1.2054642,6.0213833,-5.882824,1.5962223,0.4201714,-0.047163486,0.20893753,0.8818032,-8.023567,10.138924,0.14857332,-2.8572514,0.3946159,0.04086511,0
1.450000000000001,13.159959626998235,-3.211831202539437,0.34138808112838664,1.084851540394808,15.138395,-4.257885,-3.497395,1.2054642,5.9412045,-5.7811685,1.5978162,0.4187444,-0.0548722,0.19702901,0.8847723,-8.012611,10.191972,0.17040293,-2.9125607,0.38621646,0.092093825,0
1.460000000000001,13.159959626998235,-3.211831202539437,0.34138808112838664,1.084851540394808,15.138395,-4.257885,-3.497395,1.2054642,5.8611197,-5.6789913,1.5996338,0.41699964,-0.06259217,0.18485042,0.88770723,-8.004899,10.243207,0.19326864,-2.9592435,0.37912872,0.14080873,0
1.470000000000001,13.159959626998235,-3.211831202539437,0.34138808112838664,1.084851540394808,15.138395,-4.257885,-3.497395,1.2054642,5.7810955,-5.5763106,1.6016848,0.41494372,-0.07031487,0.1724413,0.8905851,-8.000475,10.292539,0.21708715,-2.9986453,0.37314913,0.18713318,0
1.480000000000001,13.006430504250813,-3.328788797966939,0.04243462113076077,1.4365052542417218,13.760683,-3.1654403,-3.6420414,1.2139834,5.701099,-5.473147,1.6039785,0.41258362,-0.078033194,0.15983576,0.893386,-7.9993753,10.339878,0.24176708,-3.0319016,0.3681047,0.23118445,0
1.490000000000001,13.006430504250813,-3.328788797966939,0.04243462113076077,1.4365052542417218,13.760683,-3.1654403,-3.6420414,1.2139834,5.621097,-5.3695226,1.6065155,0.40990254,-0.08564667,0.14697556,0.89612675,-8.001597,10.384611,0.26577148,-3.0782056,0.31719106,0.2903299,0
1.500000000000001,13.006430504250813,-3.328788797966939,0.04243462113076077,1.4365052542417218,13.760683,-3.1654403,-3.6420414,1.2139834,5.541056,-5.265462,1.6092962,0.40688035,-0.093074515,0.13381773,0.89882076,-8.007131,10.427169,0.29044637,-3.117286,0.2742213,0.34657302,0
1.5100000000000011,13.006430504250813,-3.328788797966939,0.04243462113076077,1.4365052542417218,13.760683,-3.1654403,-3.6420414,1.2139834,5.4609437,-5.160987,1.6123265,0.40352067,-0.100338094,0.12041031,0.9014461,-8.0159645,10.467427,0.31570217,-3.1502702,0.23795694,0.4000563,0
1.5200000000000011,13.206817591338165,-3.3547955055754377,-0.4342736187995206,1.6940976178852667,13.331312,-3.1983504,-3.989458,1.4721187,5.3807254,-5.0561213,1.6156119,0.39982864,-0.10745569,0.10679445,0.90398324,-8.028083,10.505274,0.34144166,-3.178109,0.20735282,0.45091513,0
1.5300000000000011,13.206817591338165,-3.3547955055754377,-0.4342736187995206,1.6940976178852667,13.331312,-3.1983504,-3.989458,1.4721187,5.300369,-4.950887,1.6191663,0.3957999,-0.11427117,0.092923634,0.9064492,-8.043694,10.541141,0.36947858,-3.2056382,0.107156135,0.5119185,0
1.5400000000000011,13.206817591338165,-3.3547955055754377,-0.4342736187995206,1.6940976178852667,13.331312,-3.1983504,-3.989458,1.4721187,5.21984,-4.845308,1.6230025,0.39142567,-0.12066125,0.07876507,0.90885824,-8.062536,10.574292,0.3978161,-3.228872,0.02259079,0.5699284,0
1.5500000000000012,13.206817591338165,-3.3547955055754377,-0.4342736187995206,1.6940976178852667,13.331312,-3.1983504,-3.989458,1.4721187,5.139107,-4.7394114,1.6271234,0.38670713,-0.12668495,0.06437006,0.911189,-8.084526,10.60458,0.42636415,-3.2484818,-0.048780974,0.6250917,0
1.5600000000000012,13.453345668356416,-3.2385819272874667,-0.9581240003953876,1.7935435076519899,15.050674,-3.826358,-5.1191397,2.7601173,5.058139,-4.633227,1.6315303,0.3816475,-0.13239242,0.049782336,0.91342187,-8.109575,10.631868,0.45502532,-3.2650332,-0.1090164,0.67754805,0
1.5700000000000012,13.453345668356416,-3.2385819272874667,-0.9581240003953876,1.7935435076519899,15.050674,-3.826358,-5.1191397,2.7601173,4.9769025,-4.5267825,1.6362358,0.37625647,-0.13761646,0.035003927,0.9155696,-8.138115,10.656483,0.48606607,-3.2608414,-0.24154873,0.7323103,0
1.5800000000000012,13.453345668356416,-3.2385819272874667,-0.9581240003953876,1.7935435076519899,15.050674,-3.826358,-5.1191397,2.7601173,4.8953667,-4.4201093,1.6412514,0.37053958,-0.14222714,0.020040624,0.9176439,-8.16952,10.677764,0.5170339,-3.257305,-0.35340726,0.7843854,0
1.5900000000000012,13.453345668356416,-3.2385819272874667,-0.9581240003953876,1.7935435076519899,15.050674,-3.826358,-5.1191397,2.7601173,4.813503,-4.3132396,1.646576,0.36449736,-0.14631422,0.0049319454,0.9196247,-8.203627,10.695567,0.5478428,-3.2543225,-0.44781613,0.83390504,0
1.6000000000000012,13.436693698090718,-2.8820747826284805,-1.428336735693382,1.740818481293284,13.44067,-2.9141624,-5.243284,1.5185083,4.7312856,-4.2062097,1.6522074,0.35813278,-0.14995375,-0.010288563,0.9214928,-8.240277,10.709769,0.57840025,-3.2518084,-0.52749676,0.8809948,0
1.6100000000000012,13.436693698090718,-2.8820747826284805,-1.428336735693382,1.740818481293284,13.44067,-2.9141624,-5.243284,1.5185083,4.6486897,-4.0990562,1.658142,0.35147572,-0.152986,-0.025528636,0.92325974,-8.279264,10.720248,0.6084535,-3.1940498,-0.6680372,0.92318654,0
1.6200000000000012,13.436693698090718,-2.8820747826284805,-1.428336735693382,1.740818481293284,13.44067,-2.9141624,-5.243284,1.5185083,4.565693,-3.9918177,1.664375,0.34455198,-0.15528928,-0.040711977,0.92493886,-8.3204,10.726925,0.63808817,-3.1453056,-0.7866584,0.96330804,0
1.6300000000000012,13.436693698090718,-2.8820747826284805,-1.428336735693382,1.740818481293284,13.44067,-2.9141624,-5.243284,1.5185083,4.482275,-3.8845313,1.670902,0.33736157,-0.15697414,-0.055834044,0.92651445,-8.363452,10.729716,0.6672349,-3.1041703,-0.8867792,1.0014607,0
1.6400000000000012,13.436693698090718,-2.8820747826284805,-1.428336735693382,1.740818481293284,12.792231,-2.3741336,-5.6436763,1.1022769,4.398418,-3.7772367,1.6777177,0.32990658,-0.15813401,-0.070891134,0.9279708,-8.408204,10.728553,0.6958193,-3.0694568,-0.97128487,1.0377411,0
1.6500000000000012,13.436693698090718,-2.8820747826284805,-1.428336735693382,1.740818481293284,12.792231,-2.3741336,-5.6436763,1.1022769,4.314106,-3.6699739,1.6848161,0.32219088,-0.15884778,-0.08588014,0.9292928,-8.454458,10.723384,0.7237626,-3.0401633,-1.0426105,1.0722412,0
1.6600000000000013,13.436693698090718,-2.8820747826284805,-1.428336735693382,1.740818481293284,12.792231,-2.3741336,-5.6436763,1.1022769,4.229324,-3.562783,1.6921905,0.31421974,-0.1591821,-0.100798346,0.9304659,-8.502029,10.714167,0.7509819,-3.015444,-1.1028116,1.1050484,0
1.6700000000000013,13.436693698090718,-2.8820747826284805,-1.428336735693382,1.740818481293284,12.792231,-2.3741336,-5.6436763,1.1022769,4.144061,-3.4557045,1.699833,0.30599946,-0.15919325,-0.115643315,0.93147653,-8.550749,10.70087,0.77739173,-2.9945853,-1.1536231,1.1362457,0
1.6800000000000013,14.013746578159914,-2.531955108519972,-1.5000431352870496,1.6207529698641645,12.009228,-1.9112902,-5.931847,0.89271384,4.0583057,-3.3487797,1.7077353,0.29753718,-0.15892878,-0.13041277,0.9323121,-8.600451,10.683472,0.8029037,-2.9769843,-1.1965094,1.1659123,0
1.6900000000000013,14.013746578159914,-2.531955108519972,-1.5000431352870496,1.6207529698641645,12.009228,-1.9112902,-5.931847,0.89271384,3.9720387,-3.2420537,1.7159141,0.2888732,-0.15835911,-0.14498481,0.9329813,-8.653151,10.661043,0.83269733,-2.9075282,-1.2438349,1.1882315,0
1.7000000000000013,14.013746578159914,-2.531955108519972,-1.5000431352870496,1.6207529698641645,12.009228,-1.9112902,-5.931847,0.89271384,3.8852408,-3.1355736,1.7243855,0.28004432,-0.15746453,-0.15926313,0.9334963,-8.706519,10.634367,0.86139274,-2.848909,-1.2837847,1.2094554,0
1.7100000000000013,14.013746578159914,-2.531955108519972,-1.5000431352870496,1.6207529698641645,12.009228,-1.9112902,-5.931847,0.89271384,3.7979066,-3.029381,1.733138,0.27105343,-0.15629512,-0.17328027,0.93385,-8.76037,10.60349,0.88892543,-2.7994363,-1.3175082,1.2296379,0
1.7200000000000013,14.390094291518993,-1.941560135203824,-1.5629490399266717,1.3714427768259179,11.553455,-1.1583776,-6.2118206,0.14784765,3.7100322,-2.923518,1.7421597,0.2619043,-0.15489282,-0.18706362,0.9340351,-8.814532,10.56846,0.9152298,-2.757683,-1.3459755,1.2488301,0
1.7300000000000013,14.390094291518993,-1.941560135203824,-1.5629490399266717,1.3714427768259179,11.553455,-1.1583776,-6.2118206,0.14784765,3.6216083,-2.8180308,1.7514547,0.25266224,-0.15320282,-0.20042704,0.9340877,-8.870295,10.528289,0.94355255,-2.630376,-1.3797191,1.2548467,0
1.7400000000000013,14.390094291518993,-1.941560135203824,-1.5629490399266717,1.3714427768259179,11.553455,-1.1583776,-6.2118206,0.14784765,3.5326266,-2.712966,1.7610261,0.2433857,-0.1511857,-0.21322615,0.9340455,-8.926002,10.484042,0.97053266,-2.5229273,-1.4082153,1.260568,0
1.7500000000000013,14.390094291518993,-1.941560135203824,-1.5629490399266717,1.3714427768259179,11.553455,-1.1583776,-6.2118206,0.14784765,3.443089,-2.6083634,1.7708607,0.23406939,-0.14889409,-0.22553837,0.93390286,-8.981456,10.435855,0.9961623,-2.4322386,-1.4322801,1.2660087,0
1.7600000000000013,14.351805868510064,-1.1427676838201524,-1.4385865768667891,1.0321652780097337,10.797068,-1.3495657,-5.80723,-0.37652898,3.3529987,-2.5042617,1.7809447,0.22470947,-0.14637165,-0.23742904,0.9336533,-9.036484,10.383853,1.0204304,-2.355696,-1.4526026,1.2711824,0
1.7700000000000014,14.351805868510064,-1.1427676838201524,-1.4385865768667891,1.0321652780097337,10.797068,-1.3495657,-5.80723,-0.37652898,3.2623618,-2.400698,1.7912631,0.2154016,-0.14362092,-0.24865061,0.9333531,-9.090779,10.328315,1.043011,-2.1665533,-1.4502438,1.2594538,0
1.7800000000000014,14.351805868510064,-1.1427676838201524,-1.4385865768667891,1.0321652780097337,10.797068,-1.3495657,-5.80723,-0.37652898,3.1711857,-2.297707,1.8018006,0.20622954,-0.14064825,-0.25901386,0.9330591,-9.144323,10.269321,1.0642812,-2.0069065,-1.4482802,1.2483007,0
1.7900000000000014,14.351805868510064,-1.1427676838201524,-1.4385865768667891,1.0321652780097337,10.797068,-1.3495657,-5.80723,-0.37652898,3.0794785,-2.1953225,1.8125445,0.19717416,-0.13749117,-0.26864794,0.932763,-9.196964,10.2071,1.0843073,-1.8721559,-1.4466461,1.237695,0
1.8000000000000014,14.053871834521779,-0.36537658329070594,-1.268354193814278,0.6245962989125747,9.762711,-0.32229796,-5.882811,-1.1132578,2.98725,-2.0935755,1.8234825,0.1882191,-0.13418025,-0.27766156,0.93245554,-9.248576,10.141846,1.1031466,-1.7584189,-1.445286,1.2276096,0
1.8100000000000014,14.053871834521779,-0.36537658329070594,-1.268354193814278,0.6245962989125747,9.762711,-0.32229796,-5.882811,-1.1132578,2.8945162,-1.9924883,1.8345914,0.17945832,-0.1307327,-0.28585103,0.93219787,-9.297997,10.075163,1.118454,-1.5412242,-1.41749,1.1980195,0
1.8200000000000014,14.053871834521779,-0.36537658329070594,-1.268354193814278,0.6245962989125747,9.762711,-0.32229796,-5.882811,-1.1132578,2.8012943,-1.8920808,1.8458481,0.17097302,-0.1271644,-0.29306337,0.9320468,-9.346199,10.005954,1.1327693,-1.3578953,-1.3940643,1.1698815,0
1.8300000000000014,14.053871834521779,-0.36537658329070594,-1.268354193814278,0.6245962989125747,9.762711,-0.32229796,-5.882811,-1.1132578,2.7075968,-1.792377,1.8572437,0.16273232,-0.123495445,-0.29945087,0.9319851,-9.393095,9.934474,1.1462122,-1.2031515,-1.3743207,1.1431241,0
1.8400000000000014,14.053871834521779,-0.36537658329070594,-1.268354193814278,0.6245962989125747,9.276892,1.0392766,-6.006802,-1.4622653,2.6134372,-1.6933984,1.8687698,0.15470941,-0.119741626,-0.3051415,0.93199545,-9.438618,9.86094,1.1588864,-1.0725359,-1.3576802,1.1176797,0
1.8500000000000014,14.053871834521779,-0.36537658329070594,-1.268354193814278,0.6245962989125747,9.276892,1.0392766,-6.006802,-1.4622653,2.5188293,-1.5951645,1.880419,0.14688103,-0.11591543,-0.31024277,0.9320616,-9.48271,9.785538,1.1708817,-0.96228623,-1.3436543,1.0934839,0
1.8600000000000014,14.053871834521779,-0.36537658329070594,-1.268354193814278,0.6245962989125747,9.276892,1.0392766,-6.006802,-1.4622653,2.423788,-1.4976934,1.8921853,0.13922697,-0.112026736,-0.31484506,0.9321686,-9.525326,9.708429,1.1822752,-0.86922693,-1.331832,1.0704755,0
1.8700000000000014,14.053871834521779,-0.36537658329070594,-1.268354193814278,0.6245962989125747,9.276892,1.0392766,-6.006802,-1.4622653,2.3283281,-1.4010013,1.9040629,0.13172981,-0.108083375,-0.31902435,0.9323028,-9.566424,9.629753,1.193132,-0.7906775,-1.3218668,1.0485961,0
1.8800000000000014,13.746491790998236,0.3951241330208323,-0.6680034301117065,0.23917403234155896,9.910328,2.921976,-5.853367,-2.9161246,2.2324648,-1.3051032,1.9160464,0.12437437,-0.10409163,-0.3228446,0.9324522,-9.605974,9.54963,1.2035074,-0.7243756,-1.3134663,1.0277903,0
1.8900000000000015,13.746491790998236,0.3951241330208323,-0.6680034301117065,0.23917403234155896,9.910328,2.921976,-5.853367,-2.9161246,2.136218,-1.2100041,1.9281198,0.117301315,-0.1002284,-0.32605198,0.932676,-9.6431265,9.469968,1.2110949,-0.5498883,-1.2126759,0.9890927,0
1.9000000000000015,13.746491790998236,0.3951241330208323,-0.6680034301117065,0.23917403234155896,9.910328,2.921976,-5.853367,-2.9161246,2.0396075,-1.1157073,1.9402672,0.11062777,-0.09663474,-0.3284527,0.9330283,-9.678798,9.389224,1.2183725,-0.402596,-1.1276298,0.95229405,0
1.9100000000000015,13.746491790998236,0.3951241330208323,-0.6680034301117065,0.23917403234155896,9.910328,2.921976,-5.853367,-2.9161246,1.9426472,-1.0222225,1.9524864,0.10430913,-0.09326631,-0.33017597,0.9334905,-9.713056,9.307614,1.225452,-0.27826074,-1.055868,0.917301,0
1.9200000000000015,13.110925797804118,0.8060783598166207,-0.5922691701649001,-0.17455982605926945,10.491991,3.094017,-5.3131304,-2.441605,1.8453511,-0.9295574,1.9647759,0.09830678,-0.09008512,-0.33132994,0.93404526,-9.745963,9.22532,1.2324288,-0.17330435,-0.9953142,0.8840251,0
1.9300000000000015,13.110925797804118,0.8060783598166207,-0.5922691701649001,-0.17455982605926945,10.491991,3.094017,-5.3131304,-2.441605,1.7477397,-0.83769876,1.9771105,0.092659906,-0.08705429,-0.3318533,0.93472385,-9.776113,9.14633,1.2345333,-0.020638086,-0.9323707,0.83208007,0
1.9400000000000015,13.110925797804118,0.8060783598166207,-0.5922691701649001,-0.17455982605926945,10.491991,3.094017,-5.3131304,-2.441605,1.6498328,-0.74663186,1.9894667,0.08740341,-0.08414137,-0.3317024,0.93555003,-9.805076,9.067012,1.2367294,0.108230636,-0.8792654,0.7826839,0
1.9500000000000015,13.110925797804118,0.8060783598166207,-0.5922691701649001,-0.17455982605926945,10.491991,3.094017,-5.3131304,-2.441605,1.5516421,-0.6563591,2.0018456,0.08250013,-0.08132219,-0.33098418,0.93649846,-9.832899,8.987529,1.2391174,0.21701117,-0.8344595,0.7357117,0
1.9600000000000015,12.258977996007008,1.103515211210964,-0.5170468766951408,-0.5546527367373686,9.705626,3.1654415,-4.987871,-2.920352,1.4531786,-0.56688136,2.0142496,0.077917635,-0.0785762,-0.3297883,0.9375467,-9.859624,8.908018,1.241782,0.30883458,-0.7966549,0.6910444,0
1.9700000000000015,12.258977996007008,1.103515211210964,-0.5170468766951408,-0.5546527367373686,9.705626,3.1654415,-4.987871,-2.920352,1.3544617,-0.47817254,2.0266492,0.07369081,-0.07588972,-0.3280798,0.9387084,-9.883619,8.833765,1.2382268,0.43271485,-0.7530114,0.6299177,0
1.9800000000000015,12.258977996007008,1.103515211210964,-0.5170468766951408,-0.5546527367373686,9.705626,3.1654415,-4.987871,-2.920352,1.2555095,-0.39020526,2.0390155,0.0698508,-0.07324959,-0.32583472,0.93999285,-9.906661,8.75973,1.2350798,0.53728354,-0.71619004,0.5717905,0
1.9900000000000015,12.258977996007008,1.103515211210964,-0.5170468766951408,-0.5546527367373686,9.705626,3.1654415,-4.987871,-2.920352,1.1563314,-0.30297673,2.0513527,0.06636571,-0.07064056,-0.32313722,0.9413752,-9.928783,8.686035,1.2324146,0.6255509,-0.68512315,0.5165156,0
2.0000000000000013,,,,,7.3208256,3.0366342,-5.1904154,-2.6966965,1.0569367,-0.21648298,2.0636659,0.063207366,-0.068049945,-0.32005796,0.94283426,-9.950016,8.612784,1.2302914,0.7000579,-0.6589106,0.4639531,0
2.010000000000001,,,,,7.3208256,3.0366342,-5.1904154,-2.6966965,0.95733815,-0.13070448,2.075941,0.060366984,-0.06537615,-0.31665412,0.9443577,-9.969561,8.543,1.2248613,0.76711565,-0.66840005,0.3965828,0
2.020000000000001,,,,,7.3208256,3.0366342,-5.1904154,-2.6966965,0.85754836,-0.045620963,2.088165,0.057841398,-0.062536485,-0.3129737,0.94593364,-9.988268,8.4738,1.2200398,0.82371604,-0.67641604,0.33251843,0
2.0300000000000007,,,,,7.3208256,3.0366342,-5.1904154,-2.6966965,0.75757575,0.038773738,2.100344,0.05561427,-0.05954713,-0.30905893,0.9475459,-10.0061245,8.405246,1.2158601,0.8714901,-0.6831866,0.27159768,0
2.0400000000000005,,,,,7.3208256,3.0366342,-5.1904154,-2.6966965,0.6574288,0.12248636,2.1124845,0.053670295,-0.056422267,-0.30494535,0.9491806,-10.02312,8.337394,1.2123476,0.9118144,-0.6889042,0.21366632,0
2.0500000000000003,,,,,6.6350093,2.9256806,-4.865758,-2.646856,0.55711627,0.20552419,2.124593,0.051995095,-0.053174414,-0.30066276,0.9508261,-10.039243,8.270292,1.2095205,0.9458509,-0.69373214,0.15857767,1
2.06,,,,,6.6350093,2.9256806,-4.865758,-2.646856,0.4566524,0.28791818,2.1366434,0.050508793,-0.049319185,-0.2966797,0.9523639,-10.053363,8.208746,1.2004572,0.8087291,-0.8985837,0.060779788,1
2.07,,,,,6.6350093,2.9256806,-4.865758,-2.646856,0.3560531,0.36970425,2.1485996,0.04915715,-0.044412456,-0.29332018,0.95371574,-10.066294,8.148688,1.1906912,0.7092158,-1.0877184,-0.03367117,1
2.0799999999999996,,,,,6.6350093,2.9256806,-4.865758,-2.646856,0.2553312,0.45089668,2.1604545,0.04796,-0.038518075,-0.29040992,0.9549228,-10.077865,8.090011,1.1801192,0.64173603,-1.263881,-0.124965146,1
2.0899999999999994,,,,,8.571787,1.0355363,-4.9674225,-1.3726698,0.15450098,0.5315089,2.172199,0.04693086,-0.031689472,-0.28779852,0.95601493,-10.087928,8.032636,1.1686599,0.60152364,-1.429326,-0.2132773,1
2.099999999999999,,,,,8.571787,1.0355363,-4.9674225,-1.3726698,0.05358217,0.6115786,2.1837864,0.045760997,-0.02323004,-0.28538495,0.95703757,-10.095564,7.981546,1.1485611,0.5877241,-1.8997498,-0.26287627,1
2.109999999999999,,,,,8.571787,1.0355363,-4.9674225,-1.3726698,-0.04740377,0.6911451,2.1951647,0.04418761,-0.012567664,-0.2830515,0.95800346,-10.101303,7.9319935,1.126869,0.60006195,-2.3208208,-0.31218803,1
2.1199999999999988,,,,,8.571787,1.0355363,-4.9674225,-1.3726698,-0.14843635,0.7702235,2.206318,0.042279214,8.360646e-05,-0.2806565,0.9588763,-10.104853,7.883902,1.103615,0.63351554,-2.6992881,-0.36114174,1
2.1299999999999986,,,,,8.542273,0.290078,-4.7459393,-1.1652579,-0.24949247,0.848828,2.2172308,0.040091332,0.014536172,-0.2780802,0.95961046,-10.105978,7.8372297,1.0788168,0.6839104,-3.0409122,-0.40967593,1
2.1399999999999983,,,,,8.542273,0.290078,-4.7459393,-1.1652579,-0.35054693,0.9269722,2.2278895,0.037677657,0.030505333,-0.27551898,0.96007216,-10.1044855,7.791655,1.0529467,0.62234205,-3.3068087,-0.44675258,1
2.149999999999998,,,,,8.542273,0.290078,-4.7459393,-1.1652579,-0.45157245,1.0046622,2.2382898,0.03509818,0.047678906,-0.27319103,0.9601359,-10.100162,7.746376,1.0271478,0.5703795,-3.5312386,-0.48200983,1
2.159999999999998,,,,,8.542273,0.290078,-4.7459393,-1.1652579,-0.55253977,1.0819007,2.2484322,0.032401565,0.065866545,-0.2710318,0.9597671,-10.092821,7.701386,1.0012858,0.52652615,-3.7206683,-0.515537,1
2.1699999999999977,,,,,7.1104894,-0.95717585,-4.576057,-1.5277435,-0.65341794,1.1586908,2.2583148,0.029627206,0.084904425,-0.26898628,0.95893645,-10.082312,7.656694,0.97521615,0.489518,-3.8805566,-0.54741895,1
2.1799999999999975,,,,,7.1104894,-0.95717585,-4.576057,-1.5277435,-0.75418586,1.2350727,2.267875,0.02691371,0.10458362,-0.26748076,0.9574922,-10.07083,7.619744,0.93676615,0.26374343,-3.9889476,-0.5955237,1
2.1899999999999973,,,,,7.1104894,-0.95717585,-4.576057,-1.5277435,-0.854825,1.3110862,2.2770483,0.024388473,0.12473214,-0.26684925,0.9553208,-10.056564,7.5829787,0.8978274,0.073184684,-4.0804358,-0.6412681,1
2.199999999999997,,,,,7.1104894,-0.95717585,-4.576057,-1.5277435,-0.9553075,1.3867326,2.285829,0.022062453,0.14526747,-0.2669238,0.9524503,-10.039487,7.546325,0.8582095,-0.08764963,-4.157658,-0.68476766,1
2.209999999999997,,,,,6.6920114,-1.9152498,-4.9944997,-1.4637378,-1.055605,1.4620128,2.2942095,0.01994089,0.16611686,-0.2675615,0.9489034,-10.019591,7.509731,0.81773037,-0.22339466,-4.222841,-0.72613275,1
2.2199999999999966,,,,,6.6920114,-1.9152498,-4.9944997,-1.4637378,-1.1556962,1.536938,2.3021634,0.018038636,0.18736425,-0.26900834,0.944565,-9.998214,7.475301,0.7728772,-0.48739776,-4.3430443,-0.7623272,1
2.2299999999999964,,,,,6.6920114,-1.9152498,-4.9944997,-1.4637378,-1.2555602,1.6115184,2.3096628,0.01637229,0.20906717,-0.27144685,0.93932885,-9.974181,7.4407997,0.72683203,-0.7102205,-4.4445124,-0.7967456,1
