time-since-start [s],throttle_mpc,roll_mpc,pitch_mpc,yaw_mpc,throttle_nw,roll_nw,pitch_nw,yaw_nw,position_x [m],position_y [m],position_z [m],rotation_w [quaternion],rotation_x [quaternion],rotation_y [quaternion],rotation_z [quaternion],velocity_x [m/s],velocity_y [m/s],velocity_z [m/s],omega_x [rad/s],omega_y [rad/s],omega_z [rad/s],network_used
0.0,8.592170186834661,5.999999620403997,-5.999999935697329,-5.758901667564079,10.454208,0.81359637,-5.6143637,-1.8234203,20.496525,-8.416842,1.864735,-0.21409737,-0.45685852,0.2695346,0.82024,-10.360852,-6.8645864,0.4285045,2.0541573,-0.5095245,-0.037589304,0
0.01,8.592170186834661,5.999999620403997,-5.999999935697329,-5.758901667564079,14.340048,1.3405504,-5.7033796,-2.7757106,20.392082,-8.485247,1.8689486,-0.20823438,-0.45679805,0.27800804,0.81895393,-10.526739,-6.815952,0.41362044,1.9340614,-0.6306182,-0.2196796,0
0.02,8.592170186834661,5.999999620403997,-5.999999935697329,-5.758901667564079,14.340048,1.3405504,-5.7033796,-2.7757106,20.286003,-8.553153,1.8729947,-0.20170963,-0.45636725,0.28570688,0.81817704,-10.688273,-6.765067,0.39505163,1.8332971,-0.7334229,-0.39726013,0
0.03,8.592170186834661,5.999999620403997,-5.999999935697329,-5.758901667564079,14.340048,1.3405504,-5.7033796,-2.7757106,20.178331,-8.620541,1.8768382,-0.19452246,-0.4556592,0.29269403,0.8178422,-10.845389,-6.7121196,0.37315008,1.7487433,-0.82068443,-0.57044256,0
0.04,8.592170186834661,5.999999620403997,-5.999999935697329,-5.758901667564079,17.365282,4.1712313,-6.0352554,-3.1523447,20.069109,-8.687389,1.8804473,-0.18667515,-0.45475042,0.29902294,0.8178873,-10.998051,-6.6572804,0.34821817,1.6777838,-0.89473987,-0.7393359,0
0.05,8.592170186834661,5.999999620403997,-5.999999935697329,-5.758901667564079,17.365282,4.1712313,-6.0352554,-3.1523447,19.958384,-8.75368,1.8837931,-0.17817226,-0.45370337,0.30473903,0.8182555,-11.146245,-6.6007104,0.32051706,1.6182268,-0.9575768,-0.9040463,0
0.060000000000000005,8.592170186834661,5.999999620403997,-5.999999935697329,-5.758901667564079,17.365282,4.1712313,-6.0352554,-3.1523447,19.846199,-8.819399,1.8868489,-0.16902018,-0.45256886,0.30988103,0.818894,-11.289975,-6.5425606,0.2902738,1.5682349,-1.0108851,-1.0646774,0
0.07,8.592170186834661,5.999999620403997,-5.999999935697329,-5.758901667564079,17.365282,4.1712313,-6.0352554,-3.1523447,19.7326,-8.884528,1.8895905,-0.15922672,-0.4513877,0.31448203,0.8197543,-11.42926,-6.4829745,0.25768727,1.5262676,-1.056102,-1.2213303,0
0.08,11.386358357984747,5.999999877147007,-5.9999999829745025,-5.685214284443371,15.861061,5.740073,-6.0837007,-4.671284,19.617628,-8.949054,1.8919952,-0.14880091,-0.45019242,0.31857044,0.82079107,-11.564131,-6.4220867,0.22293325,1.491033,-1.0944498,-1.3741034,0
0.09,11.386358357984747,5.999999877147007,-5.9999999829745025,-5.685214284443371,15.861061,5.740073,-6.0837007,-4.671284,19.50125,-9.012927,1.8940797,-0.1375902,-0.44887686,0.32235652,0.8219883,-11.710717,-6.3523526,0.19373393,1.5432421,-1.2089298,-1.5274606,0
0.09999999999999999,11.386358357984747,5.999999877147007,-5.9999999829745025,-5.685214284443371,15.861061,5.740073,-6.0837007,-4.671284,19.383425,-9.076093,1.895865,-0.12540627,-0.44728637,0.32609192,0.8233299,-11.853774,-6.280582,0.16309723,1.614963,-1.3332661,-1.6757666,0
0.10999999999999999,11.386358357984747,5.999999877147007,-5.9999999829745025,-5.685214284443371,15.861061,5.740073,-6.0837007,-4.671284,19.264187,-9.138531,1.8973371,-0.112209514,-0.44537315,0.32985368,0.8247717,-11.993106,-6.206722,0.13110335,1.7035569,-1.4663284,-1.8193055,0
0.11999999999999998,11.386358357984747,5.999999877147007,-5.9999999829745025,-5.685214284443371,15.861061,5.740073,-6.0837007,-4.671284,19.143576,-9.200219,1.8984827,-0.097967036,-0.44308847,0.33370456,0.82626647,-12.1285095,-6.1307087,0.09783007,1.806696,-1.6070614,-1.9583385,0
0.12999999999999998,15.578769169035422,5.999999965877518,-6.0,-5.079201370369782,16.726553,5.3176403,-6.303357,-4.3151336,19.021631,-9.261137,1.8992894,-0.08265225,-0.44038275,0.33769432,0.8277646,-12.259769,-6.052475,0.06335454,1.922327,-1.754483,-2.093106,0
0.13999999999999999,15.578769169035422,5.999999965877518,-6.0,-5.079201370369782,16.726553,5.3176403,-6.303357,-4.3151336,18.898304,-9.321204,1.8997903,-0.06587922,-0.436815,0.34232602,0.829256,-12.404533,-5.9605527,0.03657165,2.2461903,-2.1057765,-2.2117634,0
0.15,15.578769169035422,5.999999965877518,-6.0,-5.079201370369782,16.726553,5.3176403,-6.303357,-4.3151336,18.773561,-9.38034,1.9000156,-0.04730663,-0.4319666,0.34801638,0.8306935,-12.5431185,-5.8660607,0.008269547,2.5616388,-2.4444442,-2.3283644,0
0.16,19.608437629970886,5.999999992430449,-6.0,-4.191768900592054,17.904749,7.2476892,-6.570158,-6.1375976,18.647465,-9.438516,1.8999509,-0.026981758,-0.42581686,0.3546723,0.83196133,-12.675066,-5.76861,-0.021403847,2.8689072,-2.7713704,-2.4429133,0
0.17,19.608437629970886,5.999999992430449,-6.0,-4.191768900592054,17.904749,7.2476892,-6.570158,-6.1375976,18.520006,-9.495639,1.899625,-0.004619288,-0.4179053,0.36264697,0.8329593,-12.815778,-5.655021,-0.04373087,3.3562157,-3.275835,-2.5287302,0
0.18000000000000002,19.608437629970886,5.999999992430449,-6.0,-4.191768900592054,17.904749,7.2476892,-6.570158,-6.1375976,18.39117,-9.551593,1.8990779,0.019872403,-0.40792844,0.3720682,0.83352566,-12.95052,-5.53469,-0.06562852,3.7676165,-3.7015438,-2.6103358,0
0.19000000000000003,19.608437629970886,5.999999992430449,-6.0,-4.191768900592054,17.904749,7.2476892,-6.570158,-6.1375976,18.261023,-9.606308,1.8983145,0.0461782,-0.396078,0.38254386,0.8334568,-13.078089,-5.407124,-0.08696279,4.114941,-4.060785,-2.6879373,0
0.20000000000000004,20.99999980780298,5.9999999835298174,-6.0,-3.499770174085521,19.895311,7.580443,-7.3049273,-5.034462,18.129637,-9.65971,1.8973409,0.07401657,-0.38252088,0.39373744,0.8325685,-13.19731,-5.2721133,-0.10762294,4.408176,-4.363929,-2.7617307,0
0.21000000000000005,20.99999980780298,5.9999999835298174,-6.0,-3.499770174085521,19.895311,7.580443,-7.3049273,-5.034462,17.997068,-9.711676,1.8961923,0.10306238,-0.36737233,0.40539342,0.83070576,-13.314836,-5.119601,-0.12197317,4.655852,-4.619628,-2.7979467,0
0.22000000000000006,20.99999980780298,5.9999999835298174,-6.0,-3.499770174085521,19.895311,7.580443,-7.3049273,-5.034462,17.863379,-9.762075,1.8949045,0.13301867,-0.3507358,0.4172956,0.8277409,-13.421044,-4.9594684,-0.1354449,4.8649697,-4.8353868,-2.8323855,0
0.23000000000000007,20.99999980780298,5.9999999835298174,-6.0,-3.499770174085521,19.895311,7.580443,-7.3049273,-5.034462,17.72869,-9.81084,1.8934866,0.16368194,-0.3327387,0.42922974,0.8235625,-13.5148535,-4.7922387,-0.1480026,5.041535,-5.017441,-2.8651342,0
0.24000000000000007,20.99999980780298,5.9999999835298174,-6.0,-3.499770174085521,21.38888,6.566596,-6.3443227,-3.8238292,17.593128,-9.857899,1.8919479,0.19486548,-0.3134999,0.44101268,0.818079,-13.595271,-4.6186323,-0.1596382,5.1906157,-5.171054,-2.896276,0
0.25000000000000006,20.99999980780298,5.9999999835298174,-6.0,-3.499770174085521,21.38888,6.566596,-6.3443227,-3.8238292,17.456835,-9.9031925,1.890297,0.22639723,-0.29313117,0.45248803,0.81121707,-13.661411,-4.4395423,-0.17036884,5.316493,-5.3006673,-2.9258895,0
0.26000000000000006,20.99999980780298,5.9999999835298174,-6.0,-3.499770174085521,21.38888,6.566596,-6.3443227,-3.8238292,17.319952,-9.946672,1.8885434,0.25811803,-0.27173838,0.46352232,0.80292,-13.712509,-4.2560105,-0.18023455,5.4227777,-5.4100294,-2.95405,0
0.2700000000000001,20.99999980780298,5.9999999835298174,-6.0,-3.499770174085521,21.38888,6.566596,-6.3443227,-3.8238292,17.182636,-9.988301,1.8866951,0.28988016,-0.24942221,0.47400185,0.7931459,-13.74793,-4.069204,-0.1892957,5.512522,-5.5023036,-2.9808288,0
0.2800000000000001,21.0,5.999999672338284,-5.999999886523095,-2.8618747410805896,20.039967,5.68186,-5.4777875,-2.5913,17.045048,-10.028049,1.88476,0.321546,-0.22627872,0.48382986,0.78186625,-13.7671795,-3.8803904,-0.19763039,5.5883,-5.580159,-3.0062933,0
0.2900000000000001,21.0,5.999999672338284,-5.999999886523095,-2.8618747410805896,20.039967,5.68186,-5.4777875,-2.5913,16.907349,-10.065907,1.8827447,0.35292593,-0.20236185,0.49294212,0.76909107,-13.769908,-3.69092,-0.20533219,5.6524024,-5.6457324,-2.9992065,0
0.3000000000000001,21.0,5.999999672338284,-5.999999886523095,-2.8618747410805896,20.039967,5.68186,-5.4777875,-2.5913,16.769709,-10.1018715,1.8806552,0.3838453,-0.17772406,0.501285,0.7548446,-13.75592,-3.5022001,-0.21250966,5.706527,-5.701061,-2.9924679,0
0.3100000000000001,21.0,5.999999672338284,-5.999999886523095,-2.8618747410805896,20.039967,5.68186,-5.4777875,-2.5913,16.632292,-10.135959,1.8784959,0.41420156,-0.1524537,0.50879705,0.7391351,-13.725171,-3.3156738,-0.2192863,5.7522273,-5.7477455,-2.9860597,0
0.3200000000000001,21.0,3.4106401414392584,-5.485022834772273,0.7211045784037757,19.91038,4.400631,-4.2021894,-1.4821653,16.495264,-10.168198,1.8762704,0.44389918,-0.126636,0.51542634,0.72197837,-13.677772,-3.1328018,-0.22579828,5.790814,-5.7871366,-2.9799657,0
0.3300000000000001,21.0,3.4106401414392584,-5.485022834772273,0.7211045784037757,19.91038,4.400631,-4.2021894,-1.4821653,16.358791,-10.198633,1.8739805,0.47231433,-0.10074623,0.52055085,0.70412815,-13.614071,-2.955036,-0.23214313,5.4203997,-5.738659,-2.798353,0
0.34000000000000014,21.0,3.4106401414392584,-5.485022834772273,0.7211045784037757,19.91038,4.400631,-4.2021894,-1.4821653,16.223034,-10.227322,1.8716286,0.49898854,-0.07517812,0.5237553,0.68632305,-13.535028,-2.783717,-0.23814967,5.107694,-5.697958,-2.625652,0
0.35000000000000014,21.0,3.4106401414392584,-5.485022834772273,0.7211045784037757,19.91038,4.400631,-4.2021894,-1.4821653,16.088139,-10.254334,1.8692194,0.524061,-0.049890272,0.52527064,0.6685522,-13.44178,-2.6200058,-0.24360138,4.843704,-5.6637793,-2.461426,0
0.36000000000000015,21.0,1.9311152978642825,-3.0756127958481874,1.6643227302885906,19.899052,3.1095526,-2.1473346,-0.86139387,15.954243,-10.279751,1.8667591,0.5476468,-0.024844978,0.5252862,0.6507998,-13.335431,-2.464908,-0.24834356,4.620838,-5.6350727,-2.3052583,0
0.37000000000000016,21.0,1.9311152978642825,-3.0756127958481874,1.6643227302885906,19.899052,3.1095526,-2.1473346,-0.86139387,15.821476,-10.303658,1.8642589,0.56928927,-0.0008969391,0.5240766,0.6334453,-13.216474,-2.3183918,-0.25175697,4.1906266,-5.246747,-2.1115673,0
0.38000000000000017,21.0,1.9311152978642825,-3.0756127958481874,1.6643227302885906,19.899052,3.1095526,-2.1473346,-0.86139387,15.689948,-10.326154,1.8617249,0.58866215,0.021290319,0.52202946,0.61685425,-13.0877285,-2.1823742,-0.25494027,3.8393188,-4.9072104,-1.9262834,0
0.3900000000000002,21.0,1.9311152978642825,-3.0756127958481874,1.6643227302885906,19.899052,3.1095526,-2.1473346,-0.86139387,15.559752,-10.347338,1.8591623,0.6060685,0.04201283,0.51932675,0.60101235,-12.949972,-2.055994,-0.25744453,3.5426269,-4.6207924,-1.7500913,0
0.4000000000000002,20.999999958073573,0.4523469017273466,-0.6189559737729999,2.560197635075454,20.985472,1.0990071,-0.21673255,-0.115926616,15.430974,-10.367307,1.856578,0.62176967,0.06152434,0.5160834,0.58589715,-12.804426,-1.939158,-0.25934407,3.2920673,-4.379175,-1.582545,0
0.4100000000000002,20.999999958073573,0.4523469017273466,-0.6189559737729999,2.560197635075454,20.985472,1.0990071,-0.21673255,-0.115926616,15.303709,-10.386138,1.8539921,0.63557106,0.07914126,0.5124555,0.57199275,-12.647939,-1.828632,-0.25798956,2.78938,-3.8527672,-1.3847276,0
0.4200000000000002,20.999999958073573,0.4523469017273466,-0.6189559737729999,2.560197635075454,20.985472,1.0990071,-0.21673255,-0.115926616,15.178025,-10.403916,1.8514153,0.647316,0.09435924,0.50874686,0.5596922,-12.488196,-1.7284062,-0.25753456,2.3970408,-3.3765352,-1.1937444,0
0.4300000000000002,20.999999958073573,0.4523469017273466,-0.6189559737729999,2.560197635075454,20.985472,1.0990071,-0.21673255,-0.115926616,15.053951,-10.420738,1.8488386,0.6572413,0.10762362,0.5052109,0.54882914,-12.326052,-1.6371286,-0.25782275,2.092241,-2.948218,-1.0097443,0
0.4400000000000002,20.999999958073573,0.4523469017273466,-0.6189559737729999,2.560197635075454,20.784193,0.099432446,1.2019451,0.8006604,14.931516,-10.436684,1.84626,0.66558903,0.11930193,0.50193524,0.539277,-12.160585,-1.5528433,-0.25787792,1.837037,-2.5845914,-0.83456624,0
0.45000000000000023,20.999999958073573,0.4523469017273466,-0.6189559737729999,2.560197635075454,20.784193,0.099432446,1.2019451,0.8006604,14.81075,-10.451817,1.8436819,0.672596,0.1296933,0.49890092,0.5309355,-11.992268,-1.4747033,-0.25769362,1.6215113,-2.277757,-0.6679842,0
0.46000000000000024,20.999999958073573,0.4523469017273466,-0.6189559737729999,2.560197635075454,20.784193,0.099432446,1.2019451,0.8006604,14.691679,-10.466196,1.8411067,0.6784558,0.13904673,0.4960796,0.5237071,-11.821599,-1.4020528,-0.2573463,1.4395034,-2.0188386,-0.5095764,0
0.47000000000000025,20.999999958073573,0.4523469017273466,-0.6189559737729999,2.560197635075454,20.784193,0.099432446,1.2019451,0.8006604,14.574326,-10.479874,1.8385353,0.683327,0.14756912,0.49343988,0.51749885,-11.648976,-1.3343201,-0.25689617,1.2858074,-1.8003496,-0.3589417,0
0.48000000000000026,20.99999967275346,-0.9165512452253897,1.7040671069920268,2.748442649656852,19.678326,-0.78832054,1.1217566,1.3676167,14.458706,-10.492897,1.8359689,0.6873399,0.15543208,0.4909499,0.512224,-11.474713,-1.271011,-0.2563914,1.1560243,-1.6159728,-0.21569872,0
0.49000000000000027,20.99999967275346,-0.9165512452253897,1.7040671069920268,2.748442649656852,19.678326,-0.78832054,1.1217566,1.3676167,14.344835,-10.505307,1.8334075,0.6902252,0.16193806,0.48893863,0.50823694,-11.299087,-1.2116029,-0.25587913,0.83298707,-1.0980883,-0.07024744,0
0.5000000000000002,20.99999967275346,-0.9165512452253897,1.7040671069920268,2.748442649656852,19.678326,-0.78832054,1.1217566,1.3676167,14.232727,-10.5171385,1.8308511,0.691791,0.16654621,0.48767644,0.5058259,-11.122464,-1.1550881,-0.25543803,0.5602292,-0.6610293,0.06806651,0
0.5100000000000002,20.99999967275346,-0.9165512452253897,1.7040671069920268,2.748442649656852,19.678326,-0.78832054,1.1217566,1.3676167,14.122388,-10.528415,1.8282983,0.69222975,0.16959488,0.4870477,0.5048175,-10.945186,-1.1004128,-0.25513703,0.32993662,-0.29217452,0.19959334,0
0.5200000000000002,20.999999431080322,-2.573079647904229,3.8354972957322966,2.759390175697274,19.052746,-2.329318,2.2571294,1.9229743,14.0138235,-10.539149,1.8257477,0.691693,0.17136489,0.48694637,0.5050531,-10.767515,-1.0466812,-0.2550247,0.1355071,0.019124962,0.3246661,0
0.5300000000000002,20.999999431080322,-2.573079647904229,3.8354972957322966,2.759390175697274,19.052746,-2.329318,2.2571294,1.9229743,13.907037,-10.549348,1.8231971,0.6899987,0.17120042,0.4875311,0.5068592,-10.589696,-0.99303794,-0.25513023,-0.28706625,0.6141763,0.4441387,0
0.5400000000000003,20.999999431080322,-2.573079647904229,3.8354972957322966,2.759390175697274,19.052746,-2.329318,2.2571294,1.9229743,13.802028,-10.559006,1.8206445,0.6869945,0.16858827,0.48891038,0.51047397,-10.412126,-0.93820935,-0.25544256,-0.6437945,1.11639,0.5577488,0
0.5500000000000003,20.999999431080322,-2.573079647904229,3.8354972957322966,2.759390175697274,19.052746,-2.329318,2.2571294,1.9229743,13.698791,-10.568103,1.8180877,0.6828202,0.163932,0.4909211,0.5156353,-10.235226,-0.88093877,-0.2559411,-0.944926,1.5402586,0.66578394,0
0.5600000000000003,20.999999767716538,-4.023112592345469,5.16378078035638,2.6083673138277,20.274979,-3.633133,2.9440606,1.9189718,13.597318,-10.5766115,1.815525,0.67758083,0.15756805,0.493417,0.522108,-10.059398,-0.8201801,-0.25661415,-1.1991165,1.8980103,0.7685178,0
0.5700000000000003,20.999999767716538,-4.023112592345469,5.16378078035638,2.6083673138277,20.274979,-3.633133,2.9440606,1.9189718,13.497597,-10.584491,1.8129548,0.67118967,0.1490967,0.4963234,0.53003603,-9.885072,-0.7550064,-0.25744736,-1.6399117,2.4069898,0.85879964,0
0.5800000000000003,20.999999767716538,-4.023112592345469,5.16378078035638,2.6083673138277,20.274979,-3.633133,2.9440606,1.9189718,13.39961,-10.591692,1.8103758,0.66355103,0.13820793,0.49954677,0.5394925,-9.712875,-0.6842946,-0.25836292,-2.0119681,2.8365908,0.9446514,0
0.5900000000000003,20.999999767716538,-4.023112592345469,5.16378078035638,2.6083673138277,20.274979,-3.633133,2.9440606,1.9189718,13.30333,-10.598153,1.8077875,0.6547212,0.12528214,0.5029387,0.5501797,-9.543515,-0.6070214,-0.25929552,-2.325997,3.199199,1.0262905,0
0.6000000000000003,20.999999853525892,-4.528615540366779,5.1015807332542495,2.202520202114584,20.946245,-3.747055,3.7826467,0.9450567,13.208727,-10.603806,1.80519,0.6447421,0.11064136,0.506369,0.5618337,-9.377716,-0.52238923,-0.2602249,-2.5910423,3.5052671,1.1039234,0
0.6100000000000003,20.999999853525892,-4.528615540366779,5.1015807332542495,2.202520202114584,20.946245,-3.747055,3.7826467,0.9450567,13.115761,-10.608573,1.802583,0.6337091,0.094418675,0.50959927,0.5742883,-9.2162285,-0.42979836,-0.26115647,-2.893516,3.7538934,1.1578318,0
0.6200000000000003,20.999999853525892,-4.528615540366779,5.1015807332542495,2.202520202114584,20.946245,-3.747055,3.7826467,0.9450567,13.0243845,-10.612373,1.7999669,0.6216978,0.076735675,0.5124283,0.5873851,-9.059881,-0.32880923,-0.26205072,-3.1487994,3.9637673,1.209095,0
0.6300000000000003,20.999999853525892,-4.528615540366779,5.1015807332542495,2.202520202114584,20.946245,-3.747055,3.7826467,0.9450567,12.934543,-10.61512,1.7973422,0.6087153,0.05783208,0.5148026,0.60091585,-8.909529,-0.21914995,-0.2628893,-3.3642516,4.140932,1.2578427,0
0.6400000000000003,20.999999853525892,-4.528615540366779,5.1015807332542495,2.202520202114584,21.168665,-4.4260383,3.8728905,0.9146434,12.846169,-10.616727,1.7947092,0.5947717,0.037914775,0.51667804,0.61469775,-8.766011,-0.10071086,-0.26370165,-3.5460854,4.2904887,1.3041983,0
0.6500000000000004,20.999999853525892,-4.528615540366779,5.1015807332542495,2.202520202114584,21.168665,-4.4260383,3.8728905,0.9146434,12.759194,-10.617104,1.792068,0.57988054,0.01716321,0.51801866,0.62857056,-8.630154,0.026470672,-0.26455715,-3.6995444,4.416742,1.3482791,0
0.6600000000000004,20.999999853525892,-4.528615540366779,5.1015807332542495,2.202520202114584,21.168665,-4.4260383,3.8728905,0.9146434,12.673536,-10.616167,1.7894175,0.564059,-0.004266175,0.51879615,0.64239407,-8.502751,0.16222422,-0.26555818,-3.8290548,4.523324,1.3901969,0
0.6700000000000004,20.999999853525892,-4.528615540366779,5.1015807332542495,2.202520202114584,21.168665,-4.4260383,3.8728905,0.9146434,12.589107,-10.613831,1.7867559,0.5473277,-0.026236359,0.51898855,0.6560452,-8.38457,0.30625916,-0.2668337,-3.9383519,4.6133013,1.4300579,0
0.6800000000000004,20.999999867511278,-4.2878832046221405,4.244772103912238,1.706447817988494,19.99724,-4.109586,3.571493,1.2258393,12.505811,-10.610014,1.7840794,0.52971023,-0.04862676,0.51857954,0.6694163,-8.276333,0.45817664,-0.2685335,-4.03059,4.689263,1.4679629,0
0.6900000000000004,20.999999867511278,-4.2878832046221405,4.244772103912238,1.706447817988494,19.99724,-4.109586,3.571493,1.2258393,12.423543,-10.604641,1.7813832,0.511461,-0.07108145,0.51744354,0.6823545,-8.178694,0.6174597,-0.27080908,-4.0706835,4.619876,1.4796654,0
0.7000000000000004,20.999999867511278,-4.2878832046221405,4.244772103912238,1.706447817988494,19.99724,-4.109586,3.571493,1.2258393,12.342197,-10.597642,1.778661,0.49281216,-0.09331218,0.51550364,0.6947557,-8.092124,0.7833981,-0.27374005,-4.1045322,4.5613165,1.4907937,0
0.7100000000000004,20.999999867511278,-4.2878832046221405,4.244772103912238,1.706447817988494,19.99724,-4.109586,3.571493,1.2258393,12.261661,-10.588953,1.7759058,0.47375873,-0.11531173,0.512814,0.70659626,-8.016998,0.95521915,-0.2773907,-4.133109,4.511895,1.5013759,0
0.7200000000000004,20.999999831261537,-3.5275898798643457,2.8620718536436396,1.2016567642641898,20.170502,-4.263082,3.241968,1.3001542,12.181817,-10.57852,1.7731104,0.4543002,-0.13707222,0.50942063,0.71785355,-7.953639,1.1321424,-0.2818379,-4.1572347,4.4701867,1.5114388,1
0.7300000000000004,20.999999831261537,-3.5275898798643457,2.8620718536436396,1.2016567642641898,20.170502,-4.263082,3.241968,1.3001542,12.102537,-10.566331,1.7702479,0.4346843,-0.15831746,0.5051873,0.72854066,-7.904324,1.3062042,-0.29080984,-4.1735244,4.278659,1.5010711,1
0.7400000000000004,20.999999831261537,-3.5275898798643457,2.8620718536436396,1.2016567642641898,20.170502,-4.263082,3.241968,1.3001542,12.023691,-10.552383,1.7672915,0.4151254,-0.17882913,0.50002795,0.7386905,-7.866621,1.4835261,-0.30054045,-4.1873064,4.1170006,1.4912121,1
0.7500000000000004,20.999999831261537,-3.5275898798643457,2.8620718536436396,1.2016567642641898,20.170502,-4.263082,3.241968,1.3001542,11.945164,-10.536651,1.7642347,0.3955813,-0.19867812,0.49404502,0.74830645,-7.840521,1.6632518,-0.31093884,-4.1989675,3.9805546,1.4818369,1
0.7600000000000005,20.99999962704878,-2.373945115251643,1.1580179311106638,0.676509837065403,19.980068,-5.047943,2.0389729,0.80294394,11.86684,-10.519113,1.7610707,0.37601787,-0.21792434,0.48732346,0.7573876,-7.825985,1.8445717,-0.32194027,-4.2088327,3.8653872,1.4729217,0
0.7700000000000005,20.99999962704878,-2.373945115251643,1.1580179311106638,0.676509837065403,19.980068,-5.047943,2.0389729,0.80294394,11.788606,-10.499719,1.7578118,0.35704818,-0.23574725,0.4801946,0.7657373,-7.822717,2.0342,-0.32992947,-3.9221902,3.4435494,1.4338416,0
0.7800000000000005,20.99999962704878,-2.373945115251643,1.1580179311106638,0.676509837065403,19.980068,-5.047943,2.0389729,0.80294394,11.710348,-10.478428,1.7544706,0.33920363,-0.25153196,0.47298276,0.77327913,-7.8305326,2.2239082,-0.33835882,-3.6803346,3.0874372,1.3966792,0
0.7900000000000005,20.99999962704878,-2.373945115251643,1.1580179311106638,0.676509837065403,19.980068,-5.047943,2.0389729,0.80294394,11.631961,-10.455242,1.7510434,0.32234022,-0.26560056,0.46573156,0.78015894,-7.848527,2.4130623,-0.34707564,-3.4762657,2.7868109,1.3613403,0
0.8000000000000005,20.999998064999062,-1.0387440742805214,-0.5760255443435188,0.15164516488410595,17.629555,-3.5966134,0.21461423,0.33517754,11.553346,-10.430171,1.7475284,0.30632874,-0.27822348,0.4584666,0.78648806,-7.87591,2.6011589,-0.35593805,-3.3040786,2.5330267,1.3277354,0
0.8100000000000005,20.999998064999062,-1.0387440742805214,-0.5760255443435188,0.15164516488410595,17.629555,-3.5966134,0.21461423,0.33517754,11.474413,-10.403225,1.7439247,0.2915765,-0.2889526,0.45140076,0.7922926,-7.9119115,2.7877996,-0.36479834,-2.950304,2.0485892,1.2700243,0
0.8200000000000005,20.999998064999062,-1.0387440742805214,-0.5760255443435188,0.15164516488410595,17.629555,-3.5966134,0.21461423,0.33517754,11.3950815,-10.374421,1.7402334,0.2784162,-0.29746288,0.44472635,0.7976336,-7.9554095,2.9727206,-0.37341002,-2.6518,1.6396242,1.215145,0
0.8300000000000005,20.999998064999062,-1.0387440742805214,-0.5760255443435188,0.15164516488410595,17.629555,-3.5966134,0.21461423,0.33517754,11.315283,-10.343778,1.7364583,0.2666356,-0.3041254,0.43841708,0.80262333,-8.005295,3.1557753,-0.3815129,-2.399927,1.2943764,1.1629587,0
0.8400000000000005,20.999998064999062,-1.0387440742805214,-0.5760255443435188,0.15164516488410595,16.192614,-2.6153889,-1.1602697,-0.39195085,11.234957,-10.311314,1.7326057,0.2560487,-0.3092485,0.43243897,0.80734223,-8.060629,3.3368912,-0.3888779,-2.1873977,1.0029203,1.1133333,0
0.8500000000000005,20.999998064999062,-1.0387440742805214,-0.5760255443435188,0.15164516488410595,16.192614,-2.6153889,-1.1602697,-0.39195085,11.154053,-10.277047,1.7286841,0.24649395,-0.31308877,0.42675477,0.81184787,-8.120619,3.5160441,-0.39530614,-2.0080638,0.75687647,1.066143,0
0.8600000000000005,20.999998064999062,-1.0387440742805214,-0.5760255443435188,0.15164516488410595,16.192614,-2.6153889,-1.1602697,-0.39195085,11.07253,-10.240999,1.7247034,0.23783168,-0.31585985,0.4213271,0.81618166,-8.184593,3.6932387,-0.40062732,-1.8567383,0.54917085,1.0212684,0
0.8700000000000006,20.999998064999062,-1.0387440742805214,-0.5760255443435188,0.15164516488410595,16.192614,-2.6153889,-1.1602697,-0.39195085,10.990349,-10.20319,1.7206757,0.22994183,-0.31773967,0.41612008,0.82037354,-8.251983,3.8684976,-0.40469667,-1.7290454,0.37383026,0.9785957,0
0.8800000000000006,20.43871723301901,0.10219503820490214,-1.8404548862755277,-0.3082783594250629,15.606623,-1.2590071,-2.7408786,-1.0031003,10.907479,-10.163636,1.716614,0.22272138,-0.31887674,0.4111003,0.8244451,-8.322307,4.0418515,-0.40739247,-1.6212928,0.22581244,0.93801695,0
0.8900000000000006,20.43871723301901,0.10219503820490214,-1.8404548862755277,-0.3082783594250629,15.606623,-1.2590071,-2.7408786,-1.0031003,10.823904,-10.122382,1.7125199,0.2164826,-0.3189007,0.40648612,0.8283762,-8.393151,4.2087703,-0.41119206,-1.3523221,-0.09620201,0.87686086,0
0.9000000000000006,20.43871723301901,0.10219503820490214,-1.8404548862755277,-0.3082783594250629,15.606623,-1.2590071,-2.7408786,-1.0031003,10.739611,-10.079468,1.7083957,0.21147329,-0.3175298,0.40245354,0.83215714,-8.465674,4.374052,-0.41339558,-1.1253493,-0.36804458,0.8187057,0
0.9100000000000006,20.43871723301901,0.10219503820490214,-1.8404548862755277,-0.3082783594250629,15.606623,-1.2590071,-2.7408786,-1.0031003,10.654588,-10.034907,1.704258,0.20752375,-0.31499496,0.3989137,0.8358112,-8.539152,4.537887,-0.41385996,-0.9338131,-0.59752995,0.7634042,0
0.9200000000000006,19.1133179868728,1.022648704918814,-2.7948088538129054,-0.6238256515238372,14.7549095,-0.50922453,-4.2372627,-1.1116966,10.568828,-9.988715,1.7001249,0.20448887,-0.31148815,0.39578772,0.83935213,-8.612975,4.7004466,-0.41247043,-0.7721787,-0.79125607,0.71081644,0
0.9300000000000006,19.1133179868728,1.022648704918814,-2.7948088538129054,-0.6238256515238372,14.7549095,-0.50922453,-4.2372627,-1.1116966,10.482354,-9.940954,1.6959826,0.2025425,-0.30678868,0.3932259,0.84275216,-8.681809,4.8514266,-0.41570976,-0.4921782,-1.1035578,0.6453252,0
0.9400000000000006,19.1133179868728,1.022648704918814,-2.7948088538129054,-0.6238256515238372,14.7549095,-0.50922453,-4.2372627,-1.1116966,10.395195,-9.891688,1.6918174,0.20181587,-0.3007287,0.3913415,0.8459817,-8.749752,5.0015893,-0.41702986,-0.25588587,-1.3671975,0.5830476,0
0.9500000000000006,19.1133179868728,1.022648704918814,-2.7948088538129054,-0.6238256515238372,14.7549095,-0.50922453,-4.2372627,-1.1116966,10.307364,-9.840924,1.6876489,0.20213628,-0.2935251,0.39001793,0.8490409,-8.8161335,5.151149,-0.41635308,-0.05647542,-1.5897543,0.523826,0
0.9600000000000006,18.25088955401774,1.5479804605211989,-3.3887110896812467,-0.9152856834509397,16.010063,0.18902658,-4.665001,-1.2557391,10.21888,-9.788667,1.6834973,0.20335637,-0.28535897,0.3891538,0.851925,-8.880382,5.3002734,-0.41363034,0.1118127,-1.7776284,0.4675104,0
0.9700000000000006,18.25088955401774,1.5479804605211989,-3.3887110896812467,-0.9152856834509397,16.010063,0.18902658,-4.665001,-1.2557391,10.129779,-9.734954,1.6793602,0.20553276,-0.27615,0.388782,0.8546031,-8.939202,5.4423833,-0.41347763,0.33576953,-2.028822,0.39965618,0
0.9800000000000006,18.25088955401774,1.5479804605211989,-3.3887110896812467,-0.9152856834509397,16.010063,0.18902658,-4.665001,-1.2557391,10.040106,-9.679821,1.6752344,0.20870326,-0.26584032,0.38891885,0.85703826,-8.994929,5.584343,-0.41132674,0.5247745,-2.2408683,0.33513156,0
0.9900000000000007,18.25088955401774,1.5479804605211989,-3.3887110896812467,-0.9152856834509397,16.010063,0.18902658,-4.665001,-1.2557391,9.949893,-9.623266,1.6711404,0.21272586,-0.25459987,0.38946095,0.8592133,-9.047028,5.7262564,-0.4071804,0.6842855,-2.419866,0.27377325,0
1.0000000000000007,17.489521311109108,1.5345868723269127,-3.499032281174565,-1.0880450471163727,16.703142,0.8157716,-4.8440447,-1.6864048,9.8591795,-9.565292,1.6670976,0.21747918,-0.24257189,0.3903198,0.8611114,-9.095036,5.8681808,-0.40106714,0.8189077,-2.5709636,0.21542577,0
1.0100000000000007,17.489521311109108,1.5345868723269127,-3.499032281174565,-1.0880450471163727,16.703142,0.8157716,-4.8440447,-1.6864048,9.768018,-9.50593,1.6631035,0.22289364,-0.22984895,0.3914007,0.8627248,-9.136738,6.004209,-0.39746293,0.9304248,-2.7157183,0.15146407,0
1.0200000000000007,17.489521311109108,1.5345868723269127,-3.499032281174565,-1.0880450471163727,16.703142,0.8157716,-4.8440447,-1.6864048,9.676462,-9.445208,1.6591544,0.22890982,-0.21651202,0.39262325,0.86404306,-9.17379,6.1402354,-0.39207277,1.0245433,-2.8379066,0.09064101,0
1.0300000000000007,17.489521311109108,1.5345868723269127,-3.499032281174565,-1.0880450471163727,16.703142,0.8157716,-4.8440447,-1.6864048,9.5845585,-9.383125,1.655268,0.23544466,-0.20265767,0.39393765,0.8650487,-9.20589,6.276201,-0.3849633,1.1039798,-2.9410455,0.032802552,0
1.0400000000000007,17.489521311109108,1.5345868723269127,-3.499032281174565,-1.0880450471163727,16.250477,0.10432599,-4.2797327,-1.604156,9.492361,-9.319685,1.6514609,0.24242646,-0.18836816,0.3953022,0.8657271,-9.232776,6.41202,-0.37621757,1.1710262,-3.0281038,-0.022197755,0
1.0500000000000007,17.489521311109108,1.5345868723269127,-3.499032281174565,-1.0880450471163727,16.250477,0.10432599,-4.2797327,-1.604156,9.399921,-9.254887,1.6477491,0.24979304,-0.17371373,0.39668205,0.8660662,-9.254228,6.547586,-0.36593223,1.2276164,-3.1015873,-0.0744992,0
1.0600000000000007,17.489521311109108,1.5345868723269127,-3.499032281174565,-1.0880450471163727,16.250477,0.10432599,-4.2797327,-1.604156,9.307296,-9.188735,1.6441473,0.2574904,-0.15875448,0.3980483,0.8660564,-9.270058,6.6827717,-0.35421515,1.275383,-3.1636124,-0.124234185,0
1.0700000000000007,17.489521311109108,1.5345868723269127,-3.499032281174565,-1.0880450471163727,16.250477,0.10432599,-4.2797327,-1.604156,9.2145405,-9.121234,1.6406692,0.2654713,-0.14354196,0.39937705,0.8656899,-9.280111,6.817435,-0.34118333,1.3157023,-3.2159648,-0.17152867,0
1.0800000000000007,16.91170710718711,1.0748544755872562,-2.9429001486999473,-1.1300568178740162,13.643942,-1.4231633,-4.0842423,-1.2613848,9.121714,-9.05239,1.6373277,0.27369443,-0.12812051,0.4006485,0.864961,-9.28426,6.95142,-0.32696125,1.3497368,-3.260152,-0.2165024,0
1.0900000000000007,16.91170710718711,1.0748544755872562,-2.9429001486999473,-1.1300568178740162,13.643942,-1.4231633,-4.0842423,-1.2613848,9.028875,-8.982231,1.634115,0.2820168,-0.112774104,0.40174967,0.86391324,-9.282483,7.0801606,-0.3154236,1.3067822,-3.210709,-0.26133075,0
1.1000000000000008,16.91170710718711,1.0748544755872562,-2.9429001486999473,-1.1300568178740162,13.643942,-1.4231633,-4.0842423,-1.2613848,8.936083,-8.91079,1.6310223,0.29032907,-0.09773355,0.40259814,0.8625963,-9.274987,7.207915,-0.3029766,1.270532,-3.1689737,-0.30395937,0
1.1100000000000008,16.91170710718711,1.0748544755872562,-2.9429001486999473,-1.1300568178740162,13.643942,-1.4231633,-4.0842423,-1.2613848,8.843394,-8.838077,1.6280582,0.29864168,-0.0829619,0.40321985,0.8610137,-9.261879,7.334517,-0.2897299,1.2399404,-3.1337445,-0.3444962,0
1.1200000000000008,16.323440739009516,0.2989288846258693,-2.095594302013789,-1.0705686532676708,13.298996,-2.9646306,-3.4788947,-1.0558447,8.750864,-8.764103,1.6252301,0.30696172,-0.06842764,0.4036366,0.8591683,-9.243258,7.459809,-0.27578866,1.214124,-3.1040072,-0.38304386,0
1.1300000000000008,16.323440739009516,0.2989288846258693,-2.095594302013789,-1.0705686532676708,13.298996,-2.9646306,-3.4788947,-1.0558447,8.658544,-8.688906,1.622525,0.3151319,-0.05448853,0.40370765,0.8571718,-9.220087,7.5793324,-0.26516643,1.0713739,-2.9467342,-0.41678092,0
1.1400000000000008,16.323440739009516,0.2989288846258693,-2.095594302013789,-1.0705686532676708,13.298996,-2.9646306,-3.4788947,-1.0558447,8.56648,-8.61252,1.6199287,0.32303602,-0.04142899,0.40333346,0.8551339,-9.192019,7.6973166,-0.25401655,0.95088863,-2.8139868,-0.44886246,0
1.1500000000000008,16.323440739009516,0.2989288846258693,-2.095594302013789,-1.0705686532676708,13.298996,-2.9646306,-3.4788947,-1.0558447,8.474719,-8.534965,1.6174463,0.33073145,-0.029124202,0.4025847,0.8530501,-9.159382,7.813653,-0.24236964,0.84919477,-2.7019413,-0.4793698,0
1.1600000000000008,15.509047880704014,-0.7142095631897456,-1.1641169354273126,-0.8565513154338928,13.885225,-3.387865,-3.1961174,-0.81478095,8.3833065,-8.456254,1.6150827,0.33826417,-0.017467517,0.40151972,0.85091394,-9.122457,7.92825,-0.23025136,0.76336133,-2.6073697,-0.5083801,0
1.1700000000000008,15.509047880704014,-0.7142095631897456,-1.1641169354273126,-0.8565513154338928,13.885225,-3.387865,-3.1961174,-0.81478095,8.2922735,-8.376435,1.6128151,0.3454946,-0.006812457,0.39997095,0.84888786,-9.083567,8.035401,-0.2231943,0.5329828,-2.382225,-0.525465,0
1.1800000000000008,15.509047880704014,-0.7142095631897456,-1.1641169354273126,-0.8565513154338928,13.885225,-3.387865,-3.1961174,-0.81478095,8.201647,-8.295554,1.6106205,0.3523198,0.002565351,0.39781687,0.8471165,-9.041308,8.140776,-0.2156415,0.33852556,-2.1921988,-0.5417115,0
1.1900000000000008,15.509047880704014,-0.7142095631897456,-1.1641169354273126,-0.8565513154338928,13.885225,-3.387865,-3.1961174,-0.81478095,8.111457,-8.213627,1.6085042,0.35882032,0.010855909,0.39516082,0.845564,-8.996126,8.244346,-0.20751518,0.17438817,-2.031814,-0.5571608,0
1.2000000000000008,14.87709233306229,-1.630822054251952,-0.3694856690954434,-0.5326270347426313,14.53409,-3.891127,-2.320346,-0.67411923,8.021732,-8.130672,1.6064723,0.36506075,0.018220915,0.39208743,0.8441959,-8.948395,8.346094,-0.19874492,0.035842735,-1.8964473,-0.57185197,0
1.2100000000000009,14.87709233306229,-1.630822054251952,-0.3694856690954434,-0.5326270347426313,14.53409,-3.891127,-2.320346,-0.67411923,7.9324865,-8.046731,1.6045097,0.37094295,0.024410546,0.38847312,0.8431457,-8.900501,8.441945,-0.19364096,-0.22398198,-1.658222,-0.5699272,0
1.2200000000000009,14.87709233306229,-1.630822054251952,-0.3694856690954434,-0.5326270347426313,14.53409,-3.891127,-2.320346,-0.67411923,7.843728,-7.96184,1.6026024,0.37639114,0.029234873,0.38422644,0.84252346,-8.850957,8.53606,-0.18772255,-0.4433015,-1.4571636,-0.5680969,0
1.2300000000000009,14.87709233306229,-1.630822054251952,-0.3694856690954434,-0.5326270347426313,14.53409,-3.891127,-2.320346,-0.67411923,7.755471,-7.876016,1.6007587,0.3814807,0.03290195,0.37945184,0.84226304,-8.800211,8.62847,-0.18085903,-0.6284305,-1.2874732,-0.5663563,0
1.2400000000000009,14.87709233306229,-1.630822054251952,-0.3694856690954434,-0.5326270347426313,15.03772,-4.340551,-1.7553024,-0.21272624,7.6677265,-7.7892766,1.5989888,0.38627195,0.03558815,0.37423468,0.8423044,-8.74864,8.719206,-0.17294012,-0.7846987,-1.1442567,-0.56470114,0
1.2500000000000009,14.87709233306229,-1.630822054251952,-0.3694856690954434,-0.5326270347426313,15.03772,-4.340551,-1.7553024,-0.21272624,7.5805,-7.7016373,1.5973037,0.39081356,0.037442945,0.36864504,0.84259385,-8.696568,8.808293,-0.16387463,-0.9166057,-1.023384,-0.56312734,0
1.260000000000001,14.87709233306229,-1.630822054251952,-0.3694856690954434,-0.5326270347426313,15.03772,-4.340551,-1.7553024,-0.21272624,7.493796,-7.613116,1.5957154,0.39514476,0.038593,0.3627407,0.8430844,-8.644266,8.895755,-0.15358885,-1.0279491,-0.9213689,-0.5616307,0
1.270000000000001,14.87709233306229,-1.630822054251952,-0.3694856690954434,-0.5326270347426313,15.03772,-4.340551,-1.7553024,-0.21272624,7.4076147,-7.5237274,1.5942364,0.39929727,0.03914564,0.35656944,0.84373486,-8.591973,8.981613,-0.14202471,-1.1219347,-0.83526963,-0.56020755,0
1.280000000000001,14.662485606657322,-2.250983199750917,0.3976509483231026,-0.15601537085687883,15.612928,-5.1704183,-1.7453413,0.39304328,7.3219557,-7.4334884,1.5928795,0.40329686,0.03919183,0.350171,0.84450984,-8.53989,9.065886,-0.12913796,-1.2012681,-0.7626028,-0.55885416,0
1.290000000000001,14.662485606657322,-2.250983199750917,0.3976509483231026,-0.15601537085687883,15.612928,-5.1704183,-1.7453413,0.39304328,7.236812,-7.342421,1.5916502,0.40702787,0.03846509,0.3434912,0.845496,-8.488961,9.147398,-0.11651138,-1.3648971,-0.58161986,-0.53908676,0
1.300000000000001,14.662485606657322,-2.250983199750917,0.3976509483231026,-0.15601537085687883,15.612928,-5.1704183,-1.7453413,0.39304328,7.1521745,-7.2505455,1.5905542,0.41039482,0.036758967,0.33648852,0.84675926,-8.438743,9.227427,-0.1024859,-1.5030227,-0.42887294,-0.5202893,0
1.310000000000001,14.662485606657322,-2.250983199750917,0.3976509483231026,-0.15601537085687883,15.612928,-5.1704183,-1.7453413,0.39304328,7.068034,-7.157877,1.5896056,0.4134431,0.034225613,0.32920992,0.84824246,-8.389547,9.306032,-0.08701015,-1.6196196,-0.2999563,-0.5024142,0
1.320000000000001,14.182527799747985,-2.7431901322844574,0.7822564334862088,0.2786660338805748,16.193064,-4.9183655,-2.1522453,0.6467005,6.9843793,-7.0644298,1.588819,0.41620982,0.030993769,0.3216941,0.8498958,-8.341641,9.383264,-0.070050985,-1.7180429,-0.19115162,-0.48541635,0
1.330000000000001,14.182527799747985,-2.7431901322844574,0.7822564334862088,0.2786660338805748,16.193064,-4.9183655,-2.1522453,0.6467005,6.901189,-6.970229,1.5881907,0.41863614,0.026976481,0.31386808,0.8517653,-8.296788,9.45668,-0.05540188,-1.8778647,-0.039344247,-0.44792265,0
1.340000000000001,14.182527799747985,-2.7431901322844574,0.7822564334862088,0.2786660338805748,16.193064,-4.9183655,-2.1522453,0.6467005,6.818438,-6.8753004,1.5877162,0.42066824,0.02211166,0.30567396,0.85388166,-8.253714,9.528845,-0.039262466,-2.0127764,0.08877654,-0.41226876,0
1.350000000000001,14.182527799747985,-2.7431901322844574,0.7822564334862088,0.2786660338805748,16.193064,-4.9183655,-2.1522453,0.6467005,6.7361073,-6.7796564,1.5874106,0.42234102,0.016533487,0.29716167,0.8561839,-8.212696,9.599787,-0.021610381,-2.1266592,0.1969081,-0.37836435,0
1.360000000000001,13.697269247617692,-3.099391085260148,0.7826144637179278,0.725602205484225,16.530275,-4.5821,-2.9845533,0.5611265,6.6541758,-6.6833086,1.5872892,0.42368343,0.010355505,0.2883733,0.85861933,-8.173979,9.669523,-0.0024439567,-2.22279,0.28816995,-0.34612367,0
1.370000000000001,13.697269247617692,-3.099391085260148,0.7826144637179278,0.725602205484225,16.530275,-4.5821,-2.9845533,0.5611265,6.572613,-6.5862813,1.5873467,0.4246731,0.0036290581,0.27922118,0.86120635,-8.139016,9.735713,0.014161279,-2.3594906,0.36522844,-0.2935338,0
1.380000000000001,13.697269247617692,-3.099391085260148,0.7826144637179278,0.725602205484225,16.530275,-4.5821,-2.9845533,0.5611265,6.4913864,-6.488598,1.5875775,0.42528385,-0.0035984963,0.2696368,0.86395484,-8.106702,9.800713,0.032214217,-2.4748793,0.4302612,-0.2435245,0
1.390000000000001,13.697269247617692,-3.099391085260148,0.7826144637179278,0.725602205484225,16.530275,-4.5821,-2.9845533,0.5611265,6.410469,-6.3902707,1.587996,0.4255337,-0.011243805,0.2596791,0.8668118,-8.077236,9.864478,0.051699154,-2.572278,0.4851463,-0.19596916,0
1.400000000000001,13.211781527888458,-3.241771258867905,0.37343317769884243,1.125286732985291,15.589548,-4.1700053,-3.1957269,0.92196035,6.329831,-6.291312,1.5886164,0.42543873,-0.01923637,0.24939846,0.8697319,-8.050792,9.926965,0.07258099,-2.6544907,0.5314688,-0.15074739,0
1.410000000000001,13.211781527888458,-3.241771258867905,0.37343317769884243,1.125286732985291,15.589548,-4.1700053,-3.1957269,0.92196035,6.249438,-6.191746,1.589431,0.42500946,-0.027385997,0.23871973,0.8727148,-8.02834,9.985946,0.09054703,-2.7460997,0.50672024,-0.088132024,0
1.420000000000001,13.211781527888458,-3.241771258867905,0.37343317769884243,1.125286732985291,15.589548,-4.1700053,-3.1957269,0.92196035,6.1692533,-6.0915976,1.5904317,0.42424658,-0.0355371,0.22758672,0.8757611,-8.009043,10.043527,0.10977602,-2.8234196,0.48582923,-0.028589213,0
1.430000000000001,13.211781527888458,-3.241771258867905,0.37343317769884243,1.125286732985291,15.589548,-4.1700053,-3.1957269,0.92196035,6.089246,-5.9908805,1.5916307,0.42315176,-0.043681543,0.21606515,0.8788354,-7.992977,10.099587,0.13022132,-2.8886788,0.46819577,0.028031819,0
1.440000000000001,13.211781527888458,-3.241771258867905,0.37343317769884243,1.125286732985291,14.851576,-3.8040946,-3.5970705,1.0956727,6.0093827,-5.8896112,1.5930399,0.42172822,-0.051812693,0.2042113,0.88190687,-7.9802074,10.154017,0.15182185,-2.9437592,0.45331332,0.081874445,0
1.450000000000001,13.211781527888458,-3.241771258867905,0.37343317769884243,1.125286732985291,14.851576,-3.8040946,-3.5970705,1.0956727,5.9296308,-5.7878065,1.5946707,0.41998053,-0.05992519,0.19207348,0.8849488,-7.970789,10.206712,0.17450446,-2.9902477,0.44075382,0.13307498,0
1.460000000000001,13.211781527888458,-3.241771258867905,0.37343317769884243,1.125286732985291,14.851576,-3.8040946,-3.5970705,1.0956727,5.849956,-5.685484,1.5965334,0.4179142,-0.068014696,0.17969319,0.8879377,-7.9647655,10.257572,0.19818589,-3.0294852,0.43015578,0.18176311,0
1.470000000000001,13.211781527888458,-3.241771258867905,0.37343317769884243,1.125286732985291,14.851576,-3.8040946,-3.5970705,1.0956727,5.7703238,-5.5826616,1.5986377,0.41553548,-0.0760777,0.16710624,0.8908531,-7.9621706,10.306506,0.22277443,-3.0626028,0.4212137,0.2280621,0
1.480000000000001,13.032413699293626,-3.302038700985707,0.035402387114198415,1.4548844955657756,15.5886135,-4.454785,-4.1830983,2.2397711,5.6907005,-5.47936,1.6009918,0.41285115,-0.08411135,0.15434356,0.893677,-7.963029,10.353426,0.24817143,-3.0905547,0.41366953,0.27208918,0
1.490000000000001,13.032413699293626,-3.302038700985707,0.035402387114198415,1.4548844955657756,15.5886135,-4.454785,-4.1830983,2.2397711,5.6110516,-5.375603,1.6035951,0.40985018,-0.09199604,0.14135812,0.89642555,-7.9672937,10.397634,0.27258873,-3.1235387,0.35455504,0.33012927,0
1.500000000000001,13.032413699293626,-3.302038700985707,0.035402387114198415,1.4548844955657756,15.5886135,-4.454785,-4.1830983,2.2397711,5.5313425,-5.2714148,1.6064457,0.40651777,-0.09963618,0.12811595,0.89911264,-7.974958,10.439645,0.2976116,-3.1513762,0.30466402,0.38532135,0
1.5100000000000011,13.032413699293626,-3.302038700985707,0.035402387114198415,1.4548844955657756,15.5886135,-4.454785,-4.1830983,2.2397711,5.45154,-5.1668186,1.609549,0.4028568,-0.107062235,0.11465961,0.90171975,-7.985991,10.479338,0.32314703,-3.1748705,0.2625582,0.43780512,0
1.5200000000000011,13.207074160502602,-3.2846436277546833,-0.4755015694970456,1.6896543496348808,15.451838,-4.525524,-4.4449735,2.5181751,5.3716106,-5.061837,1.61291,0.39887166,-0.114300184,0.101025544,0.90423006,-8.000359,10.516599,0.34909582,-3.1946995,0.2270238,0.4877135,0
1.5300000000000011,13.207074160502602,-3.2846436277546833,-0.4755015694970456,1.6896543496348808,15.451838,-4.525524,-4.4449735,2.5181751,5.29152,-4.9564934,1.6165404,0.39456236,-0.12118149,0.08717357,0.9066629,-8.018253,10.551784,0.37702373,-3.2086964,0.117337584,0.54669315,0
1.5400000000000011,13.207074160502602,-3.2846436277546833,-0.4755015694970456,1.6896543496348808,15.451838,-4.525524,-4.4449735,2.5181751,5.2112346,-4.850811,1.6204512,0.38992402,-0.12757356,0.07307584,0.90903544,-8.039387,10.584245,0.40518135,-3.2205086,0.024762597,0.60277855,0
1.5500000000000012,13.207074160502602,-3.2846436277546833,-0.4755015694970456,1.6896543496348808,15.451838,-4.525524,-4.4449735,2.5181751,5.130722,-4.744818,1.6246445,0.3849568,-0.13354553,0.058777895,0.91132885,-8.063649,10.613832,0.4334822,-3.2304783,-0.05336956,0.65611184,0
1.5600000000000012,13.438825656139704,-3.1433462147119116,-1.020213833838074,1.7703395042198886,15.005894,-4.1062927,-5.221057,2.5915275,5.0499516,-4.6385446,1.6291211,0.37966317,-0.13915607,0.04431853,0.9135254,-8.090938,10.640415,0.46183342,-3.2388933,-0.11931144,0.7068281,0
1.5700000000000012,13.438825656139704,-3.1433462147119116,-1.020213833838074,1.7703395042198886,15.005894,-4.1062927,-5.221057,2.5915275,4.9688907,-4.532018,1.6338922,0.37405503,-0.14423397,0.029701663,0.91564107,-8.121672,10.664283,0.49235854,-3.2239196,-0.25990966,0.759015,0
1.5800000000000012,13.438825656139704,-3.1433462147119116,-1.020213833838074,1.7703395042198886,15.005894,-4.1062927,-5.221057,2.5915275,4.887509,-4.4252696,1.6389679,0.36814,-0.14864661,0.014934348,0.9176903,-8.155199,10.684823,0.5227604,-3.2112837,-0.37857634,0.808641,0
1.5900000000000012,13.438825656139704,-3.1433462147119116,-1.020213833838074,1.7703395042198886,15.005894,-4.1062927,-5.221057,2.5915275,4.805778,-4.3183336,1.6443467,0.36191767,-0.15249206,5.114847e-05,0.91965383,-8.191337,10.701894,0.5529622,-3.2006216,-0.4787322,0.85583186,0
1.6000000000000012,13.419077037921888,-2.7836146818740275,-1.492761147782213,1.7058728919060033,13.585335,-3.523392,-4.822344,1.3538371,4.7236733,-4.2112446,1.6500261,0.35538998,-0.15585336,-0.014918692,0.92151314,-8.229914,10.715378,0.58288044,-3.1916263,-0.5632646,0.90070707,0
1.6100000000000012,13.419077037921888,-2.7836146818740275,-1.492761147782213,1.7058728919060033,13.585335,-3.523392,-4.822344,1.3538371,4.641172,-4.1040387,1.656002,0.34858754,-0.15857567,-0.029885542,0.92328143,-8.270698,10.725156,0.612243,-3.1278942,-0.70826244,0.9402168,0
1.6200000000000012,13.419077037921888,-2.7836146818740275,-1.492761147782213,1.7058728919060033,13.585335,-3.523392,-4.822344,1.3538371,4.558253,-3.9967537,1.6622695,0.34153664,-0.16054145,-0.044775493,0.9249733,-8.313507,10.731156,0.6411749,-3.074109,-0.83064705,0.9777878,0
1.6300000000000012,13.419077037921888,-2.7836146818740275,-1.492761147782213,1.7058728919060033,13.585335,-3.523392,-4.822344,1.3538371,4.474896,-3.8894284,1.6688237,0.33423623,-0.16186564,-0.059587177,0.9265724,-8.358096,10.7333,0.669617,-3.028719,-0.93394524,1.0135151,0
1.6400000000000012,13.419077037921888,-2.7836146818740275,-1.492761147782213,1.7058728919060033,13.257576,-3.1009438,-5.292224,1.037393,4.3910856,-3.7821014,1.6756599,0.3266875,-0.16264534,-0.07431965,0.9280623,-8.404245,10.7315235,0.69750464,-2.990415,-1.0211333,1.0474892,0
1.6500000000000012,13.419077037921888,-2.7836146818740275,-1.492761147782213,1.7058728919060033,13.257576,-3.1009438,-5.292224,1.037393,4.306807,-3.6748118,1.6827719,0.31889352,-0.16296253,-0.088972196,0.92942744,-8.451752,10.725778,0.724768,-2.9580913,-1.0947236,1.0797963,0
1.6600000000000013,13.419077037921888,-2.7836146818740275,-1.492761147782213,1.7058728919060033,13.257576,-3.1009438,-5.292224,1.037393,4.222047,-3.5675998,1.690153,0.31085876,-0.16288638,-0.1035442,0.9306529,-8.500427,10.7160225,0.7513331,-2.930815,-1.1568367,1.1105181,0
1.6700000000000013,13.419077037921888,-2.7836146818740275,-1.492761147782213,1.7058728919060033,13.257576,-3.1009438,-5.292224,1.037393,4.136795,-3.4605052,1.6977959,0.30258882,-0.16247538,-0.11803503,0.9317247,-8.550097,10.702233,0.7771224,-2.907798,-1.2092628,1.1397324,0
1.6800000000000013,13.999039850164895,-2.447142724125689,-1.5519075282409267,1.5803130079727272,12.847448,-2.2242205,-4.9939365,1.1289738,4.051042,-3.3535688,1.7056925,0.29409012,-0.1617789,-0.13244402,0.93263,-8.600597,10.684391,0.8020552,-2.8883762,-1.2535121,1.167513,0
1.6900000000000013,13.999039850164895,-2.447142724125689,-1.5519075282409267,1.5803130079727272,12.847448,-2.2242205,-4.9939365,1.1289738,3.9647694,-3.246836,1.7138602,0.28540313,-0.16077551,-0.14665426,0.9333758,-8.653981,10.661544,0.83132863,-2.8195138,-1.3000317,1.1877692,0
1.7000000000000013,13.999039850164895,-2.447142724125689,-1.5519075282409267,1.5803130079727272,12.847448,-2.2242205,-4.9939365,1.1289738,3.8779604,-3.1403525,1.7223154,0.2765647,-0.15945198,-0.1605736,0.93397254,-8.707877,10.6345005,0.8595604,-2.7613957,-1.3393013,1.2070315,0
1.7100000000000013,13.999039850164895,-2.447142724125689,-1.5519075282409267,1.5803130079727272,12.847448,-2.2242205,-4.9939365,1.1289738,3.7906106,-3.0341601,1.7310475,0.26757702,-0.15785742,-0.17423466,0.9344129,-8.762102,10.603312,0.8866909,-2.7123458,-1.3724511,1.2253485,0
1.7200000000000013,14.381681261104301,-1.883764240171683,-1.591273029194176,1.3307290484181804,12.268024,-1.7773107,-5.217499,0.49611413,3.7027175,-2.9283001,1.7400452,0.25844315,-0.15603311,-0.18766487,0.93468946,-8.816489,10.5680275,0.9126595,-2.6709495,-1.4004345,1.2427666,0
1.7300000000000013,14.381681261104301,-1.883764240171683,-1.591273029194176,1.3307290484181804,12.268024,-1.7773107,-5.217499,0.49611413,3.6142733,-2.8228185,1.7493134,0.2492281,-0.15393594,-0.20068565,0.93483466,-8.87236,10.527635,0.94076866,-2.5481603,-1.4301033,1.247083,0
1.7400000000000013,14.381681261104301,-1.883764240171683,-1.591273029194176,1.3307290484181804,12.268024,-1.7773107,-5.217499,0.49611413,3.525271,-2.717761,1.7588562,0.23999007,-0.1515356,-0.21315862,0.9348832,-8.928035,10.483223,0.96760815,-2.4445238,-1.4551601,1.2511874,0
1.7500000000000013,14.381681261104301,-1.883764240171683,-1.591273029194176,1.3307290484181804,12.268024,-1.7773107,-5.217499,0.49611413,3.4357138,-2.6131675,1.768661,0.23072302,-0.1488806,-0.22515911,0.9348296,-8.983327,10.434928,0.9931705,-2.3570523,-1.4763216,1.2550906,0
1.7600000000000013,14.34941655720547,-1.117823961438541,-1.4395668258897512,0.9964952292188612,9.549946,-1.7358723,-5.1904583,0.57758206,3.345606,-2.5090756,1.778715,0.2214225,-0.14601125,-0.23675072,0.9346676,-9.038073,10.3828745,1.0174446,-2.2832255,-1.4941934,1.2588022,0
1.7700000000000014,14.34941655720547,-1.117823961438541,-1.4395668258897512,0.9964952292188612,9.549946,-1.7358723,-5.1904583,0.57758206,3.2549553,-2.405522,1.789004,0.2121835,-0.1429416,-0.24769402,0.93444914,-9.091998,10.327317,1.0401541,-2.1015012,-1.4855078,1.2459307,0
1.7800000000000014,14.34941655720547,-1.117823961438541,-1.4395668258897512,0.9964952292188612,9.549946,-1.7358723,-5.1904583,0.57758206,3.1637692,-2.3025413,1.7995138,0.2030891,-0.13968682,-0.25780603,0.93422705,-9.145073,10.268357,1.0616213,-1.9481149,-1.4782035,1.2336909,0
1.7900000000000014,14.34941655720547,-1.117823961438541,-1.4395668258897512,0.9964952292188612,9.549946,-1.7358723,-5.1904583,0.57758206,3.0720572,-2.2001657,1.8102323,0.19411954,-0.13627829,-0.267212,0.9339943,-9.197162,10.206219,1.0819069,-1.8186473,-1.4720603,1.2220515,0
1.8000000000000014,14.053816550725685,-0.3715587270936533,-1.2458274201203032,0.597485355116743,10.152395,-0.26569566,-6.178123,-1.2984327,2.9798295,-2.098427,1.821148,0.18525785,-0.1327414,-0.27601743,0.9337427,-9.248146,10.141095,1.1010638,-1.709369,-1.4668936,1.2109834,0
1.8100000000000014,14.053816550725685,-0.3715587270936533,-1.2458274201203032,0.597485355116743,10.152395,-0.26569566,-6.178123,-1.2984327,2.8871033,-1.9973466,1.832238,0.17659695,-0.12910151,-0.28402528,0.93352973,-9.296899,10.074573,1.1167535,-1.5007935,-1.4322243,1.1808788,0
1.8200000000000014,14.053816550725685,-0.3715587270936533,-1.2458274201203032,0.597485355116743,10.152395,-0.26569566,-6.178123,-1.2984327,2.793896,-1.896944,1.8434799,0.16821702,-0.12538062,-0.29108772,0.9334091,-9.344385,10.005565,1.1314955,-1.3247386,-1.4029956,1.1522515,0
1.8300000000000014,14.053816550725685,-0.3715587270936533,-1.2458274201203032,0.597485355116743,10.152395,-0.26569566,-6.178123,-1.2984327,2.7002203,-1.7972429,1.8548648,0.16008678,-0.12159222,-0.29735225,0.93336546,-9.39053,9.934321,1.1454015,-1.1761338,-1.3783528,1.1250291,0
1.8400000000000014,14.053816550725685,-0.3715587270936533,-1.2458274201203032,0.597485355116743,9.591034,1.1291497,-6.1249223,-2.0617523,2.6060903,-1.6982645,1.8663852,0.15217903,-0.11774665,-0.3029429,0.9333835,-9.435277,9.861055,1.1585686,-1.0506989,-1.3575759,1.0991424,0
1.8500000000000014,14.053816550725685,-0.3715587270936533,-1.2458274201203032,0.597485355116743,9.591034,1.1291497,-6.1249223,-2.0617523,2.5115197,-1.600028,1.8780339,0.14447017,-0.11385181,-0.3079638,0.9334486,-9.478577,9.785952,1.1710806,-0.94482136,-1.3400577,1.074526,0
1.8600000000000014,14.053816550725685,-0.3715587270936533,-1.2458274201203032,0.597485355116743,9.591034,1.1291497,-6.1249223,-2.0617523,2.4165237,-1.5025511,1.8898047,0.13693973,-0.109913774,-0.3125024,0.9335473,-9.5203905,9.7091675,1.1830089,-0.85545194,-1.325287,1.0511174,0
1.8700000000000014,14.053816550725685,-0.3715587270936533,-1.2458274201203032,0.597485355116743,9.591034,1.1291497,-6.1249223,-2.0617523,2.3211172,-1.4058499,1.9016922,0.12956998,-0.1059372,-0.31663242,0.93366736,-9.560686,9.630838,1.1944149,-0.78001666,-1.3128324,1.0288576,0
1.8800000000000014,13.745514286129055,0.3672160613256768,-0.6312708271844727,0.22138984761392455,9.742046,3.0209131,-5.3042517,-2.7256165,2.2253153,-1.3099393,1.9136914,0.12234551,-0.101925686,-0.32041568,0.93379784,-9.599435,9.5510845,1.2053494,-0.71634287,-1.3023305,1.00769,0
1.8900000000000015,13.745514286129055,0.3672160613256768,-0.6312708271844727,0.22138984761392455,9.742046,3.0209131,-5.3042517,-2.7256165,2.129138,-1.214824,1.9257859,0.11540542,-0.098061696,-0.323604,0.93399566,-9.635809,9.4718075,1.2134832,-0.54746145,-1.1975542,0.969106,0
1.9000000000000015,13.745514286129055,0.3672160613256768,-0.6312708271844727,0.22138984761392455,9.742046,3.0209131,-5.3042517,-2.7256165,2.0326042,-1.1205068,1.93796,0.108865455,-0.094490506,-0.32600775,0.93431294,-9.670716,9.391464,1.2213081,-0.4049005,-1.1091429,0.93241537,0
1.9100000000000015,13.745514286129055,0.3672160613256768,-0.6312708271844727,0.22138984761392455,9.742046,3.0209131,-5.3042517,-2.7256165,1.9357285,-1.0269976,1.9502114,0.10268102,-0.09116401,-0.32775286,0.9347329,-9.704232,9.310266,1.22893,-0.28455827,-1.0345393,0.89752513,0
1.9200000000000015,13.106383737048567,0.762643369342162,-0.5479222502521552,-0.18189802220834225,10.09635,3.1837156,-4.9352922,-2.3223538,1.8385243,-0.9343039,1.9625382,0.09681352,-0.08804105,-0.32894465,0.9352397,-9.7364235,9.228387,1.23644,-0.18297231,-0.9715865,0.864347,0
1.9300000000000015,13.106383737048567,0.762643369342162,-0.5479222502521552,-0.18189802220834225,10.09635,3.1837156,-4.9352922,-2.3223538,1.7410117,-0.8424125,1.9749155,0.09130101,-0.085086405,-0.32952464,0.93586326,-9.765911,9.149817,1.2390126,-0.035571627,-0.90543187,0.8130074,0
1.9400000000000015,13.106383737048567,0.762643369342162,-0.5479222502521552,-0.18189802220834225,10.09635,3.1837156,-4.9352922,-2.3223538,1.6432102,-0.7513086,1.9873188,0.08617737,-0.082268804,-0.3294513,0.93662655,-9.794248,9.07092,1.2416589,0.08885284,-0.8496151,0.7641871,0
1.9500000000000015,13.106383737048567,0.762643369342162,-0.5479222502521552,-0.18189802220834225,10.09635,3.1837156,-4.9352922,-2.3223538,1.5451306,-0.66099465,1.9997493,0.08140558,-0.079561085,-0.32882845,0.93750584,-9.821483,8.991852,1.244475,0.19388221,-0.80251974,0.7177625,0
1.9600000000000015,12.249712201260921,1.0538778371157922,-0.47241127090153745,-0.5526737361672898,9.605526,2.4177837,-4.989629,-1.5065564,1.446784,-0.5714717,2.0122092,0.07695328,-0.076940194,-0.3277432,0.9384802,-9.847661,8.912746,1.2475413,0.28253964,-0.76278204,0.6736159,0
1.9700000000000015,12.249712201260921,1.0538778371157922,-0.47241127090153745,-0.5526737361672898,9.605526,2.4177837,-4.989629,-1.5065564,1.348189,-0.48271364,2.024668,0.07285397,-0.074391276,-0.32616037,0.9395637,-9.8711815,8.838888,1.244296,0.40278128,-0.71746176,0.6134414,0
1.9800000000000015,12.249712201260921,1.0538778371157922,-0.47241127090153745,-0.5526737361672898,9.605526,2.4177837,-4.989629,-1.5065564,1.2493634,-0.39469326,2.0370963,0.0691376,-0.07190014,-0.32405588,0.94076586,-9.893792,8.765234,1.2414285,0.5042787,-0.6792243,0.55621976,0
1.9900000000000015,12.249712201260921,1.0538778371157922,-0.47241127090153745,-0.5526737361672898,9.605526,2.4177837,-4.989629,-1.5065564,1.150316,-0.30740786,2.049498,0.06577256,-0.06944984,-0.32151175,0.9420633,-9.915532,8.691899,1.2390099,0.58995384,-0.64696157,0.501806,0
2.0000000000000013,,,,,6.1661477,2.9546638,-5.362774,-2.4577732,1.0510556,-0.22085382,2.0618782,0.06273093,-0.067026265,-0.3185968,0.9434356,-9.936432,8.618986,1.2370985,0.66227275,-0.6197391,0.45006236,0
2.010000000000001,,,,,6.1661477,2.9546638,-5.362774,-2.4577732,0.95159435,-0.13501167,2.0742223,0.06000271,-0.06452454,-0.31536555,0.9448721,-9.955698,8.549527,1.2318039,0.7279836,-0.6293345,0.38381982,0
2.020000000000001,,,,,6.1661477,2.9546638,-5.362774,-2.4577732,0.8519443,-0.04986137,2.0865164,0.05758369,-0.061859325,-0.31186375,0.94636196,-9.974176,8.480624,1.2270825,0.78344727,-0.6374396,0.3208278,0
2.0300000000000007,,,,,6.1661477,2.9546638,-5.362774,-2.4577732,0.7521135,0.03460294,2.098766,0.05545791,-0.05904657,-0.30813295,0.9478895,-9.991852,8.412338,1.2229676,0.8302619,-0.6442849,0.26092684,0
2.0400000000000005,,,,,6.1661477,2.9546638,-5.362774,-2.4577732,0.65211004,0.1183877,2.1109776,0.053610396,-0.056100268,-0.304208,0.9494412,-10.008716,8.344723,1.2194847,0.86977637,-0.650066,0.20396522,0
2.0500000000000003,,,,,5.4200068,2.8679957,-5.0024877,-2.4361384,0.55194205,0.20149986,2.1231577,0.052027084,-0.05303274,-0.30011824,0.9510059,-10.024756,8.277825,1.2166525,0.90312916,-0.6549473,0.14979874,1
2.06,,,,,5.4200068,2.8679957,-5.0024877,-2.4361384,0.45163053,0.2840017,2.1352334,0.050587136,-0.049321696,-0.29635692,0.95246166,-10.037394,8.222761,1.1983802,0.75542194,-0.8789008,0.06350898,1
2.07,,,,,5.4200068,2.8679957,-5.0024877,-2.4361384,0.35119775,0.3659596,2.1471226,0.049200997,-0.044498157,-0.2932711,0.9537262,-10.048984,8.169013,1.1794149,0.6456916,-1.0828766,-0.019883996,1
2.0799999999999996,,,,,5.4200068,2.8679957,-5.0024877,-2.4361384,0.250655,0.44738612,2.1588187,0.047896508,-0.0386437,-0.29068425,0.95483905,-10.059362,8.116471,1.159665,0.568224,-1.2702005,-0.10054062,1
2.0899999999999994,,,,,7.0158095,1.9183791,-5.050704,-1.7373544,0.15001515,0.5282929,2.170313,0.046694208,-0.031827044,-0.28844443,0.9558289,-10.068387,8.065059,1.1390584,0.51814663,-1.4436306,-0.17860913,1
2.099999999999999,,,,,7.0158095,1.9183791,-5.050704,-1.7373544,0.049292684,0.60869294,2.1815934,0.04543125,-0.023671629,-0.28637716,0.9567478,-10.075852,8.015164,1.1168616,0.51803786,-1.7878025,-0.23556036,1
2.109999999999999,,,,,7.0158095,1.9183791,-5.050704,-1.7373544,-0.05149589,0.68860066,2.1926453,0.043966796,-0.013864938,-0.2843148,0.95762324,-10.0815735,7.966591,1.0932876,0.5387374,-2.0991137,-0.29157758,1
2.1199999999999988,,,,,7.0158095,1.9183791,-5.050704,-1.7373544,-0.1523321,0.7680291,2.2034545,0.042342946,-0.0025501023,-0.2821465,0.95843434,-10.085348,7.919297,1.0683542,0.5763898,-2.3820772,-0.3466518,1
2.1299999999999986,,,,,7.0231175,0.9505852,-4.8940954,-1.3254772,-0.25319558,0.846991,2.2140079,0.040593147,0.010147447,-0.27977848,0.9591536,-10.087008,7.873266,1.0420716,0.62777215,-2.6405327,-0.40077725,1
2.1399999999999983,,,,,7.0231175,0.9505852,-4.8940954,-1.3254772,-0.35406464,0.92552453,2.224251,0.038663838,0.02429098,-0.27726367,0.95970947,-10.086483,7.8336186,1.0063721,0.6395998,-2.9536426,-0.44270915,1
2.149999999999998,,,,,7.0231175,0.9505852,-4.8940954,-1.3254772,-0.45491794,1.0036675,2.2341304,0.03651081,0.039916884,-0.27464008,0.9600254,-10.083834,7.79515,0.9693307,0.6674617,-3.2358136,-0.48418266,1
2.159999999999998,,,,,7.0231175,0.9505852,-4.8940954,-1.3254772,-0.5557336,1.0814315,2.243633,0.034169827,0.05688269,-0.27181545,0.9600601,-10.078952,7.757812,0.93098265,0.7074561,-3.490468,-0.52509785,1
2.1699999999999977,,,,,7.0541344,0.038048662,-4.7308245,-1.739009,-0.65648854,1.1588254,2.2527492,0.03167656,0.07503121,-0.26874015,0.9597645,-10.071639,7.7210164,0.89225036,0.74520236,-3.7093945,-0.5643728,1
2.1799999999999975,,,,,7.0541344,0.038048662,-4.7308245,-1.739009,-0.7571572,1.2358524,2.2614787,0.02916815,0.094115384,-0.26576242,0.9589911,-10.061683,7.684437,0.85363394,0.6347186,-3.8686695,-0.6220125,1
2.1899999999999973,,,,,7.0541344,0.038048662,-4.7308245,-1.739009,-0.8577128,1.3125155,2.2698205,0.02677059,0.11392481,-0.26316237,0.95762837,-10.049014,7.648228,0.8147279,0.54147094,-4.003104,-0.6768238,1
2.199999999999997,,,,,7.0541344,0.038048662,-4.7308245,-1.739009,-0.9581279,1.3888183,2.2777715,0.024503611,0.13433738,-0.26084897,0.9556741,-10.033565,7.6123757,0.77537584,0.4627728,-4.1165733,-0.7289455,1
2.209999999999997,,,,,6.621962,-1.21278,-5.0796947,-1.9546293,-1.0583744,1.4647642,2.2853258,0.022380935,0.1552467,-0.2587449,0.95312685,-10.015287,7.5768723,0.7354212,0.3963559,-4.212347,-0.7785096,1
2.2199999999999966,,,,,6.621962,-1.21278,-5.0796947,-1.9546293,-1.1584285,1.540365,2.2924635,0.020467566,0.17671548,-0.25723332,0.9498347,-9.995182,7.5434175,0.6919143,0.15435518,-4.356671,-0.8353915,1
2.2299999999999964,,,,,6.621962,-1.21278,-5.0796947,-1.9546293,-1.2582698,1.615635,2.299158,0.018846918,0.1987507,-0.25664166,0.94566387,-9.972617,7.510641,0.6467868,-0.058688052,-4.4696903,-0.890277,1
