time-since-start [s],throttle_mpc,roll_mpc,pitch_mpc,yaw_mpc,throttle_nw,roll_nw,pitch_nw,yaw_nw,position_x [m],position_y [m],position_z [m],rotation_w [quaternion],rotation_x [quaternion],rotation_y [quaternion],rotation_z [quaternion],velocity_x [m/s],velocity_y [m/s],velocity_z [m/s],omega_x [rad/s],omega_y [rad/s],omega_z [rad/s],network_used
0.0,5.605038512389646,5.999998097066818,-5.999999889055123,-3.7289567442209317,13.3049965,0.88315505,-4.370472,-0.4528186,19.27523,-9.437621,2.0794935,0.04212316,0.37861288,-0.27160698,-0.8838029,-10.215751,-3.4086874,0.6234132,0.96277606,0.033395592,-0.15465266,0
0.01,5.605038512389646,5.999998097066818,-5.999999889055123,-3.7289567442209317,13.670991,0.7251119,-5.1983924,-0.60143155,19.172623,-9.4714155,2.0856044,0.039291847,0.3788581,-0.27550772,-0.88262004,-10.305461,-3.3501496,0.59846675,0.9809794,-0.14025687,-0.2614378,0
0.02,5.605038512389646,5.999998097066818,-5.999999889055123,-3.7289567442209317,13.670991,0.7251119,-5.1983924,-0.60143155,19.069126,-9.504624,2.0914567,0.035706367,0.37848815,-0.27935982,-0.88171977,-10.393414,-3.2914774,0.5717691,1.0185807,-0.30909285,-0.3649726,0
0.03,5.605038512389646,5.999998097066818,-5.999999889055123,-3.7289567442209317,13.670991,0.7251119,-5.1983924,-0.60143155,18.96476,-9.537245,2.097034,0.031350102,0.3775214,-0.28324267,-0.88106084,-10.479445,-3.2326205,0.5434454,1.0726242,-0.47393376,-0.46542257,0
0.04,5.605038512389646,5.999998097066818,-5.999999889055123,-3.7289567442209317,13.190818,1.4639652,-5.3528166,-1.2076845,18.859543,-9.569276,2.1023204,0.026210118,0.3759706,-0.28722245,-0.8806034,-10.563401,-3.173518,0.5136037,1.1405658,-0.6354229,-0.56294084,0
0.05,5.605038512389646,5.999998097066818,-5.999999889055123,-3.7289567442209317,13.190818,1.4639652,-5.3528166,-1.2076845,18.753498,-9.600715,2.107301,0.020276818,0.3738438,-0.29135355,-0.8803082,-10.645134,-3.1141021,0.4823377,1.2202132,-0.79405856,-0.65766895,0
0.060000000000000005,5.605038512389646,5.999998097066818,-5.999999889055123,-3.7289567442209317,13.190818,1.4639652,-5.3528166,-1.2076845,18.646648,-9.631557,2.1119623,0.013543652,0.3711449,-0.29568014,-0.88013697,-10.7245035,-3.0543041,0.44972858,1.3096772,-0.95022166,-0.74973804,0
0.07,5.605038512389646,5.999998097066818,-5.999999889055123,-3.7289567442209317,13.190818,1.4639652,-5.3528166,-1.2076845,18.539017,-9.6618,2.116291,0.0060068583,0.36787456,-0.3002374,-0.88005084,-10.8013735,-2.994056,0.4158465,1.4073273,-1.1041982,-0.83926964,0
0.08,5.824797896750681,5.9999992766256565,-5.999999914822487,-4.284931426593389,14.505744,1.8317822,-4.977773,-0.75460607,18.43063,-9.691437,2.120275,-0.0023347281,0.3640307,-0.30505243,-0.8800107,-10.875612,-2.9332943,0.38075212,1.5117567,-1.2561975,-0.9263765,0
0.09,5.824797896750681,5.9999992766256565,-5.999999914822487,-4.284931426593389,14.505744,1.8317822,-4.977773,-0.75460607,18.321484,-9.72044,2.123927,-0.011403904,0.3597874,-0.30996686,-0.8799677,-10.952855,-2.8670335,0.34947634,1.5501034,-1.3346679,-1.0320408,0
0.09999999999999999,5.824797896750681,5.9999992766256565,-5.999999914822487,-4.284931426593389,14.505744,1.8317822,-4.977773,-0.75460607,18.21158,-9.7487755,2.1272614,-0.021136906,0.35529438,-0.3148472,-0.87988067,-11.027308,-2.7999501,0.3172137,1.6016189,-1.4200735,-1.1342326,0
0.10999999999999999,5.824797896750681,5.9999992766256565,-5.999999914822487,-4.284931426593389,14.505744,1.8317822,-4.977773,-0.75460607,18.100946,-9.776436,2.1302683,-0.031550284,0.35051176,-0.31974554,-0.8797207,-11.098876,-2.7320867,0.28397503,1.6645247,-1.51161,-1.2331471,0
0.11999999999999998,5.824797896750681,5.9999992766256565,-5.999999914822487,-4.284931426593389,14.505744,1.8317822,-4.977773,-0.75460607,17.989613,-9.803415,2.1329377,-0.042656396,0.3454016,-0.32470444,-0.87945706,-11.167457,-2.6634805,0.24977106,1.7372508,-1.6085283,-1.3289636,0
0.12999999999999998,8.030405016842,5.999999616258076,-5.999999936912702,-4.248801568043217,13.0516815,2.6490777,-5.6796675,-0.6592293,17.877607,-9.829704,2.1352603,-0.054463685,0.3399276,-0.32975802,-0.8790575,-11.232948,-2.5941665,0.2146123,1.81841,-1.7101337,-1.421847,0
0.13999999999999999,8.030405016842,5.999999616258076,-5.999999936912702,-4.248801568043217,13.0516815,2.6490777,-5.6796675,-0.6592293,17.76492,-9.855247,2.1372707,-0.06709483,0.33390468,-0.33506253,-0.8784866,-11.304034,-2.5142918,0.18726268,1.9713202,-1.8804647,-1.5159471,0
0.15,8.030405016842,5.999999616258076,-5.999999936912702,-4.248801568043217,13.0516815,2.6490777,-5.6796675,-0.6592293,17.651539,-9.879988,2.1390016,-0.08065868,0.32715902,-0.34074858,-0.8776966,-11.371142,-2.4337964,0.15871117,2.125745,-2.049627,-1.6076984,0
0.16,10.917911200244959,5.9999997439135635,-5.999999950318974,-3.708846325907595,13.735562,3.1123273,-5.3182607,-0.7837446,17.537508,-9.90392,2.1404412,-0.0951378,0.31967315,-0.34680194,-0.87663335,-11.434094,-2.3526654,0.12898788,2.2811358,-2.2174888,-1.6971881,0
0.17,10.917911200244959,5.9999997439135635,-5.999999950318974,-3.708846325907595,13.735562,3.1123273,-5.3182607,-0.7837446,17.422836,-9.9269905,2.1416173,-0.11074187,0.31103638,-0.35351378,-0.8752259,-11.499553,-2.2613175,0.10599238,2.5902193,-2.5374415,-1.771702,0
0.18000000000000002,10.917911200244959,5.9999997439135635,-5.999999950318974,-3.708846325907595,13.735562,3.1123273,-5.3182607,-0.7837446,17.307535,-9.949146,2.1425552,-0.12764649,0.30087152,-0.36111492,-0.8733719,-11.5594635,-2.1696503,0.08137238,2.8853366,-2.8417568,-1.8456217,0
0.19000000000000003,10.917911200244959,5.9999997439135635,-5.999999950318974,-3.708846325907595,13.735562,3.1123273,-5.3182607,-0.7837446,17.191666,-9.970383,2.1432393,-0.1457792,0.28920957,-0.3694968,-0.8709639,-11.613495,-2.0775995,0.055186257,3.1674633,-3.1316676,-1.9188687,0
0.20000000000000004,14.161442142774067,5.999999777470538,-5.999999953872655,-2.836160158427697,12.578635,3.8853853,-5.439448,-1.0226803,17.075289,-9.990697,2.1436536,-0.1650654,0.2760781,-0.3785513,-0.8678899,-11.661342,-1.9851792,0.027470183,3.4374948,-3.4082878,-1.9913746,0
0.21000000000000005,14.161442142774067,5.999999777470538,-5.999999953872655,-2.836160158427697,12.578635,3.8853853,-5.439448,-1.0226803,16.958431,-10.0100155,2.1438353,-0.1856046,0.26108435,-0.38844678,-0.8639992,-11.709066,-1.8781576,0.00886466,3.836489,-3.8130844,-2.0328286,0
0.22000000000000006,14.161442142774067,5.999999777470538,-5.999999953872655,-2.836160158427697,12.578635,3.8853853,-5.439448,-1.0226803,16.841133,-10.02825,2.1438315,-0.20736566,0.24400353,-0.39920658,-0.8591248,-11.74977,-1.7683514,-0.009639164,4.173329,-4.154685,-2.0722482,0
0.23000000000000007,14.161442142774067,5.999999777470538,-5.999999953872655,-2.836160158427697,12.578635,3.8853853,-5.439448,-1.0226803,16.723463,-10.045373,2.1436427,-0.23009492,0.22509216,-0.4105371,-0.85314053,-11.782642,-1.6559544,-0.028145265,4.4577007,-4.442953,-2.1097336,0
0.24000000000000007,14.161442142774067,5.999999777470538,-5.999999953872655,-2.836160158427697,13.318995,3.5401103,-5.536608,-0.7591195,16.605509,-10.061361,2.1432683,-0.25356534,0.20457716,-0.42218634,-0.845938,-11.806971,-1.5413065,-0.04679662,4.697779,-4.6862125,-2.1453798,0
0.25000000000000006,14.161442142774067,5.999999777470538,-5.999999953872655,-2.836160158427697,13.318995,3.5401103,-5.536608,-0.7591195,16.487356,-10.076193,2.1427057,-0.2775728,0.18266164,-0.4339384,-0.83742774,-11.822148,-1.4248757,-0.06576992,4.9004655,-4.8914876,-2.1792767,0
0.26000000000000006,14.161442142774067,5.999999777470538,-5.999999953872655,-2.836160158427697,13.318995,3.5401103,-5.536608,-0.7591195,16.3691,-10.089854,2.1419508,-0.3019331,0.15952893,-0.4456085,-0.8275383,-11.827665,-1.3072386,-0.085269764,5.0715857,-5.064709,-2.2115102,0
0.2700000000000001,14.161442142774067,5.999999777470538,-5.999999953872655,-2.836160158427697,13.318995,3.5401103,-5.536608,-0.7591195,16.250837,-10.102336,2.1409974,-0.32647946,0.13534588,-0.4570386,-0.8162157,-11.823124,-1.1890624,-0.1055226,5.2160573,-5.2108793,-2.242162,0
0.2800000000000001,19.391512556814984,5.999999656924516,-5.999999932703112,-1.1866698969460587,14.686552,2.2768238,-5.496041,-0.16155668,16.132673,-10.113636,2.1398368,-0.35106048,0.110265315,-0.46809378,-0.8034214,-11.808234,-1.0710875,-0.12677075,5.338032,-5.334222,-2.2713096,0
0.2900000000000001,19.391512556814984,5.999999656924516,-5.999999932703112,-1.1866698969460587,14.686552,2.2768238,-5.496041,-0.16155668,16.014755,-10.123545,2.1385975,-0.37537566,0.08433227,-0.4786813,-0.7892053,-11.773429,-0.91090924,-0.12134509,5.441301,-5.438014,-2.218086,0
0.3000000000000001,19.391512556814984,5.999999656924516,-5.999999932703112,-1.1866698969460587,14.686552,2.2768238,-5.496041,-0.16155668,15.897256,-10.131864,2.1374025,-0.39915332,0.057585366,-0.48872018,-0.77363604,-11.724109,-0.75324184,-0.11798562,5.5284853,-5.525599,-2.1674743,0
0.3100000000000001,19.391512556814984,5.999999656924516,-5.999999932703112,-1.1866698969460587,14.686552,2.2768238,-5.496041,-0.16155668,15.780322,-10.138623,2.1362293,-0.42230383,0.030151878,-0.49811968,-0.7567211,-11.660331,-0.5992584,-0.11705889,5.602089,-5.5995097,-2.119346,0
0.3200000000000001,20.999999073465577,5.194177330256373,-5.999999789234659,0.19638596931267094,15.867945,0.9445609,-5.417887,0.41085854,15.664098,-10.143866,2.135052,-0.4447468,0.0021509607,-0.5068024,-0.73847586,-11.5822935,-0.45014232,-0.1189348,5.6642256,-5.661883,-2.0735793,0
0.3300000000000001,20.999999073465577,5.194177330256373,-5.999999789234659,0.19638596931267094,15.867945,0.9445609,-5.417887,0.41085854,15.548761,-10.147587,2.133879,-0.4662902,-0.026246468,-0.5144699,-0.71916956,-11.482732,-0.2952042,-0.11623955,5.591266,-5.714107,-1.9621913,0
0.34000000000000014,20.999999073465577,5.194177330256373,-5.999999789234659,0.19638596931267094,15.867945,0.9445609,-5.417887,0.41085854,15.434492,-10.1497965,2.1327147,-0.4867852,-0.054895516,-0.5208984,-0.6990644,-11.368763,-0.14805983,-0.11719287,5.5296817,-5.7582316,-1.8562694,0
0.35000000000000014,20.999999073465577,5.194177330256373,-5.999999789234659,0.19638596931267094,15.867945,0.9445609,-5.417887,0.41085854,15.321433,-10.150579,2.131522,-0.5062227,-0.0837257,-0.526127,-0.6781729,-11.241169,-0.00988197,-0.12199462,5.477695,-5.7955127,-1.7555449,0
0.36000000000000015,20.99999921160787,2.1626997411258984,-5.999999110620406,2.603206916102319,15.906485,-0.6470145,-3.1030893,0.7204171,15.209712,-10.15003,2.1302612,-0.5245934,-0.11267024,-0.5301886,-0.656511,-11.10082,0.11824317,-0.13085328,5.4338083,-5.8270125,-1.6597631,0
0.37000000000000016,20.99999921160787,2.1626997411258984,-5.999999110620406,2.603206916102319,15.906485,-0.6470145,-3.1030893,0.7204171,15.099504,-10.148215,2.1289182,-0.54164004,-0.1411228,-0.5327305,-0.63475037,-10.939328,0.24261528,-0.13866708,5.059429,-5.718035,-1.4626638,0
0.38000000000000017,20.99999921160787,2.1626997411258984,-5.999999110620406,2.603206916102319,15.906485,-0.6470145,-3.1030893,0.7204171,14.990955,-10.145226,2.1274688,-0.5572863,-0.16863523,-0.53340507,-0.6135736,-10.7693205,0.35300368,-0.15204681,4.7095203,-5.6600094,-1.2722136,0
0.3900000000000002,20.99999921160787,2.1626997411258984,-5.999999110620406,2.603206916102319,15.906485,-0.6470145,-3.1030893,0.7204171,14.884142,-10.141203,2.1258595,-0.57176965,-0.19535577,-0.53223336,-0.5929947,-10.592599,0.44927546,-0.17057593,4.379773,-5.6454906,-1.0880399,0
0.4000000000000002,20.999991101493034,-1.160806058742834,-2.605167196945218,3.0813212850621943,16.43836,-3.2412481,1.3240789,1.0429705,14.779122,-10.136289,2.1240408,-0.5852932,-0.22139809,-0.52922314,-0.57300705,-10.410793,0.53139836,-0.1938135,4.066696,-5.668047,-0.90980154,0
0.4100000000000002,20.999991101493034,-1.160806058742834,-2.605167196945218,3.0813212850621943,16.43836,-3.2412481,1.3240789,1.0429705,14.675965,-10.130612,2.1219788,-0.5974934,-0.24532966,-0.52462286,-0.5546038,-10.219994,0.6015865,-0.21917959,3.3141012,-5.127858,-0.71949404,0
0.4200000000000002,20.999991101493034,-1.160806058742834,-2.605167196945218,3.0813212850621943,16.43836,-3.2412481,1.3240789,1.0429705,14.57473,-10.124301,2.1196456,-0.6082112,-0.26606855,-0.51876295,-0.53867537,-10.026943,0.6587392,-0.24795476,2.6474607,-4.7033587,-0.53573555,0
0.4300000000000002,20.999991101493034,-1.160806058742834,-2.605167196945218,3.0813212850621943,16.43836,-3.2412481,1.3240789,1.0429705,14.47543,-10.117476,2.117011,-0.61785406,-0.28415662,-0.5117228,-0.5250245,-9.832821,0.70428514,-0.27919358,2.0574114,-4.372474,-0.35854542,0
0.4400000000000002,20.999991101493034,-1.160806058742834,-2.605167196945218,3.0813212850621943,17.082394,-5.237863,4.21826,1.3233773,14.378081,-10.110249,2.1140585,-0.62667966,-0.30004287,-0.5036316,-0.51342154,-9.636628,0.73977387,-0.31140506,1.5560489,-4.096572,-0.1897502,0
0.45000000000000023,20.999991101493034,-1.160806058742834,-2.605167196945218,3.0813212850621943,17.082394,-5.237863,4.21826,1.3233773,14.282703,-10.102712,2.1107821,-0.634831,-0.31410217,-0.49465954,-0.50362766,-9.438916,0.76606995,-0.34383762,1.1327913,-3.8638146,-0.02923774,0
0.46000000000000024,20.999991101493034,-1.160806058742834,-2.605167196945218,3.0813212850621943,17.082394,-5.237863,4.21826,1.3233773,14.189306,-10.094955,2.107183,-0.6424105,-0.32664594,-0.48493823,-0.49542463,-9.240365,0.78386563,-0.3759447,0.77547574,-3.667443,0.12339828,0
0.47000000000000025,20.999991101493034,-1.160806058742834,-2.605167196945218,3.0813212850621943,17.082394,-5.237863,4.21826,1.3233773,14.097897,-10.087062,2.103266,-0.64949244,-0.33793217,-0.4745678,-0.4886167,-9.041521,0.7937613,-0.40726984,0.47383267,-3.5017595,0.2685444,0
0.48000000000000026,18.35381762687815,-4.532926432511851,2.447686105661971,3.6063109714426913,17.454975,-5.5005574,5.2387094,1.289239,14.008475,-10.079106,2.0990412,-0.6561305,-0.34817454,-0.4636251,-0.48303056,-8.842839,0.7962728,-0.4374363,0.2191906,-3.36196,0.40656817,0
0.49000000000000027,18.35381762687815,-4.532926432511851,2.447686105661971,3.6063109714426913,17.454975,-5.5005574,5.2387094,1.289239,13.920913,-10.071157,2.0944784,-0.66188943,-0.3557244,-0.45283657,-0.47989693,-8.669672,0.7925888,-0.4748234,-0.5219614,-2.4562728,0.5635731,0
0.5000000000000002,18.35381762687815,-4.532926432511851,2.447686105661971,3.6063109714426913,17.454975,-5.5005574,5.2387094,1.289239,13.835079,-10.063268,2.0895512,-0.6664901,-0.35930383,-0.44281736,-0.48021242,-8.497346,0.784606,-0.5102747,-1.1475807,-1.6918408,0.7128811,0
0.5100000000000002,18.35381762687815,-4.532926432511851,2.447686105661971,3.6063109714426913,17.454975,-5.5005574,5.2387094,1.289239,13.750963,-10.055472,2.084282,-0.6701352,-0.35955557,-0.43344328,-0.4834924,-8.32612,0.7740233,-0.5431422,-1.6757227,-1.0466812,0.8548625,0
0.5200000000000002,15.708586778348575,-5.999999338125197,5.999999405937734,3.690931848372737,15.7431,-6.547408,5.7084155,1.8644809,13.668551,-10.047791,2.078699,-0.6729522,-0.3570023,-0.42458254,-0.4892993,-8.156205,0.7622597,-0.5728621,-2.1215582,-0.50216895,0.9898769,0
0.5300000000000002,15.708586778348575,-5.999999338125197,5.999999405937734,3.690931848372737,15.7431,-6.547408,5.7084155,1.8644809,13.587737,-10.04022,2.0727968,-0.674744,-0.35094547,-0.4165948,-0.49800205,-8.007151,0.75194937,-0.6071994,-2.7826092,0.45562726,1.1174302,0
0.5400000000000003,15.708586778348575,-5.999999338125197,5.999999405937734,3.690931848372737,15.7431,-6.547408,5.7084155,1.8644809,13.508395,-10.032746,2.0665646,-0.67524433,-0.3408352,-0.40982732,-0.50982106,-7.8619576,0.74342436,-0.63880587,-3.314339,1.2903461,1.2410746,0
0.5500000000000003,15.708586778348575,-5.999999338125197,5.999999405937734,3.690931848372737,15.7431,-6.547408,5.7084155,1.8644809,13.430485,-10.025341,2.0600317,-0.67440414,-0.32725585,-0.4041304,-0.52417636,-7.7207017,0.73810005,-0.6672754,-3.738857,2.0192344,1.3608321,0
0.5600000000000003,13.786229368616867,-5.99999979012502,5.999999815840855,2.2683913861761704,14.498272,-6.748531,5.7367163,1.7360206,13.353972,-10.017968,2.0532339,-0.6721897,-0.31068042,-0.39930314,-0.5405508,-7.5820575,0.7371062,-0.69155914,-4.0922246,2.6394162,1.4751709,1
0.5700000000000003,13.786229368616867,-5.99999979012502,5.999999815840855,2.2683913861761704,14.498272,-6.748531,5.7367163,1.7360206,13.278782,-10.010581,2.0461862,-0.6687801,-0.29145584,-0.3950885,-0.55829316,-7.456513,0.7411121,-0.7172826,-4.39023,3.122116,1.4879708,1
0.5800000000000003,13.786229368616867,-5.99999979012502,5.999999815840855,2.2683913861761704,14.498272,-6.748531,5.7367163,1.7360206,13.204833,-10.003126,2.0389035,-0.6643365,-0.26987386,-0.39126796,-0.576831,-7.3339,0.7507661,-0.7386506,-4.6416955,3.5295815,1.5001428,1
0.5900000000000003,13.786229368616867,-5.99999979012502,5.999999815840855,2.2683913861761704,14.498272,-6.748531,5.7367163,1.7360206,13.132092,-9.995544,2.0314286,-0.6588365,-0.24622267,-0.38765594,-0.5958449,-7.2148046,0.7666228,-0.75563896,-4.853887,3.8735392,1.5117174,1
0.6000000000000003,16.895367874247487,-5.999999844593768,5.999999871523806,2.091629590706717,13.304136,-6.5547094,5.0589247,1.0549133,13.060522,-9.987771,2.0238056,-0.6522582,-0.22075783,-0.38409618,-0.6150567,-7.099871,0.78909475,-0.76830727,-5.032938,4.163888,1.5227242,0
0.6100000000000003,16.895367874247487,-5.999999844593768,5.999999871523806,2.091629590706717,13.304136,-6.5547094,5.0589247,1.0549133,12.99017,-9.979715,2.0161505,-0.6445147,-0.1936591,-0.3805166,-0.634274,-6.971579,0.823326,-0.761981,-5.1841154,4.4499846,1.5506405,0
0.6200000000000003,16.895367874247487,-5.999999844593768,5.999999871523806,2.091629590706717,13.304136,-6.5547094,5.0589247,1.0549133,12.921068,-9.971275,2.0085819,-0.6355291,-0.16509314,-0.37685192,-0.6533215,-6.8497605,0.86583376,-0.7510485,-5.3116765,4.6914883,1.577187,0
0.6300000000000003,16.895367874247487,-5.999999844593768,5.999999871523806,2.091629590706717,13.304136,-6.5547094,5.0589247,1.0549133,12.853149,-9.96237,2.0011444,-0.62530094,-0.13526101,-0.37299293,-0.6719961,-6.7352633,0.9167199,-0.7358577,-5.4193096,4.89535,1.6024308,0
0.6400000000000003,16.895367874247487,-5.999999844593768,5.999999871523806,2.091629590706717,15.427531,-6.119816,5.689073,1.6682996,12.786336,-9.952912,1.9938781,-0.6138345,-0.104347125,-0.36885065,-0.69012123,-6.6289306,0.9759465,-0.71683043,-5.5101266,5.0674386,1.626436,0
0.6500000000000004,16.895367874247487,-5.999999844593768,5.999999871523806,2.091629590706717,15.427531,-6.119816,5.689073,1.6682996,12.720541,-9.942822,1.9868194,-0.60113937,-0.0725215,-0.3643535,-0.7075435,-6.531588,1.0433449,-0.6944543,-5.5867534,5.212707,1.6492631,0
0.6600000000000004,16.895367874247487,-5.999999844593768,5.999999871523806,2.091629590706717,15.427531,-6.119816,5.689073,1.6682996,12.655671,-9.932018,1.9799988,-0.58723027,-0.03994172,-0.35944474,-0.72412974,-6.4440255,1.1186248,-0.66927475,-5.651406,5.3353353,1.6709703,0
0.6700000000000004,16.895367874247487,-5.999999844593768,5.999999871523806,2.091629590706717,15.427531,-6.119816,5.689073,1.6682996,12.591624,-9.9204235,1.9734415,-0.5721267,-0.0067543834,-0.35408047,-0.7397645,-6.366984,1.2013835,-0.6418865,-5.7059546,5.4388533,1.6916121,0
0.6800000000000004,20.8759816709212,-5.9999997193244505,5.999999816106409,2.182499125535221,16.087261,-5.317507,6.258613,1.6235371,12.528293,-9.907967,1.9671664,-0.55585283,0.026903626,-0.34822753,-0.7543477,-6.3011427,1.291115,-0.61292523,-5.751978,5.5262394,1.7112411,0
0.6900000000000004,20.8759816709212,-5.9999997193244505,5.999999816106409,2.182499125535221,16.087261,-5.317507,6.258613,1.6235371,12.465628,-9.894467,1.9613367,-0.5384284,0.060900174,-0.34186244,-0.76779884,-6.2343793,1.4098625,-0.5529096,-5.7908235,5.5999913,1.7343658,0
0.7000000000000004,20.8759816709212,-5.9999997193244505,5.999999816106409,2.182499125535221,16.087261,-5.317507,6.258613,1.6235371,12.403554,-9.879745,1.9561092,-0.51987714,0.095111206,-0.33496985,-0.7800486,-6.182858,1.5356402,-0.49263054,-5.8235965,5.662252,1.7563559,0
0.7100000000000004,20.8759816709212,-5.9999997193244505,5.999999816106409,2.182499125535221,16.087261,-5.317507,6.258613,1.6235371,12.341917,-9.863733,1.9514819,-0.500235,0.12942368,-0.32754087,-0.7910313,-6.14712,1.667511,-0.43296197,-5.8512444,5.7148123,1.7772669,0
0.7200000000000004,20.999999396914053,-5.998498406801067,5.999999552357029,0.5421403355957309,17.589254,-5.0968447,6.6233954,1.7093403,12.280557,-9.846376,1.9474447,-0.4795409,0.16373083,-0.31957215,-0.8006906,-6.1275887,1.8044577,-0.37478688,-5.8745685,5.7591844,1.7971518,0
0.7300000000000004,20.999999396914053,-5.998498406801067,5.999999552357029,0.5421403355957309,17.589254,-5.0968447,6.6233954,1.7093403,12.21931,-9.827625,1.9439827,-0.45800027,0.19799598,-0.31103137,-0.80888313,-6.1245503,1.9462334,-0.31807417,-5.893707,5.7969537,1.7355682,0
0.7400000000000004,20.999999396914053,-5.998498406801067,5.999999552357029,0.5421403355957309,17.589254,-5.0968447,6.6233954,1.7093403,12.158008,-9.807443,1.9410721,-0.43581426,0.23218213,-0.30188507,-0.81548876,-6.138295,2.0908828,-0.2646353,-5.9098625,5.828826,1.6770062,0
0.7500000000000004,20.999999396914053,-5.998498406801067,5.999999552357029,0.5421403355957309,17.589254,-5.0968447,6.6233954,1.7093403,12.096486,-9.785802,1.9386758,-0.41301847,0.2661902,-0.29213488,-0.82049674,-6.1688657,2.2372298,-0.21534392,-5.9235024,5.8557205,1.6213181,0
0.7600000000000005,20.999999594671284,-2.9732948078455017,5.596546654142625,1.1315485015843199,18.644535,-2.6153286,6.1373386,0.50392234,12.034574,-9.762695,1.936748,-0.38964927,0.29992586,-0.28178638,-0.8239014,-6.216171,2.3840764,-0.17105587,-5.935019,5.8784137,1.5683626,0
0.7700000000000005,20.999999594671284,-2.9732948078455017,5.596546654142625,1.1315485015843199,18.644535,-2.6153286,6.1373386,0.50392234,11.972106,-9.738122,1.9352345,-0.36611468,0.33269277,-0.2718156,-0.8254641,-6.2798886,2.5302713,-0.13261396,-5.4730144,5.835005,1.546928,0
0.7800000000000005,20.999999594671284,-2.9732948078455017,5.596546654142625,1.1315485015843199,18.644535,-2.6153286,6.1373386,0.50392234,11.908923,-9.712093,1.9340726,-0.34281635,0.36399147,-0.26303834,-0.8251043,-6.3590417,2.6750264,-0.10087063,-5.0830708,5.798278,1.5265452,0
0.7900000000000005,20.999999594671284,-2.9732948078455017,5.596546654142625,1.1315485015843199,18.644535,-2.6153286,6.1373386,0.50392234,11.844875,-9.6846285,1.9331914,-0.31976503,0.39399838,-0.25523943,-0.82302344,-6.4525065,2.8177266,-0.07657372,-4.753948,5.767205,1.5071626,0
0.8000000000000005,20.999999202847604,-0.007083754739424983,1.7593007241876792,0.5393600114187441,20.807291,-0.715055,4.750801,0.4679713,11.779827,-9.655748,1.9325134,-0.29695752,0.4228539,-0.2482318,-0.8193845,-6.559239,2.9577959,-0.06035056,-4.4761615,5.7409177,1.4887311,0
0.8100000000000005,20.999999202847604,-0.007083754739424983,1.7593007241876792,0.5393600114187441,20.807291,-0.715055,4.750801,0.4679713,11.71365,-9.6254835,1.9319551,-0.2753462,0.44910738,-0.24236141,-0.81470686,-6.6781206,3.0947304,-0.05262262,-3.7784536,5.120778,1.4421451,0
0.8200000000000005,20.999999202847604,-0.007083754739424983,1.7593007241876792,0.5393600114187441,20.807291,-0.715055,4.750801,0.4679713,11.64623,-9.593864,1.9314326,-0.2557539,0.47172555,-0.23795612,-0.8095932,-6.8073473,3.22836,-0.053095985,-3.189685,4.597203,1.3978451,0
0.8300000000000005,20.999999202847604,-0.007083754739424983,1.7593007241876792,0.5393600114187441,20.807291,-0.715055,4.750801,0.4679713,11.577474,-9.560927,1.9308668,-0.23797059,0.49135664,-0.23482472,-0.8042358,-6.945167,3.358747,-0.061223935,-2.692843,4.15516,1.3557191,0
0.8400000000000005,20.999999202847604,-0.007083754739424983,1.7593007241876792,0.5393600114187441,21.19943,1.2172818,2.0041137,0.17447059,11.507302,-9.526701,1.9301838,-0.22179332,0.50853,-0.2327897,-0.7987572,-7.0901604,3.4860485,-0.07647751,-2.2735715,3.781957,1.3156602,0
0.8500000000000005,20.999999202847604,-0.007083754739424983,1.7593007241876792,0.5393600114187441,21.19943,1.2172818,2.0041137,0.17447059,11.435651,-9.491216,1.9293146,-0.20703286,0.52367795,-0.23169015,-0.7932323,-7.241174,3.6104698,-0.09836707,-1.9197575,3.4668756,1.2775669,0
0.8600000000000005,20.999999202847604,-0.007083754739424983,1.7593007241876792,0.5393600114187441,21.19943,1.2172818,2.0041137,0.17447059,11.362462,-9.4545,1.9281952,-0.19351664,0.5371535,-0.23138276,-0.7877046,-7.397271,3.7322338,-0.12645198,-1.6211797,3.2008672,1.2413428,0
0.8700000000000006,20.999999202847604,-0.007083754739424983,1.7593007241876792,0.5393600114187441,21.19943,1.2172818,2.0041137,0.17447059,11.28769,-9.416579,1.9267658,-0.1810896,0.5492452,-0.23174135,-0.7821964,-7.557688,3.8515623,-0.16034327,-1.3692135,2.97629,1.2068963,0
0.8800000000000006,20.999998565099336,2.0947289947442855,-2.386628826441515,0.426551696351189,21.62807,1.8331064,0.12746583,-0.18648104,11.211296,-9.377477,1.9249697,-0.16961393,0.56018937,-0.23265597,-0.77671695,-7.7218,3.9686656,-0.19970211,-1.1565813,2.786693,1.1741402,0
0.8900000000000006,20.999998565099336,2.0947289947442855,-2.386628826441515,0.426551696351189,21.62807,1.8331064,0.12746583,-0.18648104,11.1332445,-9.337213,1.9227542,-0.1598427,0.56876695,-0.23440479,-0.77201545,-7.889004,4.0838027,-0.24410208,-0.6488765,1.9803206,1.1374559,0
0.9000000000000006,20.999998565099336,2.0947289947442855,-2.386628826441515,0.426551696351189,21.62807,1.8331064,0.12746583,-0.18648104,11.053508,-9.295804,1.9200741,-0.15238278,0.574065,-0.2372265,-0.76873356,-8.058315,4.1976132,-0.29240447,-0.22047824,1.29962,1.1025716,0
0.9100000000000006,20.999998565099336,2.0947289947442855,-2.386628826441515,0.426551696351189,21.62807,1.8331064,0.12746583,-0.18648104,10.972074,-9.253262,1.9168967,-0.14691506,0.5766509,-0.24096917,-0.7666958,-8.228784,4.3108363,-0.3433809,0.14100592,0.7250083,1.069399,0
0.9200000000000006,20.999994415121847,3.2214075693594673,-5.999997588116696,0.41617330022853477,19.533924,2.50765,-3.2007008,-0.335018,10.888932,-9.209587,1.9132007,-0.14316002,0.57697874,-0.24549378,-0.76572347,-8.399643,4.424142,-0.3960012,0.44603115,0.2399537,1.0378543,0
0.9300000000000006,20.999994415121847,3.2214075693594673,-5.999997588116696,0.41617330022853477,19.533924,2.50765,-3.2007008,-0.335018,10.804083,-9.164777,1.9089743,-0.14149304,0.5742424,-0.25081462,-0.7663656,-8.570199,4.53817,-0.44928837,0.8794936,-0.73288745,1.0073483,0
0.9400000000000006,20.999994415121847,3.2214075693594673,-5.999997588116696,0.41617330022853477,19.533924,2.50765,-3.2007008,-0.335018,10.717533,-9.118819,1.9042178,-0.14219779,0.5677957,-0.25692847,-0.7690087,-8.739496,4.653732,-0.5017471,1.2452239,-1.5540736,0.9783392,0
0.9500000000000006,20.999994415121847,3.2214075693594673,-5.999997588116696,0.41617330022853477,19.533924,2.50765,-3.2007008,-0.335018,10.6293,-9.071693,1.8989471,-0.14491858,0.55817026,-0.26368588,-0.77324843,-8.906554,4.7715974,-0.55191416,1.5538105,-2.2472441,0.9507535,0
0.9600000000000006,20.977982004003824,3.475757339848344,-5.999999588349313,-0.21224549569099196,19.358541,3.4149244,-5.3998647,-0.51051974,10.5394125,-9.023376,1.8931913,-0.14934544,0.5457922,-0.27094793,-0.7787123,-9.070456,4.8923874,-0.5986006,1.8141854,-2.8323538,0.9245215,0
0.9700000000000006,20.977982004003824,3.475757339848344,-5.999999588349313,-0.21224549569099196,19.358541,3.4149244,-5.3998647,-0.51051974,10.447905,-8.973836,1.8869901,-0.15532458,0.53101426,-0.27862528,-0.7850254,-9.230143,5.01645,-0.6409182,2.0734837,-3.3262653,0.86874,0
0.9800000000000006,20.977982004003824,3.475757339848344,-5.999999588349313,-0.21224549569099196,19.358541,3.4149244,-5.3998647,-0.51051974,10.354825,-8.923035,1.8803906,-0.16272072,0.51413023,-0.28662917,-0.79185516,-9.38489,5.144289,-0.6780909,2.2922745,-3.7431881,0.81569576,0
0.9900000000000007,20.977982004003824,3.475757339848344,-5.999999588349313,-0.21224549569099196,19.358541,3.4149244,-5.3998647,-0.51051974,10.260227,-8.870936,1.8734477,-0.17130755,0.4953829,-0.2948421,-0.79894704,-9.533807,5.2761507,-0.709584,2.476891,-4.09512,0.76525444,0
1.0000000000000007,20.6431980090463,2.5838202591671418,-5.999999633218897,-0.295983793710587,19.30167,2.832952,-5.4542503,-0.6209179,10.164173,-8.817497,1.8662198,-0.18088815,0.47497952,-0.30316132,-0.8060805,-9.676024,5.412143,-0.73502344,2.6326747,-4.392189,0.7172882,0
1.0100000000000007,20.6431980090463,2.5838202591671418,-5.999999633218897,-0.295983793710587,19.30167,2.832952,-5.4542503,-0.6209179,10.066744,-8.762691,1.8587627,-0.19113289,0.45316985,-0.311205,-0.81317616,-9.808563,5.5499897,-0.7554264,2.625023,-4.6430144,0.66756666,0
1.0200000000000007,20.6431980090463,2.5838202591671418,-5.999999633218897,-0.295983793710587,19.30167,2.832952,-5.4542503,-0.6209179,9.96803,-8.706486,1.8511332,-0.20177943,0.43017754,-0.3186652,-0.82017285,-9.933022,5.6915755,-0.7694554,2.61854,-4.854719,0.620285,0
1.0300000000000007,20.6431980090463,2.5838202591671418,-5.999999633218897,-0.295983793710587,19.30167,2.832952,-5.4542503,-0.6209179,9.868114,-8.648848,1.8433957,-0.21275684,0.40613538,-0.3255602,-0.8269207,-10.048788,5.8365083,-0.7770229,2.6130502,-5.0334044,0.5753234,0
1.0400000000000007,20.6431980090463,2.5838202591671418,-5.999999633218897,-0.295983793710587,19.229795,1.3879178,-5.328977,-0.5384053,9.767086,-8.589745,1.8356148,-0.22399981,0.38116097,-0.33190635,-0.833293,-10.155282,5.9843497,-0.7781431,2.6084042,-5.184219,0.5325681,0
1.0500000000000007,20.6431980090463,2.5838202591671418,-5.999999633218897,-0.295983793710587,19.229795,1.3879178,-5.328977,-0.5384053,9.665043,-8.529151,1.8278546,-0.23544827,0.35535935,-0.33771828,-0.83918345,-10.251955,6.1346216,-0.7729204,2.6044738,-5.3115096,0.49191082,0
1.0600000000000007,20.6431980090463,2.5838202591671418,-5.999999633218897,-0.295983793710587,19.229795,1.3879178,-5.328977,-0.5384053,9.562084,-8.467046,1.8201777,-0.24704686,0.32882497,-0.34300947,-0.84450287,-10.338296,6.28681,-0.7615398,2.6011508,-5.418946,0.4532486,0
1.0700000000000007,20.6431980090463,2.5838202591671418,-5.999999633218897,-0.295983793710587,19.229795,1.3879178,-5.328977,-0.5384053,9.458315,-8.40341,1.8126442,-0.25874466,0.30164334,-0.34779236,-0.849177,-10.413843,6.440373,-0.74425757,2.598343,-5.509624,0.41648352,0
1.0800000000000007,20.64096197524,1.1635748512457855,-5.999999392071823,-0.12373033163810958,19.005827,0.29611152,-4.7387915,-0.33377904,9.353846,-8.338234,1.8053117,-0.27049458,0.27389237,-0.35207838,-0.85314417,-10.47818,6.594743,-0.72139317,2.5959713,-5.5861573,0.38152254,0
1.0900000000000007,20.64096197524,1.1635748512457855,-5.999999392071823,-0.12373033163810958,19.005827,0.29611152,-4.7387915,-0.33377904,9.248791,-8.271514,1.7982342,-0.28208604,0.24579296,-0.35539997,-0.8565644,-10.530971,6.7492857,-0.6933114,2.372515,-5.6507897,0.35672963,0
1.1000000000000008,20.64096197524,1.1635748512457855,-5.999999392071823,-0.12373033163810958,19.005827,0.29611152,-4.7387915,-0.33377904,9.143267,-8.203252,1.7914625,-0.29336736,0.21753982,-0.3573929,-0.85958177,-10.572142,6.9032207,-0.6602572,2.1839063,-5.705327,0.33315328,0
1.1100000000000008,20.64096197524,1.1635748512457855,-5.999999392071823,-0.12373033163810958,19.005827,0.29611152,-4.7387915,-0.33377904,9.037389,-8.133455,1.7850453,-0.30437312,0.18916278,-0.3582073,-0.8621256,-10.601703,7.0557303,-0.6224916,2.0247123,-5.751345,0.31073385,0
1.1200000000000008,19.918293353365172,-0.3137968453398589,-5.9999975328720625,-0.0783397166805015,18.245665,-1.0954481,-3.7012768,-0.4759519,8.931273,-8.062144,1.7790278,-0.3151262,0.16068877,-0.35797164,-0.8641351,-10.619679,7.206047,-0.5803268,1.8903457,-5.7901764,0.28941458,0
1.1300000000000008,19.918293353365172,-0.3137968453398589,-5.9999975328720625,-0.0783397166805015,18.245665,-1.0954481,-3.7012768,-0.4759519,8.825037,-7.9893703,1.7734276,-0.32554707,0.13232958,-0.35628715,-0.8657748,-10.625924,7.348259,-0.53914577,1.5465486,-5.8229814,0.2713688,0
1.1400000000000008,19.918293353365172,-0.3137968453398589,-5.9999975328720625,-0.0783397166805015,18.245665,-1.0954481,-3.7012768,-0.4759519,8.718792,-7.9151917,1.7682579,-0.33559108,0.10426493,-0.35284883,-0.8671815,-10.621362,7.4867864,-0.4942355,1.2563682,-5.8506527,0.25420853,0
1.1500000000000008,19.918293353365172,-0.3137968453398589,-5.9999975328720625,-0.0783397166805015,18.245665,-1.0954481,-3.7012768,-0.4759519,8.612645,-7.83965,1.763555,-0.3453112,0.076473355,-0.34788516,-0.86826634,-10.6063385,7.6208076,-0.4457907,1.0114434,-5.873995,0.23789029,0
1.1600000000000008,18.68005248297137,-1.643579343607117,-3.6558162394628306,-0.04842728587828681,17.0352,-2.295665,-3.3783045,-0.20389038,8.5067,-7.762794,1.7593534,-0.35474342,0.048936877,-0.34159076,-0.86895144,-10.581186,7.749576,-0.3940612,0.80471617,-5.8936853,0.22237279,0
1.1700000000000008,18.68005248297137,-1.643579343607117,-3.6558162394628306,-0.04842728587828681,17.0352,-2.295665,-3.3783045,-0.20389038,8.401045,-7.6847177,1.7556368,-0.36357492,0.022646222,-0.33401147,-0.8693304,-10.548484,7.8647995,-0.3488454,0.4228072,-5.54475,0.20908454,0
1.1800000000000008,18.68005248297137,-1.643579343607117,-3.6558162394628306,-0.04842728587828681,17.0352,-2.295665,-3.3783045,-0.20389038,8.295759,-7.6055183,1.7523851,-0.37160292,-0.0016074688,-0.32522723,-0.86955994,-10.507526,7.974081,-0.30111519,0.10047196,-5.2502165,0.19644834,0
1.1900000000000008,18.68005248297137,-1.643579343607117,-3.6558162394628306,-0.04842728587828681,17.0352,-2.295665,-3.3783045,-0.20389038,8.19092,-7.525257,1.7496223,-0.37898782,-0.024111759,-0.31543177,-0.8696483,-10.459233,8.077146,-0.25111774,-0.17158289,-5.001604,0.18443222,0
1.2000000000000008,17.169232763168388,-2.409346176836843,-0.34309988197291796,0.20792686938853872,16.727093,-2.8935556,-0.71535194,0.14129403,8.086597,-7.443998,1.7473699,-0.3858539,-0.045114238,-0.30478436,-0.86958987,-10.404397,8.173771,-0.1990698,-0.401201,-4.7917542,0.17300574,1
1.2100000000000009,17.169232763168388,-2.409346176836843,-0.34309988197291796,0.20792686938853872,16.727093,-2.8935556,-0.71535194,0.14129403,7.982821,-7.3618526,1.7455679,-0.39195487,-0.06361787,-0.29344186,-0.869606,-10.350138,8.254413,-0.16105266,-0.7899582,-4.1560845,0.17144963,1
1.2200000000000009,17.169232763168388,-2.409346176836843,-0.34309988197291796,0.20792686938853872,16.727093,-2.8935556,-0.71535194,0.14129403,7.8796086,-7.2789297,1.7441542,-0.3971391,-0.078847736,-0.28155744,-0.8699354,-10.291808,8.329334,-0.1214564,-1.1180763,-3.6195397,0.16996987,1
1.2300000000000009,17.169232763168388,-2.409346176836843,-0.34309988197291796,0.20792686938853872,16.727093,-2.8935556,-0.71535194,0.14129403,7.776995,-7.195285,1.7431443,-0.40160838,-0.09130114,-0.2692382,-0.8705655,-10.230481,8.3987875,-0.080301516,-1.3950142,-3.1666627,0.16856275,1
1.2400000000000009,17.169232763168388,-2.409346176836843,-0.34309988197291796,0.20792686938853872,16.08705,-3.2965739,1.7304347,0.4092648,7.6750064,-7.110972,1.7425535,-0.4055166,-0.101400405,-0.25656557,-0.87146264,-10.167057,8.463004,-0.03757979,-1.6287552,-2.7844064,0.16722466,0
1.2500000000000009,17.169232763168388,-2.409346176836843,-0.34309988197291796,0.20792686938853872,16.08705,-3.2965739,1.7304347,0.4092648,7.5736675,-7.0260334,1.7424166,-0.40891704,-0.10945465,-0.2438314,-0.87255466,-10.100578,8.523771,0.010483774,-1.7505263,-2.4037015,0.16922192,0
1.260000000000001,17.169232763168388,-2.409346176836843,-0.34309988197291796,0.20792686938853872,16.08705,-3.2965739,1.7304347,0.4092648,7.4729977,-6.940512,1.7427684,-0.4118514,-0.115730025,-0.2312689,-0.87378407,-10.033357,8.579689,0.06013602,-1.8533018,-2.0823655,0.17112118,0
1.270000000000001,17.169232763168388,-2.409346176836843,-0.34309988197291796,0.20792686938853872,16.08705,-3.2965739,1.7304347,0.4092648,7.3730016,-6.854455,1.7436246,-0.41440925,-0.120498806,-0.21885556,-0.87512636,-9.96592,8.6310425,0.111340016,-1.9400446,-1.8111398,0.17292723,0
1.280000000000001,16.185427381463825,-2.3922606389103955,3.105997390218651,0.4459666031935436,15.236345,-2.7883017,3.7626877,0.95095086,7.2736783,-6.7679067,1.7450005,-0.41666043,-0.12399111,-0.20657004,-0.8765546,-9.898718,8.678077,0.16406453,-2.013256,-1.5822103,0.17464465,1
1.290000000000001,16.185427381463825,-2.3922606389103955,3.105997390218651,0.4459666031935436,15.236345,-2.7883017,3.7626877,0.95095086,7.174987,-6.6809325,1.7468256,-0.4182671,-0.12491644,-0.19493508,-0.87832093,-9.839699,8.716249,0.20114206,-2.134199,-0.7487432,0.21273822,1
1.300000000000001,16.185427381463825,-2.3922606389103955,3.105997390218651,0.4459666031935436,15.236345,-2.7883017,3.7626877,0.95095086,7.0768795,-6.5935917,1.7490282,-0.41897598,-0.12226171,-0.18436572,-0.88063574,-9.782082,8.75155,0.23959918,-2.2363014,-0.045254797,0.24896254,1
1.310000000000001,16.185427381463825,-2.3922606389103955,3.105997390218651,0.4459666031935436,15.236345,-2.7883017,3.7626877,0.95095086,6.979338,-6.5059085,1.7516224,-0.41893515,-0.11657763,-0.1746931,-0.8833935,-9.726681,8.784723,0.27949888,-2.3224936,0.5485258,0.2834093,1
1.320000000000001,15.13955353506323,-1.8942072305118014,5.12717262711846,0.5608919201164311,14.652612,-2.0813944,5.7828646,1.1962558,6.882336,-6.417902,1.7546232,-0.41825327,-0.10832732,-0.16576943,-0.8864811,-9.674187,8.816389,0.32088056,-2.3952503,1.049708,0.31616575,1
1.330000000000001,15.13955353506323,-1.8942072305118014,5.12717262711846,0.5608919201164311,14.652612,-2.0813944,5.7828646,1.1962558,6.7858324,-6.32959,1.7580181,-0.41682133,-0.09730667,-0.1580525,-0.88983685,-9.627091,8.845938,0.3583445,-2.3465059,1.787785,0.35935202,1
1.340000000000001,15.13955353506323,-1.8942072305118014,5.12717262711846,0.5608919201164311,14.652612,-2.0813944,5.7828646,1.1962558,6.68978,-6.240984,1.7617947,-0.41455,-0.08337063,-0.15189461,-0.8933781,-9.584015,8.875328,0.39717123,-2.305371,2.4107633,0.40041915,1
1.350000000000001,15.13955353506323,-1.8942072305118014,5.12717262711846,0.5608919201164311,14.652612,-2.0813944,5.7828646,1.1962558,6.5941367,-6.1520815,1.7659658,-0.41153085,-0.06696038,-0.14703412,-0.8969607,-9.545549,8.905274,0.43724355,-2.2706532,2.936592,0.43947107,1
1.360000000000001,14.50529678376622,-1.099557295381879,5.549722917538364,0.49130294544367553,15.420545,-1.4161927,5.52598,1.1394113,6.498852,-6.0628743,1.7705433,-0.4078303,-0.04845152,-0.14324823,-0.9004475,-9.512217,8.936352,0.4783934,-2.2413464,3.3804207,0.47660676,1
1.370000000000001,14.50529678376622,-1.099557295381879,5.549722917538364,0.49130294544367553,15.420545,-1.4161927,5.52598,1.1394113,6.40388,-5.9733405,1.7755734,-0.40350848,-0.028365595,-0.14054702,-0.9036712,-9.483003,8.970738,0.5277389,-2.1128461,3.7150147,0.5091308,1
1.380000000000001,14.50529678376622,-1.099557295381879,5.549722917538364,0.49130294544367553,15.420545,-1.4161927,5.52598,1.1394113,6.3091702,-5.8834524,1.7811,-0.39862305,-0.0071369754,-0.13893147,-0.90650177,-9.45996,9.007225,0.57767105,-2.0043774,3.9974294,0.5400588,1
1.390000000000001,14.50529678376622,-1.099557295381879,5.549722917538364,0.49130294544367553,15.420545,-1.4161927,5.52598,1.1394113,6.214659,-5.793187,1.7871275,-0.3932145,0.0150526,-0.13821459,-0.9088736,-9.443318,9.046147,0.62783986,-1.9128149,4.2358017,0.5694692,1
1.400000000000001,13.317947575537978,-0.2732346664241503,3.721556241455279,0.37574289991208704,15.009383,-0.97114533,4.5658,1.0422649,6.1202817,-5.70252,1.7936562,-0.3873147,0.038044684,-0.13823813,-0.9107299,-9.433281,9.087754,0.67787266,-1.8355222,4.437,0.59743637,0
1.410000000000001,13.317947575537978,-0.2732346664241503,3.721556241455279,0.37574289991208704,15.009383,-0.97114533,4.5658,1.0422649,6.0259676,-5.611452,1.8005824,-0.38116163,0.06088008,-0.139005,-0.9119681,-9.430414,9.126147,0.70725405,-1.5918103,4.325533,0.5865578,0
1.420000000000001,13.317947575537978,-0.2732346664241503,3.721556241455279,0.37574289991208704,15.009383,-0.97114533,4.5658,1.0422649,5.931654,-5.5199885,1.8077986,-0.37498957,0.08279507,-0.1405202,-0.9125682,-9.433142,9.167026,0.7358643,-1.3861148,4.2314305,0.57621306,0
1.430000000000001,13.317947575537978,-0.2732346664241503,3.721556241455279,0.37574289991208704,15.009383,-0.97114533,4.5658,1.0422649,5.8372865,-5.428104,1.815296,-0.36881283,0.10392555,-0.14266126,-0.9125915,-9.441183,9.210377,0.763423,-1.2125053,4.1519885,0.5663759,0
1.440000000000001,13.317947575537978,-0.2732346664241503,3.721556241455279,0.37574289991208704,13.882725,0.093857855,2.0879827,0.5205427,5.742813,-5.335773,1.8230627,-0.3626388,0.12438534,-0.14532328,-0.91208637,-9.454297,9.256179,0.7896791,-1.0659769,4.0849233,0.5570215,0
1.450000000000001,13.317947575537978,-0.2732346664241503,3.721556241455279,0.37574289991208704,13.882725,0.093857855,2.0879827,0.5205427,5.6481843,-5.242972,1.8310844,-0.35647002,0.1442695,-0.14841649,-0.9110911,-9.47227,9.304401,0.81440425,-0.9423051,4.0283065,0.5481261,0
1.460000000000001,13.317947575537978,-0.2732346664241503,3.721556241455279,0.37574289991208704,13.882725,0.093857855,2.0879827,0.5205427,5.5533514,-5.1496773,1.8393447,-0.3503058,0.16365714,-0.15186416,-0.90963644,-9.494913,9.355002,0.837388,-0.837925,3.980511,0.5396672,0
1.470000000000001,13.317947575537978,-0.2732346664241503,3.721556241455279,0.37574289991208704,13.882725,0.093857855,2.0879827,0.5205427,5.45827,-5.055865,1.8478254,-0.3441432,0.18261391,-0.15560079,-0.90774715,-9.52206,9.407935,0.85843426,-0.7498271,3.9401617,0.5316234,0
1.480000000000001,12.572225512020939,0.297421161824185,0.8164652782435887,0.33992821970349646,13.300054,0.043868523,0.08695741,0.5120095,5.3628955,-4.9615116,1.8565061,-0.33797798,0.20119403,-0.1595705,-0.9054435,-9.553562,9.463141,0.87735856,-0.67547154,3.9060996,0.5239743,1
1.490000000000001,12.572225512020939,0.297421161824185,0.8164652782435887,0.33992821970349646,13.300054,0.043868523,0.08695741,0.5120095,5.2671843,-4.8665953,1.8653641,-0.33205625,0.21808477,-0.16335858,-0.9030451,-9.589169,9.520437,0.89387316,-0.5630865,3.310545,0.5233872,1
1.500000000000001,12.572225512020939,0.297421161824185,0.8164652782435887,0.33992821970349646,13.300054,0.043868523,0.08695741,0.5120095,5.171099,-4.7710967,1.8743764,-0.32659972,0.23226692,-0.1666551,-0.90089387,-9.628379,9.57957,0.9082609,-0.4682599,2.8078609,0.5228289,1
1.5100000000000011,12.572225512020939,0.297421161824185,0.8164652782435887,0.33992821970349646,13.300054,0.043868523,0.08695741,0.5120095,5.0746064,-4.674999,1.8835227,-0.32156268,0.24417482,-0.16955312,-0.8990144,-9.670613,9.6402,0.92074335,-0.38824835,2.3835647,0.5222979,1
1.5200000000000011,11.682290917503948,0.5276786001112117,-3.1284410384859416,0.40011460332022025,13.184059,-0.17631711,-3.9341452,0.2598598,4.977678,-4.578289,1.8927853,-0.31689876,0.25417253,-0.17212737,-0.8974089,-9.715385,9.702054,0.93153703,-0.32073757,2.025433,0.521793,0
1.5300000000000011,11.682290917503948,0.5276786001112117,-3.1284410384859416,0.40011460332022025,13.184059,-0.17631711,-3.9341452,0.2598598,4.880319,-4.480993,1.9020829,-0.3128505,0.26135406,-0.17420377,-0.89636534,-9.7565365,9.757246,0.92781734,-0.18814982,1.2217348,0.5158222,0
1.5400000000000011,11.682290917503948,0.5276786001112117,-3.1284410384859416,0.40011460332022025,13.184059,-0.17631711,-3.9341452,0.2598598,4.7825427,-4.3831415,1.9113386,-0.30961606,0.2650233,-0.17565367,-0.896128,-9.79888,9.812992,0.92324275,-0.0762869,0.5433653,0.51014435,0
1.5500000000000012,11.682290917503948,0.5276786001112117,-3.1284410384859416,0.40011460332022025,13.184059,-0.17631711,-3.9341452,0.2598598,4.6843395,-4.284732,1.9205462,-0.30708554,0.26573738,-0.17658792,-0.8966035,-9.841784,9.869001,0.9182548,0.018091451,-0.029219612,0.5047452,0
1.5600000000000012,11.403031563906012,0.4660592925513244,-5.998802803566175,0.4506951117387374,12.89684,-0.08595866,-5.5425754,0.24131024,4.585707,-4.1857615,1.9297035,-0.3051565,0.26395923,-0.17709394,-0.89768696,-9.884719,9.925039,0.91323495,0.097718395,-0.51251554,0.4996109,0
1.5700000000000012,11.403031563906012,0.4660592925513244,-5.998802803566175,0.4506951117387374,12.89684,-0.08595866,-5.5425754,0.24131024,4.486652,-4.086238,1.9388007,-0.30392638,0.25904807,-0.17687029,-0.899577,-9.926179,9.979552,0.90630674,0.15543704,-1.3680805,0.49721056,0
1.5800000000000012,11.403031563906012,0.4660592925513244,-5.998802803566175,0.4506951117387374,12.89684,-0.08595866,-5.5425754,0.24131024,4.387187,-3.986172,1.9478323,-0.3034545,0.2505038,-0.1756761,-0.90238583,-9.966555,10.033539,0.90017337,0.20410885,-2.0902236,0.49492806,0
1.5900000000000012,11.403031563906012,0.4660592925513244,-5.998802803566175,0.4506951117387374,12.89684,-0.08595866,-5.5425754,0.24131024,4.287327,-3.8855703,1.9568086,-0.30359662,0.23886697,-0.17365235,-0.90587837,-10.005216,10.086649,0.89527667,0.2451524,-2.6997514,0.4927575,0
1.6000000000000012,11.323582358178248,0.08627730758056595,-5.999995221363336,0.44073627697858303,11.646253,-1.4146287,-5.8517876,2.2015908,4.1870904,-3.7844431,1.9657434,-0.3042226,0.22458987,-0.17091277,-0.90983284,-10.041611,10.138572,0.89194715,0.27976346,-3.214226,0.49069348,0
1.6100000000000012,11.323582358178248,0.08627730758056595,-5.999995221363336,0.44073627697858303,11.646253,-1.4146287,-5.8517876,2.2015908,4.086505,-3.6828058,1.9746504,-0.30518505,0.20809974,-0.16741145,-0.9140728,-10.07502,10.188667,0.88974035,0.2497223,-3.6486752,0.4882421,0
1.6200000000000012,11.323582358178248,0.08627730758056595,-5.999995221363336,0.44073627697858303,11.646253,-1.4146287,-5.8517876,2.2015908,3.9856005,-3.580676,1.9835448,-0.30636048,0.18975686,-0.1631146,-0.918438,-10.105296,10.2369995,0.889458,0.22434363,-4.015371,0.485911,0
1.6300000000000012,11.323582358178248,0.08627730758056595,-5.999995221363336,0.44073627697858303,11.646253,-1.4146287,-5.8517876,2.2015908,3.8844106,-3.4780731,1.9924464,-0.30767384,0.1698252,-0.15812491,-0.92276317,-10.132092,10.283282,0.8911602,0.20290403,-4.3248787,0.48369426,0
1.6400000000000012,11.323582358178248,0.08627730758056595,-5.999995221363336,0.44073627697858303,12.230416,-0.7971756,-5.8004317,1.2190528,3.7829714,-3.3750184,2.001375,-0.3090598,0.14853187,-0.15252952,-0.92690575,-10.155098,10.327255,0.89483213,0.18479213,-4.586118,0.48158628,1
1.6500000000000012,11.323582358178248,0.08627730758056595,-5.999995221363336,0.44073627697858303,12.230416,-0.7971756,-5.8004317,1.2190528,3.6813145,-3.27152,2.010391,-0.31031102,0.12624252,-0.14611353,-0.93081677,-10.175569,10.371983,0.9086971,0.031826623,-4.7755365,0.517774,1
1.6600000000000013,11.323582358178248,0.08627730758056595,-5.999995221363336,0.44073627697858303,12.230416,-0.7971756,-5.8004317,1.2190528,3.5794756,-3.1675892,2.0195553,-0.31125727,0.103262216,-0.13871053,-0.9344594,-10.191502,10.413626,0.9244724,-0.09729139,-4.935414,0.5521859,1
1.6700000000000013,11.323582358178248,0.08627730758056595,-5.999995221363336,0.44073627697858303,12.230416,-0.7971756,-5.8004317,1.2190528,3.4775007,-3.063259,2.0288866,-0.3118953,0.07969289,-0.13045569,-0.93773705,-10.202783,10.451878,0.94197905,-0.20628142,-5.0703564,0.58490926,1
1.6800000000000013,11.476978373339858,-0.2713412184209108,-5.999870398796973,0.49117641532508544,13.876618,-2.4613047,-5.845628,2.3167553,3.3754365,-2.9585643,2.0384004,-0.3122212,0.055625323,-0.12146498,-0.9405685,-10.209314,10.48647,0.96099406,-0.29828253,-5.184252,0.6160268,0
1.6900000000000013,11.476978373339858,-0.2713412184209108,-5.999870398796973,0.49117641532508544,13.876618,-2.4613047,-5.845628,2.3167553,3.2733319,-2.8535526,2.0480745,-0.31233484,0.031010829,-0.11200683,-0.94283557,-10.2108965,10.515286,0.97396356,-0.29405126,-5.3114443,0.60990036,0
1.7000000000000013,11.476978373339858,-0.2713412184209108,-5.999870398796973,0.49117641532508544,13.876618,-2.4613047,-5.845628,2.3167553,3.1712348,-2.7482717,2.057883,-0.31231922,0.0058200024,-0.10230316,-0.9444342,-10.207804,10.540308,0.9878167,-0.29048753,-5.418802,0.60407454,0
1.7100000000000013,11.476978373339858,-0.2713412184209108,-5.999870398796973,0.49117641532508544,13.876618,-2.4613047,-5.845628,2.3167553,3.0691924,-2.6427598,2.067833,-0.3121485,-0.01984356,-0.09238441,-0.94532204,-10.199918,10.561421,1.002238,-0.28748596,-5.509417,0.5985345,0
1.7200000000000013,11.247476392157587,-0.5681332195409464,-4.226182395014947,0.5692981233939317,14.310998,-1.4644136,-5.9375668,0.81546843,2.9672532,-2.537057,2.0779285,-0.31180155,-0.045887526,-0.08227809,-0.9454648,-10.187152,10.578532,1.0168906,-0.28495756,-5.5859013,0.5932664,0
1.7300000000000013,11.247476392157587,-0.5681332195409464,-4.226182395014947,0.5692981233939317,14.310998,-1.4644136,-5.9375668,0.81546843,2.8654647,-2.4312046,2.088159,-0.31120625,-0.07152275,-0.0721184,-0.9448986,-10.169832,10.591322,1.029172,-0.3292045,-5.373871,0.59209025,0
1.7400000000000013,11.247476392157587,-0.5681332195409464,-4.226182395014947,0.5692981233939317,14.310998,-1.4644136,-5.9375668,0.81546843,2.7638726,-2.325244,2.0985105,-0.31033164,-0.09612045,-0.062017314,-0.94372046,-10.1478815,10.600186,1.0410146,-0.3665381,-5.1949034,0.5909718,0
1.7500000000000013,11.247476392157587,-0.5681332195409464,-4.226182395014947,0.5692981233939317,14.310998,-1.4644136,-5.9375668,0.81546843,2.662522,-2.2192142,2.108977,-0.30921388,-0.11982177,-0.051967476,-0.941981,-10.12153,10.605218,1.0521309,-0.39803842,-5.043844,0.58990836,0
1.7600000000000013,10.978885468987295,-0.8120557112415367,0.04862275437768738,0.6349696666363503,15.0841465,-2.3261344,-5.569061,1.1155418,2.5614562,-2.113153,2.1195498,-0.3078812,-0.14274588,-0.04196285,-0.9397187,-10.090982,10.606504,1.0622588,-0.42461693,-4.9163404,0.58889705,0
1.7700000000000014,10.978885468987295,-0.8120557112415367,0.04862275437768738,0.6349696666363503,15.0841465,-2.3261344,-5.569061,1.1155418,2.4607122,-2.0070968,2.1302054,-0.30630445,-0.16336103,-0.032432072,-0.93725044,-10.057318,10.604231,1.0686245,-0.48532844,-4.1420813,0.5911578,0
1.7800000000000014,10.978885468987295,-0.8120557112415367,0.04862275437768738,0.6349696666363503,15.0841465,-2.3261344,-5.569061,1.1155418,2.3603213,-1.9010793,2.1409183,-0.30450886,-0.18048017,-0.023714053,-0.9349537,-10.020406,10.5988035,1.0737727,-0.536528,-3.4885638,0.5933077,0
1.7900000000000014,10.978885468987295,-0.8120557112415367,0.04862275437768738,0.6349696666363503,15.0841465,-2.3261344,-5.569061,1.1155418,2.260313,-1.79513,2.151677,-0.3025751,-0.1946591,-0.015681686,-0.9329039,-9.980873,10.590632,1.0777661,-0.57970536,-2.9369588,0.59535205,0
1.8000000000000014,10.892077489344768,-1.015166873527004,3.7658104289118595,0.6999406762869702,13.886767,-2.2055535,-0.8762369,1.1994435,2.1607113,-1.6892748,2.1624703,-0.30055895,-0.20636532,-0.008226208,-0.93113345,-9.939241,10.580059,1.0806999,-0.61611736,-2.4713738,0.5972961,0
1.8100000000000014,10.892077489344768,-1.015166873527004,3.7658104289118595,0.6999406762869702,13.886767,-2.2055535,-0.8762369,1.1994435,2.0615325,-1.5835356,2.1732843,-0.29850227,-0.21458474,-0.0016235003,-0.9299714,-9.8963375,10.567505,1.081922,-0.67872185,-1.498715,0.6023329,0
1.8200000000000014,10.892077489344768,-1.015166873527004,3.7658104289118595,0.6999406762869702,13.886767,-2.2055535,-0.8762369,1.1994435,1.9627876,-1.4779302,2.184107,-0.2964517,-0.21853979,0.003916608,-0.9296995,-9.852545,10.553364,1.0825431,-0.7315099,-0.67773813,0.60712254,0
1.8300000000000014,10.892077489344768,-1.015166873527004,3.7658104289118595,0.6999406762869702,13.886767,-2.2055535,-0.8762369,1.1994435,1.8644822,-1.3724722,2.1949346,-0.29443538,-0.21890366,0.008567621,-0.9302232,-9.808567,10.538101,1.0829148,-0.7760198,0.015210912,0.61167717,0
1.8400000000000014,10.892077489344768,-1.015166873527004,3.7658104289118595,0.6999406762869702,13.063399,-1.882628,1.4627053,1.1306092,1.7666149,-1.2671705,2.205766,-0.2924622,-0.21623625,0.01247495,-0.9314246,-9.764993,10.522101,1.0833489,-0.81354904,0.6000977,0.6160083,0
1.8500000000000014,10.892077489344768,-1.015166873527004,3.7658104289118595,0.6999406762869702,13.063399,-1.882628,1.4627053,1.1306092,1.6691791,-1.1620314,2.2166028,-0.29052928,-0.21100445,0.015760113,-0.933178,-9.722323,10.50568,1.0841088,-0.8451921,1.0937741,0.6201269,0
1.8600000000000014,10.892077489344768,-1.015166873527004,3.7658104289118595,0.6999406762869702,13.063399,-1.882628,1.4627053,1.1306092,1.5721637,-1.0570574,2.2274497,-0.288627,-0.20359887,0.018524477,-0.9353601,-9.680989,10.489099,1.0854074,-0.8718716,1.5104638,0.62404335,0
1.8700000000000014,10.892077489344768,-1.015166873527004,3.7658104289118595,0.6999406762869702,13.063399,-1.882628,1.4627053,1.1306092,1.4755535,-0.9522491,2.2383132,-0.28674233,-0.19434738,0.020852538,-0.9378553,-9.641362,10.472575,1.0874078,-0.89436567,1.8621726,0.6277676,0
1.8800000000000014,10.91986915650119,-1.1516424475555935,5.999848691767024,0.6569290469992305,12.503427,-1.8435328,3.4120924,0.8452325,1.3793297,-0.84760505,2.2492008,-0.28486097,-0.18352608,0.022814699,-0.940559,-9.603768,10.45629,1.0902275,-0.91333085,2.1590343,0.6313092,0
1.8900000000000015,10.91986915650119,-1.1516424475555935,5.999848691767024,0.6569290469992305,12.503427,-1.8435328,3.4120924,0.8452325,1.2834705,-0.74312216,2.2601223,-0.28300214,-0.17050983,0.024266096,-0.9435289,-9.568437,10.440374,1.0942161,-0.95074373,2.757991,0.6325664,0
1.9000000000000015,10.91986915650119,-1.1516424475555935,5.999848691767024,0.6569290469992305,12.503427,-1.8435328,3.4120924,0.8452325,1.1879511,-0.6387952,2.2710886,-0.28117043,-0.15480766,0.025095554,-0.9467563,-9.53595,10.425132,1.0992458,-0.98228455,3.2635434,0.6337618,0
1.9100000000000015,10.91986915650119,-1.1516424475555935,5.999848691767024,0.6569290469992305,12.503427,-1.8435328,3.4120924,0.8452325,1.0927402,-0.53461623,2.2821107,-0.27932954,-0.13681693,0.025401697,-0.9500581,-9.506808,10.410825,1.1054015,-1.0088745,3.6902568,0.63489866,0
1.9200000000000015,10.874961583578548,-1.28931728109238,5.99998570763118,0.5856671992525657,12.439922,-1.6289693,4.7644944,0.7049093,0.9978019,-0.43057474,2.2932,-0.27744505,-0.11687626,0.025266832,-0.9532708,-9.481454,10.397672,1.1126914,-1.0312908,4.0504265,0.63597965,0
1.9300000000000015,10.874961583578548,-1.28931728109238,5.99998570763118,0.5856671992525657,12.439922,-1.6289693,4.7644944,0.7049093,0.90309626,-0.32665795,2.3043656,-0.27550012,-0.0952608,0.024811396,-0.9562473,-9.4603615,10.385904,1.1206172,-1.0716488,4.3544445,0.6335109,0
1.9400000000000015,10.874961583578548,-1.28931728109238,5.99998570763118,0.5856671992525657,12.439922,-1.6289693,4.7644944,0.7049093,0.80857927,-0.22285157,2.3156157,-0.2734781,-0.072208904,0.024134234,-0.9588601,-9.443776,10.375605,1.1294909,-1.1056931,4.611053,0.6311632,0
1.9500000000000015,10.874961583578548,-1.28931728109238,5.99998570763118,0.5856671992525657,12.439922,-1.6289693,4.7644944,0.7049093,0.71420425,-0.11914041,2.3269584,-0.27135065,-0.04794181,0.023269707,-0.9610039,-9.431999,10.366883,1.1391385,-1.1344111,4.827646,0.6289307,0
1.9600000000000015,10.760202093875098,-1.4444328693659592,5.474497733023621,0.3744911580431897,12.010716,-1.6310203,4.3804626,0.46371877,0.6199219,-0.015508192,2.3384004,-0.26909393,-0.022652123,0.022246657,-0.9625902,-9.425288,10.359826,1.1493402,-1.1586366,5.010463,0.6268077,0
1.9700000000000015,10.760202093875098,-1.4444328693659592,5.474497733023621,0.3744911580431897,12.010716,-1.6310203,4.3804626,0.46371877,0.52568024,0.088062346,2.3499403,-0.26671043,0.0033051716,0.021205112,-0.96353745,-9.423866,10.354549,1.1586921,-1.203195,5.0828204,0.61442643,0
1.9800000000000015,10.760202093875098,-1.4444328693659592,5.474497733023621,0.3744911580431897,12.010716,-1.6310203,4.3804626,0.46371877,0.43142617,0.19158866,2.3615742,-0.26420733,0.029634146,0.020257767,-0.9637974,-9.427787,10.350977,1.1680518,-1.2408006,5.1438966,0.6026527,0
1.9900000000000015,10.760202093875098,-1.4444328693659592,5.474497733023621,0.3744911580431897,12.010716,-1.6310203,4.3804626,0.46371877,0.33710584,0.29508764,2.3733003,-0.26157302,0.056257334,0.019390207,-0.9633474,-9.437128,10.349086,1.177119,-1.2725394,5.195451,0.5914568,0
2.0000000000000013,,,,,11.758386,-2.057272,2.6862836,0.3047494,0.24266481,0.39857602,2.3851142,-0.25879842,0.0831053,0.018590255,-0.96216977,-9.45194,10.348846,1.1855843,-1.2993267,5.2389665,0.5808102,0
2.010000000000001,,,,,11.758386,-2.057272,2.6862836,0.3047494,0.14805216,0.50206983,2.3969877,-0.25587487,0.10894183,0.018227953,-0.9603784,-9.471388,10.350142,1.188932,-1.34565,4.793029,0.5620079,0
2.020000000000001,,,,,11.758386,-2.057272,2.6862836,0.3047494,0.053220145,0.6055833,2.408889,-0.2528177,0.13279316,0.018593825,-0.95817673,-9.495753,10.352722,1.1911889,-1.3847872,4.416638,0.54412824,0
2.0300000000000007,,,,,11.758386,-2.057272,2.6862836,0.3047494,-0.041878548,0.70912784,2.420807,-0.2496503,0.15495747,0.01957152,-0.9556564,-9.524671,10.356321,1.1922,-1.4178524,4.098947,0.5271259,0
2.0400000000000005,,,,,11.758386,-2.057272,2.6862836,0.3047494,-0.13728781,0.8127125,2.432728,-0.24639058,0.17568769,0.021063019,-0.95288044,-9.55782,10.360715,1.1918448,-1.4457868,3.8308015,0.51095784,0
2.0500000000000003,,,,,11.054322,-1.9943604,-1.4211973,0.5890202,-0.23304856,0.91634417,2.4446385,-0.24305241,0.19519779,0.022985864,-0.94989175,-9.594928,10.365711,1.1900282,-1.4693857,3.604474,0.49558318,1
2.06,,,,,11.054322,-1.9943604,-1.4211973,0.5890202,-0.3292131,1.0200299,2.4565563,-0.23953666,0.21226786,0.02577963,-0.94704765,-9.638554,10.371481,1.1933283,-1.551011,2.8206923,0.5001682,1
2.07,,,,,11.054322,-1.9943604,-1.4211973,0.5890202,-0.42583108,1.1237738,2.4684997,-0.23576285,0.225957,0.029781332,-0.9447073,-9.685511,10.377251,1.1951317,-1.619942,2.1591449,0.5045283,1
2.0799999999999996,,,,,11.054322,-1.9943604,-1.4211973,0.5890202,-0.5229327,1.2275734,2.4804544,-0.23176193,0.23680355,0.03478992,-0.94286776,-9.735195,10.382583,1.1956332,-1.6781534,1.6007688,0.5086743,1
2.0899999999999994,,,,,11.320396,-2.3010538,-3.7830992,0.64137787,-0.62054265,1.3314226,2.4924085,-0.22755644,0.24525733,0.040636845,-0.94149613,-9.787105,10.387112,1.1950231,-1.7273127,1.129474,0.51261693,1
2.099999999999999,,,,,11.320396,-2.3010538,-3.7830992,0.64137787,-0.7186873,1.4353122,2.5043633,-0.22308722,0.250833,0.047508407,-0.94077486,-9.842074,10.39059,1.195822,-1.8165333,0.36332366,0.51893526,1
2.109999999999999,,,,,11.320396,-2.3010538,-3.7830992,0.64137787,-0.81738824,1.5392288,2.5163229,-0.21829805,0.25316235,0.055540502,-0.94083446,-9.898262,10.39247,1.1959778,-1.8918747,-0.28334177,0.52494353,1
2.1199999999999988,,,,,11.320396,-2.3010538,-3.7830992,0.64137787,-0.91665465,1.6431546,2.528282,-0.21320719,0.25274515,0.064535424,-0.9415398,-9.955091,10.392339,1.1957809,-1.9554964,-0.829156,0.530657,1
2.1299999999999986,,,,,11.410592,-2.0399947,-5.757128,0.47828874,-1.0164906,1.7470675,2.5402381,-0.20782895,0.2499979,0.07432669,-0.94275296,-10.012067,10.389849,1.1954671,-2.0092223,-1.2898475,0.53609014,1
2.1399999999999983,,,,,11.410592,-2.0399947,-5.757128,0.47828874,-1.1168973,1.8509423,2.5521953,-0.2021588,0.24449962,0.08484254,-0.9445385,-10.069171,10.384663,1.1960166,-2.0137815,-1.9865153,0.5332538,1
2.149999999999998,,,,,11.410592,-2.0399947,-5.757128,0.47828874,-1.2178708,1.9547504,2.5641594,-0.1961835,0.23592699,0.096012175,-0.9469063,-10.125335,10.376484,1.1969013,-2.01767,-2.5745382,0.5305566,1
2.159999999999998,,,,,11.410592,-2.0399947,-5.757128,0.47828874,-1.3193988,2.0584607,2.576135,-0.18990368,0.2247309,0.107706435,-0.949648,-10.179942,10.365033,1.1983296,-2.0209851,-3.0708592,0.5279919,1
2.1699999999999977,,,,,9.210265,-1.5845642,-6.0790825,0.19498917,-1.4214625,2.162039,2.588128,-0.18332171,0.21129125,0.11981469,-0.9525718,-10.232442,10.350091,1.2004253,-2.023811,-3.489779,0.5255529,1
2.1799999999999975,,,,,9.210265,-1.5845642,-6.0790825,0.19498917,-1.5239902,2.2654672,2.6000485,-0.17650141,0.19580019,0.13209288,-0.955542,-10.272709,10.335082,1.1837811,-1.955218,-3.8812025,0.50933206,1
2.1899999999999973,,,,,9.210265,-1.5845642,-6.0790825,0.19498917,-1.6269081,2.3687303,2.6118057,-0.169497,0.17842925,0.14433996,-0.9584359,-10.310465,10.317064,1.1677263,-1.8973473,-4.2115893,0.49390724,1
2.199999999999997,,,,,9.210265,-1.5845642,-6.0790825,0.19498917,-1.7301894,2.4717982,2.623405,-0.16230215,0.15944995,0.15652536,-0.96111035,-10.345336,10.296014,1.1522235,-1.8485222,-4.4904575,0.47923928,1
