time-since-start [s],throttle_mpc,roll_mpc,pitch_mpc,yaw_mpc,throttle_nw,roll_nw,pitch_nw,yaw_nw,position_x [m],position_y [m],position_z [m],rotation_w [quaternion],rotation_x [quaternion],rotation_y [quaternion],rotation_z [quaternion],velocity_x [m/s],velocity_y [m/s],velocity_z [m/s],omega_x [rad/s],omega_y [rad/s],omega_z [rad/s],network_used
0.0,10.675058144810848,5.99999542812355,-5.999999931005521,-5.353648605311913,13.776494,0.45236382,-2.0481026,-1.1956629,19.554647,-9.299075,1.789057,0.07675055,0.32953456,-0.36982304,-0.86530185,-10.835564,-3.6137974,0.35017052,1.9890265,-0.3840217,-0.13778538,0
0.01,10.675058144810848,5.99999542812355,-5.999999931005521,-5.353648605311913,15.427759,-0.2974908,-0.7103641,-1.1841414,19.445698,-9.334651,1.7925489,0.07175882,0.32873866,-0.37793022,-0.8625256,-10.953681,-3.501312,0.34751585,1.8646613,-0.5102348,-0.31714934,0
0.02,10.675058144810848,5.99999542812355,-5.999999931005521,-5.353648605311913,15.427759,-0.2974908,-0.7103641,-1.1841414,19.335588,-9.369102,1.7959925,0.0659639,0.32770258,-0.38525966,-0.8601365,-11.067744,-3.3888278,0.34054446,1.760307,-0.61737496,-0.49207103,0
0.03,10.675058144810848,5.99999542812355,-5.999999931005521,-5.353648605311913,15.427759,-0.2974908,-0.7103641,-1.1841414,19.22436,-9.402429,1.7993463,0.059386197,0.32651153,-0.39189145,-0.8580703,-11.177743,-3.276472,0.32965586,1.6734613,-0.70903623,-0.66259825,0
0.04,10.675058144810848,5.99999542812355,-5.999999931005521,-5.353648605311913,14.596497,-0.50729597,-1.5216013,-1.4928968,19.112043,-9.4346285,1.802576,0.052022275,0.3252041,-0.39792758,-0.85626495,-11.28454,-3.1634476,0.3158652,1.6175333,-0.8037873,-0.8274704,0
0.05,10.675058144810848,5.99999542812355,-5.999999931005521,-5.353648605311913,14.596497,-0.50729597,-1.5216013,-1.4928968,18.998678,-9.465694,1.8056554,0.043825086,0.3237494,-0.40352005,-0.8546562,-11.388359,-3.0495172,0.29963827,1.5948216,-0.9082833,-0.9864431,0
0.060000000000000005,10.675058144810848,5.99999542812355,-5.999999931005521,-5.353648605311913,14.596497,-0.50729597,-1.5216013,-1.4928968,18.884287,-9.495617,1.8085607,0.03474866,0.32210654,-0.4088054,-0.8531811,-11.489017,-2.9348032,0.28109667,1.6009152,-1.0217823,-1.1398748,0
0.07,10.675058144810848,5.99999542812355,-5.999999931005521,-5.353648605311913,14.596497,-0.50729597,-1.5216013,-1.4928968,18.768908,-9.524389,1.8112696,0.024753792,0.32023337,-0.41389832,-0.85177815,-11.586321,-2.8193896,0.2603415,1.6319574,-1.1435225,-1.2880944,0
0.08,11.458316396561564,5.999999265557597,-5.999999955974223,-5.999960160959995,17.733007,0.07847584,-5.8157,-1.8812718,18.652573,-9.552004,1.8137604,0.013807621,0.31808698,-0.4188941,-0.85038686,-11.680074,-2.703332,0.23745717,1.6845728,-1.272738,-1.4314039,0
0.09,11.458316396561564,5.999999265557597,-5.999999955974223,-5.999960160959995,17.733007,0.07847584,-5.8157,-1.8812718,18.535278,-9.578403,1.816044,0.001958664,0.31579995,-0.42369917,-0.8489674,-11.777994,-2.576426,0.21894751,1.6867871,-1.3395663,-1.5956234,0
0.09999999999999999,11.458316396561564,5.999999265557597,-5.999999955974223,-5.999960160959995,17.733007,0.07847584,-5.8157,-1.8812718,18.417027,-9.60353,1.8181326,-0.010756888,0.3134814,-0.42823762,-0.84748226,-11.871916,-2.4487007,0.19845895,1.7141225,-1.4214885,-1.7540625,0
0.10999999999999999,11.458316396561564,5.999999265557597,-5.999999955974223,-5.999960160959995,17.733007,0.07847584,-5.8157,-1.8812718,18.297855,-9.627376,1.8200067,-0.024380429,0.31105462,-0.4326041,-0.84587485,-11.961682,-2.320286,0.17604922,1.7633727,-1.5168678,-1.9070691,0
0.11999999999999998,11.458316396561564,5.999999265557597,-5.999999955974223,-5.999960160959995,17.733007,0.07847584,-5.8157,-1.8812718,18.177807,-9.649934,1.8216472,-0.038945787,0.3084462,-0.43687555,-0.8440876,-12.047119,-2.1912887,0.15177149,1.8316998,-1.6241891,-2.0549614,0
0.12999999999999998,13.85318558339771,5.999999724024531,-5.999999975560899,-5.999893342457371,17.1339,0.77387965,-6.0703335,-2.4011436,18.056929,-9.671199,1.8230358,-0.05447958,0.30558583,-0.4411129,-0.8420622,-12.128036,-2.0617995,0.12567663,1.9165916,-1.7420549,-2.1980324,0
0.13999999999999999,13.85318558339771,5.999999724024531,-5.999999975560899,-5.999893342457371,17.1339,0.77387965,-6.0703335,-2.4011436,17.93522,-9.691098,1.8241923,-0.07113561,0.30226442,-0.44548467,-0.8397139,-12.212356,-1.9180205,0.10531544,2.0804052,-1.9339739,-2.3423245,0
0.15,13.85318558339771,5.999999724024531,-5.999999975560899,-5.999893342457371,17.1339,0.77387965,-6.0703335,-2.4011436,17.8127,-9.7095585,1.8251351,-0.08904997,0.29828367,-0.4501262,-0.83694893,-12.290975,-1.7740215,0.08293272,2.25222,-2.129585,-2.482538,0
0.16,16.69553357667066,5.999999841093366,-5.999999984455263,-5.211078439334828,17.224405,2.7424066,-5.250577,-1.0289748,17.689423,-9.726578,1.8258442,-0.108212546,0.29359317,-0.45502922,-0.83369166,-12.363545,-1.629825,0.058590773,2.430667,-2.328189,-2.6188624,0
0.17,16.69553357667066,5.999999841093366,-5.999999984455263,-5.211078439334828,17.224405,2.7424066,-5.250577,-1.0289748,17.56543,-9.74211,1.8263224,-0.12891465,0.28766608,-0.4605277,-0.82978535,-12.433658,-1.4767716,0.036684737,2.8011231,-2.716317,-2.7294605,0
0.18000000000000002,16.69553357667066,5.999999841093366,-5.999999984455263,-5.211078439334828,17.224405,2.7424066,-5.250577,-1.0289748,17.440775,-9.756114,1.8265699,-0.15139635,0.2800186,-0.4668702,-0.8250462,-12.495937,-1.3242599,0.012462255,3.1579535,-3.0881116,-2.8385804,0
0.19000000000000003,16.69553357667066,5.999999841093366,-5.999999984455263,-5.211078439334828,17.224405,2.7424066,-5.250577,-1.0289748,17.31554,-9.768597,1.826564,-0.17556043,0.2706639,-0.47390836,-0.81934774,-12.54973,-1.1722773,-0.013977635,3.5019472,-3.444779,-2.9461758,0
0.20000000000000004,19.918557128259806,5.999999864596803,-5.999999984915139,-3.977407419767025,18.177963,2.532707,-5.5964293,-0.98963267,17.189814,-9.779562,1.826283,-0.2013027,0.2596119,-0.48149016,-0.81255543,-12.594438,-1.0209517,-0.042534217,3.8338394,-3.7874067,-3.0522077,0
0.21000000000000005,19.918557128259806,5.999999864596803,-5.999999984915139,-3.977407419767025,18.177963,2.532707,-5.5964293,-0.98963267,17.063654,-9.788884,1.8257663,-0.22843497,0.24674001,-0.48953336,-0.80454594,-12.635864,-0.8432343,-0.06084948,4.1708426,-4.133252,-3.0976076,0
0.22000000000000006,19.918557128259806,5.999999864596803,-5.999999984915139,-3.977407419767025,18.177963,2.532707,-5.5964293,-0.98963267,16.937136,-9.796417,1.8250641,-0.25665438,0.23207237,-0.4978682,-0.79523486,-12.666003,-0.66304123,-0.07966672,4.4553866,-4.4250693,-3.1407797,0
0.23000000000000007,19.918557128259806,5.999999864596803,-5.999999984915139,-3.977407419767025,18.177963,2.532707,-5.5964293,-0.98963267,16.810377,-9.802139,1.8241714,-0.2856966,0.21582176,-0.5062388,-0.78455144,-12.683888,-0.48102316,-0.09895247,4.695641,-4.671296,-3.1818333,0
0.24000000000000007,19.918557128259806,5.999999864596803,-5.999999984915139,-3.977407419767025,19.33843,1.6514823,-5.6357217,-0.67897487,16.683504,-9.806034,1.8230836,-0.31532186,0.19817828,-0.51442814,-0.7724387,-12.688721,-0.29800785,-0.11867591,4.8985014,-4.879051,-3.2208724,0
0.25000000000000006,19.918557128259806,5.999999864596803,-5.999999984915139,-3.977407419767025,19.33843,1.6514823,-5.6357217,-0.67897487,16.55665,-9.808098,1.8217965,-0.3453121,0.17931333,-0.5222526,-0.7588537,-12.679869,-0.11497083,-0.13880949,5.06979,-5.054344,-3.2579956,0
0.26000000000000006,19.918557128259806,5.999999864596803,-5.999999984915139,-3.977407419767025,19.33843,1.6514823,-5.6357217,-0.67897487,16.429955,-9.808337,1.8203062,-0.375468,0.15938273,-0.5295579,-0.7437673,-12.656874,0.06699374,-0.15932882,5.2144227,-5.2022457,-3.2932973,0
0.2700000000000001,19.918557128259806,5.999999864596803,-5.999999984915139,-3.977407419767025,19.33843,1.6514823,-5.6357217,-0.67897487,16.303562,-9.8067665,1.8186088,-0.40560722,0.138529,-0.53621465,-0.7271635,-12.619448,0.24670094,-0.18021217,5.3365493,-5.3270335,-3.3268669,0
0.2800000000000001,20.99999965927587,5.999999617144415,-5.999999940966844,-1.4236379887623694,19.899658,0.43809527,-4.3355303,0.12956153,16.177616,-9.803415,1.8167007,-0.43556252,0.11688333,-0.5421151,-0.7090382,-12.567477,0.42290157,-0.20143965,5.4396734,-5.4323187,-3.3587892,0
0.2900000000000001,20.99999965927587,5.999999617144415,-5.999999940966844,-1.4236379887623694,19.899658,0.43809527,-4.3355303,0.12956153,16.05228,-9.798278,1.8145995,-0.4649593,0.09439595,-0.5472078,-0.6895407,-12.497408,0.60361356,-0.218837,5.527204,-5.5206976,-3.263831,0
0.3000000000000001,20.99999965927587,5.999999617144415,-5.999999940966844,-1.4236379887623694,19.899658,0.43809527,-4.3355303,0.12956153,15.927719,-9.791365,1.8123229,-0.49346432,0.07101902,-0.5514532,-0.6688416,-12.412295,0.7778989,-0.23656757,5.601107,-5.595272,-3.1735322,0
0.3100000000000001,20.99999965927587,5.999999617144415,-5.999999940966844,-1.4236379887623694,19.899658,0.43809527,-4.3355303,0.12956153,15.804084,-9.782747,1.8098673,-0.52099097,0.046873353,-0.5547859,-0.64698094,-12.312539,0.9443993,-0.25463846,5.6635003,-5.658201,-3.0876644,0
0.3200000000000001,20.999999874770932,4.92937373727362,-5.9999998009999755,0.5853834821459278,20.180124,-0.5312422,-2.5768545,0.67256665,15.681517,-9.77251,1.807229,-0.54746217,0.022072645,-0.5571529,-0.62400246,-12.1987,1.1017898,-0.27307388,5.7161746,-5.711306,-3.0060103,0
0.3300000000000001,20.999999874770932,4.92937373727362,-5.9999998009999755,0.5853834821459278,20.180124,-0.5312422,-2.5768545,0.67256665,15.560156,-9.760748,1.8044044,-0.5726555,-0.003175525,-0.5582584,-0.60033625,-12.07151,1.2488074,-0.29188734,5.5940475,-5.755445,-2.8297796,0
0.34000000000000014,20.999999874770932,4.92937373727362,-5.9999998009999755,0.5853834821459278,20.180124,-0.5312422,-2.5768545,0.67256665,15.440129,-9.747573,1.8013903,-0.59641075,-0.028698621,-0.55789655,-0.57638747,-11.931991,1.3843316,-0.3109593,5.4909554,-5.792792,-2.6621964,0
0.35000000000000014,20.999999874770932,4.92937373727362,-5.9999998009999755,0.5853834821459278,20.180124,-0.5312422,-2.5768545,0.67256665,15.321554,-9.733104,1.7981846,-0.6187486,-0.054443628,-0.5561478,-0.55216503,-11.78128,1.5073763,-0.33016506,5.403927,-5.824393,-2.5028367,0
0.36000000000000015,20.9999998320788,2.3613460751270043,-5.999993200079858,3.3382390406663123,19.894821,-2.0237868,-0.121198565,1.00521,15.204538,-9.717471,1.7947866,-0.6396863,-0.080359414,-0.5530808,-0.52767974,-11.620561,1.6170714,-0.34943208,5.3304543,-5.8511314,-2.3512967,0
0.37000000000000016,20.9999998320788,2.3613460751270043,-5.999993200079858,3.3382390406663123,19.894821,-2.0237868,-0.121198565,1.00521,15.089348,-9.70071,1.7912773,-0.65893215,-0.105922155,-0.5487337,-0.5034686,-11.416821,1.7321022,-0.35277823,5.042572,-5.6990895,-2.1116626,0
0.38000000000000017,20.9999998320788,2.3613460751270043,-5.999993200079858,3.3382390406663123,19.894821,-2.0237868,-0.121198565,1.00521,14.976213,-9.682898,1.787723,-0.67631143,-0.13074465,-0.5431939,-0.48005155,-11.209566,1.8275166,-0.35842687,4.798473,-5.5719337,-1.8779634,0
0.3900000000000002,20.9999998320788,2.3613460751270043,-5.999993200079858,3.3382390406663123,19.894821,-2.0237868,-0.121198565,1.00521,14.865162,-9.664225,1.7841011,-0.69199145,-0.15496568,-0.53657335,-0.45740885,-11.0007105,1.9041668,-0.36626834,4.5917883,-5.465311,-1.6500522,0
0.4000000000000002,20.999999421855065,-0.4311766248011715,-2.0222118182560016,3.7384982583485944,20.230663,-1.6876675,0.4328223,1.2158834,14.7562,-9.644876,1.7803903,-0.7061112,-0.17870063,-0.5289606,-0.43551585,-10.7919,1.9629471,-0.37624133,4.417172,-5.3755217,-1.4277855,0
0.4100000000000002,20.999999421855065,-0.4311766248011715,-2.0222118182560016,3.7384982583485944,20.230663,-1.6876675,0.4328223,1.2158834,14.649366,-9.625013,1.7765889,-0.7183421,-0.20052357,-0.5208293,-0.41534555,-10.575109,2.0068822,-0.3843743,3.7442796,-4.769458,-1.2011107,0
0.4200000000000002,20.999999421855065,-0.4311766248011715,-2.0222118182560016,3.7384982583485944,20.230663,-1.6876675,0.4328223,1.2158834,14.544686,-9.604791,1.7726957,-0.72857517,-0.21935925,-0.512698,-0.3977445,-10.361356,2.035529,-0.3945732,3.1803832,-4.2538786,-0.9800499,0
0.4300000000000002,20.999999421855065,-0.4311766248011715,-2.0222118182560016,3.7384982583485944,20.230663,-1.6876675,0.4328223,1.2158834,14.442125,-9.584348,1.7686908,-0.73718315,-0.23576379,-0.5046546,-0.3824922,-10.15172,2.0512397,-0.40668583,2.7079089,-3.8152385,-0.7644639,0
0.4400000000000002,20.999999421855065,-0.4311766248011715,-2.0222118182560016,3.7384982583485944,20.641264,-3.0240064,3.2271743,1.4280967,14.341637,-9.563804,1.7645558,-0.7444535,-0.25020134,-0.496738,-0.36937746,-9.946899,2.0560288,-0.4205772,2.3121462,-3.4419851,-0.5542172,0
0.45000000000000023,20.999999421855065,-0.4311766248011715,-2.0222118182560016,3.7384982583485944,20.641264,-3.0240064,3.2271743,1.4280967,14.243175,-9.543259,1.7602756,-0.7506329,-0.26304442,-0.48892117,-0.35820955,-9.745879,2.0515623,-0.43553576,1.9636189,-3.1414187,-0.3506361,0
0.46000000000000024,20.999999421855065,-0.4311766248011715,-2.0222118182560016,3.7384982583485944,20.641264,-3.0240064,3.2271743,1.4280967,14.146708,-9.5227995,1.7558433,-0.75599235,-0.27455676,-0.4810531,-0.34882972,-9.547945,2.0391066,-0.4510131,1.6408225,-2.9163485,-0.15449655,0
0.47000000000000025,20.999999421855065,-0.4311766248011715,-2.0222118182560016,3.7384982583485944,20.641264,-3.0240064,3.2271743,1.4280967,14.052203,-9.502501,1.7512538,-0.7607687,-0.28494003,-0.47296494,-0.34109297,-9.353501,2.0197084,-0.4669066,1.3385451,-2.7562177,0.034676857,0
0.48000000000000026,20.85933629972663,-3.8165464162966245,2.08144217016234,4.23261404592973,18.557386,-3.1865957,3.0971968,0.884271,13.959627,-9.482427,1.7465051,-0.7651442,-0.29435927,-0.46451625,-0.33486077,-9.161976,1.9941301,-0.48267227,1.0632948,-2.6412027,0.21638459,0
0.49000000000000027,20.85933629972663,-3.8165464162966245,2.08144217016234,4.23261404592973,18.557386,-3.1865957,3.0971968,0.884271,13.8689575,-9.462637,1.7416031,-0.768814,-0.3014398,-0.45651248,-0.3311427,-8.972532,1.9630995,-0.4976399,0.30818978,-1.899011,0.41290376,0
0.5000000000000002,20.85933629972663,-3.8165464162966245,2.08144217016234,4.23261404592973,18.557386,-3.1865957,3.0971968,0.884271,13.780171,-9.443177,1.7365568,-0.771591,-0.3051165,-0.44961965,-0.330747,-8.784939,1.928381,-0.5113971,-0.3350667,-1.2784709,0.60033804,0
0.5100000000000002,20.85933629972663,-3.8165464162966245,2.08144217016234,4.23261404592973,18.557386,-3.1865957,3.0971968,0.884271,13.693255,-9.424077,1.7313815,-0.7736402,-0.30595976,-0.44364548,-0.33323917,-8.598532,1.89175,-0.5233505,-0.87811494,-0.754805,0.77857494,0
0.5200000000000002,18.3381892167792,-5.9999986567771035,5.9999947801169276,5.279793429044068,17.956652,-4.6664,4.4596853,1.5016887,13.608197,-9.405345,1.7260972,-0.77505517,-0.30443794,-0.43841344,-0.33823207,-8.413194,1.8547646,-0.5331766,-1.3365482,-0.3128709,0.9480657,0
0.5300000000000002,18.3381892167792,-5.9999986567771035,5.9999947801169276,5.279793429044068,17.956652,-4.6664,4.4596853,1.5016887,13.52497,-9.386975,1.7207179,-0.77568495,-0.29960808,-0.43427163,-0.3463471,-8.232994,1.8196955,-0.5426135,-2.1979144,0.53729725,1.141558,0
0.5400000000000003,18.3381892167792,-5.9999986567771035,5.9999947801169276,5.279793429044068,17.956652,-4.6664,4.4596853,1.5016887,13.44352,-9.368938,1.7152469,-0.77535653,-0.29070914,-0.43141335,-0.35804093,-8.058056,1.7885745,-0.5514538,-2.931931,1.247894,1.3302332,0
0.5500000000000003,18.3381892167792,-5.9999986567771035,5.9999947801169276,5.279793429044068,17.956652,-4.6664,4.4596853,1.5016887,13.363799,-9.351185,1.7096952,-0.77402174,-0.2783436,-0.4295018,-0.37275153,-7.886662,1.7629553,-0.55849594,-3.5399842,1.8591962,1.5125043,0
0.5600000000000003,15.198324995565669,-5.999999745264395,5.999999639097794,4.52317585189448,17.356216,-6.0385413,4.5827994,1.1191058,13.285778,-9.333654,1.7040855,-0.77153146,-0.26304507,-0.42834434,-0.3899589,-7.7181373,1.744228,-0.56305945,-4.0312724,2.3971617,1.6877968,0
0.5700000000000003,15.198324995565669,-5.999999745264395,5.999999639097794,4.52317585189448,17.356216,-6.0385413,4.5827994,1.1191058,13.209281,-9.316261,1.6983594,-0.76772034,-0.24524891,-0.42787853,-0.40911946,-7.581689,1.7354832,-0.581844,-4.402391,2.8949342,1.8212548,0
0.5800000000000003,15.198324995565669,-5.999999745264395,5.999999639097794,4.52317585189448,17.356216,-6.0385413,4.5827994,1.1191058,13.134132,-9.298919,1.6924553,-0.7624504,-0.22531524,-0.4280412,-0.42974812,-7.448388,1.7342577,-0.59866697,-4.6954684,3.335297,1.9499667,0
0.5900000000000003,15.198324995565669,-5.999999745264395,5.999999639097794,4.52317585189448,17.356216,-6.0385413,4.5827994,1.1191058,13.060299,-9.2815485,1.6863921,-0.75560844,-0.20356429,-0.42869467,-0.45148483,-7.318688,1.741141,-0.6137073,-4.922444,3.727435,2.0741854,0
0.6000000000000003,15.997083995756318,-5.999999776746788,5.9999996804683216,4.337833863120172,17.739943,-6.2817354,4.9976783,1.212705,12.987743,-9.264067,1.6801864,-0.74709815,-0.1802728,-0.42972475,-0.47400734,-7.193001,1.756552,-0.62714404,-5.094891,4.0775986,2.1940234,0
0.6100000000000003,15.997083995756318,-5.999999776746788,5.9999996804683216,4.337833863120172,17.739943,-6.2817354,4.9976783,1.212705,12.916461,-9.246381,1.6738795,-0.7368793,-0.15565926,-0.43099132,-0.497017,-7.0642724,1.7822661,-0.633868,-5.236769,4.376835,2.2992206,0
0.6200000000000003,15.997083995756318,-5.999999776746788,5.9999996804683216,4.337833863120172,17.739943,-6.2817354,4.9976783,1.212705,12.846445,-9.228388,1.6675166,-0.72495997,-0.1299015,-0.4323102,-0.5202566,-6.9395227,1.8178375,-0.6384087,-5.356474,4.629439,2.399256,0
0.6300000000000003,15.997083995756318,-5.999999776746788,5.9999996804683216,4.337833863120172,17.739943,-6.2817354,4.9976783,1.212705,12.777654,-9.20999,1.6611179,-0.7113449,-0.10317079,-0.43351874,-0.5435128,-6.819546,1.863444,-0.6410827,-5.4574637,4.842682,2.4943824,0
0.6400000000000003,15.997083995756318,-5.999999776746788,5.9999996804683216,4.337833863120172,18.307343,-5.5034175,5.0876155,2.0424595,12.710034,-9.191085,1.6547002,-0.69604445,-0.07562539,-0.4344813,-0.56659454,-6.705177,1.9191151,-0.6422281,-5.54266,5.022701,2.5848413,0
0.6500000000000004,15.997083995756318,-5.999999776746788,5.9999996804683216,4.337833863120172,18.307343,-5.5034175,5.0876155,2.0424595,12.643528,-9.171573,1.6482773,-0.67907554,-0.047412235,-0.4350855,-0.58932984,-6.597268,1.9847367,-0.64220124,-5.6145277,5.1746745,2.670861,0
0.6600000000000004,15.997083995756318,-5.999999776746788,5.9999996804683216,4.337833863120172,18.307343,-5.5034175,5.0876155,2.0424595,12.578065,-9.151357,1.641859,-0.66046137,-0.018668346,-0.43523884,-0.6115636,-6.496677,2.0600579,-0.6413726,-5.6751475,5.3029757,2.7526598,0
0.6700000000000004,15.997083995756318,-5.999999776746788,5.9999996804683216,4.337833863120172,18.307343,-5.5034175,5.0876155,2.0424595,12.513567,-9.130341,1.6354513,-0.64023155,0.010478079,-0.43486592,-0.63315564,-6.404242,2.144698,-0.640123,-5.7262764,5.411295,2.8304448,0
0.6800000000000004,18.824539762965504,-5.999999721722283,5.999999546412586,4.013217075642653,18.116234,-3.9697325,4.6448007,3.125894,12.449948,-9.108432,1.6290566,-0.6184217,0.03990673,-0.43390587,-0.65397894,-6.320773,2.238153,-0.63883847,-5.769397,5.5027456,2.904413,0
0.6900000000000004,18.824539762965504,-5.999999721722283,5.999999546412586,4.013217075642653,18.116234,-3.9697325,4.6448007,3.125894,12.387183,-9.08546,1.622761,-0.5950999,0.06952183,-0.43230858,-0.6738937,-6.234001,2.3577719,-0.620403,-5.805703,5.580018,2.9588223,0
0.7000000000000004,18.824539762965504,-5.999999721722283,5.999999546412586,4.013217075642653,18.116234,-3.9697325,4.6448007,3.125894,12.325226,-9.061246,1.6166457,-0.5703401,0.09923293,-0.43003395,-0.6927745,-6.159509,2.4861867,-0.6028361,-5.83632,5.645258,3.0105617,0
0.7100000000000004,18.824539762965504,-5.999999721722283,5.999999546412586,4.013217075642653,18.116234,-3.9697325,4.6448007,3.125894,12.263948,-9.035708,1.6106998,-0.54419386,0.12893748,-0.42705223,-0.7105317,-6.098046,2.6224363,-0.5865844,-5.8621364,5.700341,3.0597622,0
0.7200000000000004,20.999286121697764,-5.999999376573325,5.9999986385246835,2.2736869422937493,18.938976,-2.8637335,4.754111,3.2548306,12.203218,-9.008774,1.6049079,-0.5167173,0.15853839,-0.4233417,-0.72708416,-6.0502667,2.7654603,-0.5720834,-5.8839045,5.7468495,3.1065485,0
0.7300000000000004,20.999286121697764,-5.999999376573325,5.9999986385246835,2.2736869422937493,18.938976,-2.8637335,4.754111,3.2548306,12.142916,-8.980294,1.5993146,-0.48812887,0.18803483,-0.41885316,-0.74225056,-6.012849,2.931286,-0.5469952,-5.9019346,5.786449,3.0656798,0
0.7400000000000004,20.999286121697764,-5.999999376573325,5.9999986385246835,2.2736869422937493,18.938976,-2.8637335,4.754111,3.2548306,12.082906,-8.95013,1.593958,-0.45864844,0.2174251,-0.4135412,-0.75587857,-5.991802,3.1020336,-0.5247798,-5.917147,5.819871,3.0268164,0
0.7500000000000004,20.999286121697764,-5.999999376573325,5.9999986385246835,2.2736869422937493,18.938976,-2.8637335,4.754111,3.2548306,12.023023,-8.918241,1.5888075,-0.4283378,0.24661778,-0.4073992,-0.76794076,-5.9874835,3.2762861,-0.5058727,-5.9299827,5.848079,2.98986,0
0.7600000000000005,20.999997564459036,-4.980688834565752,4.326174423817679,0.7161614096157818,20.142883,-2.724436,4.7380505,2.310875,11.963098,-8.884597,1.5838277,-0.39725986,0.27552608,-0.40042585,-0.778415,-6.0001106,3.4525833,-0.49069,-5.9408135,5.871886,2.9547172,0
0.7700000000000005,20.999997564459036,-4.980688834565752,4.326174423817679,0.7161614096157818,20.142883,-2.724436,4.7380505,2.310875,11.902961,-8.849186,1.5789796,-0.3660202,0.30346978,-0.3926403,-0.7872545,-6.029697,3.629434,-0.4795878,-5.7902155,5.6315374,2.8448706,0
0.7800000000000005,20.999997564459036,-4.980688834565752,4.326174423817679,0.7161614096157818,20.142883,-2.724436,4.7380505,2.310875,11.842446,-8.812011,1.5742215,-0.33517358,0.32994348,-0.38411087,-0.7945159,-6.075749,3.8053236,-0.47271088,-5.6632237,5.428588,2.740414,0
0.7900000000000005,20.999997564459036,-4.980688834565752,4.326174423817679,0.7161614096157818,20.142883,-2.724436,4.7380505,2.310875,11.781391,-8.773087,1.5695107,-0.30470282,0.35510555,-0.37489977,-0.80031693,-6.137591,3.9788587,-0.47011137,-5.5561357,5.257218,2.6410835,0
0.8000000000000005,20.999978793576627,-2.5145150486410217,0.8920644614873927,-0.2080501978471032,19.674084,-1.9445754,4.0259056,1.6984625,11.719642,-8.732444,1.5648043,-0.27459016,0.37908667,-0.36505556,-0.8047539,-6.2145233,4.1487756,-0.47182792,-5.4658303,5.112514,2.546627,0
0.8100000000000005,20.999978793576627,-2.5145150486410217,0.8920644614873927,-0.2080501978471032,19.674084,-1.9445754,4.0259056,1.6984625,11.657031,-8.69009,1.56008,-0.24559395,0.40093842,-0.3548913,-0.8080749,-6.3093934,4.3206577,-0.47408724,-5.092253,4.5433855,2.4193664,0
0.8200000000000005,20.999978793576627,-2.5145150486410217,0.8920644614873927,-0.2080501978471032,19.674084,-1.9445754,4.0259056,1.6984625,11.593416,-8.646064,1.5553013,-0.21850832,0.41980466,-0.34482938,-0.81062424,-6.4150395,4.482831,-0.48256934,-4.7230425,4.008897,2.2935183,0
0.8300000000000005,20.999978793576627,-2.5145150486410217,0.8920644614873927,-0.2080501978471032,19.674084,-1.9445754,4.0259056,1.6984625,11.528697,-8.600462,1.5504119,-0.19333051,0.4359518,-0.3350298,-0.8126039,-6.5303173,4.6364865,-0.49578077,-4.3780227,3.5241022,2.1708038,0
0.8400000000000005,20.999978793576627,-2.5145150486410217,0.8920644614873927,-0.2080501978471032,19.107424,-1.3877245,2.092483,0.91474104,11.462775,-8.553355,1.5453758,-0.16990219,0.4497808,-0.32552123,-0.81416655,-6.655366,4.7838607,-0.5118231,-4.0865917,3.114361,2.0540729,0
0.8500000000000005,20.999978793576627,-2.5145150486410217,0.8920644614873927,-0.2080501978471032,19.107424,-1.3877245,2.092483,0.91474104,11.39556,-8.5048065,1.5401673,-0.14802241,0.4616867,-0.3162758,-0.8154172,-6.7889743,4.9248743,-0.5302021,-3.8407626,2.768402,1.9430699,0
0.8600000000000005,20.999978793576627,-2.5145150486410217,0.8920644614873927,-0.2080501978471032,19.107424,-1.3877245,2.092483,0.91474104,11.32697,-8.45488,1.5347651,-0.1275116,0.47199503,-0.3072577,-0.8164281,-6.930097,5.0594983,-0.5504981,-3.6333935,2.4763014,1.8375138,0
0.8700000000000006,20.999978793576627,-2.5145150486410217,0.8920644614873927,-0.2080501978471032,19.107424,-1.3877245,2.092483,0.91474104,11.256936,-8.403639,1.529152,-0.10821109,0.48097378,-0.29842797,-0.81724906,-7.0778475,5.187752,-0.57234603,-3.458463,2.2296762,1.7371373,0
0.8800000000000006,19.915056201018555,-0.48422533265373063,-2.4800735704487926,-0.6616322283389852,17.962992,-1.2229115,-0.6624671,0.35902745,11.185393,-8.351147,1.523314,-0.08998179,0.48884353,-0.28974757,-0.81791335,-7.231469,5.3096833,-0.5954306,-3.3108923,2.0214498,1.6416864,0
0.8900000000000006,19.915056201018555,-0.48422533265373063,-2.4800735704487926,-0.6616322283389852,17.962992,-1.2229115,-0.6624671,0.35902745,11.112305,-8.297478,1.5172327,-0.07338804,0.4947897,-0.2815874,-0.8188446,-7.386334,5.422595,-0.6212274,-2.927961,1.3787302,1.5339527,0
0.9000000000000006,19.915056201018555,-0.48422533265373063,-2.4800735704487926,-0.6616322283389852,17.962992,-1.2229115,-0.6624671,0.35902745,11.037666,-8.2427225,1.5108829,-0.05902058,0.49805447,-0.27439627,-0.82046664,-7.541427,5.527465,-0.64890283,-2.5549684,0.7862603,1.4270262,0
0.9100000000000006,19.915056201018555,-0.48422533265373063,-2.4800735704487926,-0.6616322283389852,17.962992,-1.2229115,-0.6624671,0.35902745,10.961468,-8.186946,1.504256,-0.04670088,0.49897665,-0.26815352,-0.82276094,-7.698636,5.627208,-0.67632383,-2.2315438,0.2773278,1.324535,0
0.9200000000000006,18.4872090450774,0.7202968599244439,-5.960462303426305,-0.7817810754870524,16.859795,-0.9873234,-4.336674,-0.09038365,10.883688,-8.130193,1.4973605,-0.036154512,0.49795064,-0.26272848,-0.8256587,-7.8577623,5.722974,-0.7025395,-1.9586881,-0.15232708,1.2270732,0
0.9300000000000006,18.4872090450774,0.7202968599244439,-5.960462303426305,-0.7817810754870524,16.859795,-0.9873234,-4.336674,-0.09038365,10.804325,-8.072507,1.4902043,-0.027523866,0.49437416,-0.2581312,-0.8295814,-8.014269,5.813246,-0.72867286,-1.6397038,-0.95835733,1.1374301,0
0.9400000000000006,18.4872090450774,0.7202968599244439,-5.960462303426305,-0.7817810754870524,16.859795,-0.9873234,-4.336674,-0.09038365,10.723417,-8.013945,1.4827894,-0.021053508,0.48761213,-0.25450867,-0.83487535,-8.166621,5.898631,-0.7541616,-1.3150132,-1.6943147,1.0472142,0
0.9500000000000006,18.4872090450774,0.7202968599244439,-5.960462303426305,-0.7817810754870524,16.859795,-0.9873234,-4.336674,-0.09038365,10.641007,-7.9545474,1.4751272,-0.016637886,0.4779309,-0.25190464,-0.84133804,-8.314914,5.9806523,-0.77772605,-0.99986273,-2.3567724,0.9577054,0
0.9600000000000006,17.81125704444259,1.1357953440028097,-5.999998816611681,-1.0207452302087754,16.530252,0.29421568,-5.2957096,-0.51352954,10.557125,-7.894335,1.4672489,-0.014056969,0.4656719,-0.2502219,-0.8487293,-8.461245,6.0617704,-0.79719573,-0.7314152,-2.9185572,0.87234825,0
0.9700000000000006,17.81125704444259,1.1357953440028097,-5.999998816611681,-1.0207452302087754,16.530252,0.29421568,-5.2957096,-0.51352954,10.471818,-7.8333273,1.4591844,-0.013153642,0.4511842,-0.2494224,-0.8567664,-8.599717,6.1398034,-0.81493497,-0.44015595,-3.398913,0.7794536,0
0.9800000000000006,17.81125704444259,1.1357953440028097,-5.999998816611681,-1.0207452302087754,16.530252,0.29421568,-5.2957096,-0.51352954,10.385142,-7.7715373,1.4509674,-0.013790369,0.4347598,-0.24945949,-0.865196,-8.734896,6.218299,-0.82767713,-0.19439918,-3.804414,0.6911173,0
0.9900000000000007,17.81125704444259,1.1357953440028097,-5.999998816611681,-1.0207452302087754,16.530252,0.29421568,-5.2957096,-0.51352954,10.297134,-7.708958,1.442649,-0.015751747,0.41665116,-0.25016767,-0.8738251,-8.866039,6.2977376,-0.8351631,0.012971897,-4.146721,0.6071156,0
1.0000000000000007,17.363157152941568,0.5648146719154797,-5.999998662257105,-1.1042037593400817,16.127438,0.07251168,-5.263876,-0.47826207,10.207838,-7.6455784,1.4342829,-0.018855782,0.39707184,-0.2514037,-0.88248235,-8.992449,6.3784866,-0.8372423,0.18795964,-4.435679,0.52723604,0
1.0100000000000007,17.363157152941568,0.5648146719154797,-5.999998662257105,-1.1042037593400817,16.127438,0.07251168,-5.263876,-0.47826207,10.11732,-7.5813937,1.4259105,-0.02286807,0.37621185,-0.2528382,-0.89107525,-9.110419,6.458721,-0.8364063,0.24657017,-4.679626,0.4471808,0
1.0200000000000007,17.363157152941568,0.5648146719154797,-5.999998662257105,-1.1042037593400817,16.127438,0.07251168,-5.263876,-0.47826207,10.025651,-7.516399,1.4175732,-0.027600663,0.3542368,-0.25420043,-0.8995206,-9.222547,6.5405393,-0.8302195,0.29601836,-4.8855376,0.37105393,0
1.0300000000000007,17.363157152941568,0.5648146719154797,-5.999998662257105,-1.1042037593400817,16.127438,0.07251168,-5.263876,-0.47826207,9.932891,-7.4505777,1.4093244,-0.032971874,0.33128515,-0.25545657,-0.9076925,-9.328284,6.6239142,-0.8187277,0.33774087,-5.059343,0.29866263,0
1.0400000000000007,17.363157152941568,0.5648146719154797,-5.999998662257105,-1.1042037593400817,15.842298,-0.49409795,-5.517782,-0.64087266,9.8391075,-7.3839154,1.4012165,-0.03891003,0.30747855,-0.25657892,-0.915484,-9.4271145,6.7087674,-0.80204946,0.37294814,-5.206047,0.22982354,0
1.0500000000000007,17.363157152941568,0.5648146719154797,-5.999998662257105,-1.1042037593400817,15.842298,-0.49409795,-5.517782,-0.64087266,9.744372,-7.316398,1.3933007,-0.045351874,0.28292465,-0.25754505,-0.92280453,-9.518556,6.794978,-0.78036803,0.40266097,-5.329876,0.16436243,0
1.0600000000000007,17.363157152941568,0.5648146719154797,-5.999998662257105,-1.1042037593400817,15.842298,-0.49409795,-5.517782,-0.64087266,9.648762,-7.2480125,1.3856256,-0.052241217,0.25771934,-0.2583372,-0.9295774,-9.602158,6.882387,-0.753923,0.42773968,-5.4343953,0.10211351,0
1.0700000000000007,17.363157152941568,0.5648146719154797,-5.999998662257105,-1.1042037593400817,15.842298,-0.49409795,-5.517782,-0.64087266,9.552358,-7.178747,1.3782375,-0.059527833,0.23194833,-0.25894132,-0.93573844,-9.67751,6.970799,-0.7230031,0.44890946,-5.522617,0.042919166,0
1.0800000000000007,17.086303809555897,-0.5041589977937005,-5.982648234814797,-1.0192204978875354,16.65921,-1.652667,-3.9272802,-0.61486006,9.455242,-7.108594,1.3711797,-0.06716652,0.2056888,-0.2593468,-0.9412336,-9.74424,7.059992,-0.6879401,0.46678153,-5.5970807,-0.013370485,0
1.0900000000000007,17.086303809555897,-0.5041589977937005,-5.982648234814797,-1.0192204978875354,16.65921,-1.652667,-3.9272802,-0.61486006,9.357509,-7.037553,1.3644807,-0.07502037,0.17904437,-0.2591452,-0.94612867,-9.801103,7.148259,-0.65127164,0.31518146,-5.657219,-0.062727824,0
1.1000000000000008,17.086303809555897,-0.5041589977937005,-5.982648234814797,-1.0192204978875354,16.65921,-1.652667,-3.9272802,-0.61486006,9.259251,-6.9656286,1.3581661,-0.08298799,0.15210918,-0.25801224,-0.9504768,-9.8489275,7.2365756,-0.6111698,0.18722916,-5.7079706,-0.10966321,0
1.1100000000000008,17.086303809555897,-0.5041589977937005,-5.982648234814797,-1.0192204978875354,16.65921,-1.652667,-3.9272802,-0.61486006,9.160562,-6.8928227,1.3522682,-0.09107569,0.12493592,-0.2560554,-0.9542183,-9.887533,7.324454,-0.5679412,0.0792372,-5.7508016,-0.15429544,0
1.1200000000000008,16.225879309568064,-1.6616867847759695,-2.941602990834359,-0.9634465194009176,16.292267,-2.4126172,-2.0881734,-0.47815436,9.061533,-6.819142,1.3468168,-0.09928367,0.097572245,-0.25336772,-0.95730245,-9.916769,7.4114265,-0.5219315,-0.011906898,-5.7869487,-0.19673756,1
1.1300000000000008,16.225879309568064,-1.6616867847759695,-2.941602990834359,-0.9634465194009176,16.292267,-2.4126172,-2.0881734,-0.47815436,8.962263,-6.744618,1.3418039,-0.10708534,0.07161834,-0.24947058,-0.9597753,-9.935725,7.493039,-0.48032683,-0.38626975,-5.210076,-0.21054676,1
1.1400000000000008,16.225879309568064,-1.6616867847759695,-2.941602990834359,-0.9634465194009176,16.292267,-2.4126172,-2.0881734,-0.47815436,8.862845,-6.669287,1.337217,-0.11409138,0.04836175,-0.244028,-0.96181875,-9.946497,7.5727563,-0.43676654,-0.70225143,-4.723168,-0.22367835,1
1.1500000000000008,16.225879309568064,-1.6616867847759695,-2.941602990834359,-0.9634465194009176,16.292267,-2.4126172,-2.0881734,-0.47815436,8.763357,-6.593171,1.3330743,-0.1204755,0.02741202,-0.23729937,-0.9635476,-9.949975,7.6500545,-0.39150587,-0.9689577,-4.3121953,-0.23616557,1
1.1600000000000008,15.278592332955043,-2.69141534455324,0.7184264715052148,-0.683351624614168,13.689022,-3.0719395,0.48682088,-0.49977905,8.663868,-6.516296,1.329392,-0.12637582,0.008431843,-0.22949769,-0.96503353,-9.946932,7.724511,-0.34473714,-1.1940731,-3.965316,-0.24804,0
1.1700000000000008,15.278592332955043,-2.69141534455324,0.7184264715052148,-0.683351624614168,13.689022,-3.0719395,0.48682088,-0.49977905,8.564436,-6.438714,1.3261386,-0.13167284,-0.007764122,-0.22083779,-0.96635056,-9.938663,7.79136,-0.30571088,-1.4275104,-3.2348318,-0.26940086,0
1.1800000000000008,15.278592332955043,-2.69141534455324,0.7184264715052148,-0.683351624614168,13.689022,-3.0719395,0.48682088,-0.49977905,8.46511,-6.3604794,1.3232815,-0.13629365,-0.020546876,-0.21151254,-0.9676079,-9.926017,7.85506,-0.26552173,-1.6245425,-2.6182673,-0.28971353,0
1.1900000000000008,15.278592332955043,-2.69141534455324,0.7184264715052148,-0.683351624614168,13.689022,-3.0719395,0.48682088,-0.49977905,8.365927,-6.281624,1.3208319,-0.14039502,-0.030436398,-0.20164718,-0.9688664,-9.910024,7.9155145,-0.22422487,-1.7908493,-2.097858,-0.3090295,0
1.2000000000000008,14.699571818938363,-3.039649564480773,3.7841284112908773,-0.400772553993432,13.460378,-3.9957392,2.8611174,-0.282933,8.266917,-6.202181,1.3188008,-0.14410004,-0.03787465,-0.19134004,-0.97014976,-9.891559,7.9726596,-0.18184087,-1.9312239,-1.6586087,-0.3273976,0
1.2100000000000009,14.699571818938363,-3.039649564480773,3.7841284112908773,-0.400772553993432,13.460378,-3.9957392,2.8611174,-0.282933,8.1680975,-6.1221933,1.3171722,-0.14724685,-0.042032287,-0.18071158,-0.97154295,-9.872205,8.024429,-0.14373484,-2.1039035,-0.809775,-0.33099815,0
1.2200000000000009,14.699571818938363,-3.039649564480773,3.7841284112908773,-0.400772553993432,13.460378,-3.9957392,2.8611174,-0.282933,8.069474,-6.041703,1.3159299,-0.1497176,-0.04227112,-0.16986252,-0.97311115,-9.852389,8.07307,-0.10454543,-2.2496789,-0.093321934,-0.33442202,0
1.2300000000000009,14.699571818938363,-3.039649564480773,3.7841284112908773,-0.400772553993432,13.460378,-3.9957392,2.8611174,-0.282933,7.9710474,-5.960742,1.315085,-0.15165237,-0.039194476,-0.1588324,-0.9748017,-9.833219,8.118686,-0.06423128,-2.3727415,0.5113961,-0.33767787,0
1.2400000000000009,14.699571818938363,-3.039649564480773,3.7841284112908773,-0.400772553993432,13.226606,-4.238322,3.9809003,-0.121366456,7.8728046,-5.879339,1.3146492,-0.15315919,-0.03331228,-0.14764874,-0.97654146,-9.815631,8.16137,-0.022777012,-2.4766312,1.0218047,-0.34077397,0
1.2500000000000009,14.699571818938363,-3.039649564480773,3.7841284112908773,-0.400772553993432,13.226606,-4.238322,3.9809003,-0.121366456,7.774726,-5.7975245,1.3146335,-0.1543213,-0.025056105,-0.13633141,-0.9782493,-9.800425,8.2012,0.019796103,-2.5643353,1.4526119,-0.3437181,0
1.260000000000001,14.699571818938363,-3.039649564480773,3.7841284112908773,-0.400772553993432,13.226606,-4.238322,3.9809003,-0.121366456,7.6767845,-5.7153254,1.3150489,-0.15520287,-0.014791904,-0.124895535,-0.97984445,-9.788277,8.23823,0.06342595,-2.6383758,1.8162321,-0.34651777,0
1.270000000000001,14.699571818938363,-3.039649564480773,3.7841284112908773,-0.400772553993432,13.226606,-4.238322,3.9809003,-0.121366456,7.578947,-5.6327696,1.3159053,-0.15585323,-0.0028306558,-0.11335335,-0.98125106,-9.77976,8.272507,0.10800929,-2.7008812,2.1231432,-0.34918007,0
1.280000000000001,14.274971836268367,-2.917195495746489,4.511470997934357,-0.24877885174269365,13.623254,-3.962363,4.8539615,-0.09951185,7.481175,-5.549885,1.3172116,-0.1563103,0.010562774,-0.10171536,-0.98240036,-9.775363,8.30406,0.15340392,-2.753649,2.3821895,-0.35171172,0
1.290000000000001,14.274971836268367,-2.917195495746489,4.511470997934357,-0.24877885174269365,13.623254,-3.962363,4.8539615,-0.09951185,7.383424,-5.466702,1.3189546,-0.15655664,0.025438718,-0.09008489,-0.9832235,-9.775509,8.3320875,0.19526714,-2.7790868,2.7142465,-0.34666076,0
1.300000000000001,14.274971836268367,-2.917195495746489,4.511470997934357,-0.24877885174269365,13.623254,-3.962363,4.8539615,-0.09951185,7.2856474,-5.3832517,1.3211184,-0.15657821,0.041822627,-0.0785449,-0.98364913,-9.780513,8.35757,0.23752579,-2.8005707,2.9945188,-0.34185764,0
1.310000000000001,14.274971836268367,-2.917195495746489,4.511470997934357,-0.24877885174269365,13.623254,-3.962363,4.8539615,-0.09951185,7.187795,-5.299559,1.3237056,-0.15640478,0.05947038,-0.067077376,-0.9836169,-9.790773,8.380578,0.27992475,-2.818715,3.231082,-0.33729026,0
1.320000000000001,13.865244043276757,-2.34746511380695,3.660349429677224,-0.2592951223852291,13.595355,-3.2158704,4.724943,-0.09525661,7.0898128,-5.215649,1.3267162,-0.1560589,0.07817234,-0.055668317,-0.98307496,-9.806618,8.401173,0.32217896,-2.834039,3.4307532,-0.33294702,0
1.330000000000001,13.865244043276757,-2.34746511380695,3.660349429677224,-0.2592951223852291,13.595355,-3.2158704,4.724943,-0.09525661,6.991646,-5.131547,1.3301274,-0.15559685,0.09737827,-0.044478394,-0.9820027,-9.827658,8.418881,0.35996583,-2.7581582,3.4665356,-0.3293329,0
1.340000000000001,13.865244043276757,-2.34746511380695,3.660349429677224,-0.2592951223852291,13.595355,-3.2158704,4.724943,-0.09525661,6.89324,-5.047279,1.333913,-0.15506716,0.1166427,-0.03363658,-0.98041713,-9.854383,8.4343815,0.39702135,-2.694112,3.4967406,-0.3258961,0
1.350000000000001,13.865244043276757,-2.34746511380695,3.660349429677224,-0.2592951223852291,13.595355,-3.2158704,4.724943,-0.09525661,6.7945385,-4.962867,1.3380643,-0.15447456,0.13593997,-0.023090601,-0.9783278,-9.886763,8.447759,0.43306386,-2.6400547,3.5222383,-0.32262796,0
1.360000000000001,13.331540170202446,-1.4452443975951341,1.2103082440852422,-0.34712470113857424,14.123653,-1.8054808,2.6473873,-0.0882743,6.695485,-4.8783307,1.3425698,-0.15382203,0.15524702,-0.012796912,-0.97574276,-9.924747,8.45909,0.46781865,-2.594428,3.5437617,-0.3195202,0
1.370000000000001,13.331540170202446,-1.4452443975951341,1.2103082440852422,-0.34712470113857424,14.123653,-1.8054808,2.6473873,-0.0882743,6.596033,-4.793693,1.34739,-0.15319172,0.17353417,-0.0029189188,-0.9728362,-9.966542,8.468085,0.4959831,-2.4152863,3.1798258,-0.32087478,0
1.380000000000001,13.331540170202446,-1.4452443975951341,1.2103082440852422,-0.34712470113857424,14.123653,-1.8054808,2.6473873,-0.0882743,6.496138,-4.708975,1.3524841,-0.15265398,0.18999678,0.0064162975,-0.9698235,-10.013161,8.475262,0.5225674,-2.2640707,2.872651,-0.32216287,0
1.390000000000001,13.331540170202446,-1.4452443975951341,1.2103082440852422,-0.34712470113857424,14.123653,-1.8054808,2.6473873,-0.0882743,6.395755,-4.6241937,1.3578359,-0.1521938,0.20491865,0.0152917,-0.9667535,-10.064103,8.480692,0.54753906,-2.1364274,2.6133847,-0.32338774,0
1.400000000000001,12.928468503799758,-0.3767215749068066,-1.96855208879866,-0.38202561155234666,13.261678,-0.66731924,-1.2198796,-0.29918438,6.2948422,-4.5393662,1.3634293,-0.15179761,0.21853907,0.023777828,-0.9636563,-10.118949,8.4844475,0.5708859,-2.028682,2.3945546,-0.3245525,1
1.410000000000001,12.928468503799758,-0.3767215749068066,-1.96855208879866,-0.38202561155234666,13.261678,-0.66731924,-1.2198796,-0.29918438,6.1933646,-4.4545097,1.3692449,-0.15149261,0.23007831,0.031781428,-0.9607833,-10.176983,8.486573,0.59200656,-1.8164988,1.830839,-0.3233077,1
1.420000000000001,12.928468503799758,-0.3767215749068066,-1.96855208879866,-0.38202561155234666,13.261678,-0.66731924,-1.2198796,-0.29918438,6.0912924,-4.36964,1.3752645,-0.1512982,0.23893906,0.03923326,-0.95837283,-10.237842,8.487142,0.61173,-1.637386,1.3550421,-0.32212397,1
1.430000000000001,12.928468503799758,-0.3767215749068066,-1.96855208879866,-0.38202561155234666,13.261678,-0.66731924,-1.2198796,-0.29918438,5.9886,-4.284772,1.3814756,-0.15119174,0.24554983,0.046220623,-0.9564051,-10.300879,8.486195,0.6303002,-1.4861895,0.9534516,-0.32099834,1
1.440000000000001,12.928468503799758,-0.3767215749068066,-1.96855208879866,-0.38202561155234666,12.96054,0.31342426,-3.0847864,-0.43696237,5.8852687,-4.199921,1.3878673,-0.15115328,0.25026882,0.052816954,-0.9548452,-10.365564,8.483766,0.6479446,-1.3585584,0.614494,-0.31992793,0
1.450000000000001,12.928468503799758,-0.3767215749068066,-1.96855208879866,-0.38202561155234666,12.96054,0.31342426,-3.0847864,-0.43696237,5.781293,-4.1151013,1.3944175,-0.15118842,0.2530919,0.059020903,-0.95373154,-10.429782,8.479979,0.6619876,-1.205525,0.21163982,-0.3229751,0
1.460000000000001,12.928468503799758,-0.3767215749068066,-1.96855208879866,-0.38202561155234666,12.96054,0.31342426,-3.0847864,-0.43696237,5.6766706,-4.030327,1.4011058,-0.15130056,0.2540299,0.06483496,-0.9530866,-10.494692,8.474799,0.6755757,-1.0763452,-0.12838502,-0.32587272,0
1.470000000000001,12.928468503799758,-0.3767215749068066,-1.96855208879866,-0.38202561155234666,12.96054,0.31342426,-3.0847864,-0.43696237,5.571398,-3.9456108,1.4079283,-0.15147099,0.25337812,0.070320755,-0.9528441,-10.559874,8.468248,0.6889333,-0.96730095,-0.4153795,-0.32862815,0
1.480000000000001,12.619983806735117,0.5535227113932881,-4.6965150968895495,-0.39477684083165077,12.459916,0.9335629,-5.2008038,-0.21874143,5.465473,-3.860967,1.4148842,-0.15168403,0.2513837,0.075529784,-0.95293975,-10.624973,8.46034,0.702251,-0.87525326,-0.65761405,-0.3312484,1
1.490000000000001,12.619983806735117,0.5535227113932881,-4.6965150968895495,-0.39477684083165077,12.459916,0.9335629,-5.2008038,-0.21874143,5.358912,-3.776407,1.4219537,-0.15193848,0.24694242,0.080196574,-0.95367885,-10.687279,8.451425,0.71168387,-0.5933174,-1.366185,-0.32572767,1
1.500000000000001,12.619983806735117,0.5535227113932881,-4.6965150968895495,-0.39477684083165077,12.459916,0.9335629,-5.2008038,-0.21874143,5.2517323,-3.6919427,1.4291198,-0.15221754,0.23918316,0.084110215,-0.95527345,-10.74846,8.441248,0.72164834,-0.3553214,-1.9642433,-0.32047784,1
1.5100000000000011,12.619983806735117,0.5535227113932881,-4.6965150968895495,-0.39477684083165077,12.459916,0.9335629,-5.2008038,-0.21874143,5.143949,-3.6075861,1.4363898,-0.15248741,0.22860703,0.08738195,-0.9575236,-10.80779,8.429841,0.73251724,-0.15441802,-2.4690254,-0.31548563,1
1.5200000000000011,12.550370390356948,1.3857414334089146,-5.999980575462686,-0.36583512162719806,12.615589,1.1533765,-5.6278477,-0.097040266,5.035585,-3.52335,1.4437742,-0.15271904,0.2156335,0.090103656,-0.96024007,-10.864636,8.41723,0.74456966,0.015173297,-2.8950794,-0.31073835,1
1.5300000000000011,12.550370390356948,1.3857414334089146,-5.999980575462686,-0.36583512162719806,12.615589,1.1533765,-5.6278477,-0.097040266,4.9266634,-3.439247,1.4512929,-0.15287638,0.20043895,0.0922897,-0.9632945,-10.919107,8.403263,0.7593946,0.19261175,-3.3212879,-0.30025214,1
1.5400000000000011,12.550370390356948,1.3857414334089146,-5.999980575462686,-0.36583512162719806,12.615589,1.1533765,-5.6278477,-0.097040266,4.817215,-3.3552892,1.4589673,-0.15292497,0.18318033,0.093953244,-0.9665569,-10.969932,8.388132,0.7757573,0.34239602,-3.6810217,-0.29028046,1
1.5500000000000012,12.550370390356948,1.3857414334089146,-5.999980575462686,-0.36583512162719806,12.615589,1.1533765,-5.6278477,-0.097040266,4.707279,-3.2714884,1.4668134,-0.15284517,0.16415906,0.095162734,-0.9698633,-11.016594,8.371868,0.7937248,0.46883518,-3.984649,-0.2807981,1
1.5600000000000012,12.540662913972072,1.8231666483211604,-5.99999173413648,-0.4658232503741741,14.151292,1.7249919,-5.959286,-0.6815514,4.5968995,-3.1878557,1.4748472,-0.15262172,0.14363286,0.095975615,-0.97307014,-11.058637,8.354506,0.81328624,0.57556695,-4.240921,-0.27178106,0
1.5700000000000012,12.540662913972072,1.8231666483211604,-5.99999173413648,-0.4658232503741741,14.151292,1.7249919,-5.959286,-0.6815514,4.4861255,-3.104401,1.4830809,-0.15230936,0.121632546,0.096208066,-0.97609013,-11.095423,8.336202,0.83366084,0.7700531,-4.5152864,-0.28130275,0
1.5800000000000012,12.540662913972072,1.8231666483211604,-5.99999173413648,-0.4658232503741741,14.151292,1.7249919,-5.959286,-0.6815514,4.37501,-3.0211346,1.4915254,-0.15195014,0.09819613,0.095714696,-0.97882986,-11.12677,8.316967,0.855442,0.9342152,-4.7468605,-0.29035723,0
1.5900000000000012,12.540662913972072,1.8231666483211604,-5.99999173413648,-0.4658232503741741,14.151292,1.7249919,-5.959286,-0.6815514,4.26361,-2.9380646,1.500194,-0.15151766,0.07354089,0.09459235,-0.9811661,-11.152278,8.296929,0.87846863,1.072782,-4.942318,-0.2989674,0
1.6000000000000012,12.47369207383426,1.9422762244239193,-5.096966056047285,-0.6285936916096038,12.848938,1.8221688,-5.617038,-0.14747624,4.1519856,-2.8551981,1.5090982,-0.1509915,0.047856197,0.092923395,-0.98299396,-11.171602,8.276206,0.90251917,1.1897447,-5.1072907,-0.3071551,1
1.6100000000000012,12.47369207383426,1.9422762244239193,-5.096966056047285,-0.6285936916096038,12.848938,1.8221688,-5.617038,-0.14747624,4.040199,-2.7725449,1.518262,-0.15033191,0.021462457,0.09075395,-0.9842276,-11.184774,8.254389,0.9303415,1.2883815,-5.1867986,-0.29931962,1
1.6200000000000012,12.47369207383426,1.9422762244239193,-5.096966056047285,-0.6285936916096038,12.848938,1.8221688,-5.617038,-0.14747624,3.928314,-2.690112,1.5277065,-0.14950398,-0.005371175,0.08812719,-0.9848116,-11.191129,8.232111,0.9586103,1.3716381,-5.2539043,-0.29186863,1
1.6300000000000012,12.47369207383426,1.9422762244239193,-5.096966056047285,-0.6285936916096038,12.848938,1.8221688,-5.617038,-0.14747624,3.8164003,-2.607904,1.5374346,-0.1485008,-0.03255874,0.085104555,-0.9847056,-11.190531,8.209492,0.9869765,1.4419119,-5.3105416,-0.28478324,1
1.6400000000000012,12.47369207383426,1.9422762244239193,-5.096966056047285,-0.6285936916096038,12.294185,1.7746361,-5.7234607,-0.13487928,3.7045276,-2.5259233,1.547445,-0.14731845,-0.060023077,0.0817389,-0.9838769,-11.182885,8.1866455,1.0150715,1.5012275,-5.358344,-0.27804554,1
1.6500000000000012,12.47369207383426,1.9422762244239193,-5.096966056047285,-0.6285936916096038,12.294185,1.7746361,-5.7234607,-0.13487928,3.5927641,-2.4441667,1.5577065,-0.1459516,-0.08773351,0.07810079,-0.9822941,-11.168768,8.164666,1.0370908,1.5438801,-5.4152846,-0.27102032,1
1.6600000000000013,12.47369207383426,1.9422762244239193,-5.096966056047285,-0.6285936916096038,12.294185,1.7746361,-5.7234607,-0.13487928,3.481176,-2.3626301,1.5681834,-0.14439765,-0.11565739,0.074249186,-0.9799286,-11.147814,8.142654,1.0581012,1.5798817,-5.463344,-0.26433983,1
1.6700000000000013,12.47369207383426,1.9422762244239193,-5.096966056047285,-0.6285936916096038,12.294185,1.7746361,-5.7234607,-0.13487928,3.3698313,-2.2813137,1.5788637,-0.14265932,-0.14372562,0.07021086,-0.97676104,-11.120021,8.120687,1.0777117,1.6102692,-5.5039077,-0.25798714,1
1.6800000000000013,12.154743738518762,1.6752342959926232,-2.765490109047554,-0.8555566110974886,12.589024,1.0274355,-4.188069,-0.5924268,3.2587986,-2.2002163,1.5897315,-0.14074019,-0.17187543,0.06600927,-0.9727766,-11.085421,8.09884,1.0955268,1.6359181,-5.5381446,-0.25194618,0
1.6900000000000013,12.154743738518762,1.6752342959926232,-2.765490109047554,-0.8555566110974886,12.589024,1.0274355,-4.188069,-0.5924268,3.1481433,-2.1193352,1.6007603,-0.13881753,-0.1989041,0.06152319,-0.96818507,-11.044605,8.077447,1.109884,1.6420213,-5.1057835,-0.28156552,0
1.7000000000000013,12.154743738518762,1.6752342959926232,-2.765490109047554,-0.8555566110974886,12.589024,1.0274355,-4.188069,-0.5924268,3.0379276,-2.0386662,1.6119212,-0.13705127,-0.22387654,0.056660485,-0.9632686,-10.997652,8.056417,1.1218925,1.6471802,-4.740847,-0.3097314,0
1.7100000000000013,12.154743738518762,1.6752342959926232,-2.765490109047554,-0.8555566110974886,12.589024,1.0274355,-4.188069,-0.5924268,2.9282098,-1.9582052,1.6231898,-0.13542043,-0.24710135,0.051478077,-0.95809853,-10.945085,8.035908,1.1314358,1.6515397,-4.432821,-0.3365152,0
1.7200000000000013,11.870049599205723,1.18284487555645,1.2363531208708336,-0.9960017735247616,11.822968,0.3634065,-0.59768003,-0.40188962,2.8190439,-1.8779461,1.6345413,-0.13390659,-0.26883897,0.04602322,-0.9527209,-10.887356,8.016044,1.1384271,1.6552223,-4.1728296,-0.3619847,0
1.7300000000000013,11.870049599205723,1.18284487555645,1.2363531208708336,-0.9960017735247616,11.822968,0.3634065,-0.59768003,-0.40188962,2.7104723,-1.7978797,1.6459386,-0.13263543,-0.28777334,0.040299576,-0.94761324,-10.826323,7.997363,1.1405642,1.5830697,-3.3306696,-0.39296657,0
1.7400000000000013,11.870049599205723,1.18284487555645,1.2363531208708336,-0.9960017735247616,11.822968,0.3634065,-0.59768003,-0.40188962,2.6025302,-1.7179956,1.6573447,-0.13171582,-0.30289137,0.034324028,-0.94325507,-10.761563,7.9795895,1.1403352,1.5207857,-2.6184585,-0.42255765,0
1.7500000000000013,11.870049599205723,1.18284487555645,1.2363531208708336,-0.9960017735247616,11.822968,0.3634065,-0.59768003,-0.40188962,2.4952512,-1.6382843,1.668739,-0.13110065,-0.31481442,0.02813525,-0.93963474,-10.693788,7.9628305,1.1382278,1.4682117,-2.0173156,-0.45069674,0
1.7600000000000013,11.82740257365207,0.5894657097983121,5.314683535557905,-0.9871392363384358,11.382028,-0.40545785,2.9488983,-0.4191532,2.3886623,-1.5587351,1.6801041,-0.13074735,-0.32405984,0.02176334,-0.9367055,-10.623634,7.9471903,1.13459,1.423831,-1.5099196,-0.477455,0
1.7700000000000014,11.82740257365207,0.5894657097983121,5.314683535557905,-0.9871392363384358,11.382028,-0.40545785,2.9488983,-0.4191532,2.2827978,-1.4793391,1.691444,-0.13067262,-0.32963786,0.015141917,-0.9348983,-10.549439,7.932316,1.1327049,1.3364905,-0.488086,-0.49863106,0
1.7800000000000014,11.82740257365207,0.5894657097983121,5.314683535557905,-0.9871392363384358,11.382028,-0.40545785,2.9488983,-0.4191532,2.1776686,-1.4000825,1.7027458,-0.1309371,-0.330634,0.008331334,-0.934595,-10.476515,7.9192634,1.1273777,1.2247239,0.41243663,-0.5221901,0
1.7900000000000014,11.82740257365207,0.5894657097983121,5.314683535557905,-0.9871392363384358,11.382028,-0.40545785,2.9488983,-0.4191532,2.0732672,-1.3209486,1.7139914,-0.13151555,-0.3276543,0.0014356496,-0.9355987,-10.403759,7.9077616,1.1218138,1.1259327,1.1769562,-0.54500526,0
1.8000000000000014,11.980489546620692,0.016848393412039718,5.99999639142408,-0.8483872567325058,11.128451,-0.9440009,5.3074803,-0.23568358,1.969591,-1.2419218,1.7251843,-0.13234279,-0.32130003,-0.0055337963,-0.93766826,-10.331627,7.8978724,1.1169213,1.042525,1.8222471,-0.5667009,1
1.8100000000000014,11.980489546620692,0.016848393412039718,5.99999639142408,-0.8483872567325058,11.128451,-0.9440009,5.3074803,-0.23568358,1.8666093,-1.1629828,1.7363058,-0.13346963,-0.31199554,-0.01196352,-0.94058615,-10.264945,7.8901553,1.107578,0.73290336,2.3658898,-0.5504577,1
1.8200000000000014,11.980489546620692,0.016848393412039718,5.99999639142408,-0.8483872567325058,11.128451,-0.9440009,5.3074803,-0.23568358,1.7642862,-1.0841135,1.7473407,-0.13491558,-0.30009964,-0.017360684,-0.9441596,-10.200018,7.883927,1.09964,0.47152728,2.8247275,-0.53501165,1
1.8300000000000014,11.980489546620692,0.016848393412039718,5.99999639142408,-0.8483872567325058,11.128451,-0.9440009,5.3074803,-0.23568358,1.6626012,-1.0052996,1.7583044,-0.1365866,-0.28598678,-0.021881089,-0.94819707,-10.137361,7.879054,1.0933746,0.2508808,3.2119906,-0.5203235,1
1.8400000000000014,11.980489546620692,0.016848393412039718,5.99999639142408,-0.8483872567325058,11.0824175,-1.2397118,6.1017337,0.27935612,1.5615295,-0.9265281,1.7692146,-0.13840523,-0.2699721,-0.025656085,-0.95252377,-10.077432,7.8754334,1.0889689,0.06461841,3.5388448,-0.5063562,0
1.8500000000000014,11.980489546620692,0.016848393412039718,5.99999639142408,-0.8483872567325058,11.0824175,-1.2397118,6.1017337,0.27935612,1.4610636,-0.84778786,1.7801272,-0.14027062,-0.25210893,-0.029221943,-0.9570329,-10.016305,7.8728213,1.0938662,0.05733782,3.9226618,-0.5231397,0
1.8600000000000014,11.980489546620692,0.016848393412039718,5.99999639142408,-0.8483872567325058,11.0824175,-1.2397118,6.1017337,0.27935612,1.3611902,-0.76906693,1.7910995,-0.14211646,-0.23245096,-0.033012424,-0.961603,-9.959021,7.8715878,1.100972,0.0511779,4.246622,-0.5390997,0
1.8700000000000014,11.980489546620692,0.016848393412039718,5.99999639142408,-0.8483872567325058,11.0824175,-1.2397118,6.1017337,0.27935612,1.2618686,-0.69035095,1.8021541,-0.14392965,-0.21124756,-0.036990266,-0.96606994,-9.905998,7.8718643,1.1102948,0.045964867,4.520061,-0.55427647,0
1.8800000000000014,12.334979333155179,-0.1552453965677129,5.9999967610939375,-0.7429187943453284,10.8818865,-0.7673984,5.3943067,-0.02409903,1.1630543,-0.6116241,1.8133128,-0.14569847,-0.18871392,-0.041122314,-0.97029305,-9.85762,7.8737693,1.1217706,0.041552003,4.750857,-0.56870854,0
1.8900000000000015,12.334979333155179,-0.1552453965677129,5.9999967610939375,-0.7429187943453284,10.8818865,-0.7673984,5.3943067,-0.02409903,1.0647056,-0.5328691,1.824613,-0.14741234,-0.16502729,-0.04530969,-0.97415775,-9.812948,7.8775105,1.1385741,0.010961057,4.945671,-0.5772571,0
1.9000000000000015,12.334979333155179,-0.1552453965677129,5.9999967610939375,-0.7429187943453284,10.8818865,-0.7673984,5.3943067,-0.02409903,0.9667766,-0.45406756,1.8360909,-0.14905834,-0.14034326,-0.04947083,-0.97756773,-9.773734,7.8831,1.1572784,-0.014869804,5.1101027,-0.58538616,0
1.9100000000000015,12.334979333155179,-0.1552453965677129,5.9999967610939375,-0.7429187943453284,10.8818865,-0.7673984,5.3943067,-0.02409903,0.8692112,-0.37520063,1.8477644,-0.150624,-0.11480773,-0.053601358,-0.98043823,-9.740266,7.8905897,1.1776506,-0.036682025,5.248889,-0.59311634,0
1.9200000000000015,12.482883960151584,-0.11892228894721692,5.999983717232297,-0.6332683355169652,11.473251,-1.1057193,4.053148,-0.016072586,0.7719507,-0.29624912,1.8596487,-0.15209904,-0.08854939,-0.057696577,-0.9826987,-9.712787,7.9000235,1.1994163,-0.055101126,5.366031,-0.60046715,0
1.9300000000000015,12.482883960151584,-0.11892228894721692,5.999983717232297,-0.6332683355169652,11.473251,-1.1057193,4.053148,-0.016072586,0.6749355,-0.21719271,1.8717637,-0.15346055,-0.06168534,-0.061764754,-0.9842919,-9.691255,7.9115715,1.223716,-0.06500973,5.4648995,-0.6020767,0
1.9400000000000015,12.482883960151584,-0.11892228894721692,5.999983717232297,-0.6332683355169652,11.473251,-1.1057193,4.053148,-0.016072586,0.5781035,-0.1380107,1.8841256,-0.15468866,-0.034319766,-0.065811634,-0.9851717,-9.676172,7.925152,1.2487692,-0.073379144,5.548349,-0.6036073,0
1.9500000000000015,12.482883960151584,-0.11892228894721692,5.999983717232297,-0.6332683355169652,11.473251,-1.1057193,4.053148,-0.016072586,0.48138937,-0.058682617,1.8967403,-0.15577982,-0.0065430207,-0.06982894,-0.9852992,-9.667679,7.9407854,1.2742081,-0.08044855,5.618784,-0.6050628,0
1.9600000000000015,12.271459836738902,-0.0870632401579039,3.5289249355403487,-0.5560208056570433,11.307019,-1.2587436,3.926194,-0.091019616,0.38472688,0.020812111,1.9096098,-0.15673126,0.021563608,-0.07380896,-0.98464376,-9.6658745,7.9584823,1.2996472,-0.08642009,5.678234,-0.6064468,0
1.9700000000000015,12.271459836738902,-0.0870632401579039,3.5289249355403487,-0.5560208056570433,11.307019,-1.2587436,3.926194,-0.091019616,0.2880491,0.10049245,1.9227214,-0.15760905,0.048951365,-0.07760305,-0.9832302,-9.670693,7.9778924,1.3226062,-0.08666149,5.3430505,-0.60397243,0
1.9800000000000015,12.271459836738902,-0.0870632401579039,3.5289249355403487,-0.5560208056570433,11.307019,-1.2587436,3.926194,-0.091019616,0.19129139,0.1803765,1.9360592,-0.15848015,0.07478742,-0.08109756,-0.98118025,-9.6818,7.999204,1.3448311,-0.0868432,5.0601387,-0.6016195,0
1.9900000000000015,12.271459836738902,-0.0870632401579039,3.5289249355403487,-0.5560208056570433,11.307019,-1.2587436,3.926194,-0.091019616,0.09439278,0.2604826,1.9496145,-0.15934223,0.099297486,-0.08433323,-0.97859013,-9.698816,8.022287,1.3660355,-0.086978145,4.8213468,-0.5993819,0
2.0000000000000013,,,,,11.397934,-0.73266035,1.078904,-0.20487179,-0.0027041137,0.34082794,1.9633756,-0.1601919,0.122673355,-0.087344594,-0.9755314,-9.721409,8.047032,1.3859757,-0.08707644,4.619794,-0.59725416,0
2.010000000000001,,,,,11.397934,-0.73266035,1.078904,-0.20487179,-0.10004866,0.421424,1.9773085,-0.16114877,0.14363167,-0.08993598,-0.9722722,-9.748239,8.0724,1.4003949,-0.0832903,3.8713977,-0.59026945,0
2.020000000000001,,,,,11.397934,-0.73266035,1.078904,-0.20487179,-0.19768368,0.5022803,1.9913787,-0.1623218,0.1611816,-0.09195981,-0.96913165,-9.779372,8.09903,1.4134082,-0.08004289,3.239714,-0.5836275,0
2.0300000000000007,,,,,11.397934,-0.73266035,1.078904,-0.20487179,-0.29564834,0.5834082,2.0055723,-0.16368836,0.17586605,-0.093506694,-0.9661959,-9.814067,8.126693,1.4251077,-0.07725867,2.7065413,-0.57731146,0
2.0400000000000005,,,,,11.397934,-0.73266035,1.078904,-0.20487179,-0.39397514,0.66481704,2.0198767,-0.16522491,0.18814182,-0.09465198,-0.96350664,-9.851707,8.155203,1.4356154,-0.07487301,2.256517,-0.57130533,0
2.0500000000000003,,,,,10.98347,-0.044401992,-4.527062,-0.1881725,-0.49269083,0.7465146,2.034281,-0.16690849,0.19839264,-0.09545851,-0.96107763,-9.891782,8.184406,1.4450643,-0.07282966,1.8766733,-0.56559396,1
2.06,,,,,10.98347,-0.044401992,-4.527062,-0.1881725,-0.5918037,0.8284973,2.04874,-0.16885902,0.20528416,-0.09572407,-0.9592615,-9.930909,8.212114,1.4463282,-0.06391299,0.8828711,-0.5475252,1
2.07,,,,,10.98347,-0.044401992,-4.527062,-0.1881725,-0.6913121,0.9107575,2.063205,-0.1711614,0.20775144,-0.095248915,-0.95836914,-9.970846,8.239949,1.4466854,-0.06117193,0.039193287,-0.52989167,1
2.0799999999999996,,,,,10.98347,-0.044401992,-4.527062,-0.1881725,-0.7912212,0.9932962,2.0776732,-0.17375188,0.20648682,-0.09413885,-0.958286,-10.010948,8.267768,1.4469805,-0.058795333,-0.6729131,-0.5131234,1
2.0899999999999994,,,,,10.160086,0.31116164,-5.360933,-0.36287022,-0.89152926,1.076112,2.0921454,-0.1765712,0.2020695,-0.09248549,-0.9588731,-10.0505295,8.29534,1.4475554,-0.056738656,-1.2739667,-0.497178,1
2.099999999999999,,,,,10.160086,0.31116164,-5.360933,-0.36287022,-0.9922135,1.1591913,2.106589,-0.17964472,0.19463891,-0.090437226,-0.96003395,-10.086109,8.320426,1.4412555,0.0004369272,-1.9113452,-0.49058747,1
2.109999999999999,,,,,10.160086,0.31116164,-5.360933,-0.36287022,-1.0932461,1.2425185,2.120973,-0.18298621,0.18432458,-0.088112466,-0.9616534,-10.120094,8.344932,1.4357125,0.048732217,-2.4493217,-0.4843203,1
2.1199999999999988,,,,,10.160086,0.31116164,-5.360933,-0.36287022,-1.1946083,1.3260874,2.1353064,-0.18652889,0.17155866,-0.0855407,-0.9635652,-10.151973,8.368706,1.431104,0.08952608,-2.9033985,-0.47836074,1
2.1299999999999986,,,,,10.437921,0.17869014,-5.686185,-0.25771898,-1.2962768,1.4098897,2.1495988,-0.19021417,0.15670584,-0.08274687,-0.96561646,-10.181302,8.391608,1.4275411,0.123982795,-3.28666,-0.4726936,1
2.1399999999999983,,,,,10.437921,0.17869014,-5.686185,-0.25771898,-1.3982279,1.4939191,2.1638741,-0.19398093,0.1399585,-0.07967822,-0.9676956,-10.208412,8.414097,1.427692,0.13242419,-3.6608663,-0.4621447,1
2.149999999999998,,,,,10.437921,0.17869014,-5.686185,-0.25771898,-1.5004336,1.5781674,2.1781569,-0.19777456,0.12148654,-0.0762936,-0.96969366,-10.232133,8.435385,1.42898,0.13957012,-3.976715,-0.45211348,1
2.159999999999998,,,,,10.437921,0.17869014,-5.686185,-0.25771898,-1.602858,1.662622,2.1924577,-0.20155649,0.10154723,-0.07262914,-0.9714877,-10.252132,8.45531,1.4313618,0.14561877,-4.2433066,-0.4425745,1
2.1699999999999977,,,,,11.328428,-0.011170821,-5.9556823,0.07144432,-1.7054625,1.7472684,2.2067873,-0.20529348,0.080361724,-0.06871643,-0.97297215,-10.268129,8.473722,1.4347433,0.15073785,-4.468323,-0.43350357,1
2.1799999999999975,,,,,11.328428,-0.011170821,-5.9556823,0.07144432,-1.8082111,1.832098,2.2211988,-0.20891887,0.05802895,-0.06449,-0.9740774,-10.280881,8.491909,1.4477195,0.12549852,-4.700267,-0.40872562,1
