time-since-start [s],throttle_mpc,roll_mpc,pitch_mpc,yaw_mpc,throttle_nw,roll_nw,pitch_nw,yaw_nw,position_x [m],position_y [m],position_z [m],rotation_w [quaternion],rotation_x [quaternion],rotation_y [quaternion],rotation_z [quaternion],velocity_x [m/s],velocity_y [m/s],velocity_z [m/s],omega_x [rad/s],omega_y [rad/s],omega_z [rad/s],network_used
0.0,10.52898395782456,5.999999785388381,-5.99999995724551,-5.345664665644711,14.713027,4.3423,-3.9363527,-1.4394351,19.514679,-9.035022,1.4488914,-0.16590787,-0.39752057,0.17128308,0.8860666,-11.196371,-6.319476,0.3520152,1.8980899,-0.13700616,-0.6045165,0
0.01,10.52898395782456,5.999999785388381,-5.99999995724551,-5.345664665644711,13.101666,-0.73500985,-6.649906,-1.5652848,19.402037,-9.098061,1.4524764,-0.15901494,-0.39865318,0.17822687,0.88545185,-11.331752,-6.287832,0.36455473,1.7836491,-0.29744768,-0.76974463,0
0.02,10.52898395782456,5.999999785388381,-5.99999995724551,-5.345664665644711,13.101666,-0.73500985,-6.649906,-1.5652848,19.288048,-9.160769,1.4561738,-0.15142989,-0.39910802,0.18454745,0.8852818,-11.465455,-6.2536125,0.37453106,1.7119079,-0.45774823,-0.9290887,0
0.03,10.52898395782456,5.999999785388381,-5.99999995724551,-5.345664665644711,13.101666,-0.73500985,-6.649906,-1.5652848,19.172733,-9.2231245,1.4599591,-0.1430941,-0.3989161,0.19042432,0.88551027,-11.597171,-6.2169213,0.3821546,1.6769326,-0.6186646,-1.0829024,0
0.04,10.52898395782456,5.999999785388381,-5.99999995724551,-5.345664665644711,14.586599,1.5029343,-6.7955317,-2.9186223,19.056112,-9.285101,1.4638097,-0.133957,-0.39809588,0.1960111,0.88608956,-11.726614,-6.1778097,0.38761258,1.6735895,-0.7807071,-1.2315106,0
0.05,10.52898395782456,5.999999785388381,-5.99999995724551,-5.345664665644711,14.586599,1.5029343,-6.7955317,-2.9186223,18.93821,-9.346673,1.4677047,-0.123975426,-0.39665547,0.20143858,0.8869706,-11.853522,-6.1362906,0.39107144,1.6974308,-0.9441906,-1.3752123,0
0.060000000000000005,10.52898395782456,5.999999785388381,-5.99999995724551,-5.345664665644711,14.586599,1.5029343,-6.7955317,-2.9186223,18.819052,-9.407818,1.4716249,-0.11311297,-0.39459455,0.20681761,0.88810295,-11.977644,-6.092347,0.39267954,1.7446003,-1.1092758,-1.5142823,0
0.07,10.52898395782456,5.999999785388381,-5.99999995724551,-5.345664665644711,14.586599,1.5029343,-6.7955317,-2.9186223,18.69867,-9.468512,1.4755523,-0.101339445,-0.39190575,0.21224129,0.8894344,-12.098736,-6.045943,0.39256927,1.8117489,-1.2760042,-1.648974,0
0.08,13.222720995573864,5.999999901359498,-5.999999985062785,-5.114126052411163,15.941589,1.6635007,-7.4104266,-2.367725,18.577091,-9.5287285,1.4794707,-0.08863047,-0.388576,0.21778692,0.89091074,-12.216557,-5.99703,0.3908589,1.8959664,-1.4443258,-1.7795202,0
0.09,13.222720995573864,5.999999901359498,-5.999999985062785,-5.114126052411163,15.941589,1.6635007,-7.4104266,-2.367725,18.45429,-9.588416,1.4834157,-0.07480995,-0.38436994,0.22377859,0.8925168,-12.343116,-5.940012,0.39783603,2.099666,-1.7193226,-1.9041599,0
0.09999999999999999,13.222720995573864,5.999999901359498,-5.999999985062785,-5.114126052411163,15.941589,1.6635007,-7.4104266,-2.367725,18.330244,-9.647518,1.4874214,-0.059720807,-0.37906227,0.23049097,0.89421415,-12.465085,-5.8800783,0.40301797,2.3070214,-1.9869212,-2.0258532,0
0.10999999999999999,13.222720995573864,5.999999901359498,-5.999999985062785,-5.114126052411163,15.941589,1.6635007,-7.4104266,-2.367725,18.205004,-9.706006,1.4914705,-0.043374248,-0.3726475,0.23791017,0.89590794,-12.582113,-5.8170075,0.40655273,2.5169175,-2.2477257,-2.1446955,0
0.11999999999999998,13.222720995573864,5.999999901359498,-5.999999985062785,-5.114126052411163,15.941589,1.6635007,-7.4104266,-2.367725,18.07862,-9.763847,1.4955472,-0.025785357,-0.36511505,0.24601518,0.8974979,-12.693837,-5.750634,0.40856352,2.728407,-2.5022414,-2.2607775,0
0.12999999999999998,17.538785860531444,5.99999996879594,-6.0,-4.111591734870264,14.910875,2.702051,-8.990685,-1.3996509,17.951147,-9.821007,1.4996368,-0.00697345,-0.35645038,0.2547783,0.8988784,-12.799887,-5.680848,0.40914947,2.9406872,-2.7508903,-2.3741846,0
0.13999999999999999,17.538785860531444,5.99999996879594,-6.0,-4.111591734870264,14.910875,2.702051,-8.990685,-1.3996509,17.822582,-9.877408,1.5037838,0.013374044,-0.3460299,0.26476926,0.8999897,-12.911772,-5.598806,0.42001095,3.406509,-3.2481637,-2.4584854,0
0.15,17.538785860531444,5.99999996879594,-6.0,-4.111591734870264,14.910875,2.702051,-8.990685,-1.3996509,17.692932,-9.932963,1.5080383,0.03545753,-0.33335114,0.27636585,0.9006895,-13.017561,-5.511282,0.4310126,3.8100815,-3.6781576,-2.5396037,0
0.16,20.76746889748533,5.9999999780357385,-6.0,-3.2957944745772503,19.613075,4.386743,-9.412035,-2.0641418,17.562254,-9.987613,1.5124068,0.059031412,-0.31864896,0.28919515,0.90074646,-13.11683,-5.417391,0.44283926,4.1507964,-4.041019,-2.6167414,0
0.17,20.76746889748533,5.9999999780357385,-6.0,-3.2957944745772503,19.613075,4.386743,-9.412035,-2.0641418,17.430534,-10.041199,1.5169997,0.08377513,-0.30211067,0.3029587,0.8999594,-13.225395,-5.29847,0.47584304,4.4385633,-4.3471074,-2.6500626,0
0.18000000000000002,20.76746889748533,5.9999999780357385,-6.0,-3.2957944745772503,19.613075,4.386743,-9.412035,-2.0641418,17.29778,-10.093555,1.5219266,0.109395444,-0.28390098,0.31740192,0.89815855,-13.323783,-5.1718574,0.5096685,4.6815286,-4.6053915,-2.6817489,0
0.19000000000000003,20.76746889748533,5.9999999780357385,-6.0,-3.2957944745772503,19.613075,4.386743,-9.412035,-2.0641418,17.164097,-10.144609,1.5271951,0.13571087,-0.2641956,0.33227676,0.89519566,-13.410857,-5.037836,0.5441204,4.886669,-4.823334,-2.7118802,0
0.20000000000000004,20.999999892208372,5.999999925939198,-5.999999967516161,-2.561334348924227,22.177383,4.189603,-9.781707,-2.1732552,17.029606,-10.194288,1.5328102,0.16255498,-0.24315512,0.34736967,0.8909465,-13.485567,-4.8968964,0.57893646,5.0598745,-5.007235,-2.7405329,0
0.21000000000000005,20.999999892208372,5.999999925939198,-5.999999967516161,-2.561334348924227,22.177383,4.189603,-9.781707,-2.1732552,16.894428,-10.242517,1.5387814,0.18969382,-0.22089607,0.36251855,0.88532555,-13.547647,-4.748064,0.61528724,5.2062397,-5.1622877,-2.7317395,0
0.22000000000000006,20.999999892208372,5.999999925939198,-5.999999967516161,-2.561334348924227,22.177383,4.189603,-9.781707,-2.1732552,16.758701,-10.28923,1.5451148,0.21691155,-0.19752541,0.37758374,0.878273,-13.59541,-4.5937595,0.65131366,5.3298225,-5.293119,-2.723378,0
0.23000000000000007,20.999999892208372,5.999999925939198,-5.999999967516161,-2.561334348924227,22.177383,4.189603,-9.781707,-2.1732552,16.622572,-10.334377,1.5518051,0.24408677,-0.17317323,0.39242387,0.8697333,-13.628131,-4.4349627,0.68660456,5.4341693,-5.403514,-2.7154262,0
0.24000000000000007,20.999999892208372,5.999999925939198,-5.999999967516161,-2.561334348924227,20.621765,4.0512915,-9.300282,-2.0380986,16.486195,-10.377917,1.558843,0.27110732,-0.14796168,0.40691647,0.85966676,-13.645216,-4.2727675,0.7207177,5.5222726,-5.496664,-2.7078648,0
0.25000000000000006,20.999999892208372,5.999999925939198,-5.999999967516161,-2.561334348924227,20.621765,4.0512915,-9.300282,-2.0380986,16.349726,-10.419825,1.566214,0.2978694,-0.12200588,0.42095527,0.8480477,-13.646216,-4.108363,0.75318927,5.596661,-5.575264,-2.7006745,0
0.26000000000000006,20.999999892208372,5.999999925939198,-5.999999967516161,-2.561334348924227,20.621765,4.0512915,-9.300282,-2.0380986,16.213327,-10.460082,1.5738995,0.32427675,-0.09541474,0.43444794,0.83486253,-13.630829,-3.943011,0.7835424,5.6594706,-5.6415863,-2.6938372,0
0.2700000000000001,20.999999892208372,5.999999925939198,-5.999999967516161,-2.561334348924227,20.621765,4.0512915,-9.300282,-2.0380986,16.077166,-10.498687,1.5818759,0.35024,-0.068291545,0.4473143,0.82010853,-13.598903,-3.7780278,0.8112956,5.7125015,-5.6975493,-2.6873353,0
0.2800000000000001,21.0,4.6723899573901395,-5.453024104667361,-0.35338144189397314,18.356752,4.126431,-7.8784356,-2.2081864,15.941406,-10.535649,1.5901148,0.37567598,-0.040734503,0.45948458,0.8037923,-13.550436,-3.6147652,0.8359706,5.757277,-5.7447715,-2.6811523,0
0.2900000000000001,21.0,4.6723899573901395,-5.453024104667361,-0.35338144189397314,18.356752,4.126431,-7.8784356,-2.2081864,15.806213,-10.570992,1.5985831,0.40017703,-0.013090723,0.47057632,0.7862854,-13.485624,-3.454593,0.8571261,5.588594,-5.698562,-2.566928,0
0.3000000000000001,21.0,4.6723899573901395,-5.453024104667361,-0.35338144189397314,18.356752,4.126431,-7.8784356,-2.2081864,15.671748,-10.604754,1.6072444,0.42342624,0.014361434,0.48032266,0.76798046,-13.405066,-3.2988544,0.8744986,5.446178,-5.659646,-2.4583085,0
0.3100000000000001,21.0,4.6723899573901395,-5.453024104667361,-0.35338144189397314,18.356752,4.126431,-7.8784356,-2.2081864,15.538164,-10.636988,1.6160594,0.4454747,0.041629516,0.48882008,0.74891526,-13.309512,-3.1487942,0.8878912,5.3259373,-5.6268716,-2.355019,0
0.3200000000000001,20.999999988790613,3.235817529428467,-3.0475800856846704,-0.13339940815189694,15.382227,3.3047311,-5.732066,-1.2292999,15.405607,-10.667754,1.6249878,0.46636462,0.0687168,0.49614763,0.7291223,-13.199765,-3.0055554,0.8971132,5.2244177,-5.5992694,-2.2567983,0
0.3300000000000001,20.999999988790613,3.235817529428467,-3.0475800856846704,-0.13339940815189694,15.382227,3.3047311,-5.732066,-1.2292999,15.274215,-10.697126,1.6339868,0.48568892,0.09467088,0.502423,0.70902365,-13.076749,-2.8701186,0.90199167,4.915237,-5.200545,-2.1526027,0
0.34000000000000014,20.999999988790613,3.235817529428467,-3.0475800856846704,-0.13339940815189694,15.382227,3.3047311,-5.732066,-1.2292999,15.144113,-10.725184,1.6430125,0.5031865,0.11875744,0.5078275,0.6890652,-12.9418335,-2.7429602,0.90243924,4.654119,-4.8641233,-2.05352,0
0.35000000000000014,20.999999988790613,3.235817529428467,-3.0475800856846704,-0.13339940815189694,15.382227,3.3047311,-5.732066,-1.2292999,15.015413,-10.752014,1.6520202,0.5190835,0.14127178,0.51249385,0.6692864,-12.7963915,-2.6243062,0.8984301,4.433597,-4.5802665,-1.9592991,0
0.36000000000000015,20.999999750045422,1.2520909058260656,-0.6493809113705453,0.4607075185011263,14.394936,1.2108439,-3.3947148,-0.27864128,14.888217,-10.7777,1.6609658,0.5335688,0.16246411,0.51652193,0.6497034,-12.641626,-2.5143077,0.88996655,4.247364,-4.340759,-1.8697017,0
0.37000000000000016,20.999999750045422,1.2520909058260656,-0.6493809113705453,0.4607075185011263,14.394936,1.2108439,-3.3947148,-0.27864128,14.76261,-10.802331,1.6698045,0.54640335,0.1815429,0.5199942,0.6309446,-12.478666,-2.4129782,0.8771007,3.7812371,-3.7642388,-1.7553478,0
0.38000000000000017,20.999999750045422,1.2520909058260656,-0.6493809113705453,0.4607075185011263,14.394936,1.2108439,-3.3947148,-0.27864128,14.638668,-10.82599,1.6784935,0.5574623,0.19792296,0.5230461,0.6135835,-12.308873,-2.3197799,0.8600883,3.387608,-3.2777867,-1.6466054,0
0.3900000000000002,20.999999750045422,1.2520909058260656,-0.6493809113705453,0.4607075185011263,14.394936,1.2108439,-3.3947148,-0.27864128,14.516453,-10.848754,1.686993,0.567034,0.21207392,0.52579945,0.59752125,-12.133467,-2.2340062,0.83924216,3.0552099,-2.8673246,-1.5431988,0
0.4000000000000002,20.999918156382048,-0.8994497474844961,1.6464858562125826,1.2854630470713866,13.154671,-1.0142184,-1.3265636,0.3928601,14.396015,-10.870694,1.6952661,0.57535154,0.22438845,0.52833784,0.5826484,-11.953413,-2.154997,0.8148495,2.774525,-2.5209765,-1.4448665,0
0.4100000000000002,20.999918156382048,-0.8994497474844961,1.6464858562125826,1.2854630470713866,13.154671,-1.0142184,-1.3265636,0.3928601,14.277398,-10.891875,1.7032787,0.5822631,0.23422274,0.53073615,0.5695859,-11.769535,-2.0820563,0.7872073,2.202349,-1.8703294,-1.3108885,0
0.4200000000000002,20.999918156382048,-0.8994497474844961,1.6464858562125826,1.2854630470713866,13.154671,-1.0142184,-1.3265636,0.3928601,14.160635,-10.912352,1.7110008,0.5876807,0.24110602,0.5330865,0.55885386,-11.582771,-2.0139933,0.75681204,1.719206,-1.3213265,-1.1834848,0
0.4300000000000002,20.999918156382048,-0.8994497474844961,1.6464858562125826,1.2854630470713866,13.154671,-1.0142184,-1.3265636,0.3928601,14.04575,-10.932166,1.7184072,0.59184885,0.24556512,0.5354444,0.5501924,-11.393928,-1.9495598,0.72416914,1.3112547,-0.85807806,-1.0623329,0
0.4400000000000002,20.999918156382048,-0.8994497474844961,1.6464858562125826,1.2854630470713866,15.222349,-2.6325667,0.72122,0.83046526,13.932761,-10.95135,1.7254778,0.59495735,0.24803461,0.5378355,0.5433575,-11.203616,-1.8876665,0.6897046,0.96680367,-0.46718055,-0.9471259,0
0.45000000000000023,20.999918156382048,-0.8994497474844961,1.6464858562125826,1.2854630470713866,15.222349,-2.6325667,0.72122,0.83046526,13.821681,-10.969924,1.7321962,0.59715503,0.24887325,0.54026693,0.5381258,-11.012309,-1.8273704,0.65377265,0.6759769,-0.13732654,-0.8375721,0
0.46000000000000024,20.999918156382048,-0.8994497474844961,1.6464858562125826,1.2854630470713866,15.222349,-2.6325667,0.72122,0.83046526,13.712517,-10.987901,1.7385492,0.59856033,0.2483774,0.54273456,0.5342969,-10.820376,-1.7678614,0.6166652,0.4304333,0.14102203,-0.73339415,0
0.47000000000000025,20.999918156382048,-0.8994497474844961,1.6464858562125826,1.2854630470713866,15.222349,-2.6325667,0.72122,0.83046526,13.605274,-11.005282,1.7445264,0.5992684,0.24679218,0.5452281,0.5316926,-10.628119,-1.7084472,0.57862073,0.22312745,0.37591252,-0.6343282,0
0.48000000000000026,20.99999892541429,-3.3317703474239857,4.48024313266641,1.829007814969622,14.858196,-2.7148826,1.7829318,0.9154976,13.499954,-11.022068,1.7501192,0.5993569,0.24432059,0.5477343,0.5301563,-10.435785,-1.6485387,0.5398328,0.04810944,0.5741335,-0.54012346,0
0.49000000000000027,20.99999892541429,-3.3317703474239857,4.48024313266641,1.829007814969622,14.858196,-2.7148826,1.7829318,0.9154976,13.396557,-11.03825,1.7553211,0.59846634,0.23998252,0.5503848,0.53039867,-10.243632,-1.5875117,0.50049466,-0.478854,1.1834407,-0.4238695,0
0.5000000000000002,20.99999892541429,-3.3317703474239857,4.48024313266641,1.829007814969622,14.858196,-2.7148826,1.7829318,0.9154976,13.295078,-11.053811,1.7601285,0.5962863,0.23300774,0.5532643,0.53296185,-10.052191,-1.5241215,0.4609705,-0.92374307,1.6976333,-0.31332016,0
0.5100000000000002,20.99999892541429,-3.3317703474239857,4.48024313266641,1.829007814969622,14.858196,-2.7148826,1.7829318,0.9154976,13.195508,-11.068721,1.7645413,0.59293,0.22382788,0.5562841,0.53747815,-9.862052,-1.4570823,0.42161718,-1.2993296,2.131569,-0.20819552,0
0.5200000000000002,20.99999964026809,-5.1430634862520215,5.573123758299651,1.7949121130775472,14.150244,-3.2468297,3.833628,0.8432986,13.09783,-11.082938,1.7685624,0.58848184,0.21280095,0.55935663,0.5436219,-9.673781,-1.3853316,0.382709,-1.6163992,2.4977822,-0.10822938,0
0.5300000000000002,20.99999964026809,-5.1430634862520215,5.573123758299651,1.7949121130775472,14.150244,-3.2468297,3.833628,0.8432986,13.002023,-11.09641,1.7721977,0.58291054,0.19955741,0.562257,0.5515967,-9.48798,-1.3079481,0.34449008,-2.1665263,2.9772887,-0.014841683,0
0.5400000000000003,20.99999964026809,-5.1430634862520215,5.573123758299651,1.7949121130775472,14.150244,-3.2468297,3.833628,0.8432986,12.908058,-11.109075,1.7754561,0.57615614,0.18381096,0.56476593,0.5615128,-9.305475,-1.2238746,0.30736583,-2.630906,3.3819616,0.07396345,0
0.5500000000000003,20.99999964026809,-5.1430634862520215,5.573123758299651,1.7949121130775472,14.150244,-3.2468297,3.833628,0.8432986,12.815899,-11.12086,1.7783502,0.56823677,0.16594934,0.5668098,0.5729695,-9.127189,-1.1321824,0.27171206,-3.022896,3.7234879,0.15841089,0
0.5600000000000003,20.99999980625636,-5.916800311249085,5.30057979635045,1.5366185248049005,16.613995,-4.2025948,4.626247,1.3627084,12.725496,-11.131689,1.7808963,0.5591647,0.1463016,0.5683196,0.5856136,-8.954063,-1.0321852,0.23779474,-3.3537738,4.011729,0.23871447,0
0.5700000000000003,20.99999980625636,-5.916800311249085,5.30057979635045,1.5366185248049005,16.613995,-4.2025948,4.626247,1.3627084,12.636796,-11.141473,1.7831128,0.5490738,0.12502314,0.56899405,0.5992769,-8.7870655,-0.92341965,0.20581336,-3.753682,4.2125077,0.302403,0
0.5800000000000003,20.99999980625636,-5.916800311249085,5.30057979635045,1.5366185248049005,16.613995,-4.2025948,4.626247,1.3627084,12.549731,-11.1501255,1.7850204,0.53806484,0.10225863,0.5685816,0.61379504,-8.627235,-0.805633,0.17604399,-4.091225,4.381965,0.36296636,0
0.5900000000000003,20.99999980625636,-5.916800311249085,5.30057979635045,1.5366185248049005,16.613995,-4.2025948,4.626247,1.3627084,12.464224,-11.157555,1.7866422,0.5261066,0.078256436,0.5670939,0.6288817,-8.47563,-0.6787687,0.14871232,-4.376126,4.5249915,0.42055777,0
0.6000000000000003,20.99999987863998,-5.7510314888733856,4.21716059243709,1.2099085244448673,18.024033,-4.3257017,4.1694508,0.5645668,12.380186,-11.16367,1.7880034,0.5131793,0.05323285,0.56454325,0.6442856,-8.333285,-0.54295075,0.12394124,-4.616592,4.6457143,0.4753232,0
0.6100000000000003,20.99999987863998,-5.7510314888733856,4.21716059243709,1.2099085244448673,18.024033,-4.3257017,4.1694508,0.5645668,12.297522,-11.168384,1.7891301,0.4995451,0.027670417,0.5607724,0.6597144,-8.2011795,-0.39849836,0.10178015,-4.7935944,4.5787144,0.5113695,0
0.6200000000000003,20.99999987863998,-5.7510314888733856,4.21716059243709,1.2099085244448673,18.024033,-4.3257017,4.1694508,0.5645668,12.216124,-11.171613,1.7900484,0.48543903,0.00197226,0.5556865,0.67494994,-8.080105,-0.24603456,0.08229589,-4.9429884,4.52217,0.545647,0
0.6300000000000003,20.99999987863998,-5.7510314888733856,4.21716059243709,1.2099085244448673,18.024033,-4.3257017,4.1694508,0.5645668,12.135879,-11.173279,1.7907853,0.47081846,-0.023793556,0.5493829,0.68988556,-7.970744,-0.08631071,0.06551575,-5.0690804,4.474452,0.57824254,0
0.6400000000000003,20.99999987863998,-5.7510314888733856,4.21716059243709,1.2099085244448673,19.144222,-4.198926,3.3148112,0.23679058,12.056666,-11.173317,1.7913678,0.45565367,-0.049566552,0.54194754,0.7044257,-7.8737183,0.07987165,0.051401183,-5.175504,4.434183,0.60923856,0
0.6500000000000004,20.99999987863998,-5.7510314888733856,4.21716059243709,1.2099085244448673,19.144222,-4.198926,3.3148112,0.23679058,11.97836,-11.171663,1.7918221,0.4399258,-0.075292416,0.5334565,0.71848476,-7.7895823,0.2516659,0.039856415,-5.2653284,4.400202,0.63871366,0
0.6600000000000004,20.99999987863998,-5.7510314888733856,4.21716059243709,1.2099085244448673,19.144222,-4.198926,3.3148112,0.23679058,11.900829,-11.168267,1.7921733,0.4236251,-0.10092187,0.5239776,0.7319862,-7.718822,0.42818588,0.030736076,-5.341141,4.3715277,0.6667423,0
0.6700000000000004,20.99999987863998,-5.7510314888733856,4.21716059243709,1.2099085244448673,19.144222,-4.198926,3.3148112,0.23679058,11.823937,-11.163086,1.7924445,0.40674955,-0.12640975,0.51357174,0.7448619,-7.66185,0.6085115,0.02385202,-5.405128,4.3473325,0.6933956,0
0.6800000000000004,20.9999998505015,-4.796449016248031,2.7391068377520904,0.7961067408034498,19.342821,-3.7477314,2.701311,0.36587566,11.747544,-11.156086,1.7926573,0.3893034,-0.15171432,0.5022941,0.75705093,-7.6190033,0.7916949,0.018979425,-5.4591336,4.3269176,0.71874106,0
0.6900000000000004,20.9999998505015,-4.796449016248031,2.7391068377520904,0.7961067408034498,19.342821,-3.7477314,2.701311,0.36587566,11.671507,-11.147244,1.7928302,0.37169677,-0.17622826,0.49025878,0.76839525,-7.590479,0.9767515,0.015874624,-5.3556824,4.0793343,0.72253746,0
0.7000000000000004,20.9999998505015,-4.796449016248031,2.7391068377520904,0.7961067408034498,19.342821,-3.7477314,2.701311,0.36587566,11.595685,-11.136548,1.79298,0.35429135,-0.19947954,0.4776056,0.7788313,-7.5760384,1.1626269,0.014348404,-5.268381,3.8703554,0.72614753,0
0.7100000000000004,20.9999998505015,-4.796449016248031,2.7391068377520904,0.7961067408034498,19.342821,-3.7477314,2.701311,0.36587566,11.519938,-11.123993,1.7931218,0.33702773,-0.22161597,0.4644103,0.78842974,-7.5753,1.3483251,0.014233683,-5.1947083,3.6939611,0.7295804,0
0.7200000000000004,20.999999699092257,-3.3067282341107846,1.024390917776829,0.30447669255472426,20.335018,-2.9832392,1.5393887,0.39696115,11.444133,-11.109587,1.7932689,0.31985557,-0.24276282,0.45073354,0.7972438,-7.587886,1.5329381,0.015359978,-5.132537,3.5450706,0.7328449,1
0.7300000000000004,20.999999699092257,-3.3067282341107846,1.024390917776829,0.30447669255472426,20.335018,-2.9832392,1.5393887,0.39696115,11.36814,-11.09337,1.7934169,0.30317324,-0.26244044,0.43704984,0.80510753,-7.6125326,1.7098607,0.014369811,-4.7971716,3.232497,0.716363,1
0.7400000000000004,20.999999699092257,-3.3067282341107846,1.024390917776829,0.30447669255472426,20.335018,-2.9832392,1.5393887,0.39696115,11.291842,-11.075397,1.7935591,0.28732973,-0.28030446,0.42377716,0.8119629,-7.648772,1.8843234,0.014200897,-4.5141363,2.9686358,0.7006899,1
0.7500000000000004,20.999999699092257,-3.3067282341107846,1.024390917776829,0.30447669255472426,20.335018,-2.9832392,1.5393887,0.39696115,11.215128,-11.055694,1.793703,0.2722132,-0.29663274,0.41087493,0.8179796,-7.695683,2.05586,0.014674786,-4.275265,2.7458959,0.68578583,1
0.7600000000000005,20.9999988281588,-1.457967243868681,-0.7193618083344452,-0.20495128202984078,18.76505,-2.0125358,0.37488174,0.14233558,11.137895,-11.03429,1.7938542,0.25772324,-0.3116583,0.39829943,0.8232892,-7.75246,2.2240984,0.015647596,-4.0736666,2.5578697,0.6716131,0
0.7700000000000005,20.9999988281588,-1.457967243868681,-0.7193618083344452,-0.20495128202984078,18.76505,-2.0125358,0.37488174,0.14233558,11.060036,-11.011195,1.7940336,0.24438572,-0.3247104,0.38626444,0.8280328,-7.8204594,2.3941386,0.020285932,-3.6654685,2.047069,0.6285998,0
0.7800000000000005,20.9999988281588,-1.457967243868681,-0.7193618083344452,-0.20495128202984078,18.76505,-2.0125358,0.37488174,0.14233558,10.981456,-10.986419,1.7942619,0.2326278,-0.3352915,0.3749648,0.8323852,-7.8965716,2.560368,0.025477502,-3.3209896,1.6158756,0.58769727,0
0.7900000000000005,20.9999988281588,-1.457967243868681,-0.7193618083344452,-0.20495128202984078,18.76505,-2.0125358,0.37488174,0.14233558,10.90208,-10.959999,1.7945458,0.2222288,-0.3438096,0.36432254,0.8364677,-7.9795585,2.722798,0.03142281,-3.0302808,1.2518852,0.5488018,0
0.8000000000000005,20.20172855838567,0.3105982492605308,-2.149679385564866,-0.5467019809779281,18.14842,-0.6393216,-1.4283069,-0.63757455,10.821844,-10.931974,1.7948936,0.21299636,-0.3506034,0.35425928,0.840363,-8.068383,2.8814924,0.03831211,-2.7849467,0.94462544,0.51181483,0
0.8100000000000005,20.20172855838567,0.3105982492605308,-2.149679385564866,-0.5467019809779281,18.14842,-0.6393216,-1.4283069,-0.63757455,10.740713,-10.902411,1.7952957,0.2052517,-0.3553415,0.34516323,0.8440772,-8.158542,3.030686,0.042296387,-2.3020208,0.46231017,0.45987314,0
0.8200000000000005,20.20172855838567,0.3105982492605308,-2.149679385564866,-0.5467019809779281,18.14842,-0.6393216,-1.4283069,-0.63757455,10.658662,-10.871372,1.7957441,0.19924605,-0.35778618,0.33734536,0.84763676,-8.252243,3.1767673,0.047588438,-1.89446,0.055155583,0.4104802,0
0.8300000000000005,20.20172855838567,0.3105982492605308,-2.149679385564866,-0.5467019809779281,18.14842,-0.6393216,-1.4283069,-0.63757455,10.57566,-10.838886,1.7962528,0.19472814,-0.35831654,0.33062407,0.8511039,-8.348373,3.320154,0.054412358,-1.5504988,-0.28854728,0.363511,0
0.8400000000000005,20.20172855838567,0.3105982492605308,-2.149679385564866,-0.5467019809779281,17.74201,0.110338375,-1.9032233,-0.9706149,10.491689,-10.804978,1.7968383,0.19148196,-0.35724488,0.32483685,0.8545125,-8.4460125,3.4612272,0.06296718,-1.2602096,-0.57868385,0.31884658,0
0.8500000000000005,20.20172855838567,0.3105982492605308,-2.149679385564866,-0.5467019809779281,17.74201,0.110338375,-1.9032233,-0.9706149,10.406737,-10.769669,1.7975186,0.1893228,-0.35482943,0.31984016,0.85787827,-8.544389,3.600324,0.073424384,-1.0152143,-0.82360035,0.2763739,0
0.8600000000000005,20.20172855838567,0.3105982492605308,-2.149679385564866,-0.5467019809779281,17.74201,0.110338375,-1.9032233,-0.9706149,10.320802,-10.732977,1.7983137,0.18809317,-0.35128438,0.31550875,0.86120516,-8.642852,3.7377365,0.08592763,-0.808444,-1.0303427,0.23598532,0
0.8700000000000006,20.20172855838567,0.3105982492605308,-2.149679385564866,-0.5467019809779281,17.74201,0.110338375,-1.9032233,-0.9706149,10.233883,-10.69492,1.7992445,0.1876591,-0.34678793,0.3117341,0.86449057,-8.740856,3.873712,0.100594096,-0.6339333,-1.2048599,0.19757862,0
0.8800000000000006,19.377025635576533,1.7324936298755524,-2.95878995820781,-0.8910222946603759,16.08492,0.5311275,-2.2956212,-1.2771461,10.145988,-10.655508,1.8003333,0.1879068,-0.34148884,0.3084229,0.8677279,-8.837934,4.0084567,0.11751651,-0.48664713,-1.3521732,0.16105656,0
0.8900000000000006,19.377025635576533,1.7324936298755524,-2.95878995820781,-0.8910222946603759,16.08492,0.5311275,-2.2956212,-1.2771461,10.057149,-10.614782,1.801579,0.18906929,-0.335136,0.30591387,0.8708349,-8.929732,4.1367135,0.13197456,-0.1406005,-1.6026825,0.10943075,0
0.9000000000000006,19.377025635576533,1.7324936298755524,-2.95878995820781,-0.8910222946603759,16.08492,0.5311275,-2.2956212,-1.2771461,9.967401,-10.572777,1.8029807,0.19132487,-0.32753393,0.30446845,0.87373644,-9.019585,4.2643285,0.14870922,0.15146482,-1.8141502,0.06033823,0
0.9100000000000006,19.377025635576533,1.7324936298755524,-2.95878995820781,-0.8910222946603759,16.08492,0.5311275,-2.2956212,-1.2771461,9.876766,-10.529497,1.8045611,0.19451019,-0.3188707,0.3039069,0.8764291,-9.106855,4.391643,0.16774295,0.39797214,-1.9926581,0.013654695,0
0.9200000000000006,18.53022981203917,2.8090969373795054,-3.340727967241043,-1.1169697905436953,14.397049,1.1637186,-2.4673307,-1.225812,9.785274,-10.484944,1.8063433,0.19848627,-0.30930367,0.3040753,0.8789043,-9.191,4.5189257,0.18907598,0.6060296,-2.1433413,-0.030738065,0
0.9300000000000006,18.53022981203917,2.8090969373795054,-3.340727967241043,-1.1169697905436953,14.397049,1.1637186,-2.4673307,-1.225812,9.692976,-10.439145,1.8083239,0.20333745,-0.2987523,0.30518168,0.8810591,-9.267995,4.640834,0.20736198,0.94951254,-2.3301122,-0.08403977,0
0.9400000000000006,18.53022981203917,2.8090969373795054,-3.340727967241043,-1.1169697905436953,14.397049,1.1637186,-2.4673307,-1.225812,9.599929,-10.392125,1.8104978,0.20911995,-0.28715497,0.30737928,0.88279605,-9.340931,4.763223,0.22773655,1.2394233,-2.4877734,-0.13472594,0
0.9500000000000006,18.53022981203917,2.8090969373795054,-3.340727967241043,-1.1169697905436953,14.397049,1.1637186,-2.4673307,-1.225812,9.506174,-10.343878,1.8128854,0.21568632,-0.2746593,0.31047195,0.8841091,-9.409239,4.886353,0.2500846,1.4841193,-2.620859,-0.18292493,0
0.9600000000000006,17.809280214350277,3.378436672810796,-3.3105722967403026,-1.3108830952929962,13.686728,1.8519816,-2.6970217,-1.3424469,9.411762,-10.2943945,1.8155059,0.22291091,-0.26139042,0.31429252,0.8849893,-9.472421,5.0104,0.27427417,1.690654,-2.7331965,-0.2287588,0
0.9700000000000006,17.809280214350277,3.378436672810796,-3.3105722967403026,-1.3108830952929962,13.686728,1.8519816,-2.6970217,-1.3424469,9.316757,-10.2436905,1.8183527,0.23076212,-0.24742171,0.31889647,0.8853454,-9.527786,5.1306167,0.29532492,1.9537518,-2.8233445,-0.28185895,0
0.9800000000000006,17.809280214350277,3.378436672810796,-3.3105722967403026,-1.3108830952929962,13.686728,1.8519816,-2.6970217,-1.3424469,9.221228,-10.191778,1.8214172,0.23920617,-0.23281617,0.32431754,0.8850962,-9.577361,5.251953,0.31778044,2.1758213,-2.8994396,-0.33235344,0
0.9900000000000007,17.809280214350277,3.378436672810796,-3.3105722967403026,-1.3108830952929962,13.686728,1.8519816,-2.6970217,-1.3424469,9.125233,-10.138646,1.8247124,0.24814057,-0.21765962,0.33039427,0.8842456,-9.620748,5.3744893,0.34140208,2.363262,-2.9636698,-0.3803702,0
1.0000000000000007,17.809653142781446,3.5440396427889773,-2.8143850044978076,-1.5291671005194116,12.396363,2.2631078,-2.3764946,-1.3465538,9.028835,-10.084284,1.8282485,0.25747755,-0.20202659,0.33698934,0.882796,-9.657598,5.4982376,0.36594674,2.5214746,-3.017883,-0.42603073,0
1.0100000000000007,17.809653142781446,3.5440396427889773,-2.8143850044978076,-1.5291671005194116,12.396363,2.2631078,-2.3764946,-1.3465538,8.932103,-10.028677,1.8320338,0.2671116,-0.18614964,0.34409127,0.88068205,-9.687619,5.623166,0.3911593,2.6808465,-2.9862862,-0.48016194,0
1.0200000000000007,17.809653142781446,3.5440396427889773,-2.8143850044978076,-1.5291671005194116,12.396363,2.2631078,-2.3764946,-1.3465538,8.835107,-9.971816,1.836073,0.27695587,-0.17021994,0.35168797,0.8778589,-9.710615,5.7492375,0.41671783,2.81537,-2.959615,-0.5316369,0
1.0300000000000007,17.809653142781446,3.5440396427889773,-2.8143850044978076,-1.5291671005194116,12.396363,2.2631078,-2.3764946,-1.3465538,8.737916,-9.913689,1.8403683,0.28696546,-0.15424287,0.3596699,0.8743555,-9.726435,5.8763895,0.44229618,2.9289198,-2.9370992,-0.58058596,0
1.0400000000000007,17.809653142781446,3.5440396427889773,-2.8143850044978076,-1.5291671005194116,10.930347,2.1206093,-2.2565744,-1.1012179,8.640603,-9.854286,1.8449179,0.2971015,-0.13822487,0.36794367,0.8701966,-9.734953,6.004517,0.467585,3.024766,-2.9180899,-0.62713313,0
1.0500000000000007,17.809653142781446,3.5440396427889773,-2.8143850044978076,-1.5291671005194116,10.930347,2.1206093,-2.2565744,-1.1012179,8.5432415,-9.793596,1.8497177,0.30732986,-0.122173265,0.3764296,0.86540323,-9.736069,6.1334805,0.49229008,3.1056693,-2.9020395,-0.6713962,0
1.0600000000000007,17.809653142781446,3.5440396427889773,-2.8143850044978076,-1.5291671005194116,10.930347,2.1206093,-2.2565744,-1.1012179,8.445908,-9.731613,1.8547608,0.31762064,-0.10609603,0.38505965,0.8599941,-9.729708,6.26311,0.51613086,3.1739595,-2.8884866,-0.7134873,0
1.0700000000000007,17.809653142781446,3.5440396427889773,-2.8143850044978076,-1.5291671005194116,10.930347,2.1206093,-2.2565744,-1.1012179,8.348675,-9.668332,1.8600367,0.32794714,-0.0900016,0.3937757,0.8539855,-9.715813,6.3932095,0.5388395,3.2316036,-2.8770416,-0.753513,0
1.0800000000000007,17.19600719915073,3.0702024397856866,-2.0921669294251726,-1.5638801644270273,11.368401,1.7847568,-1.6108019,-1.225436,8.251619,-9.603748,1.8655329,0.33828542,-0.07389874,0.40252802,0.847392,-9.694351,6.523562,0.5601603,3.2802615,-2.8673754,-0.7915745,0
1.0900000000000007,17.19600719915073,3.0702024397856866,-2.0921669294251726,-1.5638801644270273,11.368401,1.7847568,-1.6108019,-1.225436,8.15481,-9.537884,1.8712139,0.34848905,-0.058107547,0.41121435,0.84028673,-9.666339,6.6494455,0.57579094,3.247497,-2.7465453,-0.8294717,0
1.1000000000000008,17.19600719915073,3.0702024397856866,-2.0921669294251726,-1.5638801644270273,11.368401,1.7847568,-1.6108019,-1.225436,8.058317,-9.470761,1.8770424,0.35844702,-0.042884562,0.41976362,0.83275163,-9.631214,6.7751513,0.5896306,3.219841,-2.644556,-0.86550933,0
1.1100000000000008,17.19600719915073,3.0702024397856866,-2.0921669294251726,-1.5638801644270273,11.368401,1.7847568,-1.6108019,-1.225436,7.9622097,-9.402383,1.8829997,0.36818665,-0.028152166,0.42817724,0.8248094,-9.589195,6.9004927,0.60148704,3.196496,-2.5584695,-0.89977854,0
1.1200000000000008,16.612517575260227,2.15936252994349,-1.2983031421075297,-1.4941411350482656,12.282655,0.32491952,-2.6646137,0.06734541,7.866556,-9.332753,1.8890648,0.3777298,-0.013845087,0.436455,0.8164776,-9.540481,7.0252814,0.61118805,3.1767902,-2.4858057,-0.93236613,0
1.1300000000000008,16.612517575260227,2.15936252994349,-1.2983031421075297,-1.4941411350482656,12.282655,0.32491952,-2.6646137,0.06734541,7.771414,-9.261901,1.8951976,0.38694614,-0.00030223466,0.4444231,0.80793613,-9.487164,7.1451283,0.61500996,3.018194,-2.300573,-0.9599326,0
1.1400000000000008,16.612517575260227,2.15936252994349,-1.2983031421075297,-1.4941411350482656,12.282655,0.32491952,-2.6646137,0.06734541,7.6768336,-9.189853,1.9013572,0.39574367,0.01221047,0.45196047,0.7993558,-9.427973,7.264134,0.61655295,2.8843205,-2.1442356,-0.9861464,0
1.1500000000000008,16.612517575260227,2.15936252994349,-1.2983031421075297,-1.4941411350482656,12.282655,0.32491952,-2.6646137,0.06734541,7.582873,-9.116621,1.9075205,0.40418816,0.023842728,0.4591342,0.7907335,-9.363308,7.382193,0.61579484,2.7713158,-2.0122857,-1.0110738,0
1.1600000000000008,15.824251795637915,0.8933615398124626,-0.5148908308902603,-1.2762811359849562,12.627392,-1.175358,-3.395004,1.1429131,7.489585,-9.042213,1.9136648,0.41233343,0.034721605,0.46599817,0.7820623,-9.293511,7.499212,0.61272144,2.675926,-1.9009191,-1.034778,0
1.1700000000000008,15.824251795637915,0.8933615398124626,-0.5148908308902603,-1.2762811359849562,12.627392,-1.175358,-3.395004,1.1429131,7.3970017,-8.966668,1.9197447,0.4200774,0.04451299,0.47233343,0.7735987,-9.222455,7.609614,0.6029451,2.3980687,-1.6846002,-1.0466286,0
1.1800000000000008,15.824251795637915,0.8933615398124626,-0.5148908308902603,-1.2762811359849562,12.627392,-1.175358,-3.395004,1.1429131,7.30515,-8.890024,1.9257165,0.42735067,0.05295979,0.47798502,0.76556987,-9.1473055,7.7189336,0.5911055,2.1635234,-1.5020409,-1.0578977,0
1.1900000000000008,15.824251795637915,0.8933615398124626,-0.5148908308902603,-1.2762811359849562,12.627392,-1.175358,-3.395004,1.1429131,7.2140684,-8.812294,1.9315603,0.43423522,0.06026581,0.4830753,0.7579224,-9.068534,7.8271847,0.57736325,1.9655392,-1.3479726,-1.0686138,0
1.2000000000000008,15.104717096170715,-0.4714949404130802,0.0728097560713318,-0.9279449817689172,12.244527,-1.9126467,-2.4939175,1.165258,7.1237907,-8.733485,1.9372576,0.4407975,0.06660379,0.4877031,0.75060475,-8.986534,7.93439,0.56186235,1.798416,-1.21795,-1.078804,0
1.2100000000000009,15.104717096170715,-0.4714949404130802,0.0728097560713318,-0.9279449817689172,12.244527,-1.9126467,-2.4939175,1.165258,7.0343285,-8.653634,1.9427735,0.44698328,0.07172324,0.4916434,0.74387413,-8.905524,8.035756,0.54107285,1.444571,-1.0164012,-1.0714012,0
1.2200000000000009,15.104717096170715,-0.4714949404130802,0.0728097560713318,-0.9279449817689172,12.244527,-1.9126467,-2.4939175,1.165258,6.945688,-8.572774,1.9480747,0.4527548,0.07543573,0.4947311,0.73794574,-8.822243,8.136236,0.51901746,1.1458842,-0.8463257,-1.0643618,0
1.2300000000000009,15.104717096170715,-0.4714949404130802,0.0728097560713318,-0.9279449817689172,12.244527,-1.9126467,-2.4939175,1.165258,6.857889,-8.490913,1.9531504,0.45818138,0.07795999,0.49711654,0.7327123,-8.737139,8.235929,0.49597508,0.89375734,-0.7028083,-1.0576677,0
1.2400000000000009,15.104717096170715,-0.4714949404130802,0.0728097560713318,-0.9279449817689172,11.427569,-2.649264,-1.2977364,0.97850037,6.77095,-8.408059,1.9579917,0.4633184,0.07948078,0.49892154,0.7280771,-8.650582,8.33493,0.4721848,0.680933,-0.58170176,-1.0513023,0
1.2500000000000009,15.104717096170715,-0.4714949404130802,0.0728097560713318,-0.9279449817689172,11.427569,-2.649264,-1.2977364,0.97850037,6.6848817,-8.324218,1.9625921,0.4682104,0.08015419,0.50024515,0.72395384,-8.562883,8.4333315,0.4478503,0.50128436,-0.47950608,-1.0452491,0
1.260000000000001,15.104717096170715,-0.4714949404130802,0.0728097560713318,-0.9279449817689172,11.427569,-2.649264,-1.2977364,0.97850037,6.5996957,-8.239394,1.9669473,0.4728936,0.08011204,0.5011682,0.7202667,-8.474301,8.531219,0.4231439,0.3496401,-0.39326814,-1.039493,0
1.270000000000001,15.104717096170715,-0.4714949404130802,0.0728097560713318,-0.9279449817689172,11.427569,-2.649264,-1.2977364,0.97850037,6.5153985,-8.153594,1.9710543,0.47739753,0.07946573,0.50175685,0.71694964,-8.385055,8.628671,0.39821082,0.22163486,-0.3204961,-1.0340192,0
1.280000000000001,14.90565856264572,-1.676200513100099,0.4471272305259774,-0.46470780867916356,11.861515,-3.5186136,-1.227344,1.5804255,6.4319963,-8.066822,1.9749113,0.48174655,0.07830936,0.5020656,0.7139454,-8.295326,8.725757,0.37317288,0.11358377,-0.25908712,-1.0288141,0
1.290000000000001,14.90565856264572,-1.676200513100099,0.4471272305259774,-0.46470780867916356,11.861515,-3.5186136,-1.227344,1.5804255,6.3494873,-7.979087,1.978513,0.48588228,0.076411314,0.50186366,0.71148616,-8.206479,8.821272,0.34719044,-0.16545558,-0.14876914,-1.0011333,0
1.300000000000001,14.90565856264572,-1.676200513100099,0.4471272305259774,-0.46470780867916356,11.861515,-3.5186136,-1.227344,1.5804255,6.267867,-7.890398,1.9818559,0.48975256,0.07359445,0.50097114,0.70975643,-8.117625,8.916595,0.3214515,-0.40099373,-0.05569265,-0.9748108,0
1.310000000000001,14.90565856264572,-1.676200513100099,0.4471272305259774,-0.46470780867916356,11.861515,-3.5186136,-1.227344,1.5804255,6.1871343,-7.8007555,1.9849436,0.49338326,0.070005484,0.4994956,0.7086439,-8.029063,9.011831,0.29618385,-0.5998121,0.022838343,-0.94977987,0
1.320000000000001,14.273114264861196,-2.7682224767735195,0.4446510739960799,0.060552057799932404,11.740684,-4.561389,-1.3699732,2.1353607,6.107284,-7.710161,1.9877818,0.49679554,0.06576819,0.49752572,0.7080514,-7.9410486,9.10707,0.2715739,-0.7676344,0.089098126,-0.92597723,0
1.330000000000001,14.273114264861196,-2.7682224767735195,0.4446510739960799,0.060552057799932404,11.740684,-4.561389,-1.3699732,2.1353607,6.0282917,-7.618634,1.990362,0.49998868,0.06080221,0.49482033,0.7081435,-7.857522,9.198343,0.2446408,-1.079596,0.14470096,-0.877568,0
1.340000000000001,14.273114264861196,-2.7682224767735195,0.4446510739960799,0.060552057799932404,11.740684,-4.561389,-1.3699732,2.1353607,5.95013,-7.526194,1.992678,0.50295097,0.05505168,0.49118787,0.70904446,-7.7750525,9.289751,0.21875809,-1.3429154,0.19158854,-0.8315342,0
1.350000000000001,14.273114264861196,-2.7682224767735195,0.4446510739960799,0.060552057799932404,11.740684,-4.561389,-1.3699732,2.1353607,5.8727865,-7.432839,1.9947416,0.5056831,0.048646003,0.4867615,0.71062034,-7.693941,9.381341,0.19417165,-1.5651762,0.23112941,-0.78775924,0
1.360000000000001,13.68578338429713,-3.584917658774171,0.38506506572426613,0.5539435521238752,12.38859,-5.3601832,-1.4796581,2.9001672,5.796246,-7.338567,1.9965667,0.5081855,0.04169435,0.4816522,0.71275526,-7.614456,9.4731455,0.17107625,-1.7527807,0.26447693,-0.7461323,0
1.370000000000001,13.68578338429713,-3.584917658774171,0.38506506572426613,0.5539435521238752,12.38859,-5.3601832,-1.4796581,2.9001672,5.720475,-7.2433944,1.9981532,0.51043826,0.034168683,0.47570416,0.7155352,-7.5400414,9.561397,0.14648406,-2.038504,0.28333724,-0.68233716,0
1.380000000000001,13.68578338429713,-3.584917658774171,0.38506506572426613,0.5539435521238752,12.38859,-5.3601832,-1.4796581,2.9001672,5.645438,-7.1473384,1.9995025,0.51241237,0.026054265,0.46879348,0.7190183,-7.467718,9.649872,0.123688206,-2.279671,0.29921916,-0.6216725,0
1.390000000000001,13.68578338429713,-3.584917658774171,0.38506506572426613,0.5539435521238752,12.38859,-5.3601832,-1.4796581,2.9001672,5.5711126,-7.0503964,2.0006337,0.514096,0.01745405,0.4610486,0.7230731,-7.397774,9.738551,0.102873914,-2.4832299,0.31259644,-0.56398463,0
1.400000000000001,12.986388655933878,-3.9540960129705134,0.0836642802827915,0.9960633444972734,12.596043,-5.5105844,-1.2858922,2.9596713,5.4974732,-6.9525666,2.0015674,0.5154799,0.008454951,0.4525777,0.72758657,-7.3304715,9.827402,0.08417716,-2.655045,0.32386637,-0.50912756,0
1.410000000000001,12.986388655933878,-3.9540960129705134,0.0836642802827915,0.9960633444972734,12.596043,-5.5105844,-1.2858922,2.9596713,5.424476,-6.853871,2.0023043,0.5165719,-0.00083332043,0.44330168,0.7325546,-7.2693396,9.911827,0.063529715,-2.8576574,0.28633708,-0.43526742,0
1.420000000000001,12.986388655933878,-3.9540960129705134,0.0836642802827915,0.9960633444972734,12.596043,-5.5105844,-1.2858922,2.9596713,5.352076,-6.75433,2.0028458,0.5173671,-0.01031661,0.43316078,0.7379677,-7.211164,9.996274,0.045101546,-3.0286672,0.25464076,-0.3650316,0
1.430000000000001,12.986388655933878,-3.9540960129705134,0.0836642802827915,0.9960633444972734,12.596043,-5.5105844,-1.2858922,2.9596713,5.2802424,-6.6539454,2.0032146,0.5178439,-0.019948408,0.42226624,0.7437277,-7.156154,10.080634,0.028981254,-3.1730037,0.22787364,-0.2982423,0
1.440000000000001,12.986388655933878,-3.9540960129705134,0.0836642802827915,0.9960633444972734,13.314022,-5.5225677,-1.8224685,3.1536286,5.208942,-6.552718,2.0034337,0.5179853,-0.029689753,0.4107131,0.74974954,-7.1045003,10.16479,0.015219195,-3.2948277,0.20527183,-0.23473036,0
1.450000000000001,12.986388655933878,-3.9540960129705134,0.0836642802827915,0.9960633444972734,13.314022,-5.5225677,-1.8224685,3.1536286,5.1381407,-6.4506507,2.003527,0.517779,-0.039508034,0.3985829,0.75596,-7.056375,10.248623,0.0038329524,-3.3976507,0.18618934,-0.17433496,0
1.460000000000001,12.986388655933878,-3.9540960129705134,0.0836642802827915,0.9960633444972734,13.314022,-5.5225677,-1.8224685,3.1536286,5.067802,-6.347747,2.003518,0.51721644,-0.049375955,0.38594583,0.7622958,-7.011935,10.332008,-0.0051879794,-3.4844363,0.17008011,-0.116903186,0
1.470000000000001,12.986388655933878,-3.9540960129705134,0.0836642802827915,0.9960633444972734,13.314022,-5.5225677,-1.8224685,3.1536286,4.997889,-6.244012,2.003431,0.516292,-0.059270706,0.37286258,0.76870215,-6.9713197,10.414818,-0.011878135,-3.5576863,0.1564826,-0.062289607,0
1.480000000000001,12.009254805167428,-3.8751028279654736,-0.3600952214482618,1.3004200873311613,13.079394,-5.4256454,-1.9916769,3.068258,4.9283624,-6.139452,2.0032887,0.5150026,-0.06917321,0.35938567,0.77513176,-6.9346533,10.496924,-0.016292606,-3.6195116,0.14500663,-0.010355926,0
1.490000000000001,12.009254805167428,-3.8751028279654736,-0.3600952214482618,1.3004200873311613,13.079394,-5.4256454,-1.9916769,3.068258,4.8591695,-6.0341063,2.0030773,0.51338387,-0.07889988,0.34549692,0.7815649,-6.904494,10.572074,-0.025715275,-3.6593745,0.0660833,0.053964213,0
1.500000000000001,12.009254805167428,-3.8751028279654736,-0.3600952214482618,1.3004200873311613,13.079394,-5.4256454,-1.9916769,3.068258,4.7902594,-5.9280133,2.0027814,0.5114591,-0.08830221,0.33118758,0.7879892,-6.878132,10.646276,-0.03315278,-3.6930146,-0.0005275002,0.11512816,0
1.5100000000000011,12.009254805167428,-3.8751028279654736,-0.3600952214482618,1.3004200873311613,13.079394,-5.4256454,-1.9916769,3.068258,4.7215934,-5.821184,2.002421,0.50921285,-0.09741336,0.31651294,0.7943755,-6.8556004,10.719358,-0.038668014,-3.7214048,-0.056745064,0.17329077,0
1.5200000000000011,11.038293655890824,-3.6435230612329708,-1.0483358896234982,1.5671567393670487,14.21731,-5.22885,-2.9506745,3.3056467,4.653134,-5.7136307,2.0020144,0.5066339,-0.10626206,0.3015207,0.800697,-6.8369255,10.791155,-0.042337317,-3.745365,-0.10419003,0.22859934,0
1.5300000000000011,11.038293655890824,-3.6435230612329708,-1.0483358896234982,1.5671567393670487,14.21731,-5.22885,-2.9506745,3.3056467,4.5848355,-5.605395,2.0015414,0.50378066,-0.11459542,0.2861911,0.8069496,-6.823313,10.855811,-0.05202082,-3.7294502,-0.2515864,0.29428273,0
1.5400000000000011,11.038293655890824,-3.6435230612329708,-1.0483358896234982,1.5671567393670487,14.21731,-5.22885,-2.9506745,3.3056467,4.5166554,-5.49652,2.0009794,0.5006945,-0.12221296,0.27051502,0.81313634,-6.813198,10.918933,-0.060141083,-3.716011,-0.37598777,0.35674304,0
1.5500000000000012,11.038293655890824,-3.6435230612329708,-1.0483358896234982,1.5671567393670487,14.21731,-5.22885,-2.9506745,3.3056467,4.4485593,-5.3870225,2.0003438,0.49734706,-0.12920894,0.2545447,0.81924236,-6.806509,10.980325,-0.06675672,-3.7046635,-0.4809809,0.41613838,0
1.5600000000000012,11.118968305969961,-3.422561272812229,-1.3562644722407304,1.7679614081198842,14.8961315,-5.033378,-3.5765224,3.2550247,4.380513,-5.27692,1.9996494,0.4937165,-0.13566402,0.23832436,0.825252,-6.803179,11.039804,-0.07193702,-3.6950839,-0.56959295,0.47261918,0
1.5700000000000012,11.118968305969961,-3.422561272812229,-1.3562644722407304,1.7679614081198842,14.8961315,-5.033378,-3.5765224,3.2550247,4.3124847,-5.166231,1.9989134,0.48980743,-0.14149602,0.22190793,0.8311586,-6.8031387,11.097624,-0.075070046,-3.652518,-0.69241226,0.536182,0
1.5800000000000012,11.118968305969961,-3.422561272812229,-1.3562644722407304,1.7679614081198842,14.8961315,-5.033378,-3.5765224,3.2550247,4.24444,-5.0549755,1.9981526,0.48562124,-0.14664394,0.205343,0.83695996,-6.806306,11.153175,-0.07691054,-3.616589,-0.7960696,0.59662575,0
1.5900000000000012,11.118968305969961,-3.422561272812229,-1.3562644722407304,1.7679614081198842,14.8961315,-5.033378,-3.5765224,3.2550247,4.176348,-4.9431763,1.9973793,0.48113984,-0.15120049,0.18865572,0.84264576,-6.812568,11.206294,-0.07753792,-3.5862637,-0.88355434,0.6541035,0
1.6000000000000012,11.480933884476174,-3.213581127793138,-1.5440331368521147,1.9120047812274679,15.937159,-5.0311613,-3.843978,3.190809,4.1081786,-4.8308587,1.9966055,0.4763502,-0.1552448,0.17186831,0.8482045,-6.8218217,11.256834,-0.07703829,-3.5606692,-0.9573893,0.70876086,0
1.6100000000000012,11.480933884476174,-3.213581127793138,-1.5440331368521147,1.9120047812274679,15.937159,-5.0311613,-3.843978,3.190809,4.0399003,-4.7180414,1.9958583,0.4712542,-0.15873802,0.15503804,0.8536305,-6.8343577,11.306215,-0.07225921,-3.5064585,-1.0489862,0.76780444,0
1.6200000000000012,11.480933884476174,-3.213581127793138,-1.5440331368521147,1.9120047812274679,15.937159,-5.0311613,-3.843978,3.190809,3.9714823,-4.604745,1.9951638,0.4658527,-0.16165394,0.13821344,0.85892165,-6.849741,11.352659,-0.066503234,-3.4607046,-1.1262923,0.8239507,0
1.6300000000000012,11.480933884476174,-3.213581127793138,-1.5440331368521147,1.9120047812274679,15.937159,-5.0311613,-3.843978,3.190809,3.9028966,-4.4909987,1.9945313,0.4601372,-0.16407228,0.121399984,0.8640696,-6.8678346,11.396045,-0.059864968,-3.4220896,-1.1915373,0.87734187,0
1.6400000000000012,11.480933884476174,-3.213581127793138,-1.5440331368521147,1.9120047812274679,16.372202,-5.136986,-4.1163855,2.9988697,3.834117,-4.376835,1.9939691,0.45410246,-0.16606095,0.10460235,0.86906457,-6.8885098,11.436261,-0.05244272,-3.3895001,-1.2466025,0.92811304,0
1.6500000000000012,11.480933884476174,-3.213581127793138,-1.5440331368521147,1.9120047812274679,16.372202,-5.136986,-4.1163855,2.9988697,3.7651184,-4.262285,1.9934846,0.44774628,-0.1676778,0.08782466,0.8738961,-6.9116454,11.473209,-0.044338096,-3.3619974,-1.2930759,0.9763929,0
1.6600000000000013,11.480933884476174,-3.213581127793138,-1.5440331368521147,1.9120047812274679,16.372202,-5.136986,-4.1163855,2.9988697,3.6958766,-4.147382,1.9930842,0.44106853,-0.16897215,0.07107063,0.8785534,-6.937124,11.506798,-0.035655696,-3.338787,-1.3322977,1.0223037,0
1.6700000000000013,11.480933884476174,-3.213581127793138,-1.5440331368521147,1.9120047812274679,16.372202,-5.136986,-4.1163855,2.9988697,3.6263688,-4.0321603,1.992773,0.434071,-0.16998596,0.05434377,0.8830255,-6.964832,11.536946,-0.026502583,-3.3192003,-1.3653991,1.0659616,0
1.6800000000000013,12.025735498438232,-2.995307119263074,-1.4604401478768556,2.0316655797037093,17.266645,-5.0526924,-4.4155035,2.8007107,3.556573,-3.916655,1.9925554,0.426757,-0.17075509,0.037647482,0.8873015,-6.994659,11.563579,-0.0169879,-3.302672,-1.3933349,1.1074772,0
1.6900000000000013,12.025735498438232,-2.995307119263074,-1.4604401478768556,2.0316655797037093,17.266645,-5.0526924,-4.4155035,2.8007107,3.4864612,-3.800896,1.9924598,0.4191323,-0.17130241,0.021079477,0.8913694,-7.0280046,11.587727,-0.002104164,-3.2546897,-1.4038616,1.1528274,0
1.7000000000000013,12.025735498438232,-2.995307119263074,-1.4604401478768556,2.0316655797037093,17.266645,-5.0526924,-4.4155035,2.8007107,3.416006,-3.6849136,1.9925139,0.4112037,-0.17164984,0.0047184057,0.89522386,-7.0633245,11.608093,0.012924799,-3.214193,-1.4127451,1.1959522,0
1.7100000000000013,12.025735498438232,-2.995307119263074,-1.4604401478768556,2.0316655797037093,17.266645,-5.0526924,-4.4155035,2.8007107,3.3451886,-3.5687468,1.9927186,0.40297762,-0.17182401,-0.011458289,0.8988629,-7.100488,11.624657,0.027983861,-3.1800141,-1.4202416,1.236961,0
1.7200000000000013,12.415732605550486,-2.637661594763269,-1.4149763434250437,2.021962417666279,18.284302,-4.9490466,-4.70726,3.0266256,3.2739906,-3.4524336,1.9930733,0.39446077,-0.17184737,-0.027469331,0.90228313,-7.1393704,11.637396,0.04296046,-3.1511679,-1.4265674,1.2759575,0
1.7300000000000013,12.415732605550486,-2.637661594763269,-1.4149763434250437,2.021962417666279,18.284302,-4.9490466,-4.70726,3.0266256,3.2023892,-3.3360105,1.9935955,0.38568717,-0.17169963,-0.04319397,0.9054828,-7.181157,11.646591,0.06140624,-3.0710545,-1.4247667,1.3125641,0
1.7400000000000013,12.415732605550486,-2.637661594763269,-1.4149763434250437,2.021962417666279,18.284302,-4.9490466,-4.70726,3.0266256,3.1303625,-3.219515,1.9943005,0.37668836,-0.17136826,-0.05853692,0.9084671,-7.224433,11.651855,0.07955229,-3.0034363,-1.4232502,1.3473746,0
1.7500000000000013,12.415732605550486,-2.637661594763269,-1.4149763434250437,2.021962417666279,18.284302,-4.9490466,-4.70726,3.0266256,3.057896,-3.1029868,1.9951851,0.36746788,-0.17088075,-0.07354683,0.91124,-7.2690444,11.653225,0.09730438,-2.9463642,-1.4219735,1.3804767,0
1.7600000000000013,12.825983375897492,-2.271316497082061,-1.2051984955823223,1.954619226442615,19.95681,-4.9541717,-5.030995,3.203399,2.9849775,-2.9864638,1.9962449,0.35802972,-0.17026003,-0.08826463,0.913803,-7.314846,11.650732,0.11457237,-2.898194,-1.4208984,1.4119548,0
1.7700000000000014,12.825983375897492,-2.271316497082061,-1.2051984955823223,1.954619226442615,19.95681,-4.9541717,-5.030995,3.203399,2.9115877,-2.8699858,1.9974935,0.3484193,-0.16954955,-0.10256243,0.91615397,-7.3632474,11.644209,0.13506407,-2.8004398,-1.3872191,1.4385835,0
1.7800000000000014,12.825983375897492,-2.271316497082061,-1.2051984955823223,1.954619226442615,19.95681,-4.9541717,-5.030995,3.203399,2.8377092,-2.7535925,1.9989438,0.3386788,-0.16878726,-0.116341956,0.9182986,-7.4125915,11.63383,0.15489121,-2.7179272,-1.3588009,1.4639055,0
1.7900000000000014,12.825983375897492,-2.271316497082061,-1.2051984955823223,1.954619226442615,19.95681,-4.9541717,-5.030995,3.203399,2.7633333,-2.637322,2.000589,0.3288078,-0.16798265,-0.12967475,0.92024565,-7.4627404,11.619694,0.17398626,-2.6482801,-1.3348219,1.4879849,0
1.8000000000000014,13.346733816514204,-1.932878150474251,-1.110702711943075,1.8290913227901329,19.606236,-4.8309197,-4.0215964,1.978352,2.688452,-2.5212111,2.002421,0.31880623,-0.16714305,-0.14262106,0.92200077,-7.513567,11.601889,0.19228655,-2.589493,-1.3145891,1.5108829,0
1.8100000000000014,13.346733816514204,-1.932878150474251,-1.110702711943075,1.8290913227901329,19.606236,-4.8309197,-4.0215964,1.978352,2.6130495,-2.4053009,2.004455,0.3087176,-0.16626431,-0.15509741,0.9235772,-7.567038,11.579629,0.21442708,-2.4871125,-1.2827181,1.5264975,0
1.8200000000000014,13.346733816514204,-1.932878150474251,-1.110702711943075,1.8290913227901329,19.606236,-4.8309197,-4.0215964,1.978352,2.5371096,-2.289631,2.0067065,0.29858112,-0.16534492,-0.16704148,0.92499083,-7.620957,11.55376,0.23564193,-2.4006946,-1.2558297,1.5413458,0
1.8300000000000014,13.346733816514204,-1.932878150474251,-1.110702711943075,1.8290913227901329,19.606236,-4.8309197,-4.0215964,1.978352,2.460629,-2.1742377,2.009165,0.28839138,-0.164393,-0.17852837,0.926247,-7.6751986,11.524404,0.25589964,-2.3277502,-1.2331456,1.5554656,0
1.8400000000000014,13.346733816514204,-1.932878150474251,-1.110702711943075,1.8290913227901329,19.211319,-4.5770087,-3.6165447,1.6668507,2.3836048,-2.059155,2.0118213,0.27814412,-0.16341464,-0.18962128,0.92734885,-7.729649,11.491665,0.2751707,-2.2661788,-1.2140085,1.5688925,0
1.8500000000000014,13.346733816514204,-1.932878150474251,-1.110702711943075,1.8290913227901329,19.211319,-4.5770087,-3.6165447,1.6668507,2.3060353,-1.9444159,2.014665,0.26783594,-0.16241436,-0.20037335,0.92829776,-7.7842026,11.45564,0.29342675,-2.214207,-1.1978635,1.5816605,0
1.8600000000000014,13.346733816514204,-1.932878150474251,-1.110702711943075,1.8290913227901329,19.211319,-4.5770087,-3.6165447,1.6668507,2.2279203,-1.8300533,2.0176861,0.25746444,-0.16139546,-0.2108292,0.9290938,-7.8387604,11.41641,0.31064028,-2.1703384,-1.1842427,1.593802,0
1.8700000000000014,13.346733816514204,-1.932878150474251,-1.110702711943075,1.8290913227901329,19.211319,-4.5770087,-3.6165447,1.6668507,2.1492603,-1.7160988,2.020874,0.247028,-0.16036029,-0.22102627,0.9297364,-7.8932295,11.374053,0.326784,-2.13331,-1.1727517,1.6053476,0
1.8800000000000014,13.677721178350193,-1.6012316029966498,-0.971345466889903,1.6023803104864887,18.49236,-4.2571654,-3.0764873,1.3829511,2.0700562,-1.6025829,2.0242178,0.23652564,-0.15931047,-0.23099588,0.9302243,-7.9475226,11.328635,0.34183112,-2.1020546,-1.1630576,1.6163267,0
1.8900000000000015,13.677721178350193,-1.6012316029966498,-0.971345466889903,1.6023803104864887,18.49236,-4.2571654,-3.0764873,1.3829511,1.9903038,-1.4895422,2.0277205,0.22601765,-0.1582618,-0.24063258,0.9305728,-8.002894,11.279028,0.35853648,-2.0239832,-1.1330774,1.6156424,0
1.9000000000000015,13.677721178350193,-1.6012316029966498,-0.971345466889903,1.6023803104864887,18.49236,-4.2571654,-3.0764873,1.3829511,1.9099995,-1.3770125,2.0313845,0.21555755,-0.15722771,-0.24985632,0.93079907,-8.057917,11.226469,0.3740912,-1.9580826,-1.1077852,1.6149917,0
1.9100000000000015,13.677721178350193,-1.6012316029966498,-0.971345466889903,1.6023803104864887,18.49236,-4.2571654,-3.0764873,1.3829511,1.8291471,-1.2650226,2.0351982,0.20513572,-0.15620546,-0.2587254,0.9309034,-8.112514,11.171074,0.3884985,-1.9024547,-1.0864482,1.6143728,0
1.9200000000000015,13.747223340581979,-1.059187423234692,-0.7562102152155742,1.278512382375139,17.876556,-3.8784528,-2.7206209,1.0775357,1.7477511,-1.1536005,2.0391505,0.194744,-0.15519227,-0.26728866,0.9308854,-8.166614,11.112944,0.40175986,-1.8554986,-1.068448,1.6137844,0
1.9300000000000015,13.747223340581979,-1.059187423234692,-0.7562102152155742,1.278512382375139,17.876556,-3.8784528,-2.7206209,1.0775357,1.6658155,-1.0427743,2.0432324,0.18447012,-0.15421371,-0.27537546,0.9307835,-8.220424,11.051871,0.41444156,-1.7313766,-1.0196056,1.5973326,0
1.9400000000000015,13.747223340581979,-1.059187423234692,-0.7562102152155742,1.278512382375139,17.876556,-3.8784528,-2.7206209,1.0775357,1.5833447,-0.9325716,2.0474355,0.17439029,-0.15329118,-0.2828563,0.93063575,-8.273618,10.9883175,0.42602035,-1.6266019,-0.9784036,1.5816879,0
1.9500000000000015,13.747223340581979,-1.059187423234692,-0.7562102152155742,1.278512382375139,17.876556,-3.8784528,-2.7206209,1.0775357,1.5003453,-0.823016,2.051749,0.16448222,-0.1524158,-0.28982395,0.9304396,-8.326147,10.922447,0.43654698,-1.5381589,-0.94364655,1.5668111,0
1.9600000000000015,13.834983919514045,-0.662899583319281,-0.6015835954581558,0.9215219063055791,17.136835,-3.499178,-2.5064216,0.7181843,1.4168241,-0.71413004,2.0561626,0.15472645,-0.15157929,-0.2963564,0.93019193,-8.377976,10.854403,0.44606578,-1.4635018,-0.9143262,1.5526643,0
1.9700000000000015,13.834983919514045,-0.662899583319281,-0.6015835954581558,0.9215219063055791,17.136835,-3.499178,-2.5064216,0.7181843,1.3327867,-0.6059371,2.0606704,0.14518969,-0.15079479,-0.30236924,0.9299218,-8.429397,10.783867,0.45530125,-1.3387152,-0.86540073,1.521694,0
1.9800000000000015,13.834983919514045,-0.662899583319281,-0.6015835954581558,0.9215219063055791,17.136835,-3.499178,-2.5064216,0.7181843,1.2482388,-0.4984592,2.065266,0.13593026,-0.15007201,-0.30780154,0.9296561,-8.480059,10.71144,0.4636346,-1.2333785,-0.8241305,1.4922433,0
1.9900000000000015,13.834983919514045,-0.662899583319281,-0.6015835954581558,0.9215219063055791,17.136835,-3.499178,-2.5064216,0.7181843,1.1631882,-0.39171427,2.0699406,0.12692033,-0.14939885,-0.31274498,0.92938834,-8.529949,10.63728,0.47113565,-1.1444608,-0.78931695,1.4642378,0
2.0000000000000013,,,,,15.74089,-2.89674,-2.2918544,0.13760693,1.0776426,-0.28571907,2.074686,0.11813553,-0.1487645,-0.3172764,0.9291123,-8.579058,10.561521,0.47786507,-1.0694027,-0.75994986,1.4376066,0
2.010000000000001,,,,,15.74089,-2.89674,-2.2918544,0.13760693,0.9916216,-0.1804701,2.07947,0.10961832,-0.14811258,-0.3213204,0.92887056,-8.6250105,10.488062,0.4787879,-0.94360393,-0.74071443,1.3932339,0
2.020000000000001,,,,,15.74089,-2.89674,-2.2918544,0.13760693,0.905145,-0.07596217,2.0842597,0.10140692,-0.14739715,-0.32482204,0.9286992,-8.670193,10.413337,0.47911638,-0.83741874,-0.72450453,1.3510388,0
2.0300000000000007,,,,,15.74089,-2.89674,-2.2918544,0.13760693,0.81822044,0.02779274,2.0890503,0.09347504,-0.14662318,-0.32786798,0.9285835,-8.714587,10.337478,0.4789347,-0.74778914,-0.7108438,1.310914,0
2.0400000000000005,,,,,15.74089,-2.89674,-2.2918544,0.13760693,0.73085594,0.13078387,2.0938368,0.08579936,-0.14579453,-0.33053106,0.9285108,-8.75818,10.260597,0.47831511,-0.6721336,-0.6993306,1.2727582,0
2.0500000000000003,,,,,14.47582,-2.24083,-2.190937,-0.35571292,0.6430596,0.2330015,2.0986152,0.078359164,-0.14491422,-0.33287242,0.9284699,-8.800962,10.182791,0.47731966,-0.60827374,-0.6896267,1.2364749,1
2.06,,,,,14.47582,-2.24083,-2.190937,-0.35571292,0.5548186,0.33439738,2.1034303,0.07091583,-0.14343011,-0.33574027,0.9282661,-8.847093,10.096216,0.4856694,-0.8627279,-0.9239168,1.1583458,1
2.07,,,,,14.47582,-2.24083,-2.190937,-0.35571292,0.46612188,0.43492168,2.1083267,0.06329132,-0.1408905,-0.33980116,0.9277284,-8.89204,10.008428,0.49352878,-1.077547,-1.1216183,1.0840505,1
2.0799999999999996,,,,,14.47582,-2.24083,-2.190937,-0.35571292,0.37698287,0.5345608,2.1132987,0.05554906,-0.13743429,-0.34485704,0.9268768,-8.935513,9.919141,0.50075,-1.2589015,-1.2884483,1.0134009,1
2.0899999999999994,,,,,13.854823,-2.5565841,-2.3479342,-0.7786009,0.28741762,0.63329864,2.118339,0.04774097,-0.13317995,-0.35073948,0.92572486,-8.97725,9.8281355,0.50719905,-1.412002,-1.4292307,0.9462181,1
2.099999999999999,,,,,13.854823,-2.5565841,-2.3479342,-0.7786009,0.19745326,0.7311369,2.1234174,0.039918944,-0.12815765,-0.35743174,0.92424315,-9.015311,9.739223,0.5083003,-1.590497,-1.5725248,0.8615807,1
2.109999999999999,,,,,13.854823,-2.5565841,-2.3479342,-0.7786009,0.10711866,0.8280763,2.128502,0.032131884,-0.122393295,-0.3649109,0.92240345,-9.051261,9.648337,0.50839615,-1.7411785,-1.693443,0.7810965,1
2.1199999999999988,,,,,13.854823,-2.5565841,-2.3479342,-0.7786009,0.016436005,0.9240964,2.1335814,0.024413865,-0.115975276,-0.3730361,0.92021656,-9.084893,9.555356,0.50734204,-1.8683779,-1.7954824,0.7045617,1
2.1299999999999986,,,,,13.445825,-1.9174279,-2.262111,-0.9279669,-0.0745706,1.0191759,2.138644,0.016791973,-0.108979695,-0.38168743,0.9176911,-9.116024,9.460193,0.5049991,-1.9757528,-1.8815928,0.6317825,1
2.1399999999999983,,,,,13.445825,-1.9174279,-2.262111,-0.9279669,-0.16587105,1.113307,2.1436622,0.009344975,-0.10149331,-0.3905304,0.91493094,-9.143651,9.365686,0.49845916,-1.9667292,-1.9408324,0.55524516,1
2.149999999999998,,,,,13.445825,-1.9174279,-2.262111,-0.9279669,-0.25743434,1.2064824,2.148608,0.0021354668,-0.09359131,-0.39929837,0.91202945,-9.168572,9.26908,0.49049383,-1.9591168,-1.9908397,0.48246354,1
2.159999999999998,,,,,13.445825,-1.9174279,-2.262111,-0.9279669,-0.34923285,1.2986817,2.153467,-0.004839292,-0.08531894,-0.407988,0.90897954,-9.190689,9.17046,0.48106593,-1.9526939,-2.0330544,0.4132533,1
2.1699999999999977,,,,,12.575063,-0.77574396,-1.7686124,-0.8869925,-0.4412382,1.3898851,2.158224,-0.011582943,-0.0767152,-0.41659594,0.9057755,-9.209917,9.069911,0.47013286,-1.9472734,-2.0686905,0.34743926,1
2.1799999999999975,,,,,12.575063,-0.77574396,-1.7686124,-0.8869925,-0.5334156,1.4801068,2.1628366,-0.0179879,-0.06800133,-0.4247095,0.90259343,-9.225144,8.97417,0.45212114,-1.7646644,-2.0217822,0.28686535,1
2.1899999999999973,,,,,12.575063,-0.77574396,-1.7686124,-0.8869925,-0.6257317,1.5693632,2.1672618,-0.023974093,-0.05935926,-0.43201128,0.8995937,-9.237647,8.876919,0.43274984,-1.6105248,-1.9822108,0.2292638,1
2.199999999999997,,,,,12.575063,-0.77574396,-1.7686124,-0.8869925,-0.71815944,1.6576405,2.171487,-0.029582832,-0.050766665,-0.43862504,0.8967477,-9.247479,8.778356,0.41211572,-1.4804156,-1.9488276,0.17448878,1
2.209999999999997,,,,,11.377974,0.41953516,-0.7634541,-0.9778064,-0.8106723,1.7449263,2.1755002,-0.034849763,-0.04220455,-0.44465402,0.89402896,-9.25469,8.678649,0.3902992,-1.3705908,-1.920664,0.122401595,1
2.2199999999999966,,,,,11.377974,0.41953516,-0.7634541,-0.9778064,-0.90324193,1.8312578,2.1792536,-0.039597385,-0.034028858,-0.44977438,0.89161533,-9.2589035,8.587546,0.36022785,-1.0914977,-1.7401364,0.06841408,1
