time-since-start [s],throttle_mpc,roll_mpc,pitch_mpc,yaw_mpc,throttle_nw,roll_nw,pitch_nw,yaw_nw,position_x [m],position_y [m],position_z [m],rotation_w [quaternion],rotation_x [quaternion],rotation_y [quaternion],rotation_z [quaternion],velocity_x [m/s],velocity_y [m/s],velocity_z [m/s],omega_x [rad/s],omega_y [rad/s],omega_z [rad/s],network_used
0.0,14.88272950644018,-4.729685732519949,-5.935896067372443,-0.7880885615420176,8.2211275,0.010618508,-3.4940166,-0.70148206,17.86273,-7.509873,1.0525839,0.12556149,0.44247037,0.11996304,-0.8798086,-3.7773557,3.441276,0.35311422,-2.4448617,-0.14337872,0.27049136,0
0.01,14.88272950644018,-4.729685732519949,-5.935896067372443,-0.7880885615420176,8.45949,0.45888376,-6.3518014,-1.1687115,17.824408,-7.475706,1.0560627,0.13602489,0.41260123,0.1386942,-0.8899558,-3.8859031,3.3912463,0.3436374,-4.729686,-5.935896,-0.78808856,0
0.02,14.88272950644018,-4.729685732519949,-5.935896067372443,-0.7880885615420176,8.45949,0.45888376,-6.3518014,-1.1687115,17.78504,-7.4420667,1.059477,0.1462903,0.38213158,0.1572235,-0.89880776,-3.9865189,3.3358097,0.3401042,-4.729686,-5.935896,-0.78808856,0
0.03,14.88272950644018,-4.729685732519949,-5.935896067372443,-0.7880885615420176,8.45949,0.45888376,-6.3518014,-1.1687115,17.744707,-7.4090075,1.0628831,0.1563428,0.35110572,0.17552397,-0.9063515,-4.0786333,3.2752142,0.34191778,-4.729686,-5.935896,-0.78808856,0
0.04,14.88272950644018,-4.729685732519949,-5.935896067372443,-0.7880885615420176,9.988137,1.436451,-3.140607,-1.1784786,17.703499,-7.376579,1.0663315,0.16616775,0.31956884,0.19356894,-0.9125761,-4.161727,3.209738,0.3484502,-4.729686,-5.935896,-0.78808856,0
0.05,14.88272950644018,-4.729685732519949,-5.935896067372443,-0.7880885615420176,9.988137,1.436451,-3.140607,-1.1784786,17.661505,-7.3448286,1.0698661,0.17575084,0.28756684,0.2113322,-0.9174724,-4.2353315,3.139687,0.35904616,-4.729686,-5.935896,-0.78808856,0
0.060000000000000005,14.88272950644018,-4.729685732519949,-5.935896067372443,-0.7880885615420176,9.988137,1.436451,-3.140607,-1.1784786,17.618826,-7.3138003,1.073524,0.18507811,0.25514632,0.22878787,-0.9210334,-4.2990355,3.0653946,0.37302658,-4.729686,-5.935896,-0.78808856,0
0.07,14.88272950644018,-4.729685732519949,-5.935896067372443,-0.7880885615420176,9.988137,1.436451,-3.140607,-1.1784786,17.57556,-7.2835345,1.0773358,0.19413602,0.22235443,0.24591054,-0.92325383,-4.352484,2.987218,0.38969275,-4.729686,-5.935896,-0.78808856,0
0.08,15.75403605185302,-2.581412264777417,-2.05278527919315,-0.1730556879924855,9.725189,1.407732,-0.17318997,-0.09549126,17.531809,-7.254068,1.0813247,0.20291139,0.1892389,0.26267532,-0.9241305,-4.395383,2.9055374,0.40833032,-4.729686,-5.935896,-0.78808856,0
0.09,15.75403605185302,-2.581412264777417,-2.05278527919315,-0.1730556879924855,9.725189,1.407732,-0.17318997,-0.09549126,17.487669,-7.2254577,1.0855399,0.2072225,0.17688216,0.27264795,-0.9227322,-4.4319367,2.8161092,0.43466195,-2.5814123,-2.0527854,-0.1730557,0
0.09999999999999999,15.75403605185302,-2.581412264777417,-2.05278527919315,-0.1730556879924855,9.725189,1.407732,-0.17318997,-0.09549126,17.443186,-7.1977525,1.0900168,0.21147712,0.1644772,0.28254622,-0.92108214,-4.463794,2.7244816,0.46068418,-2.5814123,-2.0527854,-0.1730557,0
0.10999999999999999,15.75403605185302,-2.581412264777417,-2.05278527919315,-0.1730556879924855,9.725189,1.407732,-0.17318997,-0.09549126,17.398407,-7.1709747,1.0947521,0.21567406,0.1520274,0.29236743,-0.9191809,-4.490924,2.630748,0.48625645,-2.5814123,-2.0527854,-0.1730557,0
0.11999999999999998,15.75403605185302,-2.581412264777417,-2.05278527919315,-0.1730556879924855,9.725189,1.407732,-0.17318997,-0.09549126,17.353384,-7.1451445,1.0997403,0.21981217,0.13953613,0.3021089,-0.9170291,-4.5132995,2.5350041,0.5112389,-2.5814123,-2.0527854,-0.1730557,0
0.12999999999999998,16.533493377760774,0.3072281888834612,2.9483854015417097,0.14197802418783234,11.175039,2.932951,1.698556,0.04658045,17.308159,-7.120281,1.1049745,0.22389035,0.1270068,0.31176805,-0.91462725,-4.5308995,2.4373474,0.53549194,-2.5814123,-2.0527854,-0.1730557,0
0.13999999999999999,16.533493377760774,0.3072281888834612,2.9483854015417097,0.14197802418783234,11.175039,2.932951,1.698556,0.04658045,17.26277,-7.0964274,1.1104765,0.21972398,0.1410409,0.3135391,-0.9129742,-4.547907,2.3331935,0.5646573,0.30722818,2.9483855,0.14197803,0
0.15,16.533493377760774,0.3072281888834612,2.9483854015417097,0.14197802418783234,11.175039,2.932951,1.698556,0.04658045,17.217188,-7.0736213,1.116262,0.21550922,0.15504397,0.31524107,-0.9111202,-4.569375,2.2278633,0.59216934,0.30722818,2.9483855,0.14197803,0
0.16,16.861966311749832,1.7220114090096954,4.0940977755867145,0.09576550476279994,13.228055,3.4046755,1.8776164,0.35381487,17.171368,-7.051874,1.1223137,0.21124701,0.1690129,0.31687364,-0.90906554,-4.5952826,2.1214437,0.61791396,0.30722818,2.9483855,0.14197803,0
0.17,16.861966311749832,1.7220114090096954,4.0940977755867145,0.09576550476279994,13.228055,3.4046755,1.8776164,0.35381487,17.125261,-7.031205,1.1286262,0.20368904,0.1895491,0.31321207,-0.9080087,-4.6272607,2.0123374,0.6443185,1.7220114,4.0940976,0.0957655,0
0.18000000000000002,16.861966311749832,1.7220114090096954,4.0940977755867145,0.09576550476279994,13.228055,3.4046755,1.8776164,0.35381487,17.078798,-7.0116262,1.135194,0.19603057,0.20999178,0.30939597,-0.9065039,-4.6665006,1.9035639,0.66892457,1.7220114,4.0940976,0.0957655,0
0.19000000000000003,16.861966311749832,1.7220114090096954,4.0940977755867145,0.09576550476279994,13.228055,3.4046755,1.8776164,0.35381487,17.031908,-6.9931326,1.1419978,0.18827538,0.23033085,0.3054272,-0.90455186,-4.712923,1.7953323,0.6914855,1.7220114,4.0940976,0.0957655,0
0.20000000000000004,17.07784593982059,1.7931410090898399,2.947959887250712,0.15645773490531767,14.175883,3.4557755,1.8251207,0.5794232,16.984516,-6.9757175,1.1490159,0.1804273,0.2505563,0.30130774,-0.90215355,-4.766436,1.6878506,0.71175885,1.7220114,4.0940976,0.0957655,0
0.21000000000000005,17.07784593982059,1.7931410090898399,2.947959887250712,0.15645773490531767,14.175883,3.4557755,1.8251207,0.5794232,16.936552,-6.9593787,1.1562331,0.17441879,0.26566908,0.2956381,-0.9008862,-4.827141,1.5801146,0.73143184,1.793141,2.94796,0.15645774,0
0.22000000000000006,17.07784593982059,1.7931410090898399,2.947959887250712,0.15645773490531767,14.175883,3.4557755,1.8251207,0.5794232,16.887953,-6.94411,1.1636391,0.16835828,0.28070265,0.2898803,-0.89935017,-4.8933153,1.4739128,0.7495415,1.793141,2.94796,0.15645774,0
0.23000000000000007,17.07784593982059,1.7931410090898399,2.947959887250712,0.15645773490531767,14.175883,3.4557755,1.8251207,0.5794232,16.838665,-6.9298944,1.1712179,0.16224755,0.29565254,0.284036,-0.89754593,-4.964881,1.3693647,0.76594317,1.793141,2.94796,0.15645774,0
0.24000000000000007,17.07784593982059,1.7931410090898399,2.947959887250712,0.15645773490531767,14.031697,3.0996752,1.4371152,0.7568966,16.788635,-6.916716,1.1789516,0.15608844,0.3105142,0.27810705,-0.89547396,-5.041753,1.2665882,0.78049433,1.793141,2.94796,0.15645774,0
0.25000000000000006,17.07784593982059,1.7931410090898399,2.947959887250712,0.15645773490531767,14.031697,3.0996752,1.4371152,0.7568966,16.737812,-6.9045563,1.1868211,0.14988276,0.3252833,0.27209514,-0.8931349,-5.123839,1.1656988,0.79305464,1.793141,2.94796,0.15645774,0
0.26000000000000006,17.07784593982059,1.7931410090898399,2.947959887250712,0.15645773490531767,14.031697,3.0996752,1.4371152,0.7568966,16.68614,-6.893396,1.1948055,0.14363238,0.33995533,0.26600206,-0.8905296,-5.211042,1.0668097,0.8034862,1.793141,2.94796,0.15645774,0
0.2700000000000001,17.07784593982059,1.7931410090898399,2.947959887250712,0.15645773490531767,14.031697,3.0996752,1.4371152,0.7568966,16.633572,-6.883213,1.202883,0.13733917,0.35452598,0.25982964,-0.88765854,-5.3032584,0.9700318,0.8116535,1.793141,2.94796,0.15645774,0
0.2800000000000001,16.628448257063248,1.7479425937296256,1.3849973620037674,0.15828673594211357,14.256129,3.0111175,1.6188817,0.69093394,16.580057,-6.873987,1.2110304,0.13100499,0.36899093,0.25357974,-0.8845228,-5.400378,0.87547374,0.8174237,1.793141,2.94796,0.15645774,0
0.2900000000000001,16.628448257063248,1.7479425937296256,1.3849973620037674,0.15828673594211357,14.256129,3.0111175,1.6188817,0.69093394,16.525564,-6.865683,1.2192116,0.12671603,0.37643865,0.24644873,-0.8840248,-5.4989247,0.7856816,0.81869894,1.7479426,1.3849974,0.15828674,0
0.3000000000000001,16.628448257063248,1.7479425937296256,1.3849973620037674,0.15828673594211357,14.256129,3.0111175,1.6188817,0.69093394,16.47007,-6.8582654,1.2274022,0.12241124,0.38383937,0.23928693,-0.88341635,-5.6002436,0.69825584,0.81929356,1.7479426,1.3849974,0.15828674,0
0.3100000000000001,16.628448257063248,1.7479425937296256,1.3849973620037674,0.15828673594211357,14.256129,3.0111175,1.6188817,0.69093394,16.41355,-6.85171,1.235595,0.11809114,0.3911921,0.23209524,-0.8826975,-5.7042866,0.61323655,0.81915367,1.7479426,1.3849974,0.15828674,0
0.3200000000000001,16.69695527645568,1.7705701313629398,0.11410475608276369,0.1252905978350969,14.725748,2.7646816,0.299127,0.47919974,16.355974,-6.8459926,1.2437825,0.11375629,0.39849597,0.22487454,-0.88186836,-5.8110037,0.5306628,0.8182261,1.7479426,1.3849974,0.15828674,0
0.3300000000000001,16.69695527645568,1.7705701313629398,0.11410475608276369,0.1252905978350969,14.725748,2.7646816,0.299127,0.47919974,16.29732,-6.8410897,1.2519605,0.110648155,0.40013126,0.21687397,-0.88352567,-5.9202785,0.45027047,0.8174613,1.7705702,0.114104755,0.1252906,0
0.34000000000000014,16.69695527645568,1.7705701313629398,0.11410475608276369,0.1252905978350969,14.725748,2.7646816,0.299127,0.47919974,16.237566,-6.8369784,1.2601345,0.10753128,0.40173492,0.20885624,-0.88511306,-6.0307736,0.3724767,0.817428,1.7705702,0.114104755,0.1252906,0
0.35000000000000014,16.69695527645568,1.7705701313629398,0.11410475608276369,0.1252905978350969,14.725748,2.7646816,0.299127,0.47919974,16.1767,-6.8336315,1.2683115,0.10440589,0.40330678,0.20082198,-0.8866305,-6.1424565,0.29730564,0.8180924,1.7705702,0.114104755,0.1252906,0
0.36000000000000015,16.091910628631048,1.8860716422092323,-0.6207031664583791,0.002752446162365022,15.071563,2.9815724,-0.47015896,0.17981002,16.114716,-6.8310227,1.2764986,0.10127224,0.4048468,0.19277185,-0.88807774,-6.255294,0.22478065,0.81942064,1.7705702,0.114104755,0.1252906,0
0.37000000000000016,16.091910628631048,1.8860716422092323,-0.6207031664583791,0.002752446162365022,15.071563,2.9815724,-0.47015896,0.17981002,16.051613,-6.829113,1.2846851,0.098059945,0.40302837,0.18406774,-0.89110684,-6.3648562,0.15752986,0.81810653,1.8860717,-0.62070316,0.002752446,0
0.38000000000000017,16.091910628631048,1.8860716422092323,-0.6207031664583791,0.002752446162365022,15.071563,2.9815724,-0.47015896,0.17981002,15.987412,-6.827862,1.292866,0.094837986,0.40117022,0.17534548,-0.89404815,-6.4747496,0.09307314,0.8183064,1.8860717,-0.62070316,0.002752446,0
0.3900000000000002,16.091910628631048,1.8860716422092323,-0.6207031664583791,0.002752446162365022,15.071563,2.9815724,-0.47015896,0.17981002,15.922114,-6.8272414,1.3010563,0.09160668,0.39927256,0.16660593,-0.8969013,-6.584931,0.0314359,0.81998146,1.8860717,-0.62070316,0.002752446,0
0.4000000000000002,15.887889307464963,2.0193338613229312,-0.2984495838091391,-0.13530569177766713,14.845803,2.932335,-1.4078681,-0.16188876,15.855714,-6.827223,1.3092705,0.08836634,0.39733556,0.15784995,-0.89966613,-6.6953564,-0.027357522,0.8230924,1.8860717,-0.62070316,0.002752446,0
0.4100000000000002,15.887889307464963,2.0193338613229312,-0.2984495838091391,-0.13530569177766713,14.845803,2.932335,-1.4078681,-0.16188876,15.788214,-6.8277745,1.3175161,0.08397693,0.3967577,0.14889516,-0.9018655,-6.8047304,-0.08250702,0.8261727,2.0193338,-0.29844958,-0.13530569,0
0.4200000000000002,15.887889307464963,2.0193338613229312,-0.2984495838091391,-0.13530569177766713,14.845803,2.932335,-1.4078681,-0.16188876,15.719618,-6.828862,1.3257974,0.079578735,0.39613834,0.1399248,-0.90397054,-6.914658,-0.13462277,0.83025694,2.0193338,-0.29844958,-0.13530569,0
0.4300000000000002,15.887889307464963,2.0193338613229312,-0.2984495838091391,-0.13530569177766713,14.845803,2.932335,-1.4078681,-0.16188876,15.6499195,-6.8304563,1.3341244,0.07517221,0.3954775,0.13093978,-0.90598094,-7.0250893,-0.1836835,0.83530563,2.0193338,-0.29844958,-0.13530569,0
0.4400000000000002,15.887889307464963,2.0193338613229312,-0.2984495838091391,-0.13530569177766713,14.8312845,2.5662317,-2.0947423,-0.4439912,15.579115,-6.8325253,1.3425066,0.070757814,0.39477527,0.12194107,-0.9078966,-7.1359754,-0.22966921,0.8412788,2.0193338,-0.29844958,-0.13530569,0
0.45000000000000023,15.887889307464963,2.0193338613229312,-0.2984495838091391,-0.13530569177766713,14.8312845,2.5662317,-2.0947423,-0.4439912,15.507198,-6.8350387,1.3509531,0.06633603,0.39403176,0.112929605,-0.90971726,-7.2472672,-0.27256128,0.8481363,2.0193338,-0.29844958,-0.13530569,0
0.46000000000000024,15.887889307464963,2.0193338613229312,-0.2984495838091391,-0.13530569177766713,14.8312845,2.5662317,-2.0947423,-0.4439912,15.434168,-6.8379655,1.3594723,0.061907295,0.393247,0.103906326,-0.9114427,-7.3589153,-0.31234226,0.85583735,2.0193338,-0.29844958,-0.13530569,0
0.47000000000000025,15.887889307464963,2.0193338613229312,-0.2984495838091391,-0.13530569177766713,14.8312845,2.5662317,-2.0947423,-0.4439912,15.360019,-6.841274,1.3680725,0.057472087,0.39242113,0.09487218,-0.91307276,-7.47087,-0.3489961,0.86434096,2.0193338,-0.29844958,-0.13530569,0
0.48000000000000026,15.241363146790297,2.248607362917657,-0.39204451572165255,-0.28204835426644503,14.753105,2.3454049,-2.6239212,-0.71634734,15.284749,-6.844933,1.3767617,0.053030863,0.39155415,0.085828096,-0.91460735,-7.5830817,-0.38250798,0.8736059,2.0193338,-0.29844958,-0.13530569,0
0.49000000000000027,15.241363146790297,2.248607362917657,-0.39204451572165255,-0.28204835426644503,14.753105,2.3454049,-2.6239212,-0.71634734,15.208379,-6.848905,1.3855253,0.047503646,0.39021066,0.07598791,-0.9163541,-7.6909084,-0.41149893,0.87924534,2.2486074,-0.3920445,-0.28204834,0
0.5000000000000002,15.241363146790297,2.248607362917657,-0.39204451572165255,-0.28204835426644503,14.753105,2.3454049,-2.6239212,-0.71634734,15.13093,-6.853151,1.3943493,0.04197015,0.38881555,0.06613767,-0.9179797,-7.798832,-0.4371029,0.8856725,2.2486074,-0.3920445,-0.28204834,0
0.5100000000000002,15.241363146790297,2.248607362917657,-0.39204451572165255,-0.28204835426644503,14.753105,2.3454049,-2.6239212,-0.71634734,15.052402,-6.857635,1.4032414,0.036431104,0.387369,0.05627869,-0.9194839,-7.906789,-0.45930797,0.89283985,2.2486074,-0.3920445,-0.28204834,0
0.5200000000000002,14.619454708617841,2.4772974516837305,-0.3200183490965194,-0.4247362153752793,14.649725,2.1341083,-2.7757444,-0.9303452,14.972794,-6.8623247,1.4122086,0.030887239,0.38587126,0.046412267,-0.92086655,-8.014716,-0.47810397,0.90069926,2.2486074,-0.3920445,-0.28204834,0
0.5300000000000002,14.619454708617841,2.4772974516837305,-0.3200183490965194,-0.4247362153752793,14.649725,2.1341083,-2.7757444,-0.9303452,14.892129,-6.867182,1.4212357,0.024223985,0.38465086,0.035772573,-0.92205054,-8.118189,-0.49273115,0.9048313,2.4772975,-0.32001835,-0.4247362,0
0.5400000000000003,14.619454708617841,2.4772974516837305,-0.3200183490965194,-0.4247362153752793,14.649725,2.1341083,-2.7757444,-0.9303452,14.81043,-6.8721666,1.4303067,0.017556844,0.38336873,0.025127133,-0.9230865,-8.221602,-0.5037431,0.9094741,2.4772975,-0.32001835,-0.4247362,0
0.5500000000000003,14.619454708617841,2.4772974516837305,-0.3200183490965194,-0.4247362153752793,14.649725,2.1341083,-2.7757444,-0.9303452,14.727697,-6.877244,1.4394265,0.010886886,0.3820251,0.014477662,-0.9239744,-8.324883,-0.5111347,0.91457427,2.4772975,-0.32001835,-0.4247362,0
0.5600000000000003,14.0535288932564,2.6643299411037846,-0.42901155813608055,-0.5488504765512103,14.181337,1.9082785,-2.4556754,-1.064659,14.643932,-6.8823767,1.4485995,0.004215181,0.38062012,0.0038258666,-0.92471397,-8.427955,-0.5149031,0.9200784,2.4772975,-0.32001835,-0.4247362,0
0.5700000000000003,14.0535288932564,2.6643299411037846,-0.42901155813608055,-0.5488504765512103,14.181337,1.9082785,-2.4556754,-1.064659,14.559158,-6.8875294,1.4578092,-0.0033849084,0.3786462,-0.00745738,-0.9255053,-8.526722,-0.51494354,0.9219487,2.66433,-0.42901155,-0.5488505,0
0.5800000000000003,14.0535288932564,2.6643299411037846,-0.42901155813608055,-0.5488504765512103,14.181337,1.9082785,-2.4556754,-1.064659,14.473399,-6.8926635,1.4670397,-0.0109843565,0.37660047,-0.018739212,-0.9261211,-8.625026,-0.5112402,0.9242067,2.66433,-0.42901155,-0.5488505,0
0.5900000000000003,14.0535288932564,2.6643299411037846,-0.42901155813608055,-0.5488504765512103,14.181337,1.9082785,-2.4556754,-1.064659,14.386661,-6.8977413,1.4762945,-0.018581722,0.37448335,-0.030017493,-0.92656136,-8.72278,-0.5037991,0.9267938,2.66433,-0.42901155,-0.5488505,0
0.6000000000000003,13.510088839744633,2.673432652999775,-0.5612546985392722,-0.661097889593147,13.371319,1.9678869,-2.0137358,-1.0693405,14.298946,-6.9027267,1.4855765,-0.026175564,0.37229523,-0.041290082,-0.92682594,-8.819898,-0.4926291,0.92965126,2.66433,-0.42901155,-0.5488505,0
0.6100000000000003,13.510088839744633,2.673432652999775,-0.5612546985392722,-0.661097889593147,13.371319,1.9678869,-2.0137358,-1.0693405,14.210284,-6.907584,1.4948688,-0.03432873,0.36944425,-0.0523706,-0.92714065,-8.912518,-0.4783145,0.928854,2.6734326,-0.5612547,-0.6610979,0
0.6200000000000003,13.510088839744633,2.673432652999775,-0.5612546985392722,-0.661097889593147,13.371319,1.9678869,-2.0137358,-1.0693405,14.1207,-6.912281,1.5041546,-0.04247511,0.36652032,-0.06344077,-0.92727226,-9.004229,-0.4604333,0.9283267,2.6734326,-0.5612547,-0.6610979,0
0.6300000000000003,13.510088839744633,2.673432652999775,-0.5612546985392722,-0.661097889593147,13.371319,1.9678869,-2.0137358,-1.0693405,14.030203,-6.9167814,1.5134361,-0.05061311,0.36352396,-0.07449841,-0.92722076,-9.094947,-0.43900454,0.92801344,2.6734326,-0.5612547,-0.6610979,0
0.6400000000000003,13.510088839744633,2.673432652999775,-0.5612546985392722,-0.661097889593147,12.682003,1.8890939,-1.9549979,-0.99774694,13.938805,-6.9210496,1.5227153,-0.05874111,0.36045584,-0.08554134,-0.92698616,-9.1845875,-0.41404992,0.9278581,2.6734326,-0.5612547,-0.6610979,0
0.6500000000000004,13.510088839744633,2.673432652999775,-0.5612546985392722,-0.661097889593147,12.682003,1.8890939,-1.9549979,-0.99774694,13.846516,-6.9250507,1.5319936,-0.06685751,0.35731655,-0.09656737,-0.92656857,-9.273066,-0.38559407,0.92780423,2.6734326,-0.5612547,-0.6610979,0
0.6600000000000004,13.510088839744633,2.673432652999775,-0.5612546985392722,-0.661097889593147,12.682003,1.8890939,-1.9549979,-0.99774694,13.753347,-6.92875,1.5412714,-0.07496071,0.3541067,-0.107574336,-0.925968,-9.3603,-0.35366428,0.9277955,2.6734326,-0.5612547,-0.6610979,0
0.6700000000000004,13.510088839744633,2.673432652999775,-0.5612546985392722,-0.661097889593147,12.682003,1.8890939,-1.9549979,-0.99774694,13.659313,-6.9321127,1.5505493,-0.0830491,0.3508269,-0.11856006,-0.9251846,-9.446208,-0.3182906,0.92777556,2.6734326,-0.5612547,-0.6610979,0
0.6800000000000004,13.486659745262891,2.5460236255537696,-0.37119109124560906,-0.7033482050809315,12.408815,1.9105341,-1.8511289,-0.90741825,13.564426,-6.9351044,1.5598266,-0.0911211,0.3474778,-0.12952237,-0.9242185,-9.53071,-0.27950582,0.9276879,2.6734326,-0.5612547,-0.6610979,0
0.6900000000000004,13.486659745262891,2.5460236255537696,-0.37119109124560906,-0.7033482050809315,12.408815,1.9105341,-1.8511289,-0.90741825,13.468703,-6.937692,1.5691015,-0.099026814,0.34502718,-0.13988484,-0.9228119,-9.61367,-0.23747166,0.9272547,2.5460236,-0.37119108,-0.7033482,0
0.7000000000000004,13.486659745262891,2.5460236255537696,-0.37119109124560906,-0.7033482050809315,12.408815,1.9105341,-1.8511289,-0.90741825,13.372157,-6.939843,1.5783706,-0.10691492,0.3425152,-0.15022244,-0.9212412,-9.695309,-0.19224456,0.92650825,2.5460236,-0.37119108,-0.7033482,0
0.7100000000000004,13.486659745262891,2.5460236255537696,-0.37119109124560906,-0.7033482050809315,12.408815,1.9105341,-1.8511289,-0.90741825,13.274801,-6.9415264,1.5876304,-0.11478401,0.33994228,-0.16053332,-0.91950667,-9.775555,-0.14385991,0.92540085,2.5460236,-0.37119108,-0.7033482,0
0.7200000000000004,13.02137223831819,2.42300266986254,-0.7615650011890094,-0.7894874080331838,12.750766,2.3373995,-1.8890623,-0.8310112,13.17665,-6.94271,1.5968772,-0.12263269,0.33730888,-0.17081565,-0.9176086,-9.854338,-0.092355326,0.9238851,2.5460236,-0.37119108,-0.7033482,0
0.7300000000000004,13.02137223831819,2.42300266986254,-0.7615650011890094,-0.7894874080331838,12.750766,2.3373995,-1.8890623,-0.8310112,13.077733,-6.943372,1.6060904,-0.13098074,0.33297366,-0.18011864,-0.91625845,-9.928803,-0.039729908,0.91873753,2.4230027,-0.761565,-0.7894874,0
0.7400000000000004,13.02137223831819,2.42300266986254,-0.7615650011890094,-0.7894874080331838,12.750766,2.3373995,-1.8890623,-0.8310112,12.97808,-6.9434943,1.6152517,-0.13930562,0.32857957,-0.18938977,-0.9147462,-10.001404,0.015624008,0.9134809,2.4230027,-0.761565,-0.7894874,0
0.7500000000000004,13.02137223831819,2.42300266986254,-0.7615650011890094,-0.7894874080331838,12.750766,2.3373995,-1.8890623,-0.8310112,12.877712,-6.94305,1.6243596,-0.14760588,0.32412738,-0.19862741,-0.91307217,-10.072076,0.07366061,0.9080735,2.4230027,-0.761565,-0.7894874,0
0.7600000000000005,13.291215937209332,2.1285228829837775,-0.2835555606190611,-0.7623948130934491,12.937396,2.5916762,-2.2262666,-0.81345606,12.776648,-6.942012,1.6334125,-0.15588003,0.31961784,-0.20782994,-0.9112367,-10.140759,0.1343322,0.90247387,2.4230027,-0.761565,-0.7894874,0
0.7700000000000005,13.291215937209332,2.1285228829837775,-0.2835555606190611,-0.7623948130934491,12.937396,2.5916762,-2.2262666,-0.81345606,12.674897,-6.9403477,1.6424176,-0.1630396,0.31743848,-0.21607484,-0.9088247,-10.209016,0.19881096,0.89844096,2.1285229,-0.28355557,-0.7623948,0
0.7800000000000005,13.291215937209332,2.1285228829837775,-0.2835555606190611,-0.7623948130934491,12.937396,2.5916762,-2.2262666,-0.81345606,12.572473,-6.9380274,1.6513795,-0.170178,0.3152179,-0.22429167,-0.9062947,-10.275771,0.26564866,0.89383745,2.1285229,-0.28355557,-0.7623948,0
0.7900000000000005,13.291215937209332,2.1285228829837775,-0.2835555606190611,-0.7623948130934491,12.937396,2.5916762,-2.2262666,-0.81345606,12.469387,-6.935027,1.6602923,-0.17729431,0.31295645,-0.2324794,-0.90364707,-10.340979,0.33480856,0.8886349,2.1285229,-0.28355557,-0.7623948,0
0.8000000000000005,12.826031109228774,2.0607482965503507,-1.014195729172552,-0.7910217216095415,13.305142,2.5940118,-2.1949685,-0.77296007,12.365659,-6.931323,1.66915,-0.18438761,0.31065434,-0.24063694,-0.9008821,-10.404594,0.40625268,0.88280547,2.1285229,-0.28355557,-0.7623948,0
0.8100000000000005,12.826031109228774,2.0607482965503507,-1.014195729172552,-0.7910217216095415,13.305142,2.5940118,-2.1949685,-0.77296007,12.261313,-6.926907,1.6779307,-0.19235806,0.30511507,-0.24773777,-0.8991823,-10.464161,0.47727078,0.87335265,2.0607483,-1.0141957,-0.7910217,0
0.8200000000000005,12.826031109228774,2.0607482965503507,-1.014195729172552,-0.7910217216095415,13.305142,2.5940118,-2.1949685,-0.77296007,12.1563835,-6.921771,1.6866169,-0.20030014,0.2995308,-0.25480208,-0.8973499,-10.521456,0.5501648,0.863874,2.0607483,-1.0141957,-0.7910217,0
0.8300000000000005,12.826031109228774,2.0607482965503507,-1.014195729172552,-0.7910217216095415,13.305142,2.5940118,-2.1949685,-0.77296007,12.050892,-6.9158974,1.6952081,-0.20821267,0.29390234,-0.26182878,-0.895385,-10.576439,0.62488395,0.85433966,2.0607483,-1.0141957,-0.7910217,0
0.8400000000000005,12.826031109228774,2.0607482965503507,-1.014195729172552,-0.7910217216095415,13.854035,2.9215155,-2.0590246,-0.7951001,11.944862,-6.909267,1.7037034,-0.21609448,0.2882305,-0.26881686,-0.8932881,-10.629071,0.7013763,0.8447197,2.0607483,-1.0141957,-0.7910217,0
0.8500000000000005,12.826031109228774,2.0607482965503507,-1.014195729172552,-0.7910217216095415,13.854035,2.9215155,-2.0590246,-0.7951001,11.838319,-6.901863,1.7121022,-0.22394443,0.28251615,-0.2757653,-0.89105934,-10.679316,0.779589,0.8349843,2.0607483,-1.0141957,-0.7910217,0
0.8600000000000005,12.826031109228774,2.0607482965503507,-1.014195729172552,-0.7910217216095415,13.854035,2.9215155,-2.0590246,-0.7951001,11.731285,-6.8936696,1.7204028,-0.23176134,0.2767601,-0.28267303,-0.8886991,-10.727135,0.85946786,0.82510376,2.0607483,-1.0141957,-0.7910217,0
0.8700000000000006,12.826031109228774,2.0607482965503507,-1.014195729172552,-0.7910217216095415,13.854035,2.9215155,-2.0590246,-0.7951001,11.623784,-6.884669,1.7286037,-0.23954405,0.27096328,-0.28953904,-0.8862078,-10.772494,0.94095814,0.81504834,2.0607483,-1.0141957,-0.7910217,0
0.8800000000000006,13.286247154887649,1.6919488168169183,-0.11857995117814851,-0.7373068621827077,14.624419,2.9575462,-1.6431344,-0.8000338,11.515843,-6.874845,1.7367032,-0.24729143,0.26512644,-0.29636237,-0.8835858,-10.815361,1.0240039,0.80478853,2.0607483,-1.0141957,-0.7910217,0
0.8900000000000006,13.286247154887649,1.6919488168169183,-0.11857995117814851,-0.7373068621827077,14.624419,2.9575462,-1.6431344,-0.8000338,11.407477,-6.864168,1.7447139,-0.25295678,0.26359177,-0.3027005,-0.88028646,-10.857589,1.1115808,0.7972376,1.6919488,-0.118579954,-0.73730683,0
0.9000000000000006,13.286247154887649,1.6919488168169183,-0.11857995117814851,-0.7373068621827077,14.624419,2.9575462,-1.6431344,-0.8000338,11.2986965,-6.852608,1.7526451,-0.25860047,0.2620346,-0.30901277,-0.8769118,-10.898344,1.200665,0.78888756,1.6919488,-0.118579954,-0.73730683,0
0.9100000000000006,13.286247154887649,1.6919488168169183,-0.11857995117814851,-0.7373068621827077,14.624419,2.9575462,-1.6431344,-0.8000338,11.189516,-6.84015,1.7604889,-0.26422206,0.260455,-0.31529856,-0.87346226,-10.937604,1.291225,0.77972335,1.6919488,-0.118579954,-0.73730683,0
0.9200000000000006,12.857051331135594,1.6012137059050475,-0.8144523638081563,-0.7494045508270282,14.956271,2.478375,-1.3703873,-0.8248755,11.079949,-6.826779,1.7682368,-0.26982105,0.25885314,-0.32155743,-0.86993796,-10.975346,1.3832293,0.76973015,1.6919488,-0.118579954,-0.73730683,0
0.9300000000000006,12.857051331135594,1.6012137059050475,-0.8144523638081563,-0.7494045508270282,14.956271,2.478375,-1.3703873,-0.8248755,10.97002,-6.812496,1.775867,-0.27644968,0.25434303,-0.3264382,-0.8673655,-11.010164,1.4734969,0.7563021,1.6012137,-0.81445235,-0.74940455,0
0.9400000000000006,12.857051331135594,1.6012137059050475,-0.8144523638081563,-0.7494045508270282,14.956271,2.478375,-1.3703873,-0.8248755,10.859754,-6.7973056,1.7833619,-0.28305215,0.24980879,-0.331288,-0.8647109,-11.042904,1.5647466,0.74265057,1.6012137,-0.81445235,-0.74940455,0
0.9500000000000006,12.857051331135594,1.6012137059050475,-0.8144523638081563,-0.7494045508270282,14.956271,2.478375,-1.3703873,-0.8248755,10.749169,-6.781198,1.7907192,-0.2896278,0.2452509,-0.33610648,-0.8619744,-11.073549,1.6569389,0.7287612,1.6012137,-0.81445235,-0.74940455,0
0.9600000000000006,13.07242211752225,1.232477441234933,-0.1156791501558827,-0.6445378340575212,15.300777,2.2914686,-1.3632904,-0.81597507,10.63829,-6.7641635,1.7979362,-0.29617605,0.24066979,-0.34089312,-0.8591562,-11.102084,1.7500341,0.71461993,1.6012137,-0.81445235,-0.74940455,0
0.9700000000000006,13.07242211752225,1.232477441234933,-0.1156791501558827,-0.6445378340575212,15.300777,2.2914686,-1.3632904,-0.81597507,10.527132,-6.746186,1.8050172,-0.30061784,0.23944047,-0.34523228,-0.8562193,-11.1293,1.8455795,0.70148456,1.2324774,-0.11567915,-0.6445378,0
0.9800000000000006,13.07242211752225,1.232477441234933,-0.1156791501558827,-0.6445378340575212,15.300777,2.2914686,-1.3632904,-0.81597507,10.415708,-6.7272487,1.8119637,-0.30504498,0.23819947,-0.3495547,-0.85324067,-11.155314,1.9420104,0.6877228,1.2324774,-0.11567915,-0.6445378,0
0.9900000000000007,13.07242211752225,1.232477441234933,-0.1156791501558827,-0.6445378340575212,15.300777,2.2914686,-1.3632904,-0.81597507,10.304029,-6.7073426,1.8187693,-0.3094573,0.23694688,-0.35386005,-0.8502205,-11.180117,2.0393078,0.6733286,1.2324774,-0.11567915,-0.6445378,0
1.0000000000000007,12.471336947479381,1.3347654078803153,-1.4652493970495606,-0.6283873103431946,15.478603,1.8463752,-1.3488604,-0.79312754,10.192109,-6.6864595,1.825428,-0.31385458,0.23568274,-0.3581482,-0.84715897,-11.203697,2.1374524,0.658296,1.2324774,-0.11567915,-0.6445378,0
1.0100000000000007,12.471336947479381,1.3347654078803153,-1.4652493970495606,-0.6283873103431946,15.478603,1.8463752,-1.3488604,-0.79312754,10.079966,-6.6646137,1.8319151,-0.320696,0.2284943,-0.36074272,-0.8454636,-11.224548,2.2316682,0.63919973,1.3347654,-1.4652494,-0.62838733,0
1.0200000000000007,12.471336947479381,1.3347654078803153,-1.4652493970495606,-0.6283873103431946,15.478603,1.8463752,-1.3488604,-0.79312754,9.967627,-6.641825,1.8382133,-0.32750276,0.22128116,-0.3632982,-0.84367675,-11.242962,2.326089,0.6204633,1.3347654,-1.4652494,-0.62838733,0
1.0300000000000007,12.471336947479381,1.3347654078803153,-1.4652493970495606,-0.6283873103431946,15.478603,1.8463752,-1.3488604,-0.79312754,9.855115,-6.618092,1.8443258,-0.33427414,0.21404411,-0.36581448,-0.8417987,-11.258933,2.4206676,0.6020673,1.3347654,-1.4652494,-0.62838733,0
1.0400000000000007,12.471336947479381,1.3347654078803153,-1.4652493970495606,-0.6283873103431946,15.290365,1.9526596,-1.6087193,-0.73716676,9.742456,-6.5934124,1.8502558,-0.34100938,0.20678394,-0.3682912,-0.8398298,-11.272456,2.515357,0.5839921,1.3347654,-1.4652494,-0.62838733,0
1.0500000000000007,12.471336947479381,1.3347654078803153,-1.4652493970495606,-0.6283873103431946,15.290365,1.9526596,-1.6087193,-0.73716676,9.629674,-6.5677853,1.8560067,-0.34770775,0.19950141,-0.3707281,-0.83777,-11.283526,2.6101098,0.56621814,1.3347654,-1.4652494,-0.62838733,0
1.0600000000000007,12.471336947479381,1.3347654078803153,-1.4652493970495606,-0.6283873103431946,15.290365,1.9526596,-1.6087193,-0.73716676,9.516794,-6.54121,1.8615812,-0.35436854,0.19219732,-0.37312496,-0.8356197,-11.292142,2.7048788,0.5487255,1.3347654,-1.4652494,-0.62838733,0
1.0700000000000007,12.471336947479381,1.3347654078803153,-1.4652493970495606,-0.6283873103431946,15.290365,1.9526596,-1.6087193,-0.73716676,9.403841,-6.5136876,1.8669821,-0.36099103,0.18487245,-0.37548146,-0.83337903,-11.298299,2.7996168,0.53149426,1.3347654,-1.4652494,-0.62838733,0
1.0800000000000007,12.571204544760569,0.9853381016676801,-0.20092421610081113,-0.5718057648354525,14.989173,2.0178766,-1.0322582,-0.6355325,9.290837,-6.4852185,1.8722118,-0.3675745,0.17752758,-0.37779737,-0.83104837,-11.301997,2.8942764,0.5145044,1.3347654,-1.4652494,-0.62838733,0
1.0900000000000007,12.571204544760569,0.9853381016676801,-0.20092421610081113,-0.5718057648354525,14.989173,2.0178766,-1.0322582,-0.6355325,9.177807,-6.4557986,1.8772752,-0.37119848,0.17595893,-0.3810085,-0.8283007,-11.303766,2.9897816,0.49812937,0.9853381,-0.20092422,-0.5718058,0
1.1000000000000008,12.571204544760569,0.9853381016676801,-0.20092421610081113,-0.5718057648354525,14.989173,2.0178766,-1.0322582,-0.6355325,9.064764,-6.4254217,1.8821727,-0.37481004,0.1743844,-0.38420692,-0.82552516,-11.304441,3.085705,0.48127985,0.9853381,-0.20092422,-0.5718058,0
1.1100000000000008,12.571204544760569,0.9853381016676801,-0.20092421610081113,-0.5718057648354525,14.989173,2.0178766,-1.0322582,-0.6355325,8.95172,-6.3940835,1.8868992,-0.37840906,0.17280403,-0.3873925,-0.82272214,-11.304018,3.1820326,0.46395242,0.9853381,-0.20092422,-0.5718058,0
1.1200000000000008,11.990844785739194,0.9727598806872204,-1.0109977894208473,-0.5416532240292644,14.3849535,1.8250313,-0.83788574,-0.61591494,8.838687,-6.3617797,1.89145,-0.38199544,0.17121789,-0.3905651,-0.8198915,-11.302492,3.2787507,0.4461437,0.9853381,-0.20092422,-0.5718058,0
1.1300000000000008,11.990844785739194,0.9727598806872204,-1.0109977894208473,-0.5416532240292644,14.3849535,1.8250313,-0.83788574,-0.61591494,8.725674,-6.32853,1.8958026,-0.38701215,0.16626836,-0.39214715,-0.8177996,-11.299751,3.37118,0.42437932,0.9727599,-1.0109978,-0.5416532,0
1.1400000000000008,11.990844785739194,0.9727598806872204,-1.0109977894208473,-0.5416532240292644,14.3849535,1.8250313,-0.83788574,-0.61591494,8.612697,-6.294357,1.899938,-0.392007,0.16130942,-0.393707,-0.81566155,-11.295338,3.4634614,0.40271556,0.9727599,-1.0109978,-0.5416532,0
1.1500000000000008,11.990844785739194,0.9727598806872204,-1.0109977894208473,-0.5416532240292644,14.3849535,1.8250313,-0.83788574,-0.61591494,8.499772,-6.2592616,1.9038574,-0.39697963,0.15634139,-0.39524463,-0.81347734,-11.289253,3.5555704,0.38114437,0.9727599,-1.0109978,-0.5416532,0
1.1600000000000008,11.980958132649855,0.6161872063945852,-0.1976917360550459,-0.4661143565590112,13.614817,1.8455257,-1.0053884,-0.49595755,8.386916,-6.223246,1.9075613,-0.40192983,0.15136449,-0.39675984,-0.81124717,-11.2815,3.6474838,0.35965768,0.9727599,-1.0109978,-0.5416532,0
1.1700000000000008,11.980958132649855,0.6161872063945852,-0.1976917360550459,-0.4661143565590112,13.614817,1.8455257,-1.0053884,-0.49595755,8.274146,-6.1863127,1.9110501,-0.4046758,0.15024775,-0.39850602,-0.8092312,-11.272442,3.7392404,0.33806238,0.6161872,-0.19769174,-0.46611434,0
1.1800000000000008,11.980958132649855,0.6161872063945852,-0.1976917360550459,-0.4661143565590112,13.614817,1.8455257,-1.0053884,-0.49595755,8.161469,-6.148461,1.9143217,-0.40741536,0.14912862,-0.40024588,-0.8072024,-11.262663,3.831133,0.31621477,0.6161872,-0.19769174,-0.46611434,0
1.1900000000000008,11.980958132649855,0.6161872063945852,-0.1976917360550459,-0.4661143565590112,13.614817,1.8455257,-1.0053884,-0.49595755,8.048896,-6.1096897,1.9173734,-0.41014844,0.14800712,-0.40197936,-0.80516076,-11.252163,3.923155,0.2941142,0.6161872,-0.19769174,-0.46611434,0
1.2000000000000008,11.661726338179328,0.6521425234610034,-1.4052964432067359,-0.3890165673534156,13.248259,1.5603454,-0.9203161,-0.38744435,7.9364305,-6.0699973,1.9202031,-0.412875,0.14688328,-0.40370646,-0.8031063,-11.240941,4.015301,0.27176,0.6161872,-0.19769174,-0.46611434,0
1.2100000000000009,11.661726338179328,0.6521425234610034,-1.4052964432067359,-0.3890165673534156,13.248259,1.5603454,-0.9203161,-0.38744435,7.82408,-6.029396,1.9227986,-0.41773945,0.14067464,-0.40312555,-0.8019933,-11.228976,4.1048226,0.2474311,0.6521425,-1.4052964,-0.38901657,0
1.2200000000000009,11.661726338179328,0.6521425234610034,-1.4052964432067359,-0.3890165673534156,13.248259,1.5603454,-0.9203161,-0.38744435,7.711857,-5.987903,1.9251536,-0.4225773,0.13445702,-0.4025189,-0.8008292,-11.215414,4.193682,0.22362317,0.6521425,-1.4052964,-0.38901657,0
1.2300000000000009,11.661726338179328,0.6521425234610034,-1.4052964432067359,-0.3890165673534156,13.248259,1.5603454,-0.9203161,-0.38744435,7.599777,-5.9455247,1.9272729,-0.42738816,0.12823083,-0.40188658,-0.79961395,-11.200259,4.281856,0.2003234,0.6521425,-1.4052964,-0.38901657,0
1.2400000000000009,11.661726338179328,0.6521425234610034,-1.4052964432067359,-0.3890165673534156,12.62485,1.6332402,-1.2436169,-0.34930834,7.487857,-5.902268,1.9291618,-0.43217176,0.12199645,-0.40122864,-0.7983477,-11.183519,4.3693185,0.17751886,0.6521425,-1.4052964,-0.38901657,1
1.2500000000000009,11.661726338179328,0.6521425234610034,-1.4052964432067359,-0.3890165673534156,12.62485,1.6332402,-1.2436169,-0.34930834,7.3761206,-5.858104,1.9308554,-0.43703374,0.114197336,-0.40482596,-0.7950318,-11.163368,4.4633927,0.16116334,1.6332402,-1.2436169,-0.34930834,1
1.260000000000001,11.661726338179328,0.6521425234610034,-1.4052964432067359,-0.3890165673534156,12.62485,1.6332402,-1.2436169,-0.34930834,7.2645984,-5.813001,1.9323841,-0.44184834,0.10638585,-0.40837938,-0.7916296,-11.140665,4.557125,0.14453049,1.6332402,-1.2436169,-0.34930834,1
1.270000000000001,11.661726338179328,0.6521425234610034,-1.4052964432067359,-0.3890165673534156,12.62485,1.6332402,-1.2436169,-0.34930834,7.153316,-5.7669625,1.9337451,-0.44661498,0.09856284,-0.41188854,-0.78814167,-11.115417,4.6504703,0.12759279,1.6332402,-1.2436169,-0.34930834,1
1.280000000000001,11.779475256766334,0.14850526182137397,0.06355261674570502,-0.33576214103399693,12.381219,1.8484993,-0.5695615,-0.30547422,7.042299,-5.7199926,1.934935,-0.45133325,0.09072914,-0.415353,-0.78456825,-11.087635,4.7433834,0.11032288,1.6332402,-1.2436169,-0.34930834,0
1.290000000000001,11.779475256766334,0.14850526182137397,0.06355261674570502,-0.33576214103399693,12.381219,1.8484993,-0.5695615,-0.30547422,6.93156,-5.6721263,1.9359237,-0.45258498,0.09134047,-0.41592598,-0.7834719,-11.060205,4.829837,0.087382935,0.14850526,0.06355262,-0.33576214,0
1.300000000000001,11.779475256766334,0.14850526182137397,0.06355261674570502,-0.33576214103399693,12.381219,1.8484993,-0.5695615,-0.30547422,6.821096,-5.6233954,1.9366821,-0.45383516,0.091951475,-0.41649753,-0.7823729,-11.032681,4.9163804,0.064304546,0.14850526,0.06355262,-0.33576214,0
1.310000000000001,11.779475256766334,0.14850526182137397,0.06355261674570502,-0.33576214103399693,12.381219,1.8484993,-0.5695615,-0.30547422,6.710907,-5.5737987,1.9372092,-0.45508376,0.09256216,-0.41706753,-0.78127116,-11.005063,5.0030136,0.041087683,0.14850526,0.06355262,-0.33576214,0
1.320000000000001,11.542736677090362,-0.3117247095877224,-0.43963375591728554,-0.24988130228525016,11.876981,1.1818683,-0.13353434,-0.31951153,6.600995,-5.523335,1.9375035,-0.45633078,0.09317252,-0.4176361,-0.7801667,-10.977349,5.089736,0.017732324,0.14850526,0.06355262,-0.33576214,0
1.330000000000001,11.542736677090362,-0.3117247095877224,-0.43963375591728554,-0.24988130228525016,11.876981,1.1818683,-0.13353434,-0.31951153,6.491358,-5.472013,1.9375565,-0.4580763,0.092690215,-0.4152988,-0.78044885,-10.950132,5.1746173,-0.0070336037,-0.31172472,-0.43963376,-0.2498813,0
1.340000000000001,11.542736677090362,-0.3117247095877224,-0.43963375591728554,-0.24988130228525016,11.876981,1.1818683,-0.13353434,-0.31951153,6.381993,-5.419844,1.9373642,-0.45981783,0.0922071,-0.41295782,-0.7807241,-10.9229145,5.2590904,-0.031330116,-0.31172472,-0.43963376,-0.2498813,0
1.350000000000001,11.542736677090362,-0.3117247095877224,-0.43963375591728554,-0.24988130228525016,11.876981,1.1818683,-0.13353434,-0.31951153,6.2728996,-5.3668327,1.9369314,-0.46155527,0.09172316,-0.41061318,-0.7809925,-10.895698,5.343153,-0.055159107,-0.31172472,-0.43963376,-0.2498813,0
1.360000000000001,11.81596381965807,-0.5992934536710611,0.5368579331378669,-0.17418228583567946,11.512224,1.1607375,-0.058806658,-0.24143527,6.1640787,-5.312983,1.9362626,-0.46328864,0.09123842,-0.40826494,-0.781254,-10.8684845,5.426803,-0.078522496,-0.31172472,-0.43963376,-0.2498813,0
1.370000000000001,11.81596381965807,-0.5992934536710611,0.5368579331378669,-0.17418228583567946,11.512224,1.1607375,-0.058806658,-0.24143527,6.055532,-5.258288,1.9353709,-0.46259582,0.095078535,-0.40708464,-0.7818224,-10.840975,5.5122595,-0.099797495,-0.5992935,0.53685796,-0.17418228,0
1.380000000000001,11.81596381965807,-0.5992934536710611,0.5368579331378669,-0.17418228583567946,11.512224,1.1607375,-0.058806658,-0.24143527,5.947256,-5.2027373,1.9342668,-0.46189517,0.098917045,-0.40589744,-0.7823774,-10.8143835,5.5979557,-0.12101647,-0.5992935,0.53685796,-0.17418228,0
1.390000000000001,11.81596381965807,-0.5992934536710611,0.5368579331378669,-0.17418228583567946,11.512224,1.1607375,-0.058806658,-0.24143527,5.839241,-5.146328,1.932951,-0.46118668,0.10275388,-0.40470335,-0.7829193,-10.788712,5.6838875,-0.14218567,-0.5992935,0.53685796,-0.17418228,0
1.400000000000001,11.901797159344593,-0.4669139140948531,-0.4550376092392179,-0.10233633295860164,11.444607,0.95446974,0.028989732,-0.15016675,5.7314787,-5.089059,1.9314234,-0.46047038,0.106588975,-0.4035024,-0.78344786,-10.763961,5.77005,-0.16331133,-0.5992935,0.53685796,-0.17418228,0
1.410000000000001,11.901797159344593,-0.4669139140948531,-0.4550376092392179,-0.10233633295860164,11.444607,0.95446974,0.028989732,-0.15016675,5.623961,-5.030924,1.9296882,-0.46153796,0.106087364,-0.400569,-0.7843926,-10.739667,5.8568,-0.18363304,-0.4669139,-0.45503762,-0.10233633,0
1.420000000000001,11.901797159344593,-0.4669139140948531,-0.4550376092392179,-0.10233633295860164,11.444607,0.95446974,0.028989732,-0.15016675,5.516685,-4.971925,1.9277527,-0.4626005,0.10558461,-0.39763126,-0.78532875,-10.715524,5.9430637,-0.20336917,-0.4669139,-0.45503762,-0.10233633,0
1.430000000000001,11.901797159344593,-0.4669139140948531,-0.4550376092392179,-0.10233633295860164,11.444607,0.95446974,0.028989732,-0.15016675,5.40965,-4.912065,1.9256228,-0.463658,0.105080694,-0.39468914,-0.7862563,-10.691533,6.028838,-0.22252303,-0.4669139,-0.45503762,-0.10233633,0
1.440000000000001,11.901797159344593,-0.4669139140948531,-0.4550376092392179,-0.10233633295860164,11.786967,0.9082311,-0.22972718,-0.14876136,5.302854,-4.8513503,1.9233043,-0.46471047,0.10457564,-0.3917427,-0.7871753,-10.667697,6.1141186,-0.24109802,-0.4669139,-0.45503762,-0.10233633,0
1.450000000000001,11.901797159344593,-0.4669139140948531,-0.4550376092392179,-0.10233633295860164,11.786967,0.9082311,-0.22972718,-0.14876136,5.1962953,-4.7897844,1.920803,-0.46575788,0.10406945,-0.38879207,-0.7880857,-10.644017,6.1989026,-0.25909752,-0.4669139,-0.45503762,-0.10233633,0
1.460000000000001,11.901797159344593,-0.4669139140948531,-0.4550376092392179,-0.10233633295860164,11.786967,0.9082311,-0.22972718,-0.14876136,5.089973,-4.7273736,1.9181244,-0.4668002,0.103562124,-0.38583717,-0.7889875,-10.620495,6.2831874,-0.27652493,-0.4669139,-0.45503762,-0.10233633,0
1.470000000000001,11.901797159344593,-0.4669139140948531,-0.4550376092392179,-0.10233633295860164,11.786967,0.9082311,-0.22972718,-0.14876136,4.983885,-4.6641226,1.9152745,-0.46783745,0.10305367,-0.3828781,-0.78988075,-10.597132,6.3669686,-0.2933837,-0.4669139,-0.45503762,-0.10233633,0
1.480000000000001,12.355544037016863,-0.5564895044306105,0.43630070855597974,-0.02171141331368625,12.065463,0.7749359,-0.08731875,-0.068917036,4.87803,-4.6000366,1.9122587,-0.4688696,0.10254409,-0.37991482,-0.7907654,-10.573931,6.4502435,-0.3096773,-0.4669139,-0.45503762,-0.10233633,0
1.490000000000001,12.355544037016863,-0.5564895044306105,0.43630070855597974,-0.02171141331368625,12.065463,0.7749359,-0.08731875,-0.068917036,4.7724094,-4.535104,1.909098,-0.4678384,0.10561434,-0.37872392,-0.79154295,-10.550272,6.536426,-0.3224623,-0.5564895,0.4363007,-0.021711413,0
1.500000000000001,12.355544037016863,-0.5564895044306105,0.43630070855597974,-0.02171141331368625,12.065463,0.7749359,-0.08731875,-0.068917036,4.6670213,-4.469308,1.9058098,-0.46680135,0.10868327,-0.37752825,-0.7923106,-10.527468,6.622776,-0.3351836,-0.5564895,0.4363007,-0.021711413,0
1.5100000000000011,12.355544037016863,-0.5564895044306105,0.43630070855597974,-0.02171141331368625,12.065463,0.7749359,-0.08731875,-0.068917036,4.5618567,-4.402648,1.9023945,-0.46575844,0.11175085,-0.37632784,-0.79306835,-10.505519,6.7092886,-0.34784558,-0.5564895,0.4363007,-0.021711413,0
1.5200000000000011,12.557938920314388,-0.49908047279719064,-0.14675923473079558,0.04306618284627068,12.310308,0.6525286,-0.3559715,-0.042821445,4.4569077,-4.3351216,1.8988531,-0.46470973,0.11481703,-0.37512276,-0.79381615,-10.484427,6.7959604,-0.36045274,-0.5564895,0.4363007,-0.021711413,0
1.5300000000000011,12.557938920314388,-0.49908047279719064,-0.14675923473079558,0.04306618284627068,12.310308,0.6525286,-0.3559715,-0.042821445,4.3521676,-4.2667212,1.895193,-0.46452594,0.115313,-0.3728243,-0.7949338,-10.463692,6.8840384,-0.37147537,-0.49908048,-0.14675924,0.04306618,0
1.5400000000000011,12.557938920314388,-0.49908047279719064,-0.14675923473079558,0.04306618284627068,12.310308,0.6525286,-0.3559715,-0.042821445,4.2476325,-4.1974416,1.8914247,-0.46433902,0.11580819,-0.37052333,-0.7960461,-10.443374,6.971814,-0.38209572,-0.49908048,-0.14675924,0.04306618,0
1.5500000000000012,12.557938920314388,-0.49908047279719064,-0.14675923473079558,0.04306618284627068,12.310308,0.6525286,-0.3559715,-0.042821445,4.1432986,-4.1272855,1.8875524,-0.4641489,0.11630259,-0.36821982,-0.79715294,-10.423472,7.059285,-0.3923161,-0.49908048,-0.14675924,0.04306618,0
1.5600000000000012,12.850863894625258,-0.505272872081853,-0.2115313381363646,0.13311558408397625,12.614371,0.5952278,-0.71725404,-0.037398934,4.0391617,-4.0562563,1.8835797,-0.46395567,0.116796196,-0.3659138,-0.7982544,-10.403989,7.14645,-0.40213874,-0.49908048,-0.14675924,0.04306618,0
1.5700000000000012,12.850863894625258,-0.505272872081853,-0.2115313381363646,0.13311558408397625,12.614371,0.5952278,-0.71725404,-0.037398934,3.93522,-3.9843476,1.8795213,-0.46351448,0.11688003,-0.36348268,-0.79960793,-10.384463,7.2353096,-0.40947974,-0.50527287,-0.21153134,0.13311559,0
1.5800000000000012,12.850863894625258,-0.505272872081853,-0.2115313381363646,0.13311558408397625,12.614371,0.5952278,-0.71725404,-0.037398934,3.8314714,-3.9115517,1.8753916,-0.4630696,0.11696294,-0.36104867,-0.8009552,-10.365327,7.3237925,-0.41637093,-0.50527287,-0.21153134,0.13311559,0
1.5900000000000012,12.850863894625258,-0.505272872081853,-0.2115313381363646,0.13311558408397625,12.614371,0.5952278,-0.71725404,-0.037398934,3.7279122,-3.8378732,1.8711953,-0.46262103,0.11704492,-0.3586118,-0.80229604,-10.34658,7.411895,-0.4228148,-0.50527287,-0.21153134,0.13311559,0
1.6000000000000012,12.95562353254707,-0.5215113619868381,-0.8102935529956585,0.1888238546115246,12.620519,0.4644991,-1.0011029,-0.030478247,3.6245387,-3.7633152,1.8669368,-0.4621688,0.117125966,-0.35617206,-0.80363053,-10.328221,7.4996147,-0.42881376,-0.50527287,-0.21153134,0.13311559,1
1.6100000000000012,12.95562353254707,-0.5215113619868381,-0.8102935529956585,0.1888238546115246,12.620519,0.4644991,-1.0011029,-0.030478247,3.5213466,-3.6878903,1.8626121,-0.46433908,0.11208251,-0.3557018,-0.80330694,-10.30999,7.5852823,-0.43604973,0.4644991,-1.0011029,-0.030478247,1
1.6200000000000012,12.95562353254707,-0.5215113619868381,-0.8102935529956585,0.1888238546115246,12.620519,0.4644991,-1.0011029,-0.030478247,3.4183428,-3.611612,1.8582171,-0.4664952,0.10703564,-0.35522074,-0.8029589,-10.290587,7.670295,-0.44291347,0.4644991,-1.0011029,-0.030478247,1
1.6300000000000012,12.95562353254707,-0.5215113619868381,-0.8102935529956585,0.1888238546115246,12.620519,0.4644991,-1.0011029,-0.030478247,3.3155391,-3.534487,1.8537551,-0.46863708,0.10198551,-0.35472885,-0.8025864,-10.270017,7.7546415,-0.44941583,0.4644991,-1.0011029,-0.030478247,1
1.6400000000000012,12.95562353254707,-0.5215113619868381,-0.8102935529956585,0.1888238546115246,12.742066,0.6002618,-1.3572365,-0.09176242,3.2129467,-3.456522,1.84923,-0.47076473,0.09693228,-0.35422614,-0.80218935,-10.24828,7.8383117,-0.4555677,0.4644991,-1.0011029,-0.030478247,0
1.6500000000000012,12.95562353254707,-0.5215113619868381,-0.8102935529956585,0.1888238546115246,12.742066,0.6002618,-1.3572365,-0.09176242,3.1105793,-3.3777127,1.8446578,-0.47118407,0.09457419,-0.35031435,-0.8039405,-10.225216,7.9234157,-0.4587461,-0.5215114,-0.81029356,0.18882385,0
1.6600000000000013,12.95562353254707,-0.5215113619868381,-0.8102935529956585,0.1888238546115246,12.742066,0.6002618,-1.3572365,-0.09176242,3.0084426,-3.2980568,1.8400578,-0.47159207,0.09221383,-0.34639412,-0.8056722,-10.202145,8.007585,-0.46109682,-0.5215114,-0.81029356,0.18882385,0
1.6700000000000013,12.95562353254707,-0.5215113619868381,-0.8102935529956585,0.1888238546115246,12.742066,0.6002618,-1.3572365,-0.09176242,2.9065368,-3.217564,1.8354385,-0.47198868,0.08985124,-0.34246555,-0.8073846,-10.179064,8.09081,-0.46262908,-0.5215114,-0.81029356,0.18882385,0
1.6800000000000013,13.1450303441464,-0.9670357654441896,-0.6846979599638813,0.30488555716624716,12.79706,-0.018130898,-1.614786,-0.031368002,2.8048618,-3.1362436,1.8308079,-0.47237393,0.08748648,-0.33852872,-0.8090775,-10.155975,8.173085,-0.46335214,-0.5215114,-0.81029356,0.18882385,1
1.6900000000000013,13.1450303441464,-0.9670357654441896,-0.6846979599638813,0.30488555716624716,12.79706,-0.018130898,-1.614786,-0.031368002,2.7034173,-3.0541108,1.8261683,-0.4752107,0.081047185,-0.33461675,-0.8097141,-10.132754,8.253212,-0.46441293,-0.018130898,-1.614786,-0.031368002,1
1.7000000000000013,13.1450303441464,-0.9670357654441896,-0.6846979599638813,0.30488555716624716,12.79706,-0.018130898,-1.614786,-0.031368002,2.6022105,-2.9711845,1.8215227,-0.47801647,0.0746026,-0.33068296,-0.81029785,-10.108445,8.331856,-0.4645314,-0.018130898,-1.614786,-0.031368002,1
1.7100000000000013,13.1450303441464,-0.9670357654441896,-0.6846979599638813,0.30488555716624716,12.79706,-0.018130898,-1.614786,-0.031368002,2.5012522,-2.887479,1.8168806,-0.48079106,0.068153135,-0.32672757,-0.8108288,-10.0830555,8.408996,-0.46373278,-0.018130898,-1.614786,-0.031368002,1
1.7200000000000013,13.312010065631588,-1.2943076136774267,-0.4943424004750244,0.3873149013470145,12.921614,-0.018019527,-2.2305148,-0.12455618,2.4005532,-2.8030097,1.812251,-0.4835343,0.061699238,-0.3227509,-0.81130683,-10.056593,8.4846115,-0.46204263,-0.018130898,-1.614786,-0.031368002,0
1.7300000000000013,13.312010065631588,-1.2943076136774267,-0.4943424004750244,0.3873149013470145,12.921614,-0.018019527,-2.2305148,-0.12455618,2.3001275,-2.7177765,1.8076631,-0.4823491,0.0621965,-0.31641656,-0.81446344,-10.028774,8.561875,-0.4553703,-1.2943076,-0.4943424,0.38731492,0
1.7400000000000013,13.312010065631588,-1.2943076136774267,-0.4943424004750244,0.3873149013470145,12.921614,-0.018019527,-2.2305148,-0.12455618,2.1999743,-2.631776,1.8031472,-0.48113894,0.06269055,-0.3100658,-0.81757784,-10.002029,8.638073,-0.4476434,-1.2943076,-0.4943424,0.38731492,0
1.7500000000000013,13.312010065631588,-1.2943076136774267,-0.4943424004750244,0.3873149013470145,12.921614,-0.018019527,-2.2305148,-0.12455618,2.100083,-2.5450191,1.7987138,-0.4799039,0.06318135,-0.30369905,-0.82065,-9.976359,8.713187,-0.43888074,-1.2943076,-0.4943424,0.38731492,0
1.7600000000000013,13.268538031790747,-1.3741654103454501,-0.717858593866102,0.5257161832985321,13.371512,-0.5207724,-2.13297,-0.01064162,2.0004432,-2.4575162,1.7943732,-0.47864398,0.063668884,-0.29731655,-0.8236796,-9.951763,8.787198,-0.42910132,-1.2943076,-0.4943424,0.38731492,0
1.7700000000000014,13.268538031790747,-1.3741654103454501,-0.717858593866102,0.5257161832985321,13.371512,-0.5207724,-2.13297,-0.01064162,1.9010437,-2.3692803,1.7901336,-0.47709253,0.06321748,-0.2900967,-0.8271815,-9.928288,8.859752,-0.41862002,-1.3741654,-0.7178586,0.5257162,0
1.7800000000000014,13.268538031790747,-1.3741654103454501,-0.717858593866102,0.5257161832985321,13.371512,-0.5207724,-2.13297,-0.01064162,1.801874,-2.280326,1.7860047,-0.47550914,0.06276185,-0.2828574,-0.830628,-9.90581,8.930906,-0.40700734,-1.3741654,-0.7178586,0.5257162,0
1.7900000000000014,13.268538031790747,-1.3741654103454501,-0.717858593866102,0.5257161832985321,13.371512,-0.5207724,-2.13297,-0.01064162,1.702924,-2.1906672,1.7819974,-0.47389388,0.062302012,-0.27559915,-0.83401877,-9.884323,9.000638,-0.39428806,-1.3741654,-0.7178586,0.5257162,0
1.8000000000000014,13.274737188613813,-1.387566959439911,-0.5135943917200068,0.5667270478558655,13.447849,-0.36051327,-2.2073004,-0.08325295,1.604184,-2.100318,1.7781227,-0.4722469,0.061838,-0.2683224,-0.8373537,-9.863823,9.068925,-0.38048735,-1.3741654,-0.7178586,0.5257162,0
1.8100000000000014,13.274737188613813,-1.387566959439911,-0.5135943917200068,0.5667270478558655,13.447849,-0.36051327,-2.2073004,-0.08325295,1.505644,-2.009293,1.7743914,-0.47011936,0.062201798,-0.26146713,-0.84068596,-9.844358,9.13585,-0.36561117,-1.3875669,-0.5135944,0.56672704,0
1.8200000000000014,13.274737188613813,-1.387566959439911,-0.5135943917200068,0.5667270478558655,13.447849,-0.36051327,-2.2073004,-0.08325295,1.407293,-1.9176054,1.7708137,-0.46796232,0.06256169,-0.25459543,-0.8439654,-9.826034,9.201487,-0.3497912,-1.3875669,-0.5135944,0.56672704,0
1.8300000000000014,13.274737188613813,-1.387566959439911,-0.5135943917200068,0.5667270478558655,13.447849,-0.36051327,-2.2073004,-0.08325295,1.3091195,-1.8252679,1.7673988,-0.4657759,0.062917665,-0.2477078,-0.8471919,-9.8088455,9.265811,-0.33305022,-1.3875669,-0.5135944,0.56672704,0
1.8400000000000014,13.274737188613813,-1.387566959439911,-0.5135943917200068,0.5667270478558655,13.478334,-0.33747387,-1.9280173,-0.04810089,1.2111121,-1.7322937,1.7641559,-0.46356025,0.06326968,-0.2408046,-0.8503652,-9.792789,9.328805,-0.31541124,-1.3875669,-0.5135944,0.56672704,0
1.8500000000000014,13.274737188613813,-1.387566959439911,-0.5135943917200068,0.5667270478558655,13.478334,-0.33747387,-1.9280173,-0.04810089,1.1132598,-1.6386964,1.7610936,-0.4613155,0.06361773,-0.2338863,-0.85348517,-9.777858,9.390448,-0.29689744,-1.3875669,-0.5135944,0.56672704,0
1.8600000000000014,13.274737188613813,-1.387566959439911,-0.5135943917200068,0.5667270478558655,13.478334,-0.33747387,-1.9280173,-0.04810089,1.0155512,-1.5444896,1.7582209,-0.45904183,0.06396178,-0.22695331,-0.8565516,-9.764047,9.45072,-0.27753234,-1.3875669,-0.5135944,0.56672704,0
1.8700000000000014,13.274737188613813,-1.387566959439911,-0.5135943917200068,0.5667270478558655,13.478334,-0.33747387,-1.9280173,-0.04810089,0.91797507,-1.4496869,1.755546,-0.45673934,0.064301826,-0.22000608,-0.85956424,-9.751349,9.509603,-0.25733954,-1.3875669,-0.5135944,0.56672704,0
1.8800000000000014,12.98002684266633,-1.2822087103368462,-1.5452129836494075,0.7274678322768675,13.410066,-0.29220885,-1.7886823,-0.13909522,0.8205204,-1.3543024,1.753077,-0.4544082,0.06463784,-0.21304506,-0.86252296,-9.739759,9.567077,-0.23634286,-1.3875669,-0.5135944,0.56672704,1
1.8900000000000015,12.98002684266633,-1.2822087103368462,-1.5452129836494075,0.7274678322768675,13.410066,-0.29220885,-1.7886823,-0.13909522,0.72317904,-1.2583481,1.750828,-0.4568002,0.057733443,-0.20766723,-0.86306065,-9.728346,9.623483,-0.21332036,-0.29220885,-1.7886823,-0.13909522,1
1.9000000000000015,12.98002684266633,-1.2822087103368462,-1.5452129836494075,0.7274678322768675,13.410066,-0.29220885,-1.7886823,-0.13909522,0.62595713,-1.1618398,1.7488134,-0.45915446,0.050824277,-0.20227227,-0.86352706,-9.71587,9.677862,-0.18947908,-0.29220885,-1.7886823,-0.13909522,1
1.9100000000000015,12.98002684266633,-1.2822087103368462,-1.5452129836494075,0.7274678322768675,13.410066,-0.29220885,-1.7886823,-0.13909522,0.5288653,-1.0647979,1.747041,-0.46147078,0.043910917,-0.19686058,-0.8639221,-9.702337,9.730197,-0.16485822,-0.29220885,-1.7886823,-0.13909522,1
1.9200000000000015,12.820727814461506,-1.6744008312943628,-0.8795354693320285,0.8007230160392368,13.294624,-0.25112027,-2.003544,-0.12465984,0.431914,-0.96724296,1.7455184,-0.463749,0.03699393,-0.19143264,-0.8642458,-9.687754,9.780469,-0.13949724,-0.29220885,-1.7886823,-0.13909522,0
1.9300000000000015,12.820727814461506,-1.6744008312943628,-0.8795354693320285,0.8007230160392368,13.294624,-0.25112027,-2.003544,-0.12465984,0.33510807,-0.8692063,1.7442262,-0.46079665,0.0363074,-0.18229593,-0.8678222,-9.673603,9.826555,-0.11880117,-1.6744008,-0.8795355,0.800723,0
1.9400000000000015,12.820727814461506,-1.6744008312943628,-0.8795354693320285,0.8007230160392368,13.294624,-0.25112027,-2.003544,-0.12465984,0.23843811,-0.7707187,1.7431453,-0.4577957,0.035617046,-0.17313999,-0.8713071,-9.660555,9.870664,-0.0972321,-1.6744008,-0.8795355,0.800723,0
1.9500000000000015,12.820727814461506,-1.6744008312943628,-0.8795354693320285,0.8007230160392368,13.294624,-0.25112027,-2.003544,-0.12465984,0.14189321,-0.67179996,1.7422844,-0.4547465,0.03492294,-0.16396579,-0.87470007,-9.648594,9.912773,-0.07483142,-1.6744008,-0.8795355,0.800723,0
1.9600000000000015,12.401712602725887,-1.95042057278858,-1.5971301832951093,1.0531919318830874,13.540536,-0.9424766,-1.393148,0.2233082,0.045462526,-0.5724702,1.7416514,-0.45164934,0.034225143,-0.15477431,-0.87800086,-9.63771,9.952858,-0.051640887,-1.6744008,-0.8795355,0.800723,0
1.9700000000000015,12.401712602725887,-1.95042057278858,-1.5971301832951093,1.0531919318830874,13.540536,-0.9424766,-1.393148,0.2233082,-0.05086599,-0.47275704,1.7412345,-0.44788602,0.030800145,-0.1427714,-0.8820799,-9.628113,9.98932,-0.031597212,-1.9504206,-1.5971302,1.0531919,0
1.9800000000000015,12.401712602725887,-1.95042057278858,-1.5971301832951093,1.0531919318830874,13.540536,-0.9424766,-1.393148,0.2233082,-0.14710233,-0.37269375,1.7410226,-0.4440391,0.027369397,-0.13074183,-0.8859944,-9.619269,10.022888,-0.010640719,-1.9504206,-1.5971302,1.0531919,0
1.9900000000000015,12.401712602725887,-1.95042057278858,-1.5971301832951093,1.0531919318830874,13.540536,-0.9424766,-1.393148,0.2233082,-0.24325389,-0.27230933,1.7410245,-0.4401093,0.023933541,-0.11868789,-0.88974345,-9.611153,10.053534,0.011152868,-1.9504206,-1.5971302,1.0531919,0
2.0000000000000013,,,,,13.814193,-1.1046019,-1.229895,0.32190087,-0.33932778,-0.17163321,1.7412483,-0.4360974,0.02049322,-0.10661179,-0.8933265,-9.603737,10.081228,0.033707194,-1.9504206,-1.5971302,1.0531919,0
2.010000000000001,,,,,13.814193,-1.1046019,-1.229895,0.32190087,-0.4353326,-0.07069517,1.7416945,-0.43120828,0.02334567,-0.096448496,-0.89677835,-9.597516,10.1060915,0.05558256,-2.1583102,-0.28671047,1.0721345,0
2.020000000000001,,,,,13.814193,-1.1046019,-1.229895,0.32190087,-0.53128445,0.030482138,1.7423615,-0.42625564,0.026194679,-0.086271,-0.9000981,-9.593137,10.129074,0.07791338,-2.1583102,-0.28671047,1.0721345,0
2.0300000000000007,,,,,13.814193,-1.1046019,-1.229895,0.32190087,-0.6272016,0.13187975,1.7432541,-0.42124024,0.02903983,-0.07608081,-0.9032853,-9.590579,10.150146,0.100645535,-2.1583102,-0.28671047,1.0721345,0
2.0400000000000005,,,,,13.814193,-1.1046019,-1.229895,0.32190087,-0.7231023,0.2334784,1.7443756,-0.41616285,0.031880707,-0.065879405,-0.9063395,-9.589825,10.169278,0.12372464,-2.1583102,-0.28671047,1.0721345,0
2.0500000000000003,,,,,14.162153,-1.1596348,-0.24953195,0.4448981,-0.81900424,0.33525857,1.7457294,-0.41102412,0.034716893,-0.055668313,-0.90926033,-9.590853,10.186442,0.14709611,-2.1583102,-0.28671047,1.0721345,1
2.06,,,,,14.162153,-1.1596348,-0.24953195,0.4448981,-0.9149262,0.4372134,1.7474122,-0.40886143,0.035841096,-0.049959593,-0.91052246,-9.593687,10.204318,0.18945563,-1.1596348,-0.24953195,0.4448981,1
2.07,,,,,14.162153,-1.1596348,-0.24953195,0.4448981,-1.0108814,0.53934026,1.7495191,-0.4066823,0.03696386,-0.044248868,-0.91174805,-9.597517,10.220847,0.2319563,-1.1596348,-0.24953195,0.4448981,1
2.0799999999999996,,,,,14.162153,-1.1596348,-0.24953195,0.4448981,-1.1068798,0.6416257,1.7520516,-0.40448686,0.038085148,-0.038536366,-0.9129371,-9.602335,10.236024,0.27457902,-1.1596348,-0.24953195,0.4448981,1
2.0899999999999994,,,,,14.37405,-1.1649518,-0.49639198,0.38590637,-1.2029314,0.7440561,1.7550108,-0.40227517,0.039204903,-0.032822315,-0.9140895,-9.608135,10.249842,0.3173047,-1.1596348,-0.24953195,0.4448981,1
2.099999999999999,,,,,14.37405,-1.1649518,-0.49639198,0.38590637,-1.299046,0.8466185,1.7584084,-0.40035573,0.039215133,-0.026574505,-0.91513425,-9.614924,10.262381,0.3622353,-1.1649518,-0.49639198,0.38590637,1
2.109999999999999,,,,,14.37405,-1.1649518,-0.49639198,0.38590637,-1.3952324,0.94929796,1.762256,-0.39841872,0.03922365,-0.020325534,-0.91613877,-9.622462,10.273264,0.40726396,-1.1649518,-0.49639198,0.38590637,1
2.1199999999999988,,,,,14.37405,-1.1649518,-0.49639198,0.38590637,-1.4914979,1.0520781,1.7665542,-0.3964643,0.039230444,-0.014075672,-0.9171032,-9.630742,10.282486,0.4523683,-1.1649518,-0.49639198,0.38590637,1
2.1299999999999986,,,,,14.020682,-1.6329086,0.10944374,0.5463389,-1.5878499,1.1549422,1.7713037,-0.39449248,0.039235517,-0.007825191,-0.91802746,-9.639755,10.290044,0.49752587,-1.1649518,-0.49639198,0.38590637,1
2.1399999999999983,,,,,14.020682,-1.6329086,0.10944374,0.5463389,-1.6842955,1.2578728,1.7764871,-0.39164543,0.042935845,-0.0006527676,-0.91911334,-9.649651,10.295848,0.5391611,-1.6329086,0.10944374,0.5463389,1
2.149999999999998,,,,,14.020682,-1.6329086,0.10944374,0.5463389,-1.780849,1.360854,1.7820866,-0.38876924,0.04663298,0.0065197046,-0.9201308,-9.661302,10.300176,0.58071446,-1.6329086,0.10944374,0.5463389,1
