time-since-start [s],throttle_mpc,roll_mpc,pitch_mpc,yaw_mpc,throttle_nw,roll_nw,pitch_nw,yaw_nw,position_x [m],position_y [m],position_z [m],rotation_w [quaternion],rotation_x [quaternion],rotation_y [quaternion],rotation_z [quaternion],velocity_x [m/s],velocity_y [m/s],velocity_z [m/s],omega_x [rad/s],omega_y [rad/s],omega_z [rad/s],network_used
0.0,6.068986465645117,-2.221435830792829,-5.999999701118602,1.4741796908856963,8.980549,1.022406,-0.6987215,-0.61138844,12.912894,-11.834263,1.0952393,-0.28953838,0.46283114,-0.235157,-0.80414927,-3.2239192,3.3651,0.09970869,0.13888502,0.9221162,0.8751289,0
0.01,6.068986465645117,-2.221435830792829,-5.999999701118602,1.4741796908856963,8.293731,0.23784845,-1.5928179,-0.3568523,12.880389,-11.80033,1.0959464,-0.28562206,0.46371028,-0.23829708,-0.804119,-3.2767549,3.4212508,0.04140948,0.042526856,0.11383341,0.8802469,0
0.02,6.068986465645117,-2.221435830792829,-5.999999701118602,1.4741796908856963,8.293731,0.23784845,-1.5928179,-0.3568523,12.847365,-11.765845,1.0960617,-0.28233284,0.46166155,-0.2399312,-0.8059714,-3.3276312,3.4753509,-0.018565461,-0.073091246,-0.60265046,0.88817626,0
0.03,6.068986465645117,-2.221435830792829,-5.999999701118602,1.4741796908856963,8.293731,0.23784845,-1.5928179,-0.3568523,12.813843,-11.73083,1.0955718,-0.27952442,0.4570378,-0.24012916,-0.8095187,-3.3764966,3.5273297,-0.079578176,-0.20270832,-1.2394011,0.8985781,0
0.04,6.068986465645117,-2.221435830792829,-5.999999701118602,1.4741796908856963,8.100343,-0.6477774,-2.1423151,-0.0026330054,12.779841,-11.695307,1.0944685,-0.27706623,0.45012686,-0.23895244,-0.8145685,-3.4233303,3.5771356,-0.14111416,-0.34207508,-1.8067923,0.91114676,0
0.05,6.068986465645117,-2.221435830792829,-5.999999701118602,1.4741796908856963,8.100343,-0.6477774,-2.1423151,-0.0026330054,12.745382,-11.659295,1.092749,-0.2748432,0.44116467,-0.23645581,-0.8209286,-3.4681277,3.624727,-0.20276347,-0.48777926,-2.3137531,0.92560726,0
0.060000000000000005,6.068986465645117,-2.221435830792829,-5.999999701118602,1.4741796908856963,8.100343,-0.6477774,-2.1423151,-0.0026330054,12.710485,-11.62282,1.0904139,-0.27275464,0.43034586,-0.23268859,-0.82841027,-3.5108917,3.6700673,-0.26420468,-0.6370994,-2.7679782,0.9417121,0
0.07,6.068986465645117,-2.221435830792829,-5.999999701118602,1.4741796908856963,8.100343,-0.6477774,-2.1423151,-0.0026330054,12.675172,-11.585902,1.0874666,-0.27071318,0.41783217,-0.22769581,-0.8368306,-3.5516262,3.713122,-0.32519153,-0.78788364,-3.1761065,0.95923877,0
0.08,9.423342393431025,-2.9387204535348803,-5.9999997725904395,2.1439361239688237,10.043114,-1.3554825,-1.4562566,0.035535783,12.6394615,-11.548567,1.0839124,-0.26864332,0.40375924,-0.22151919,-0.84601337,-3.5903325,3.753857,-0.38554168,-0.93844676,-3.5438712,0.9779875,0
0.09,9.423342393431025,-2.9387204535348803,-5.9999997725904395,2.1439361239688237,10.043114,-1.3554825,-1.4562566,0.035535783,12.603271,-11.510728,1.0798647,-0.26631558,0.38834864,-0.21407376,-0.85582346,-3.6473908,3.8135552,-0.42373058,-1.1691937,-3.8462107,1.0279489,0
0.09999999999999999,9.423342393431025,-2.9387204535348803,-5.9999997725904395,2.1439361239688237,10.043114,-1.3554825,-1.4562566,0.035535783,12.566523,-11.472309,1.0754433,-0.26353288,0.37176916,-0.2052765,-0.8661407,-3.7016144,3.869783,-0.46029872,-1.3908756,-4.1283345,1.0778661,0
0.10999999999999999,9.423342393431025,-2.9387204535348803,-5.9999997725904395,2.1439361239688237,10.043114,-1.3554825,-1.4562566,0.035535783,12.529246,-11.433345,1.0706646,-0.26027775,0.35405615,-0.19516823,-0.87681764,-3.7529857,3.922385,-0.4951932,-1.6037962,-4.392284,1.1276424,0
0.11999999999999998,9.423342393431025,-2.9387204535348803,-5.9999997725904395,2.1439361239688237,10.043114,-1.3554825,-1.4562566,0.035535783,12.491472,-11.393874,1.0655454,-0.25653458,0.33524176,-0.18378867,-0.8877076,-3.8015347,3.971283,-0.52831995,-1.8068519,-4.638418,1.177069,0
0.12999999999999998,13.25532553990901,-1.7237352919698674,-5.83193226542871,0.557520601408216,11.621153,-1.6075817,-1.0571854,0.25682315,12.453223,-11.35393,1.0601087,-0.2523002,0.31538638,-0.17122851,-0.8986417,-3.8480287,4.0171523,-0.55850464,-1.9830536,-4.8509526,1.2245134,0
0.13999999999999999,13.25532553990901,-1.7237352919698674,-5.83193226542871,0.557520601408216,11.621153,-1.6075817,-1.0571854,0.25682315,12.414428,-11.313455,1.0545301,-0.24790397,0.29456365,-0.1580382,-0.9092854,-3.9105954,4.077389,-0.55648744,-1.9425977,-5.003862,1.1917839,0
0.15,13.25532553990901,-1.7237352919698674,-5.83193226542871,0.557520601408216,11.621153,-1.6075817,-1.0571854,0.25682315,12.375022,-11.272399,1.0489941,-0.2436319,0.27285832,-0.14467618,-0.91938066,-3.9699483,4.133141,-0.55001557,-1.9084702,-5.1329336,1.1606605,0
0.16,15.026409992562348,-0.5235739506902454,-4.179188170647639,-0.6153435541946636,12.462659,-1.4673268,-0.61513186,-0.009753257,12.335041,-11.230808,1.0435442,-0.2394376,0.2503775,-0.13115902,-0.9288586,-4.0256996,4.184275,-0.53928906,-1.8796794,-5.2418838,1.1310642,0
0.17,15.026409992562348,-0.5235739506902454,-4.179188170647639,-0.6153435541946636,12.462659,-1.4673268,-0.61513186,-0.009753257,12.294487,-11.188698,1.0382969,-0.23545453,0.2277412,-0.11807372,-0.9374187,-4.0844264,4.2369146,-0.50950515,-1.6686016,-5.075907,1.0453675,0
0.18000000000000002,15.026409992562348,-0.5235739506902454,-4.179188170647639,-0.6153435541946636,12.462659,-1.4673268,-0.61513186,-0.009753257,12.253368,-11.146088,1.0333681,-0.23181967,0.20547162,-0.10589513,-0.9448954,-4.138431,4.2844024,-0.4756853,-1.490393,-4.935863,0.963876,0
0.19000000000000003,15.026409992562348,-0.5235739506902454,-4.179188170647639,-0.6153435541946636,12.462659,-1.4673268,-0.61513186,-0.009753257,12.211735,-11.103026,1.0287955,-0.22850108,0.18352075,-0.09448554,-0.9514094,-4.187542,4.326984,-0.43832445,-1.3399361,-4.8176975,0.8863833,0
0.20000000000000004,15.239924217068408,-0.029623041005390885,-2.816203894330007,-1.0948444721196955,12.115381,-0.46943933,0.5957237,-0.15015641,12.169636,-11.059565,1.0246122,-0.22547033,0.1618457,-0.08372804,-0.95705736,-4.23162,4.364874,-0.3978733,-1.2129095,-4.717991,0.8126931,0
0.21000000000000005,15.239924217068408,-0.029623041005390885,-2.816203894330007,-1.0948444721196955,12.115381,-0.46943933,0.5957237,-0.15015641,12.127118,-11.015742,1.0208572,-0.22274783,0.14089377,-0.07382685,-0.96181184,-4.27113,4.398762,-0.35275334,-1.0288044,-4.4212475,0.7190897,0
0.22000000000000006,15.239924217068408,-0.029623041005390885,-2.816203894330007,-1.0948444721196955,12.115381,-0.46943933,0.5957237,-0.15015641,12.084231,-10.971603,1.0175648,-0.22036496,0.121024445,-0.06494064,-0.96569926,-4.305525,4.4284563,-0.30539832,-0.87334293,-4.170818,0.63007945,0
0.23000000000000007,15.239924217068408,-0.029623041005390885,-2.816203894330007,-1.0948444721196955,12.115381,-0.46943933,0.5957237,-0.15015641,12.041025,-10.927187,1.0147554,-0.21831053,0.10208134,-0.056915987,-0.9688552,-4.3349376,4.4543104,-0.25622705,-0.74207103,-3.9594712,0.5454369,0
0.24000000000000007,15.239924217068408,-0.029623041005390885,-2.816203894330007,-1.0948444721196955,13.213477,0.3258248,1.9543338,-0.35556844,11.99755,-10.88253,1.0124452,-0.21657196,0.083929144,-0.049622804,-0.9713856,-4.3594923,4.476628,-0.20559348,-0.63122743,-3.7811065,0.46494782,0
0.25000000000000006,15.239924217068408,-0.029623041005390885,-2.816203894330007,-1.0948444721196955,13.213477,0.3258248,1.9543338,-0.35556844,11.953853,-10.8376665,1.0106474,-0.21513589,0.06645135,-0.042951033,-0.97337353,-4.3793044,4.4956684,-0.15380068,-0.53763473,-3.630575,0.38840836,0
0.26000000000000006,15.239924217068408,-0.029623041005390885,-2.816203894330007,-1.0948444721196955,13.213477,0.3258248,1.9543338,-0.35556844,11.909981,-10.792627,1.0093722,-0.21398863,0.049548093,-0.036807764,-0.97488415,-4.3944798,4.511655,-0.10111177,-0.45860907,-3.5035322,0.3156247,0
0.2700000000000001,15.239924217068408,-0.029623041005390885,-2.816203894330007,-1.0948444721196955,13.213477,0.3258248,1.9543338,-0.35556844,11.865978,-10.747443,1.0086275,-0.21311651,0.033134054,-0.031114692,-0.9759689,-4.4051127,4.5247765,-0.047758523,-0.39188448,-3.396312,0.24641258,0
0.2800000000000001,16.05933183245541,0.47723894462148914,-0.36730107142359925,-1.3186547104694066,13.986696,0.63991207,1.9147042,-0.53827477,11.821894,-10.702142,1.0084188,-0.21250597,0.0171366,-0.025805898,-0.9766686,-4.41129,4.5351934,0.0060519017,-0.33554664,-3.3058207,0.18059672,0
0.2900000000000001,16.05933183245541,0.47723894462148914,-0.36730107142359925,-1.3186547104694066,13.986696,0.63991207,1.9147042,-0.53827477,11.777768,-10.656746,1.0087905,-0.21215177,0.0024091108,-0.021231992,-0.97700304,-4.4132447,4.5435057,0.068311825,-0.20898487,-2.847535,0.10702804,0
0.3000000000000001,16.05933183245541,0.47723894462148914,-0.36730107142359925,-1.3186547104694066,13.986696,0.63991207,1.9147042,-0.53827477,11.733643,-10.611279,1.0097854,-0.21206093,-0.010375487,-0.017668843,-0.9770416,-4.4111023,4.5495543,0.13067225,-0.10210906,-2.4607315,0.037069388,0
0.3100000000000001,16.05933183245541,0.47723894462148914,-0.36730107142359925,-1.3186547104694066,13.986696,0.63991207,1.9147042,-0.53827477,11.689557,-10.565761,1.0114039,-0.21223438,-0.021518508,-0.01496416,-0.97686726,-4.405368,4.553762,0.19300455,-0.011861235,-2.1342592,-0.029456383,0
0.3200000000000001,16.586762662704597,0.8482111337562458,2.009860253021759,-1.3951935451281625,13.979523,0.39705497,2.2637794,-0.29410544,11.645545,-10.520209,1.0136452,-0.21266893,-0.031275425,-0.012988972,-0.97653735,-4.396471,4.5564837,0.25522554,0.06434171,-1.858707,-0.09271771,0
0.3300000000000001,16.586762662704597,0.8482111337562458,2.009860253021759,-1.3951935451281625,13.979523,0.39705497,2.2637794,-0.29410544,11.601639,-10.474637,1.0165341,-0.21335207,-0.03896525,-0.011982031,-0.9761246,-4.3844523,4.558109,0.3225474,0.18656832,-1.2554209,-0.15663058,0
0.34000000000000014,16.586762662704597,0.8482111337562458,2.009860253021759,-1.3951935451281625,13.979523,0.39705497,2.2637794,-0.29410544,11.557864,-10.429051,1.0200956,-0.21427508,-0.044060905,-0.012127569,-0.97570384,-4.370311,4.559068,0.38970754,0.28977236,-0.74622387,-0.21740726,0
0.35000000000000014,16.586762662704597,0.8482111337562458,2.009860253021759,-1.3951935451281625,13.979523,0.39705497,2.2637794,-0.29410544,11.514237,-10.383456,1.024328,-0.21543397,-0.046968553,-0.013250984,-0.97529835,-4.354759,4.55988,0.4567422,0.37690842,-0.31644046,-0.27520156,0
0.36000000000000015,17.416968937650168,1.091555398786188,3.9606465771971076,-1.3693694425661649,14.156022,-0.31353718,2.3457198,0.8207699,11.470772,-10.3378525,1.0292301,-0.21682085,-0.048030294,-0.015204292,-0.97491074,-4.3383956,4.5609813,0.5236969,0.45047373,0.046315603,-0.3301599,0
0.37000000000000016,17.416968937650168,1.091555398786188,3.9606465771971076,-1.3693694425661649,14.156022,-0.31353718,2.3457198,0.8207699,11.427475,-10.292233,1.034843,-0.21840513,-0.04679436,-0.018126553,-0.9745672,-4.3209405,4.5628653,0.59887916,0.55060196,0.6567137,-0.38115418,0
0.38000000000000017,17.416968937650168,1.091555398786188,3.9606465771971076,-1.3693694425661649,14.156022,-0.31353718,2.3457198,0.8207699,11.384352,-10.246591,1.0412079,-0.22015435,-0.04291709,-0.022121986,-0.9742695,-4.303994,4.566027,0.6740928,0.6351272,1.1719191,-0.42964622,0
0.3900000000000002,17.416968937650168,1.091555398786188,3.9606465771971076,-1.3693694425661649,14.156022,-0.31353718,2.3457198,0.8207699,11.341392,-10.200907,1.0483252,-0.22205405,-0.03680919,-0.027026864,-0.9739646,-4.2883153,4.570998,0.74938256,0.7064761,1.6067785,-0.4757587,0
0.4000000000000002,17.649083166166648,1.096122972904898,4.789480693249386,-1.2692647268585049,16.44025,-0.69360405,1.2984838,1.8623694,11.298579,-10.155162,1.0561957,-0.22408837,-0.028816875,-0.032701448,-0.9735939,-4.274541,4.5782356,0.82475334,0.76669854,1.9738226,-0.5196085,0
0.4100000000000002,17.649083166166648,1.096122972904898,4.789480693249386,-1.2692647268585049,16.44025,-0.69360405,1.2984838,1.8623694,11.255894,-10.109331,1.064832,-0.22621705,-0.018910427,-0.03910221,-0.9731083,-4.2630777,4.5882716,0.9024817,0.8182778,2.4128857,-0.55639434,0
0.4200000000000002,17.649083166166648,1.096122972904898,4.789480693249386,-1.2692647268585049,16.44025,-0.69360405,1.2984838,1.8623694,11.213307,-10.063385,1.0742453,-0.22839859,-0.007082225,-0.046187256,-0.97244596,-4.2547164,4.601424,0.980178,0.8618049,2.7834792,-0.5913751,0
0.4300000000000002,17.649083166166648,1.096122972904898,4.789480693249386,-1.2692647268585049,16.44025,-0.69360405,1.2984838,1.8623694,11.170787,-10.01729,1.084435,-0.23061565,0.0063672625,-0.053847153,-0.97153324,-4.25001,4.618071,1.0577126,0.89853394,3.0962806,-0.6246394,0
0.4400000000000002,17.649083166166648,1.096122972904898,4.789480693249386,-1.2692647268585049,17.02705,-1.4081798,-0.45635062,3.1865995,11.128294,-9.971011,1.0953985,-0.232852,0.021182556,-0.06198729,-0.9703037,-4.249417,4.63853,1.1349049,0.9295242,3.3603027,-0.65627134,0
0.45000000000000023,17.649083166166648,1.096122972904898,4.789480693249386,-1.2692647268585049,17.02705,-1.4081798,-0.45635062,3.1865995,11.085784,-9.924506,1.1071312,-0.23509274,0.03714583,-0.07052561,-0.9686992,-4.253312,4.6630692,1.211529,0.9556704,3.5831523,-0.68635106,0
0.46000000000000024,17.649083166166648,1.096122972904898,4.789480693249386,-1.2692647268585049,17.02705,-1.4081798,-0.45635062,3.1865995,11.043211,-9.877734,1.1196262,-0.23732442,0.054070845,-0.07939079,-0.9666701,-4.261999,4.6919107,1.2873204,0.9777281,3.7712505,-0.71495485,0
0.47000000000000025,17.649083166166648,1.096122972904898,4.789480693249386,-1.2692647268585049,17.02705,-1.4081798,-0.45635062,3.1865995,11.000526,-9.830652,1.1328737,-0.23953484,0.071797945,-0.088520594,-0.9641746,-4.275717,4.725236,1.3619816,0.9963351,3.9300165,-0.74215496,0
0.48000000000000026,15.940386866432352,0.8696552276968706,4.480021742442956,-1.130190875248766,13.203353,-0.106602505,0.6480047,1.746956,10.957679,-9.783214,1.1468607,-0.24171314,0.090189874,-0.09786066,-0.9611786,-4.294645,4.763188,1.4351892,1.01203,4.0640244,-0.7680204,0
0.49000000000000027,15.940386866432352,0.8696552276968706,4.480021742442956,-1.130190875248766,13.203353,-0.106602505,0.6480047,1.746956,10.914626,-9.735393,1.161489,-0.24383724,0.109029874,-0.10724807,-0.9576817,-4.3165593,4.801733,1.4901909,0.9899069,4.1288986,-0.78579223,0
0.5000000000000002,15.940386866432352,0.8696552276968706,4.480021742442956,-1.130190875248766,13.203353,-0.106602505,0.6480047,1.746956,10.87133,-9.687165,1.176658,-0.24588774,0.12813891,-0.11655132,-0.95369595,-4.343338,4.844553,1.5432706,0.97122794,4.183655,-0.802692,0
0.5100000000000002,15.940386866432352,0.8696552276968706,4.480021742442956,-1.130190875248766,13.203353,-0.106602505,0.6480047,1.746956,10.827742,-9.638487,1.1923468,-0.24785925,0.14745772,-0.12576835,-0.94921273,-4.374986,4.8916245,1.594129,0.95545626,4.2298717,-0.8187625,0
0.5200000000000002,12.52115157570114,0.48990779799093753,3.2018387863776194,-0.9618355179096248,8.6481905,0.51248306,1.916862,0.92852604,10.783813,-9.589318,1.208532,-0.24974717,0.16693434,-0.1348964,-0.94422597,-4.4114847,4.9429097,1.6424649,0.94213885,4.26888,-0.8340444,0
0.5300000000000002,12.52115157570114,0.48990779799093753,3.2018387863776194,-0.9618355179096248,8.6481905,0.51248306,1.916862,0.92852604,10.739539,-9.539675,1.225032,-0.25157392,0.18607771,-0.14366531,-0.93885374,-4.4439106,4.9864497,1.6571854,0.87154007,4.10251,-0.84031516,0
0.5400000000000003,12.52115157570114,0.48990779799093753,3.2018387863776194,-0.9618355179096248,8.6481905,0.51248306,1.916862,0.92852604,10.694922,-9.489579,1.2416675,-0.25336364,0.20450348,-0.15186545,-0.93323225,-4.479921,5.033077,1.6695617,0.8119634,3.96208,-0.84627825,0
0.5500000000000003,12.52115157570114,0.48990779799093753,3.2018387863776194,-0.9618355179096248,8.6481905,0.51248306,1.916862,0.92852604,10.649929,-9.439003,1.2584147,-0.25511426,0.22231285,-0.15957542,-0.92737794,-4.519321,5.0826044,1.6794925,0.76168793,3.8435457,-0.8519487,0
0.5600000000000003,9.791756800353236,0.08566158964914478,1.5076922566622863,-0.7716405899507882,9.551462,0.0855767,-0.9550038,1.3211129,10.604526,-9.3879175,1.2752486,-0.25682348,0.23959053,-0.16686153,-0.9213012,-4.561935,5.1348696,1.6868845,0.7192617,3.7434926,-0.8573409,0
0.5700000000000003,9.791756800353236,0.08566158964914478,1.5076922566622863,-0.7716405899507882,9.551462,0.0855767,-0.9550038,1.3211129,10.55873,-9.336356,1.2920308,-0.25854442,0.25582388,-0.17346333,-0.9152158,-4.597629,5.1777525,1.6692448,0.6202482,3.3948777,-0.8531355,0
0.5800000000000003,9.791756800353236,0.08566158964914478,1.5076922566622863,-0.7716405899507882,9.551462,0.0855767,-0.9550038,1.3211129,10.512566,-9.284356,1.3086267,-0.2603261,0.2706225,-0.17918405,-0.9093335,-4.6354613,5.2224345,1.6496255,0.5367081,3.1006203,-0.84913653,0
0.5900000000000003,9.791756800353236,0.08566158964914478,1.5076922566622863,-0.7716405899507882,9.551462,0.0855767,-0.9550038,1.3211129,10.466014,-9.231902,1.3250167,-0.26215914,0.28421456,-0.1841606,-0.90364826,-4.675202,5.2687073,1.6281197,0.46622324,2.8522441,-0.8453338,0
0.6000000000000003,7.7823389644664465,-0.3219090510525399,-0.5053508029326104,-0.5621783955158197,7.1056933,1.4723215,-1.6372724,-0.61793315,10.419056,-9.178978,1.3411828,-0.264034,0.296791,-0.18850814,-0.8981461,-4.716661,5.3163953,1.6048145,0.4067532,2.6425955,-0.84171766,0
0.6100000000000003,7.7823389644664465,-0.3219090510525399,-0.5053508029326104,-0.5621783955158197,7.1056933,1.4723215,-1.6372724,-0.61793315,10.371718,-9.12562,1.3570321,-0.2660239,0.30783,-0.19197282,-0.8930952,-4.750835,5.355292,1.5648127,0.29283032,2.15174,-0.82800055,0
0.6200000000000003,7.7823389644664465,-0.3219090510525399,-0.5053508029326104,-0.5621783955158197,7.1056933,1.4723215,-1.6372724,-0.61793315,10.324036,-9.07187,1.3724751,-0.26818976,0.31693667,-0.19436333,-0.8887344,-4.786024,5.394994,1.523649,0.19672374,1.7374216,-0.81495655,0
0.6300000000000003,7.7823389644664465,-0.3219090510525399,-0.5053508029326104,-0.5621783955158197,7.1056933,1.4723215,-1.6372724,-0.61793315,10.275996,-9.017718,1.3875017,-0.2705041,0.32442558,-0.1958518,-0.8849962,-4.822032,5.4353166,1.4815297,0.115646295,1.3877064,-0.8025527,0
0.6400000000000003,7.7823389644664465,-0.3219090510525399,-0.5053508029326104,-0.5621783955158197,7.101027,-0.5246944,-2.1031058,0.17693496,10.2275915,-8.963161,1.4021031,-0.27294123,0.33055848,-0.19658202,-0.8818108,-4.8587,5.4761086,1.4386371,0.04724712,1.0925213,-0.7907575,0
0.6500000000000004,7.7823389644664465,-0.3219090510525399,-0.5053508029326104,-0.5621783955158197,7.101027,-0.5246944,-2.1031058,0.17693496,10.178819,-8.908194,1.4162724,-0.275478,0.33555317,-0.19667426,-0.87911075,-4.8958993,5.517243,1.3951313,-0.010457081,0.8433637,-0.7795411,0
0.6600000000000004,7.7823389644664465,-0.3219090510525399,-0.5053508029326104,-0.5621783955158197,7.101027,-0.5246944,-2.1031058,0.17693496,10.129671,-8.852814,1.430004,-0.27809387,0.33959135,-0.19622931,-0.876833,-4.9335265,5.5586157,1.351151,-0.0591389,0.6330567,-0.768875,0
0.6700000000000004,7.7823389644664465,-0.3219090510525399,-0.5053508029326104,-0.5621783955158197,7.101027,-0.5246944,-2.1031058,0.17693496,10.080147,-8.79702,1.443294,-0.280771,0.34282473,-0.19533181,-0.87492,-4.971496,5.600139,1.3068154,-0.10020979,0.4555425,-0.7587324,0
0.6800000000000004,6.674854703737034,-0.6083484947330904,-1.8265433279489576,-0.35892603664413014,5.309378,-0.8673559,-1.1765116,0.08529529,10.030241,-8.74081,1.4561394,-0.28349397,0.34538013,-0.19405289,-0.87332004,-5.009738,5.6417394,1.2622268,-0.1348597,0.30570793,-0.74908745,0
0.6900000000000004,6.674854703737034,-0.6083484947330904,-1.8265433279489576,-0.35892603664413014,5.309378,-0.8673559,-1.1765116,0.08529529,9.979979,-8.684215,1.4685001,-0.28629053,0.3469302,-0.19221054,-0.8722001,-5.042716,5.6774225,1.2098929,-0.20886208,-0.026782066,-0.7299421,0
0.7000000000000004,6.674854703737034,-0.6083484947330904,-1.8265433279489576,-0.35892603664413014,5.309378,-0.8673559,-1.1765116,0.08529529,9.929386,-8.627262,1.4803374,-0.28917736,0.34722054,-0.18966311,-0.87168974,-5.0757847,5.7130084,1.1575693,-0.27129158,-0.30742747,-0.7117362,0
0.7100000000000004,6.674854703737034,-0.6083484947330904,-1.8265433279489576,-0.35892603664413014,5.309378,-0.8673559,-1.1765116,0.08529529,9.878463,-8.569955,1.491652,-0.29212704,0.34644577,-0.18651979,-0.8716927,-5.1088576,5.7483926,1.105398,-0.3239593,-0.54431194,-0.6944237,0
0.7200000000000004,5.866919784001329,-0.7843671108171755,-2.8577248339060257,-0.16891560738232433,3.925784,-0.539446,-1.3490443,-0.12120585,9.827209,-8.512294,1.5024463,-0.29511607,0.34476843,-0.18287219,-0.87212366,-5.1418633,5.7834864,1.0534974,-0.36839208,-0.744259,-0.67796075,0
0.7300000000000004,5.866919784001329,-0.7843671108171755,-2.8577248339060257,-0.16891560738232433,3.925784,-0.539446,-1.3490443,-0.12120585,9.775644,-8.454304,1.5126989,-0.29816106,0.3419979,-0.1786542,-0.8730526,-5.171154,5.8144217,0.99689555,-0.42525545,-1.0657012,-0.65372413,0
0.7400000000000004,5.866919784001329,-0.7843671108171755,-2.8577248339060257,-0.16891560738232433,3.925784,-0.539446,-1.3490443,-0.12120585,9.723789,-8.3960085,1.5223838,-0.30125773,0.3379614,-0.17376702,-0.8745465,-5.1998525,5.844513,0.94018334,-0.48135698,-1.3451498,-0.62993443,0
0.7500000000000004,5.866919784001329,-0.7843671108171755,-2.8577248339060257,-0.16891560738232433,3.925784,-0.539446,-1.3490443,-0.12120585,9.671649,-8.337415,1.5315044,-0.30437088,0.33283776,-0.16829568,-0.87650144,-5.2282767,5.8740797,0.8840341,-0.5286848,-1.5810235,-0.6073121,0
0.7600000000000005,5.142107548733784,-0.884249306878127,-3.428710328186088,0.02622874094537756,3.2386653,-0.66323096,-1.0806684,-0.029914498,9.6192255,-8.278529,1.5400667,-0.30747363,0.32678464,-0.16232696,-0.8788188,-5.2563596,5.903032,0.82853824,-0.56861216,-1.7801164,-0.5857999,0
0.7700000000000005,5.142107548733784,-0.884249306878127,-3.428710328186088,0.02622874094537756,3.2386653,-0.66323096,-1.0806684,-0.029914498,9.566535,-8.219369,1.5480589,-0.31055954,0.31977576,-0.15590295,-0.8814711,-5.2815375,5.928733,0.7698502,-0.5978175,-2.0171418,-0.5575736,0
0.7800000000000005,5.142107548733784,-0.884249306878127,-3.428710328186088,0.02622874094537756,3.2386653,-0.66323096,-1.0806684,-0.029914498,9.513598,-8.159959,1.5554627,-0.31360573,0.31176692,-0.14900504,-0.8844496,-5.3056536,5.953085,0.71086764,-0.6365868,-2.2313359,-0.5294685,0
0.7900000000000005,5.142107548733784,-0.884249306878127,-3.428710328186088,0.02622874094537756,3.2386653,-0.66323096,-1.0806684,-0.029914498,9.460424,-8.100311,1.5622774,-0.31657258,0.30286586,-0.14163749,-0.88769,-5.329017,5.9763927,0.65219986,-0.6752312,-2.4180646,-0.5022003,0
0.8000000000000005,4.979409059101316,-0.971832151480894,-3.799839092490183,0.21554566333460004,3.6761136,-1.0500665,-0.23643081,0.5293169,9.407021,-8.040435,1.5685095,-0.3194375,0.29319027,-0.13385747,-0.8911128,-5.351846,5.998855,0.59432757,-0.7078355,-2.5756755,-0.47627014,0
0.8100000000000005,4.979409059101316,-0.971832151480894,-3.799839092490183,0.21554566333460004,3.6761136,-1.0500665,-0.23643081,0.5293169,9.35339,-7.980337,1.5741678,-0.3221842,0.2827502,-0.1257116,-0.89467704,-5.3741136,6.020422,0.5373178,-0.73166054,-2.74925,-0.44388276,0
0.8200000000000005,4.979409059101316,-0.971832151480894,-3.799839092490183,0.21554566333460004,3.6761136,-1.0500665,-0.23643081,0.5293169,9.299541,-7.920031,1.5792556,-0.32478508,0.27153468,-0.11719222,-0.8983598,-5.395253,6.0405364,0.48021254,-0.7637676,-2.907762,-0.412011,0
0.8300000000000005,4.979409059101316,-0.971832151480894,-3.799839092490183,0.21554566333460004,3.6761136,-1.0500665,-0.23643081,0.5293169,9.245487,-7.8595304,1.5837735,-0.32721272,0.2596206,-0.10829627,-0.90210956,-5.415494,6.0594053,0.42350745,-0.79619145,-3.0468884,-0.38121662,0
0.8400000000000005,4.979409059101316,-0.971832151480894,-3.799839092490183,0.21554566333460004,3.722935,-0.4956078,0.21739142,0.5671525,9.191234,-7.7988462,1.5877284,-0.32945335,0.24709658,-0.09906827,-0.9058642,-5.43501,6.0771704,0.3676305,-0.82355136,-3.1643195,-0.35193333,0
0.8500000000000005,4.979409059101316,-0.971832151480894,-3.799839092490183,0.21554566333460004,3.722935,-0.4956078,0.21739142,0.5671525,9.136789,-7.737991,1.5911288,-0.33149812,0.23404391,-0.08955694,-0.90956736,-5.4537554,6.093767,0.31256998,-0.8466393,-3.2634385,-0.32408696,0
0.8600000000000005,4.979409059101316,-0.971832151480894,-3.799839092490183,0.21554566333460004,3.722935,-0.4956078,0.21739142,0.5671525,9.082161,-7.6769753,1.5939827,-0.33334047,0.22053258,-0.07980407,-0.9131712,-5.4716883,6.109137,0.25830376,-0.866123,-3.3471007,-0.29760706,0
0.8700000000000006,4.979409059101316,-0.971832151480894,-3.799839092490183,0.21554566333460004,3.722935,-0.4956078,0.21739142,0.5671525,9.027358,-7.615813,1.5962977,-0.33497557,0.20662312,-0.069845624,-0.91663545,-5.4887695,6.123228,0.2048008,-0.8825659,-3.4177165,-0.27242652,0
0.8800000000000006,5.242308856693882,-1.0452668194186785,-3.251472006440075,0.3843985788658035,3.639032,-0.04732062,1.0936643,0.37347946,8.972388,-7.554516,1.5980814,-0.33640036,0.19236803,-0.059712615,-0.9199264,-5.504963,6.1359925,0.15202235,-0.89644325,-3.4773197,-0.24848162,0
0.8900000000000006,5.242308856693882,-1.0452668194186785,-3.251472006440075,0.3843985788658035,3.639032,-0.04732062,1.0936643,0.37347946,8.917257,-7.493095,1.5993527,-0.33757672,0.17802425,-0.049482808,-0.9229852,-5.5210457,6.1479926,0.10234995,-0.91957676,-3.4421139,-0.21742602,0
0.9000000000000006,5.242308856693882,-1.0452668194186785,-3.251472006440075,0.3843985788658035,3.639032,-0.04732062,1.0936643,0.37347946,8.861971,-7.431561,1.6001304,-0.33847868,0.16380158,-0.039220646,-0.9257775,-5.5361586,6.158532,0.05332572,-0.93910825,-3.4123988,-0.18789431,0
0.9100000000000006,5.242308856693882,-1.0452668194186785,-3.251472006440075,0.3843985788658035,3.639032,-0.04732062,1.0936643,0.37347946,8.806539,-7.3699293,1.6004211,-0.3391209,0.14967872,-0.028932847,-0.9283088,-5.5503025,6.1675973,0.0048812423,-0.95559853,-3.3873177,-0.15981175,0
0.9200000000000006,5.241543491351449,-0.9725928001351261,-2.186689722045355,0.5405034837773318,3.4505804,0.124903485,1.4854007,0.7519388,8.750969,-7.308214,1.6002297,-0.33951595,0.13563825,-0.018625284,-0.9305833,-5.5634794,6.175176,-0.043050483,-0.9695214,-3.3661482,-0.1331072,0
0.9300000000000006,5.241543491351449,-0.9725928001351261,-2.186689722045355,0.5405034837773318,3.4505804,0.124903485,1.4854007,0.7519388,8.695272,-7.2464304,1.5995619,-0.33965588,0.122051805,-0.008474486,-0.9325591,-5.5757046,6.181272,-0.09049474,-0.97042704,-3.1827443,-0.10010077,0
0.9400000000000006,5.241543491351449,-0.9725928001351261,-2.186689722045355,0.5405034837773318,3.4505804,0.124903485,1.4854007,0.7519388,8.639459,-7.184593,1.5984211,-0.3395436,0.109219536,0.0013733441,-0.93422717,-5.586999,6.1859097,-0.13762346,-0.97069246,-3.0274298,-0.06866614,0
0.9500000000000006,5.241543491351449,-0.9725928001351261,-2.186689722045355,0.5405034837773318,3.4505804,0.124903485,1.4854007,0.7519388,8.583536,-7.1227174,1.5968105,-0.33920276,0.097027555,0.010962697,-0.9356324,-5.597427,6.189143,-0.18445967,-0.9709264,-2.8963356,-0.03877401,0
0.9600000000000006,5.256432959906583,-0.8704687031989603,-0.8185490302947411,0.6665589576301357,4.077753,0.51199484,2.0126376,0.75655735,8.5275135,-7.060816,1.5947326,-0.33865267,0.085378975,0.020331841,-0.9368097,-5.607031,6.1910124,-0.23106742,-0.9711318,-2.7856846,-0.010348697,0
0.9700000000000006,5.256432959906583,-0.8704687031989603,-0.8185490302947411,0.6665589576301357,4.077753,0.51199484,2.0126376,0.75655735,8.4713955,-6.998902,1.5922062,-0.3379099,0.07464019,0.029398315,-0.937754,-5.6163864,6.191595,-0.27441055,-0.9863555,-2.5099044,0.020086654,0
0.9800000000000006,5.256432959906583,-0.8704687031989603,-0.8185490302947411,0.6665589576301357,4.077753,0.51199484,2.0126376,0.75655735,8.415189,-6.9369884,1.5892404,-0.33699885,0.065127365,0.03803843,-0.93847984,-5.6248,6.190872,-0.31898135,-0.985024,-2.2629402,0.050297514,0
0.9900000000000007,5.256432959906583,-0.8704687031989603,-0.8185490302947411,0.6665589576301357,4.077753,0.51199484,2.0126376,0.75655735,8.358901,-6.875088,1.5858227,-0.3359421,0.05669534,0.046229735,-0.9390381,-5.6324153,6.188991,-0.36474591,-0.9706958,-2.041276,0.08020917,0
1.0000000000000007,5.458787958762272,-0.7009035705738257,-0.12225398017138603,0.7723075559808764,4.8931623,0.46989173,2.4407713,0.7245139,8.302542,-6.8132124,1.5819448,-0.33475614,0.049206503,0.053984556,-0.93947005,-5.639463,6.186034,-0.41084123,-0.95504045,-1.8506095,0.10898153,0
1.0100000000000007,5.458787958762272,-0.7009035705738257,-0.12225398017138603,0.7723075559808764,4.8931623,0.46989173,2.4407713,0.7245139,8.246111,-6.751373,1.5776268,-0.33345836,0.042724058,0.061282303,-0.939801,-5.646571,6.1817694,-0.4530032,-0.9356419,-1.6013391,0.13970889,0
1.0200000000000007,5.458787958762272,-0.7009035705738257,-0.12225398017138603,0.7723075559808764,4.8931623,0.46989173,2.4407713,0.7245139,8.189612,-6.68958,1.57288,-0.3320655,0.037317738,0.06805441,-0.9400584,-5.653129,6.176641,-0.4965754,-0.9048047,-1.3764693,0.17022246,0
1.0300000000000007,5.458787958762272,-0.7009035705738257,-0.12225398017138603,0.7723075559808764,4.8931623,0.46989173,2.4407713,0.7245139,8.133049,-6.627843,1.5676934,-0.33058578,0.032857,0.07431284,-0.9402725,-5.6593304,6.170698,-0.54076797,-0.8730052,-1.1808885,0.19976695,0
1.0400000000000007,5.458787958762272,-0.7009035705738257,-0.12225398017138603,0.7723075559808764,6.0404806,0.5789755,2.377362,0.176898,8.076426,-6.566169,1.5620643,-0.32902384,0.029202668,0.08012747,-0.9404634,-5.665314,6.1639743,-0.58502775,-0.84616864,-1.015807,0.22786167,0
1.0500000000000007,5.458787958762272,-0.7009035705738257,-0.12225398017138603,0.7723075559808764,6.0404806,0.5789755,2.377362,0.176898,8.019743,-6.5045657,1.5559925,-0.3273825,0.026231488,0.08556852,-0.9406445,-5.67114,6.1565404,-0.62936366,-0.82351995,-0.87646896,0.2545778,0
1.0600000000000007,5.458787958762272,-0.7009035705738257,-0.12225398017138603,0.7723075559808764,6.0404806,0.5789755,2.377362,0.176898,7.9630036,-6.4430404,1.5494767,-0.32566366,0.023839222,0.09069505,-0.94082445,-5.6768594,6.1484547,-0.67378205,-0.8044048,-0.7588597,0.27998295,0
1.0700000000000007,5.458787958762272,-0.7009035705738257,-0.12225398017138603,0.7723075559808764,6.0404806,0.5789755,2.377362,0.176898,7.9062066,-6.381599,1.5425165,-0.32386872,0.021937732,0.09555675,-0.941009,-5.682514,6.139768,-0.7182875,-0.78827155,-0.65959084,0.3041415,0
1.0800000000000007,6.556620005786729,-0.5130469864990679,0.790405473817113,0.8119533440658168,6.3678746,-0.055193976,2.179877,-0.12938762,7.8493533,-6.320247,1.5351107,-0.32199878,0.0204525,0.10019537,-0.9412017,-5.688141,6.1305237,-0.76288354,-0.7746545,-0.5758023,0.32711452,0
1.0900000000000007,6.556620005786729,-0.5130469864990679,0.790405473817113,0.8119533440658168,6.3678746,-0.055193976,2.179877,-0.12938762,7.792438,-6.259,1.527312,-0.32008913,0.019640706,0.104457915,-0.9414069,-5.694909,6.118799,-0.79683036,-0.7338966,-0.36274588,0.3509057,0
1.1000000000000008,6.556620005786729,-0.5130469864990679,0.790405473817113,0.8119533440658168,6.3678746,-0.055193976,2.179877,-0.12938762,7.735455,-6.197873,1.5191735,-0.31816977,0.0197032,0.10822583,-0.9416306,-5.701764,6.1065445,-0.8308855,-0.6994934,-0.18291514,0.3735294,0
1.1100000000000008,6.556620005786729,-0.5130469864990679,0.790405473817113,0.8119533440658168,6.3678746,-0.055193976,2.179877,-0.12938762,7.6784024,-6.1368704,1.510694,-0.31623375,0.020505838,0.11157751,-0.9418744,-5.7087865,6.0938516,-0.8650443,-0.67045367,-0.031128675,0.39504302,0
1.1200000000000008,8.677024579142339,-0.2533463334766025,1.7700727789364616,0.7755850588763867,8.172706,-0.49671274,2.6117506,-0.018557519,7.6212783,-6.0759964,1.5018724,-0.31427464,0.02193521,0.114578694,-0.9421376,-5.716044,6.0807953,-0.89930236,-0.6459403,0.096986584,0.41550094,1
1.1300000000000008,8.677024579142339,-0.2533463334766025,1.7700727789364616,0.7755850588763867,8.172706,-0.49671274,2.6117506,-0.018557519,7.5640707,-6.015271,1.4927863,-0.31246766,0.024568386,0.11705212,-0.9423696,-5.725476,6.064165,-0.91794324,-0.6227679,0.48917744,0.39420158,1
1.1400000000000008,8.677024579142339,-0.2533463334766025,1.7700727789364616,0.7755850588763867,8.172706,-0.49671274,2.6117506,-0.018557519,7.506767,-5.954713,1.4835131,-0.3109659,0.02885559,0.11886145,-0.9425183,-5.7354937,6.04735,-0.93669486,-0.6031839,0.8202045,0.37394738,1
1.1500000000000008,8.677024579142339,-0.2533463334766025,1.7700727789364616,0.7755850588763867,8.172706,-0.49671274,2.6117506,-0.018557519,7.449359,-5.8943243,1.474052,-0.30973145,0.034537274,0.12011157,-0.94257516,-5.74631,6.0305266,-0.9555533,-0.5866342,1.0996065,0.35468704,1
1.1600000000000008,11.469699564878967,0.02519638839942712,2.6003342626820793,0.672103038763274,9.315158,-0.4140765,2.89855,-0.07427201,7.3918376,-5.8341026,1.4644017,-0.3087294,0.041393995,0.12088997,-0.94252825,-5.7581043,6.013844,-0.9745219,-0.57264966,1.3354347,0.33637184,0
1.1700000000000008,11.469699564878967,0.02519638839942712,2.6003342626820793,0.672103038763274,9.315158,-0.4140765,2.89855,-0.07427201,7.3341665,-5.77408,1.4547206,-0.30785632,0.0491818,0.12107066,-0.9424164,-5.7762327,5.990811,-0.96173465,-0.47947553,1.5327104,0.3528463,0
1.1800000000000008,11.469699564878967,0.02519638839942712,2.6003342626820793,0.672103038763274,9.315158,-0.4140765,2.89855,-0.07427201,7.276306,-5.7142844,1.4451666,-0.30701753,0.057699203,0.12055594,-0.942273,-5.7960744,5.9683604,-0.94912153,-0.40082777,1.6992197,0.3685123,0
1.1900000000000008,11.469699564878967,0.02519638839942712,2.6003342626820793,0.672103038763274,9.315158,-0.4140765,2.89855,-0.07427201,7.2182384,-5.65471,1.4357377,-0.30619547,0.06683182,0.11945116,-0.9420777,-5.8177314,5.9466815,-0.9366953,-0.33444095,1.8397607,0.3834096,0
1.2000000000000008,12.936713643206813,0.3067640365717489,2.5475014687091155,0.5593078806636866,10.823553,-0.23651762,2.4575808,0.28055033,7.1599445,-5.595348,1.426432,-0.30537465,0.076482505,0.11784503,-0.9418123,-5.841289,5.925933,-0.9244795,-0.2784033,1.9583831,0.39757586,0
1.2100000000000009,12.936713643206813,0.3067640365717489,2.5475014687091155,0.5593078806636866,10.823553,-0.23651762,2.4575808,0.28055033,7.10139,-5.5362005,1.4173177,-0.3045614,0.08651282,0.115713686,-0.9414719,-5.870077,5.9037356,-0.89842695,-0.18718125,2.050278,0.40551206,0
1.2200000000000009,12.936713643206813,0.3067640365717489,2.5475014687091155,0.5593078806636866,10.823553,-0.23651762,2.4575808,0.28055033,7.0425353,-5.477268,1.4084624,-0.30376333,0.09680822,0.113042474,-0.9410518,-5.901117,5.8829,-0.8726814,-0.11018161,2.1278393,0.41305885,0
1.2300000000000009,12.936713643206813,0.3067640365717489,2.5475014687091155,0.5593078806636866,10.823553,-0.23651762,2.4575808,0.28055033,6.9833593,-5.4185376,1.3998628,-0.30296946,0.107324496,0.10991271,-0.9405377,-5.9344254,5.8635693,-0.8472821,-0.045186862,2.1933024,0.42023534,0
1.2400000000000009,12.936713643206813,0.3067640365717489,2.5475014687091155,0.5593078806636866,12.497733,-0.22562332,2.2013416,0.36187539,6.923839,-5.359992,1.3915153,-0.30216998,0.11802386,0.10639306,-0.9399176,-5.9700155,5.845861,-0.8222767,0.009674601,2.2485545,0.42705965,1
1.2500000000000009,12.936713643206813,0.3067640365717489,2.5475014687091155,0.5593078806636866,12.497733,-0.22562332,2.2013416,0.36187539,6.8639574,-5.3016114,1.3833948,-0.30133927,0.12880556,0.102786645,-0.9391697,-6.00661,5.8304033,-0.8018835,-0.027013201,2.2411816,0.42386103,1
1.260000000000001,12.936713643206813,0.3067640365717489,2.5475014687091155,0.5593078806636866,12.497733,-0.22562332,2.2013416,0.36187539,6.803699,-5.2433777,1.3754759,-0.30045885,0.13958791,0.09933756,-0.93828183,-6.0454206,5.8165836,-0.78199434,-0.057980303,2.2349603,0.42081937,1
1.270000000000001,12.936713643206813,0.3067640365717489,2.5475014687091155,0.5593078806636866,12.497733,-0.22562332,2.2013416,0.36187539,6.743041,-5.185274,1.367753,-0.29953074,0.15036668,0.09601995,-0.9372579,-6.08645,5.8043633,-0.7626807,-0.08411853,2.2297106,0.41792697,1
1.280000000000001,14.218104825857743,0.5687279469075956,2.349827891413423,0.4119457289932402,13.517244,-0.13875969,1.4971104,0.45364818,6.6819625,-5.127285,1.3602202,-0.29855686,0.1611381,0.09281202,-0.9361011,-6.1296964,5.793709,-0.74401194,-0.10618085,2.2252805,0.41517648,1
1.290000000000001,14.218104825857743,0.5687279469075956,2.349827891413423,0.4119457289932402,13.517244,-0.13875969,1.4971104,0.45364818,6.6204214,-5.069399,1.3529178,-0.2975089,0.17162614,0.08974519,-0.9348688,-6.1788487,5.7838364,-0.716583,-0.11123358,2.1117213,0.41706428,1
1.300000000000001,14.218104825857743,0.5687279469075956,2.349827891413423,0.4119457289932402,13.517244,-0.13875969,1.4971104,0.45364818,6.5583777,-5.0116034,1.3458858,-0.29636684,0.18161361,0.0868435,-0.9336179,-6.230278,5.7755313,-0.68995523,-0.11550268,2.0158718,0.41885948,1
1.310000000000001,14.218104825857743,0.5687279469075956,2.349827891413423,0.4119457289932402,13.517244,-0.13875969,1.4971104,0.45364818,6.4958086,-4.953883,1.3391159,-0.29514313,0.19117671,0.08407998,-0.9323484,-6.2838697,5.7687054,-0.6641506,-0.11910974,1.9349703,0.42056656,1
1.320000000000001,15.580939912379312,0.8887441633478322,1.7943022145843908,0.2610582556209308,14.329217,0.014109775,0.918899,0.57268655,6.432693,-4.8962245,1.3325999,-0.2938481,0.20037962,0.08143191,-0.9310592,-6.339526,5.7632813,-0.6391894,-0.12215744,1.8666853,0.42218986,0
1.330000000000001,15.580939912379312,0.8887441633478322,1.7943022145843908,0.2610582556209308,14.329217,0.014109775,0.918899,0.57268655,6.368967,-4.8386164,1.3264226,-0.2926054,0.2092645,0.07846732,-0.92974967,-6.405954,5.758599,-0.59643006,0.03550466,1.8554403,0.41428304,0
1.340000000000001,15.580939912379312,0.8887441633478322,1.7943022145843908,0.2610582556209308,14.329217,0.014109775,0.918899,0.57268655,6.3045664,-4.781047,1.320668,-0.29151958,0.21786709,0.07484453,-0.92841244,-6.4745164,5.7556057,-0.5546509,0.16857846,1.8459408,0.40676427,0
1.350000000000001,15.580939912379312,0.8887441633478322,1.7943022145843908,0.2610582556209308,14.329217,0.014109775,0.918899,0.57268655,6.23947,-4.723498,1.3153262,-0.29057145,0.22622824,0.07066742,-0.9270362,-6.5450764,5.7544584,-0.5138413,0.28089848,1.8379164,0.39961445,0
1.360000000000001,16.024450935967984,1.2741611572618645,1.1571622729158346,0.1289258788257244,15.129263,0.34002823,0.88209885,0.5918853,6.173659,-4.6659513,1.3103877,-0.28974348,0.23438211,0.06602357,-0.9256109,-6.6175165,5.7552886,-0.4740005,0.37570152,1.8311379,0.39281547,1
1.370000000000001,16.024450935967984,1.2741611572618645,1.1571622729158346,0.1289258788257244,15.129263,0.34002823,0.88209885,0.5918853,6.1071243,-4.6083856,1.305823,-0.28890714,0.24208617,0.06128613,-0.9242141,-6.689573,5.7580943,-0.43910077,0.37016535,1.6831368,0.4025839,1
1.380000000000001,16.024450935967984,1.2741611572618645,1.1571622729158346,0.1289258788257244,15.129263,0.34002823,0.88209885,0.5918853,6.039861,-4.5507827,1.3016026,-0.2879561,0.24915229,0.05675257,-0.9229216,-6.7631917,5.7628164,-0.40511402,0.3654889,1.5582162,0.41187298,1
1.390000000000001,16.024450935967984,1.2741611572618645,1.1571622729158346,0.1289258788257244,15.129263,0.34002823,0.88209885,0.5918853,5.9718556,-4.493123,1.2977178,-0.28690547,0.25567982,0.052389175,-0.92172074,-6.838225,5.7693315,-0.372002,0.3615382,1.4527771,0.42070624,1
1.400000000000001,16.17817394207742,1.5908193299898439,0.18326419385710646,-0.023242892864186893,15.136459,0.2523405,0.1971236,0.7976872,5.903093,-4.43539,1.2941598,-0.28576764,0.26175228,0.048167504,-0.9205994,-6.914548,5.777535,-0.33973113,0.3582007,1.3637812,0.42910606,0
1.410000000000001,16.17817394207742,1.5908193299898439,0.18326419385710646,-0.023242892864186893,15.136459,0.2523405,0.1971236,0.7976872,5.8335342,-4.3775635,1.2909653,-0.28474182,0.2670364,0.043702725,-0.9196219,-6.997398,5.788037,-0.2992723,0.55049556,1.1797261,0.40690917,0
1.420000000000001,16.17817394207742,1.5908193299898439,0.18326419385710646,-0.023242892864186893,15.136459,0.2523405,0.1971236,0.7976872,5.7631416,-4.319623,1.2881719,-0.28400114,0.2712728,0.038692474,-0.91883516,-7.081177,5.8003144,-0.25951993,0.7127887,1.0243618,0.38580152,0
1.430000000000001,16.17817394207742,1.5908193299898439,0.18326419385710646,-0.023242892864186893,15.136459,0.2523405,0.1971236,0.7976872,5.6919084,-4.2615504,1.285773,-0.28351748,0.27462485,0.033225544,-0.91820246,-7.165566,5.814445,-0.22031754,0.84976184,0.8932165,0.3657296,0
1.440000000000001,16.17817394207742,1.5908193299898439,0.18326419385710646,-0.023242892864186893,16.255724,1.0215214,0.053272795,0.42814913,5.6198287,-4.203327,1.2837641,-0.28326473,0.2772297,0.02737665,-0.9176906,-7.250293,5.830497,-0.18153526,0.9653655,0.7825154,0.34664258,1
1.450000000000001,16.17817394207742,1.5908193299898439,0.18326419385710646,-0.023242892864186893,16.255724,1.0215214,0.053272795,0.42814913,5.5469,-4.144933,1.2821445,-0.28310332,0.2792209,0.021416986,-0.91729504,-7.3355403,5.8485975,-0.14241399,0.9741471,0.6687951,0.3506421,1
1.460000000000001,16.17817394207742,1.5908193299898439,0.18326419385710646,-0.023242892864186893,16.255724,1.0215214,0.053272795,0.42814913,5.4731183,-4.0863485,1.2809149,-0.28291324,0.28071064,0.015562105,-0.9170169,-7.420746,5.868616,-0.10353313,0.9815555,0.57280886,0.3544454,1
1.470000000000001,16.17817394207742,1.5908193299898439,0.18326419385710646,-0.023242892864186893,16.255724,1.0215214,0.053272795,0.42814913,5.3984857,-4.027555,1.280073,-0.28269872,0.2817762,0.009795133,-0.9168361,-7.5057883,5.8904753,-0.064832196,0.98780566,0.49179134,0.35806206,1
1.480000000000001,16.36474889091763,1.7659650276382965,-0.40968680705134036,-0.15810958379064105,16.165575,0.6711394,-0.08155881,0.5242753,5.3230033,-3.9685335,1.2796177,-0.28246287,0.2824826,0.004101861,-0.9167345,-7.5905647,5.91411,-0.026261551,0.99307865,0.42340818,0.36150125,0
1.490000000000001,16.36474889091763,1.7659650276382965,-0.40968680705134036,-0.15810958379064105,16.165575,0.6711394,-0.08155881,0.5242753,5.2466726,-3.9092662,1.2795521,-0.28235805,0.28263035,-0.0017300225,-0.91672873,-7.6755342,5.9396486,0.0131453965,1.1136453,0.2934973,0.3360038,0
1.500000000000001,16.36474889091763,1.7659650276382965,-0.40968680705134036,-0.15810958379064105,16.165575,0.6711394,-0.08155881,0.5242753,5.169495,-3.8497345,1.2798806,-0.2825147,0.28206375,-0.007866348,-0.9168229,-7.759918,5.9669595,0.05257215,1.2154013,0.1838393,0.31175753,0
1.5100000000000011,16.36474889091763,1.7659650276382965,-0.40968680705134036,-0.15810958379064105,16.165575,0.6711394,-0.08155881,0.5242753,5.0914774,-3.7899208,1.2806039,-0.28290424,0.28089204,-0.0142556075,-0.9169854,-7.8434963,5.9960904,0.09211766,1.3012815,0.09127722,0.28870106,0
1.5200000000000011,16.263982104527397,1.8396011847697837,-1.0361039826033775,-0.27223594344890256,16.506104,1.110608,-0.6711479,0.20683357,5.0126286,-3.7298064,1.2817236,-0.28350124,0.2792072,-0.020854417,-0.91718924,-7.926078,6.02708,0.13185808,1.3737634,0.0131461285,0.26677594,1
1.5300000000000011,16.263982104527397,1.8396011847697837,-1.0361039826033775,-0.27223594344890256,16.506104,1.110608,-0.6711479,0.20683357,4.9329557,-3.6693711,1.283248,-0.28417122,0.2770645,-0.027368601,-0.9174604,-8.008208,6.060226,0.1730446,1.3327427,-0.09357895,0.26383454,1
1.5400000000000011,16.263982104527397,1.8396011847697837,-1.0361039826033775,-0.27223594344890256,16.506104,1.110608,-0.6711479,0.20683357,4.8524685,-3.6085956,1.2851856,-0.28480223,0.27451253,-0.033564936,-0.917826,-8.089066,6.095154,0.21454062,1.2981161,-0.18365878,0.2610375,1
1.5500000000000012,16.263982104527397,1.8396011847697837,-1.0361039826033775,-0.27223594344890256,16.506104,1.110608,-0.6711479,0.20683357,4.7711797,-3.5474627,1.2875401,-0.28540307,0.2716138,-0.039491836,-0.91826576,-8.168565,6.1317353,0.25639233,1.2688868,-0.25968945,0.25837767,1
1.5600000000000012,16.342361907676988,1.7471087981258993,-1.5684793414556761,-0.37492868382050215,16.51767,0.92645115,-1.3245846,0.22467354,4.689103,-3.485956,1.2903149,-0.28598064,0.268421,-0.04519022,-0.918762,-8.2466345,6.1698623,0.29863572,1.2442133,-0.32386228,0.25584838,1
1.5700000000000012,16.342361907676988,1.7471087981258993,-1.5684793414556761,-0.37492868382050215,16.51767,0.92645115,-1.3245846,0.22467354,4.606252,-3.4240603,1.2935147,-0.28653058,0.2647591,-0.05055273,-0.9193737,-8.3232565,6.2094555,0.34140614,1.1946839,-0.4799339,0.25431862,1
1.5800000000000012,16.342361907676988,1.7471087981258993,-1.5684793414556761,-0.37492868382050215,16.51767,0.92645115,-1.3245846,0.22467354,4.5226436,-3.3617625,1.2971448,-0.28705087,0.26049143,-0.055495936,-0.92014503,-8.3982525,6.250317,0.38468802,1.1528745,-0.6116646,0.2528639,1
1.5900000000000012,16.342361907676988,1.7471087981258993,-1.5684793414556761,-0.37492868382050215,16.51767,0.92645115,-1.3245846,0.22467354,4.438294,-3.2990503,1.3012105,-0.2875484,0.2557103,-0.06008395,-0.92104226,-8.471498,6.292275,0.42856592,1.1175816,-0.72285086,0.2514806,1
1.6000000000000012,15.591557225285628,1.6031769782624938,-2.3428321465971575,-0.4653806334815067,17.483103,0.6987516,-3.203056,1.0570091,4.353221,-3.2359138,1.3057183,-0.2880281,0.25049347,-0.06437091,-0.92203575,-8.542881,6.3351827,0.4731062,1.0877897,-0.81669676,0.25016522,0
1.6100000000000012,15.591557225285628,1.6031769782624938,-2.3428321465971575,-0.4653806334815067,17.483103,0.6987516,-3.203056,1.0570091,4.267463,-3.172356,1.310635,-0.28866547,0.24445768,-0.0685135,-0.9231573,-8.608385,6.3764663,0.5103361,1.1681789,-1.0547103,0.2150532,0
1.6200000000000012,15.591557225285628,1.6031769782624938,-2.3428321465971575,-0.4653806334815067,17.483103,0.6987516,-3.203056,1.0570091,4.1810603,-3.108382,1.3159279,-0.289608,0.23730081,-0.07263519,-0.9244135,-8.671728,6.41844,0.54837924,1.2360175,-1.2556095,0.18166411,0
1.6300000000000012,15.591557225285628,1.6031769782624938,-2.3428321465971575,-0.4653806334815067,17.483103,0.6987516,-3.203056,1.0570091,4.0940366,-3.043985,1.3216059,-0.29081947,0.22919263,-0.07673334,-0.925747,-8.732603,6.461026,0.5873546,1.2932667,-1.425181,0.14991342,0
1.6400000000000012,15.591557225285628,1.6031769782624938,-2.3428321465971575,-0.4653806334815067,17.93145,0.3693518,-4.605109,1.8530462,4.0064178,-2.9791594,1.3276786,-0.29226732,0.22027639,-0.08080579,-0.927108,-8.790742,6.504155,0.6273439,1.3415803,-1.5683099,0.11972077,0
1.6500000000000012,15.591557225285628,1.6031769782624938,-2.3428321465971575,-0.4653806334815067,17.93145,0.3693518,-4.605109,1.8530462,3.9182322,-2.9139001,1.3341565,-0.29392263,0.21067324,-0.08485079,-0.9284543,-8.845913,6.547761,0.6683969,1.3823541,-1.689119,0.09100969,0
1.6600000000000013,15.591557225285628,1.6031769782624938,-2.3428321465971575,-0.4653806334815067,17.93145,0.3693518,-4.605109,1.8530462,3.8295105,-2.8482027,1.3410503,-0.2957595,0.20048586,-0.088866964,-0.92975,-8.897912,6.591783,0.7105358,1.4167656,-1.7910885,0.06370745,0
1.6700000000000013,15.591557225285628,1.6031769782624938,-2.3428321465971575,-0.4653806334815067,17.93145,0.3693518,-4.605109,1.8530462,3.7402854,-2.7820632,1.3483708,-0.29775503,0.18980129,-0.0928533,-0.9309653,-8.946559,6.636163,0.7537596,1.445808,-1.8771557,0.03774494,0
1.6800000000000013,15.739551839453377,1.356555711391029,-2.135579392868409,-0.5108896965233375,18.454279,-0.20026107,-5.624223,2.206049,3.6505916,-2.7154782,1.356129,-0.29988873,0.17869358,-0.09680907,-0.9320752,-8.9917,6.680847,0.7980471,1.4703202,-1.9498005,0.013056411,0
1.6900000000000013,15.739551839453377,1.356555711391029,-2.135579392868409,-0.5108896965233375,18.454279,-0.20026107,-5.624223,2.206049,3.560462,-2.648443,1.3643422,-0.3021226,0.1673334,-0.1006658,-0.9330535,-9.033602,6.7262044,0.84472007,1.4525459,-1.9787972,-0.012653779,0
1.7000000000000013,15.739551839453377,1.356555711391029,-2.135579392868409,-0.5108896965233375,18.454279,-0.20026107,-5.624223,2.206049,3.469932,-2.5809534,1.3730268,-0.3044276,0.15586089,-0.10436981,-0.9338839,-9.071771,6.771743,0.892365,1.4375442,-2.0032704,-0.03710237,0
1.7100000000000013,15.739551839453377,1.356555711391029,-2.135579392868409,-0.5108896965233375,18.454279,-0.20026107,-5.624223,2.206049,3.3790395,-2.5130076,1.3821926,-0.30679867,0.144293,-0.10794067,-0.93456084,-9.106169,6.8173933,0.94091064,1.4248829,-2.0239253,-0.06035126,0
1.7200000000000013,15.772383594351526,0.9427407373038696,-1.8051530063102026,-0.5281910932611457,18.755472,-0.5942324,-5.944018,2.3624923,3.2878218,-2.4446054,1.3918481,-0.30923048,0.1326443,-0.11139505,-0.9350798,-9.136762,6.8630924,0.9902819,1.4141972,-2.041358,-0.082459316,0
1.7300000000000013,15.772383594351526,0.9427407373038696,-1.8051530063102026,-0.5281910932611457,18.755472,-0.5942324,-5.944018,2.3624923,3.196317,-2.3757453,1.4020025,-0.31168404,0.12110284,-0.114633225,-0.93543977,-9.16359,6.9088726,1.0407081,1.3406472,-2.0045373,-0.10433151,0
1.7400000000000013,15.772383594351526,0.9427407373038696,-1.8051530063102026,-0.5281910932611457,18.755472,-0.5942324,-5.944018,2.3624923,3.1045628,-2.306428,1.4126645,-0.31413147,0.10981978,-0.11757808,-0.93564826,-9.186659,6.9545565,1.0917941,1.2785693,-1.9734566,-0.12513041,0
1.7500000000000013,15.772383594351526,0.9427407373038696,-1.8051530063102026,-0.5281910932611457,18.755472,-0.5942324,-5.944018,2.3624923,3.0125964,-2.2366548,1.4238403,-0.31658193,0.098756835,-0.12027321,-0.9357128,-9.206057,7.000064,1.1434557,1.226174,-1.9472214,-0.14490873,0
1.7600000000000013,15.322537625943989,0.3971079077296891,-1.2317330674816904,-0.4861273129618109,19.71383,-1.2505503,-6.5546627,2.5387893,2.920454,-2.1664279,1.4355353,-0.31904218,0.08788154,-0.12275551,-0.9356395,-9.221857,7.045324,1.1956145,1.181951,-1.9250762,-0.1637165,0
1.7700000000000014,15.322537625943989,0.3971079077296891,-1.2317330674816904,-0.4861273129618109,19.71383,-1.2505503,-6.5546627,2.5387893,2.8281734,-2.095756,1.4477326,-0.32146597,0.077450514,-0.12492603,-0.93544424,-9.233797,7.0889883,1.2438973,1.0595478,-1.8169477,-0.17953728,0
1.7800000000000014,15.322537625943989,0.3971079077296891,-1.2317330674816904,-0.4861273129618109,19.71383,-1.2505503,-6.5546627,2.5387893,2.7357895,-2.0246494,1.4604144,-0.32382014,0.06766664,-0.12670977,-0.93515116,-9.242522,7.1322794,1.292518,0.9562345,-1.7256812,-0.19458175,0
1.7900000000000014,15.322537625943989,0.3971079077296891,-1.2317330674816904,-0.4861273129618109,19.71383,-1.2505503,-6.5546627,2.5387893,2.6433332,-1.9531118,1.4735838,-0.32612553,0.058431815,-0.12816757,-0.9347739,-9.248243,7.175133,1.3414149,0.8690332,-1.6486475,-0.20888796,0
1.8000000000000014,14.168789166549594,-0.16376948434094474,-0.7206104887941304,-0.40500276984336814,18.597908,-1.7709185,-6.4639554,2.1703398,2.5508342,-1.8811482,1.4872434,-0.32839847,0.049662776,-0.12935059,-0.9343221,-9.251139,7.217496,1.3905373,0.79543155,-1.5836272,-0.22249216,0
1.8100000000000014,14.168789166549594,-0.16376948434094474,-0.7206104887941304,-0.40500276984336814,18.597908,-1.7709185,-6.4639554,2.1703398,2.45832,-1.8087795,1.5013398,-0.33060566,0.04155268,-0.13016023,-0.93382704,-9.251361,7.2561703,1.428743,0.6458557,-1.4490224,-0.231448,0
1.8200000000000014,14.168789166549594,-0.16376948434094474,-0.7206104887941304,-0.40500276984336814,18.597908,-1.7709185,-6.4639554,2.1703398,2.3658147,-1.7360268,1.5158187,-0.33272293,0.034251172,-0.13052179,-0.93332076,-9.249375,7.2942905,1.4670908,0.5196049,-1.3354107,-0.2399644,0
1.8300000000000014,14.168789166549594,-0.16376948434094474,-0.7206104887941304,-0.40500276984336814,18.597908,-1.7709185,-6.4639554,2.1703398,2.2733395,-1.6628958,1.5306818,-0.33477306,0.027634187,-0.13050683,-0.932809,-9.245426,7.331807,1.5055635,0.41304156,-1.2395186,-0.24806288,0
1.8400000000000014,14.168789166549594,-0.16376948434094474,-0.7206104887941304,-0.40500276984336814,18.467173,-2.2306266,-6.269235,2.3066819,2.1809123,-1.5893929,1.5459303,-0.33677402,0.021596633,-0.13017538,-0.93229425,-9.23972,7.368678,1.5441498,0.32309547,-1.1585824,-0.25576398,0
1.8500000000000014,14.168789166549594,-0.16376948434094474,-0.7206104887941304,-0.40500276984336814,18.467173,-2.2306266,-6.269235,2.3066819,2.0885503,-1.5155246,1.561565,-0.3387397,0.016049536,-0.12957779,-0.93177724,-9.232435,7.40487,1.5828426,0.2471753,-1.0902697,-0.26308715,0
1.8600000000000014,14.168789166549594,-0.16376948434094474,-0.7206104887941304,-0.40500276984336814,18.467173,-2.2306266,-6.269235,2.3066819,1.9962685,-1.441298,1.5775872,-0.3406811,0.010917596,-0.12875637,-0.9312574,-9.223719,7.440356,1.621637,0.18309397,-1.0326115,-0.270051,0
1.8700000000000014,14.168789166549594,-0.16376948434094474,-0.7206104887941304,-0.40500276984336814,18.467173,-2.2306266,-6.269235,2.3066819,1.9040805,-1.3667201,1.5939981,-0.34260666,0.0061370926,-0.12774663,-0.9307337,-9.213697,7.4751105,1.6605296,0.12900497,-0.9839463,-0.27667314,0
1.8800000000000014,14.456025410689474,-0.47752761271670624,-0.20944823684180894,-0.3136598884824313,21.081879,-2.1302698,-6.7881637,2.392955,1.8119986,-1.2917984,1.6107982,-0.344523,0.0016541227,-0.12657839,-0.93020445,-9.202479,7.509115,1.6995178,0.083350465,-0.9428714,-0.28297034,0
1.8900000000000015,14.456025410689474,-0.47752761271670624,-0.20944823684180894,-0.3136598884824313,21.081879,-2.1302698,-6.7881637,2.392955,1.7200357,-1.216537,1.6280026,-0.34639907,-0.0023447422,-0.12523068,-0.92968845,-9.18992,7.543029,1.741381,-0.004097972,-0.8284783,-0.28447625,0
1.9000000000000015,14.456025410689474,-0.47752761271670624,-0.20944823684180894,-0.3136598884824313,21.081879,-2.1302698,-6.7881637,2.392955,1.6282033,-1.1409404,1.6456261,-0.34821025,-0.005714136,-0.12368885,-0.9292035,-9.176428,7.5761647,1.7833437,-0.07791187,-0.73192716,-0.28590828,0
1.9100000000000015,14.456025410689474,-0.47752761271670624,-0.20944823684180894,-0.3136598884824313,21.081879,-2.1302698,-6.7881637,2.392955,1.5365098,-1.0650164,1.6636698,-0.34996942,-0.008551691,-0.12198422,-0.92874604,-9.162185,7.6085315,1.8254117,-0.14021705,-0.65043503,-0.28727007,0
1.9200000000000015,13.624608792631028,-0.6813428899113427,-0.4394192642464448,-0.17632711609417087,19.832413,-3.0379002,-6.3386645,2.0922396,1.4449617,-0.9887725,1.6821347,-0.35168678,-0.010939899,-0.12014302,-0.9283122,-9.147343,7.640137,1.8675915,-0.19280818,-0.5816534,-0.28856504,0
1.9300000000000015,13.624608792631028,-0.6813428899113427,-0.4394192642464448,-0.17632711609417087,19.832413,-3.0379002,-6.3386645,2.0922396,1.3535602,-0.91222525,1.7009817,-0.35336667,-0.013007159,-0.118078835,-0.92791235,-9.132913,7.669207,1.9018155,-0.26898885,-0.5594586,-0.2830575,0
1.9400000000000015,13.624608792631028,-0.6813428899113427,-0.4394192642464448,-0.17632711609417087,19.832413,-3.0379002,-6.3386645,2.0922396,1.2623047,-0.835391,1.7201716,-0.35501,-0.014858903,-0.11572383,-0.9275539,-9.118137,7.697518,1.9361662,-0.33328992,-0.54072773,-0.27782023,0
1.9500000000000015,13.624608792631028,-0.6813428899113427,-0.4394192642464448,-0.17632711609417087,19.832413,-3.0379002,-6.3386645,2.0922396,1.1711984,-0.75827765,1.7397056,-0.35661978,-0.016528524,-0.1131233,-0.92722887,-9.1031,7.7250195,1.9706575,-0.3875641,-0.5249202,-0.27283993,0
1.9600000000000015,12.377388869977105,-0.7467310446000618,-0.6249228251105028,-0.04048308229564609,19.965992,-3.0140202,-6.4396634,2.1070418,1.0802433,-0.68089354,1.7595851,-0.35819846,-0.01804425,-0.110315375,-0.92693037,-9.087868,7.75167,2.0053003,-0.43337473,-0.5115797,-0.26810405,0
1.9700000000000015,12.377388869977105,-0.7467310446000618,-0.6249228251105028,-0.04048308229564609,19.965992,-3.0140202,-6.4396634,2.1070418,0.9894343,-0.60325915,1.7797512,-0.3597411,-0.019491194,-0.10728104,-0.92665976,-9.073905,7.775072,2.0279367,-0.48224154,-0.5292504,-0.2569346,0
1.9800000000000015,12.377388869977105,-0.7467310446000618,-0.6249228251105028,-0.04048308229564609,19.965992,-3.0140202,-6.4396634,2.1070418,0.8987655,-0.52539504,1.8001444,-0.36124113,-0.020938173,-0.10400656,-0.92641795,-9.05985,7.797614,2.0507257,-0.52348727,-0.5441671,-0.24631329,0
1.9900000000000015,12.377388869977105,-0.7467310446000618,-0.6249228251105028,-0.04048308229564609,19.965992,-3.0140202,-6.4396634,2.1070418,0.80823755,-0.44731,1.8207663,-0.36269864,-0.022385249,-0.10052881,-0.92619854,-9.045725,7.819245,2.073673,-0.5583005,-0.5567591,-0.23621315,0
2.0000000000000013,,,,,21.685392,-3.0103214,-7.252367,2.6033118,0.71785116,-0.36901343,1.8416184,-0.36411378,-0.023832474,-0.09687893,-0.9259961,-9.031551,7.8399196,2.096782,-0.5876843,-0.5673884,-0.22660862,0
2.010000000000001,,,,,21.685392,-3.0103214,-7.252367,2.6033118,0.62759817,-0.29052705,1.862629,-0.36548653,-0.025442582,-0.09306293,-0.92580384,-9.019055,7.857219,2.1053884,-0.59661055,-0.6379592,-0.21128392,0
2.020000000000001,,,,,21.685392,-3.0103214,-7.252367,2.6033118,0.53747034,-0.21187225,1.8837267,-0.36681402,-0.027344657,-0.08908652,-0.9256158,-9.006496,7.8735895,2.1141343,-0.6041423,-0.6975245,-0.1967112,0
2.0300000000000007,,,,,21.685392,-3.0103214,-7.252367,2.6033118,0.44746858,-0.13305862,1.9049124,-0.36809298,-0.02949336,-0.084973626,-0.9254288,-8.993831,7.888977,2.1230135,-0.6104975,-0.74780065,-0.18285358,0
2.0400000000000005,,,,,21.685392,-3.0103214,-7.252367,2.6033118,0.35759416,-0.054096237,1.9261874,-0.36932108,-0.031850353,-0.08074453,-0.92524004,-8.981027,7.903337,2.1320188,-0.61586016,-0.7902362,-0.16967595,0
2.0500000000000003,,,,,21.554201,-2.5347316,-7.267416,1.7779577,0.26784858,0.02500445,1.947553,-0.37049675,-0.034383208,-0.076416396,-0.92504686,-8.968056,7.916631,2.1411417,-0.6203855,-0.8260539,-0.15714493,1
2.06,,,,,21.554201,-2.5347316,-7.267416,1.7779577,0.17829823,0.10429284,1.9695368,-0.37159818,-0.038642872,-0.07055697,-0.92490244,-8.941905,7.940603,2.2556427,-0.91891104,-1.6329533,-0.062188916,1
2.07,,,,,21.554201,-2.5347316,-7.267416,1.7779577,0.08901421,0.18380398,1.9926668,-0.37255305,-0.04585441,-0.062024426,-0.9248004,-8.914673,7.960938,2.3703845,-1.1707911,-2.3140497,0.028107604,1
2.0799999999999996,,,,,21.554201,-2.5347316,-7.267416,1.7779577,1.0870397e-05,0.2634941,2.0169454,-0.3732855,-0.055551145,-0.051222954,-0.9246347,-8.885672,7.9761877,2.4853141,-1.3833268,-2.8889525,0.113973245,1
2.0899999999999994,,,,,20.797611,-2.0645218,-8.218627,0.807235,-0.08869116,0.343306,2.0423734,-0.37372506,-0.067335136,-0.038494382,-0.92429155,-8.85433,7.985124,2.6002681,-1.5626736,-3.3742144,0.19562544,1
2.099999999999999,,,,,20.797611,-2.0645218,-8.218627,0.807235,-0.17707196,0.42317083,2.0689127,-0.3739069,-0.08093187,-0.02431167,-0.92360914,-8.821369,7.986669,2.7074974,-1.6408105,-3.7837462,0.22563729,1
2.109999999999999,,,,,20.797611,-2.0645218,-8.218627,0.807235,-0.26510766,0.5030125,2.0965214,-0.37386975,-0.09610291,-0.0090707205,-0.92244494,-8.785245,7.9803853,2.814101,-1.7067606,-4.129411,0.25417647,1
2.1199999999999988,,,,,20.797611,-2.0645218,-8.218627,0.807235,-0.35276467,0.5827496,2.125191,-0.37356132,-0.11258017,0.007062164,-0.92072207,-8.745583,7.965681,2.9196124,-1.762427,-4.421169,0.2813152,1
2.1299999999999986,,,,,19.486332,-1.1157008,-7.8675675,-0.27233246,-0.44000614,0.6622955,2.1549077,-0.37293878,-0.13013236,0.023942793,-0.91837376,-8.702089,7.9420853,3.0234966,-1.809415,-4.6674256,0.30712223,1
2.1399999999999983,,,,,19.486332,-1.1157008,-7.8675675,-0.27233246,-0.52680725,0.74156946,2.18559,-0.3720396,-0.14870472,0.041079327,-0.91530716,-8.657521,7.9113297,3.1125646,-1.7012792,-4.875187,0.27868822,1
2.149999999999998,,,,,19.486332,-1.1157008,-7.8675675,-0.27233246,-0.61314243,0.8204921,2.21715,-0.37090626,-0.16824304,0.058067996,-0.9114561,-8.608846,7.871838,3.1989498,-1.6100157,-5.050556,0.25164947,1
2.159999999999998,,,,,19.486332,-1.1157008,-7.8675675,-0.27233246,-0.6989691,0.8989762,2.2495575,-0.36951524,-0.18856144,0.07491013,-0.9068036,-8.555809,7.82363,3.2820299,-1.5329905,-5.1985836,0.22593753,1
2.1699999999999977,,,,,19.099787,0.52923864,-7.378231,-1.1500881,-0.784243,0.97693497,2.2827768,-0.36784893,-0.20949885,0.09160379,-0.90133643,-8.498237,7.7667727,3.3611743,-1.4679806,-5.3235307,0.20148729,1
