t,px,py,pz,qx,qy,qz,qw,vx,vy,vz,wx,wy,wz,throttle_mpc,roll_mpc,pitch_mpc,yaw_mpc,throttle_nw,roll_nw,pitch_nw,yaw_nw,network_used
-2.0,16.427908,-10.433682000000001,2.219563,-0.4000597,0.33828384,0.84245366,0.12565067,-12.419435499999999,-2.4938537999999997,0.37275848,2.1962318,-0.07443921,-0.97920495,10.980869944926194,5.99999979783088,-5.99999992705688,-3.5572287994691827,12.514387,-0.05150964,-2.8362875,-2.1161916,0
-1.99,16.30327,-10.458110000000001,2.2231405,-0.39896098,0.34559268,0.83854353,0.13505799,-12.507739,-2.3916075,0.3423069,2.3593864,-0.5690723000000001,-1.0672691,10.980869944926194,5.99999979783088,-5.99999992705688,-3.5572287994691827,11.824799,-1.6940761999999998,-5.428452,-0.400497,0
-1.98,16.177769,-10.481515,2.2264,-0.39584035,0.35305494,0.83507895,0.14596494,-12.591759,-2.2892240000000004,0.30920482,2.5340924,-1.0236148,-1.1543219999999998,10.980869944926194,5.99999979783088,-5.99999992705688,-3.5572287994691827,11.824799,-1.6940761999999998,-5.428452,-0.400497,0
-1.97,16.051448999999998,-10.503894,2.2293172,-0.39083076,0.36069754,0.8319143,0.15832588,-12.67104,-2.1866047,0.27393556,2.7173305,-1.4430962,-1.2403042,10.980869944926194,5.99999979783088,-5.99999992705688,-3.5572287994691827,11.824799,-1.6940761999999998,-5.428452,-0.400497,0
-1.96,15.924363,-10.525246000000001,2.2318728,-0.38404006,0.36852965,0.8289052,0.17209058,-12.745171000000001,-2.0836926,0.23690456,2.9066240000000003,-1.8318338,-1.3251655,10.980869944926194,5.99999979783088,-5.99999992705688,-3.5572287994691827,10.125542,-1.6383823,-5.8155518,-0.16733804,0
-1.95,15.796563,-10.545567,2.2340505,-0.3755554,0.37654567,0.8259091999999999,0.18720417,-12.813778999999998,-1.9804747,0.19844946,3.0999491000000003,-2.1935387000000004,-1.4088641000000002,10.980869944926194,5.99999979783088,-5.99999992705688,-3.5572287994691827,10.125542,-1.6383823,-5.8155518,-0.16733804,0
-1.94,15.668107000000001,-10.564853999999999,2.235838,-0.3654473,0.38472763,0.82278615,0.20360711,-12.876522999999999,-1.8769883,0.15884835,3.295657,-2.5314028,-1.4913657,10.980869944926194,5.99999979783088,-5.99999992705688,-3.5572287994691827,10.125542,-1.6383823,-5.8155518,-0.16733804,0
-1.93,15.539054,-10.583105999999999,2.2372243,-0.353773,0.393047,0.8193984000000001,0.22123508,-12.933092,-1.7733212,0.11832707,3.4924101999999997,-2.8481755,-1.5726423,10.980869944926194,5.99999979783088,-5.99999992705688,-3.5572287994691827,10.125542,-1.6383823,-5.8155518,-0.16733804,0
-1.92,15.409467999999999,-10.600322,2.2382016,-0.34057919999999997,0.40146622,0.8156111999999999,0.2400188,-12.983203999999999,-1.6696131,0.07706529,3.6891312999999997,-3.1462274,-1.6526723,14.118343062922984,5.999999895267246,-5.999999959315176,-3.1074369133998667,13.006407000000001,-0.95201445,-7.2415270000000005,0.6768599000000001,0
-1.91,15.279383,-10.616429,2.2388022000000003,-0.32549584,0.41015598,0.8112655,0.26013997,-13.032531,-1.5518399999999999,0.042922527,4.0323324000000005,-3.575271,-1.7225453000000002,14.118343062922984,5.999999895267246,-5.999999959315176,-3.1074369133998667,13.006407000000001,-0.95201445,-7.2415270000000005,0.6768599000000001,0
-1.9,15.148844,-10.631355000000001,2.2390606,-0.3082196,0.41920564,0.8061715,0.2817,-13.074171,-1.4331707,0.008944794,4.3385906,-3.9539410000000004,-1.7905023000000002,14.118343062922984,5.999999895267246,-5.999999959315176,-3.1074369133998667,13.006407000000001,-0.95201445,-7.2415270000000005,0.6768599000000001,0
-1.89,15.017926000000001,-10.645086000000001,2.2389843,-0.28899258,0.42840487,0.8001733,0.30442604,-13.10791,-1.3125575,-0.024030647999999998,4.5971355,-4.2735176,-1.8551247,14.118343062922984,5.999999895267246,-5.999999959315176,-3.1074369133998667,13.006407000000001,-0.95201445,-7.2415270000000005,0.6768599000000001,0
-1.8800000000000001,14.886714999999999,-10.657602,2.2385838,-0.26805425,0.43755972,0.79313964,0.32805157,-13.133060999999998,-1.1904316000000001,-0.055956162999999996,4.815405,-4.543218,-1.9165758999999998,14.118343062922984,5.999999895267246,-5.999999959315176,-3.1074369133998667,13.006407000000001,-0.95201445,-7.2415270000000005,0.6768599000000001,0
-1.87,14.755298000000002,-10.668891,2.237869,-0.24561675,0.4465053,0.7849611,0.35233712,-13.149042000000001,-1.0673392,-0.08683587599999999,4.9996767,-4.770823,-1.9750118000000003,19.32329594607481,5.9999999340893675,-5.9999999710417935,-2.42013730388231,13.9543,0.21771416,-7.1901765,-0.21982184,0
-1.8599999999999999,14.623753,-10.67872,2.236976,-0.22183207,0.45512274,0.7755799,0.37700078,-13.157716,-0.89842415,-0.09157051,5.1553593,-4.9627857,-1.9968542,19.32329594607481,5.9999999340893675,-5.9999999710417935,-2.42013730388231,13.9543,0.21771416,-7.1901765,-0.21982184,0
-1.85,14.492189999999999,-10.686862,2.236042,-0.19683599999999998,0.46331227,0.7649600999999999,0.40178776,-13.152698000000001,-0.7300541,-0.095065944,5.2868010000000005,-5.124781,-2.0176249,19.32329594607481,5.9999999340893675,-5.9999999710417935,-2.42013730388231,13.9543,0.21771416,-7.1901765,-0.21982184,0
-1.84,14.360747,-10.693327,2.2350779999999997,-0.17078800000000002,0.47097100000000003,0.75305307,0.42653126,-13.133642000000002,-0.5632995,-0.09749631,5.397776599999999,-5.2614865,-2.0373761999999997,20.99999824406204,4.531780166575193,-5.524022918186748,-0.8685222489739001,14.422081,0.44191369999999996,-5.457192,-0.37386766,0
-1.83,14.229579999999999,-10.698066,2.2341363,-0.14414468,0.477695,0.7401669,0.45075798,-13.097527000000001,-0.38505915,-0.09068411,5.2628699999999995,-5.302053,-1.9800200000000001,20.99999824406204,4.531780166575193,-5.524022918186748,-0.8685222489739001,14.422081,0.44191369999999996,-5.457192,-0.37386766,0
-1.82,14.098849,-10.701042999999999,2.2332669999999997,-0.117293395,0.4832025,0.72662455,0.47410378,-13.046312,-0.21104118,-0.08306875,5.149001999999999,-5.336339,-1.9254785,20.99999824406204,4.531780166575193,-5.524022918186748,-0.8685222489739001,14.422081,0.44191369999999996,-5.457192,-0.37386766,0
-1.81,13.968704,-10.702306,2.2324777,-0.09027462,0.4875767,0.71241325,0.49657503,-12.980501,-0.042423367999999996,-0.07478285,5.0528913,-5.3653164,-1.8736131999999999,20.99999824406204,4.531780166575193,-5.524022918186748,-0.8685222489739001,14.422081,0.44191369999999996,-5.457192,-0.37386766,0
-1.8,13.839288,-10.701914,2.2317734000000002,-0.06312611,0.49088767,0.697525,0.5181729,-12.900651,0.119686395,-0.065991625,4.971767400000001,-5.389807,-1.8242933000000001,20.232544161585373,3.1266699312830966,-3.8813538243377854,-0.5186793459268025,14.369525,-0.8150184,-4.917064,1.1680056,0
-1.79,13.710720000000002,-10.699967,2.2311392000000003,-0.03661403,0.4931639,0.6822335999999999,0.5385222,-12.810853,0.26864308,-0.060809046,4.684521,-5.154026999999999,-1.7602263999999999,20.232544161585373,3.1266699312830966,-3.8813538243377854,-0.5186793459268025,14.369525,-0.8150184,-4.917064,1.1680056,0
-1.7799999999999998,13.583110999999999,-10.696569,2.2305574,-0.011350893999999999,0.49449554,0.66683906,0.55737865,-12.709244,0.40975100000000003,-0.055542285999999996,4.442,-4.955099,-1.6993034,20.232544161585373,3.1266699312830966,-3.8813538243377854,-0.5186793459268025,14.369525,-0.8150184,-4.917064,1.1680056,0
-1.77,13.456573,-10.691801,2.230028,0.01284142,0.49501154,0.6513627,0.57491326,-12.596921,0.54258025,-0.05038636,4.237242,-4.787262,-1.6413698,20.232544161585373,3.1266699312830966,-3.8813538243377854,-0.5186793459268025,14.369525,-0.8150184,-4.917064,1.1680056,0
-1.7599999999999998,13.331206,-10.685748,2.2295487,0.03611585,0.49481356,0.6358136999999999,0.5912665,-12.474881,0.6667801999999999,-0.04551309,4.064367,-4.6456550000000005,-1.586279,20.232544161585373,3.1266699312830966,-3.8813538243377854,-0.5186793459268025,13.882248,-0.78583837,-2.6106431,1.1415277,0
-1.75,13.207106,-10.678497,2.2291162,0.058602642,0.4939817,0.6201935000000001,0.60655403,-12.344035,0.7820600999999999,-0.04107767,3.9184117,-4.526178,-1.5338916,20.232544161585373,3.1266699312830966,-3.8813538243377854,-0.5186793459268025,13.882248,-0.78583837,-2.6106431,1.1415277,0
-1.7399999999999998,13.0843525,-10.670138,2.2287252,0.08041191,0.4925791,0.6044988,0.62087107,-12.205221,0.8881757,-0.037223585,3.7951846,-4.425371599999999,-1.4840748,20.232544161585373,3.1266699312830966,-3.8813538243377854,-0.5186793459268025,13.882248,-0.78583837,-2.6106431,1.1415277,0
-1.73,12.963025,-10.660766,2.2283692000000004,0.10163606,0.49065575,0.5887236,0.63429606,-12.059219,0.98491955,-0.034086086,3.6911466,-4.340317199999999,-1.4367026000000003,20.232544161585373,3.1266699312830966,-3.8813538243377854,-0.5186793459268025,13.882248,-0.78583837,-2.6106431,1.1415277,0
-1.72,12.843191000000001,-10.650473,2.2280407,0.12235209,0.48825112,0.57286066,0.64689374,-11.90676,1.0721142,-0.031794712,3.6033093999999997,-4.268554,-1.3916549999999999,18.54697479491122,1.410153889384103,-1.8740810987523144,0.2785907159000477,13.825482999999998,-1.6067419,-0.27897218,1.1005684,0
-1.71,12.724844000000001,-10.639389,2.2276886,0.14177142,0.4855273,0.5574154,0.65837085,-11.761757000000001,1.1432282,-0.038748708,3.2618357999999996,-3.8946528,-1.3096955,18.54697479491122,1.410153889384103,-1.8740810987523144,0.2785907159000477,13.825482999999998,-1.6067419,-0.27897218,1.1005684,0
-1.7,12.60797,-10.627637,2.2272625,0.15929429,0.48266652,0.54285336,0.66855717,-11.612353,1.205926,-0.04662711,2.9735188,-3.5791477999999994,-1.2317579,18.54697479491122,1.410153889384103,-1.8740810987523144,0.2785907159000477,13.825482999999998,-1.6067419,-0.27897218,1.1005684,0
-1.69,12.49261,-10.615298,2.226753,0.17523366,0.47971362,0.52910006,0.6776585999999999,-11.459328999999999,1.2607329,-0.055433800000000005,2.7300873,-3.3129157999999994,-1.1576446000000002,18.54697479491122,1.410153889384103,-1.8740810987523144,0.2785907159000477,13.825482999999998,-1.6067419,-0.27897218,1.1005684,0
-1.68,12.378796000000001,-10.6024475,2.2261507999999997,0.18985283,0.47669595,0.5160802999999999,0.68584114,-11.303321,1.308123,-0.065159254,2.5245562,-3.088259,-1.0871681,17.169906651037973,-0.2627121206623828,0.21488039899377606,1.3168892254134037,14.3294935,-2.2510228,1.6192973,1.2329430000000001,0
-1.67,12.266494999999999,-10.589174,2.2254142999999997,0.20254792,0.47384380000000004,0.5042974,0.69291455,-11.156644,1.345596,-0.08227205,2.0904481,-2.5726662,-0.96920025,17.169906651037973,-0.2627121206623828,0.21488039899377606,1.3168892254134037,14.3294935,-2.2510228,1.6192973,1.2329430000000001,0
-1.66,12.155669,-10.575556,2.2245028,0.21287464,0.47136688,0.4941864,0.6987686,-11.008258,1.3775327,-0.10012322,1.7239064999999998,-2.137591,-0.85702115,17.169906651037973,-0.2627121206623828,0.21488039899377606,1.3168892254134037,14.3294935,-2.2510228,1.6192973,1.2329430000000001,0
-1.65,12.046333,-10.561641,2.2234097000000004,0.22124726,0.4692388,0.4855742,0.7036209,-10.858611999999999,1.4048374,-0.118602514,1.4144238,-1.7704519,-0.7503468000000001,17.169906651037973,-0.2627121206623828,0.21488039899377606,1.3168892254134037,14.3294935,-2.2510228,1.6192973,1.2329430000000001,0
-1.64,11.938499,-10.547472,2.2221289,0.22801018,0.4674241,0.47829908,0.70764124,-10.708038,1.4282892,-0.13760398,1.1531245,-1.4606354,-0.6489069000000001,17.721578272033035,-3.2414146450738444,3.348975717421081,2.3497192042673385,17.137804,-3.7468448,3.484573,1.4368812,1
-1.63,11.832174,-10.533086,2.2206554,0.23184717,0.46614835,0.47317970000000004,0.7106713000000001,-10.557098,1.4486542,-0.15713912,0.38935208,-0.6890816999999999,-0.5465566999999999,17.721578272033035,-3.2414146450738444,3.348975717421081,2.3497192042673385,17.137804,-3.7468448,3.484573,1.4368812,1
-1.6199999999999999,11.727360000000001,-10.518504,2.2189862999999996,0.23173364,0.46560162,0.47086126,0.712604,-10.405928999999999,1.4674464,-0.17671987,-0.2554491,-0.037987127999999995,-0.44922885,17.721578272033035,-3.2414146450738444,3.348975717421081,2.3497192042673385,17.137804,-3.7468448,3.484573,1.4368812,1
-1.6099999999999999,11.624056,-10.5037365,2.2171222999999998,0.22831473,0.46567687,0.47095096,0.7135984999999999,-10.254919000000001,1.4861851000000001,-0.19598173,-0.7997985,0.511467,-0.3566769,17.721578272033035,-3.2414146450738444,3.348975717421081,2.3497192042673385,17.137804,-3.7468448,3.484573,1.4368812,1
-1.5999999999999999,11.522260000000001,-10.488776,2.2150687999999996,0.22212256,0.46625993,0.47309276,0.7137553000000001,-10.104393,1.5061562,-0.21462776,-1.2593353999999999,0.97515714,-0.2686665,20.704398162614325,-5.499420999535976,5.580332702244011,3.0675896052746734,17.315462,-4.0420074,5.9671025,0.03389206,0
-1.5899999999999999,11.422121,-10.473582,2.2129161,0.21279229,0.46745688,0.47762063,0.7127989,-9.923502000000001,1.5331796,-0.21570317,-1.9206252000000001,1.6932466,-0.104955435,20.704398162614325,-5.499420999535976,5.580332702244011,3.0675896052746734,17.315462,-4.0420074,5.9671025,0.03389206,0
-1.5799999999999998,11.323785,-10.4580965,2.2107592,0.20005433,0.46930733,0.48476306,0.71044624,-9.744083,1.5648398000000001,-0.21546115,-2.4789248,2.2992253,0.050722264,20.704398162614325,-5.499420999535976,5.580332702244011,3.0675896052746734,17.315462,-4.0420074,5.9671025,0.03389206,0
-1.5699999999999998,11.227233,-10.442264999999999,2.208612,0.18444018,0.47160667,0.494069,0.70672834,-9.566736,1.6027743,-0.21370205,-2.950255,2.8106146,0.19876084,20.704398162614325,-5.499420999535976,5.580332702244011,3.0675896052746734,17.315462,-4.0420074,5.9671025,0.03389206,0
-1.5599999999999998,11.132441,-10.426015,2.2064904999999997,0.16639608,0.4741681,0.5051362,0.70165133,-9.392121000000001,1.6483246999999999,-0.2103347,-3.348147,3.242194,0.3395351,20.704398162614325,-5.499420999535976,5.580332702244011,3.0675896052746734,20.109056,-3.9900233999999997,6.084471,-0.052033935,0
-1.5499999999999998,11.039378,-10.409267,2.2044106,0.14630057,0.47682545,0.517608,0.6952092,-9.220965,1.7025664,-0.20536599,-3.6840303,3.6064312000000007,0.47340152,20.704398162614325,-5.499420999535976,5.580332702244011,3.0675896052746734,20.109056,-3.9900233999999997,6.084471,-0.052033935,0
-1.5399999999999998,10.948007,-10.391931,2.2023878,0.12447792,0.4794337,0.5311693000000001,0.6873922,-9.054066,1.7663311000000002,-0.19888905,-3.9675574,3.913845,0.60069907,20.704398162614325,-5.499420999535976,5.580332702244011,3.0675896052746734,20.109056,-3.9900233999999997,6.084471,-0.052033935,0
-1.5299999999999998,10.858279,-10.373906,2.200437,0.10120844,0.48186827,0.5455420999999999,0.67819154,-8.892272,1.8402268,-0.19107148,-4.2068806,4.173308400000001,0.7217501000000001,20.704398162614325,-5.499420999535976,5.580332702244011,3.0675896052746734,20.109056,-3.9900233999999997,6.084471,-0.052033935,0
-1.5199999999999998,10.770141,-10.355091,2.1985702999999996,0.076736376,0.48402363,0.5604813,0.6676026999999999,-8.736476,1.924654,-0.18214360000000002,-4.408884,4.3923078,0.8368610999999999,20.999996890862718,-5.9999439376561385,5.591483992401712,3.286075719309254,20.085932,-3.7487013,5.3716073,-0.35062750000000004,0
-1.5099999999999998,10.683536,-10.335371,2.1968048,0.051153595999999996,0.48569763,0.5758840999999999,0.6556208,-8.585486,2.0211856,-0.17083597,-4.6574683,4.5788193,0.9570447,20.999996890862718,-5.9999439376561385,5.591483992401712,3.286075719309254,20.085932,-3.7487013,5.3716073,-0.35062750000000004,0
-1.4999999999999998,10.598403,-10.3146305,2.1951556,0.024556626,0.4867177,0.5916438,0.64223087,-8.442561999999999,2.1286855,-0.15893033,-4.867277,4.7362514000000004,1.0713308000000001,20.999996890862718,-5.9999439376561385,5.591483992401712,3.286075719309254,20.085932,-3.7487013,5.3716073,-0.35062750000000004,0
-1.4899999999999998,10.514653,-10.292761,2.193627,-0.0028458582000000002,0.4870441,0.6075505,0.62742525,-8.308757,2.2470462,-0.14670944,-5.044353,4.869144400000001,1.180009,20.999996890862718,-5.9999439376561385,5.591483992401712,3.286075719309254,20.085932,-3.7487013,5.3716073,-0.35062750000000004,0
-1.4799999999999998,10.432193,-10.269654,2.1922214,-0.030868662999999998,0.48664620000000003,0.6234177,0.6112063,-8.1851015,2.3759816000000002,-0.13450111,-5.1937985,4.981329,1.2833544,20.999989212030986,-5.999721552779951,4.132307835489406,2.938235448776409,19.155756,-3.4023247000000003,4.804397,-0.21938908,0
-1.4699999999999998,10.350914,-10.245208,2.190936,-0.059000604000000005,0.48515156,0.63908255,0.5939026999999999,-8.072569999999999,2.5149987,-0.122631505,-5.3196282,4.848538400000001,1.36456,20.999989212030986,-5.999721552779951,4.132307835489406,2.938235448776409,19.155756,-3.4023247000000003,4.804397,-0.21938908,0
-1.4599999999999997,10.270700999999999,-10.219324,2.189767,-0.086815245,0.48229674,0.6544415,0.5758119,-7.9719872,2.6632483,-0.11124506599999999,-5.425828,4.7364755,1.4417806999999998,20.999989212030986,-5.999721552779951,4.132307835489406,2.938235448776409,19.155756,-3.4023247000000003,4.804397,-0.21938908,0
-1.4499999999999997,10.191431,-10.191915,2.188709,-0.11427562,0.4782076,0.6694144000000001,0.5569048000000001,-7.8840580000000005,2.819747,-0.100446984,-5.5154605000000005,4.641908,1.5152122,20.999989212030986,-5.999721552779951,4.132307835489406,2.938235448776409,19.155756,-3.4023247000000003,4.804397,-0.21938908,0
-1.4399999999999997,10.112975,-10.162903,2.1877556,-0.14134860000000002,0.47299245,0.6839253000000001,0.53716385,-7.8093996,2.9834747000000004,-0.09037426,-5.59111,4.562107,1.5850405,19.94384283760834,-5.2133581534551166,2.0681037583561053,2.4152401673981165,21.498142,-3.2148929,3.3255334000000003,0.9086379000000001,0
-1.4299999999999997,10.035181,-10.132266,2.1868715,-0.16730143,0.46652323,0.69785565,0.5170724,-7.751547,3.144793,-0.086545594,-5.53191,4.1730824,1.6257787000000001,19.94384283760834,-5.2133581534551166,2.0681037583561053,2.4152401673981165,21.498142,-3.2148929,3.3255334000000003,0.9086379000000001,0
-1.4199999999999997,9.9579,-10.099991000000001,2.1860223,-0.19156103,0.45875898,0.7111746999999999,0.49706647,-7.706794,3.310662,-0.08342409,-5.4819818,3.8447266000000004,1.6645176,19.94384283760834,-5.2133581534551166,2.0681037583561053,2.4152401673981165,21.498142,-3.2148929,3.3255334000000003,0.9086379000000001,0
-1.4099999999999997,9.881001,-10.066041,2.1852014,-0.21431835,0.44989583,0.7239233,0.47707066,-7.6750229999999995,3.479833,-0.08085667,-5.4398756,3.5675779999999997,1.7013558000000002,19.94384283760834,-5.2133581534551166,2.0681037583561053,2.4152401673981165,21.498142,-3.2148929,3.3255334000000003,0.9086379000000001,0
-1.3999999999999997,9.804356,-10.030388,2.1844040000000002,-0.23573785,0.44009325,0.7361238,0.45702,-7.6560809999999995,3.6511699999999996,-0.07871903,-5.404367400000001,3.3336514999999998,1.7363863000000002,18.030184268112567,-3.897547273315369,-0.2297040745893432,1.854269428721856,18.333273000000002,-3.5060116999999997,2.1593428,0.49307284,0
-1.3899999999999997,9.727833,-9.993097,2.1835782999999998,-0.25507802,0.42944965,0.7477609000000001,0.43744925,-7.650314999999999,3.80706,-0.08646284,-5.1687627,2.7781944,1.7421707999999998,18.030184268112567,-3.897547273315369,-0.2297040745893432,1.854269428721856,18.333273000000002,-3.5060116999999997,2.1593428,0.49307284,0
-1.3799999999999997,9.651313,-9.9542465,2.1826751,-0.27178259999999993,0.41809994,0.758892,0.41881928,-7.655234,3.9629480000000004,-0.09414600000000001,-4.969994,2.3093216,1.7476715,18.030184268112567,-3.897547273315369,-0.2297040745893432,1.854269428721856,18.333273000000002,-3.5060116999999997,2.1593428,0.49307284,0
-1.3699999999999997,9.574694000000001,-9.913841,2.1816971,-0.2862315,0.40619934,0.7696074,0.40097138,-7.67007,4.1179614,-0.10140479,-4.8023024,1.9135358,1.7529023999999997,18.030184268112567,-3.897547273315369,-0.2297040745893432,1.854269428721856,18.333273000000002,-3.5060116999999997,2.1593428,0.49307284,0
-1.3599999999999997,9.49788,-9.871894000000001,2.1806498,-0.29874638,0.3938649,0.7799651999999999,0.38376468,-7.6941276,4.271375,-0.107921846,-4.660830000000001,1.5794449,1.7578764999999998,18.030184268112567,-3.897547273315369,-0.2297040745893432,1.854269428721856,17.567024,-3.5758730000000005,1.3930643999999999,0.5055955,0
-1.3499999999999996,9.420782,-9.828422,2.1795419999999996,-0.3095994,0.38118485,0.7900010000000001,0.36707622,-7.726774000000001,4.42258,-0.11342528,-4.541478,1.2974313,1.7626065,18.030184268112567,-3.897547273315369,-0.2297040745893432,1.854269428721856,17.567024,-3.5758730000000005,1.3930643999999999,0.5055955,0
-1.3399999999999996,9.343316,-9.783451,2.1783853,-0.31902054,0.3682259,0.7997342,0.35080045,-7.767435000000001,4.5710526,-0.11768632,-4.4407873,1.0593778,1.7671044999999999,18.030184268112567,-3.897547273315369,-0.2297040745893432,1.854269428721856,17.567024,-3.5758730000000005,1.3930643999999999,0.5055955,0
-1.3299999999999996,9.265407000000002,-9.737011,2.1771932,-0.32720429999999995,0.35503855,0.8091736999999999,0.33484780000000003,-7.8155875,4.7163405,-0.12051594,-4.3558407,0.8584318000000001,1.7713816999999998,18.030184268112567,-3.897547273315369,-0.2297040745893432,1.854269428721856,17.567024,-3.5758730000000005,1.3930643999999999,0.5055955,0
-1.3199999999999996,9.18698,-9.6891365,2.1759806,-0.3343149,0.34166104,0.818321,0.31914297,-7.87075,4.858045,-0.12176113,-4.2841762999999995,0.6888086999999999,1.775449,17.02171523583745,-2.3881190895393103,-2.382660081805464,1.0824473300232549,19.01255,-4.1019917,0.09013508,0.75557,0
-1.3099999999999996,9.107986,-9.639903,2.1747362999999997,-0.33963025,0.32832032,0.82723665,0.3041987,-7.928955,4.988114,-0.12677936,-3.9879288999999996,0.21024589999999999,1.7414433,17.02171523583745,-2.3881190895393103,-2.382660081805464,1.0824473300232549,19.01255,-4.1019917,0.09013508,0.75557,0
-1.2999999999999996,9.028383999999999,-9.589388,2.1734517,-0.34260264,0.31522262,0.8360068000000002,0.2904324,-7.9924293,5.114242,-0.12983592,-3.7379849999999997,-0.19375405,1.7091061,17.02171523583745,-2.3881190895393103,-2.382660081805464,1.0824473300232549,19.01255,-4.1019917,0.09013508,0.75557,0
-1.2899999999999996,8.948124,-9.537632,2.1721475,-0.34359175,0.30235702,0.84464973,0.27765456,-8.060284,5.2362757,-0.1305982,-3.5271049,-0.5348074,1.6783558,17.02171523583745,-2.3881190895393103,-2.382660081805464,1.0824473300232549,19.01255,-4.1019917,0.09013508,0.75557,0
-1.2799999999999996,8.867166000000001,-9.484676,2.1708486000000002,-0.34289798,0.28970474,0.8531671999999999,0.26570317,-8.131744,5.354104,-0.12879300000000002,-3.3491817000000004,-0.8227206,1.6491145,16.560115805765825,-0.9200106243848656,-4.107801731292944,0.4110526298586164,18.275887,-3.622327,-0.9161055,0.22596166,0
-1.2699999999999996,8.785489,-9.43058,2.1695676,-0.34005353,0.2775385,0.8616011999999998,0.2549113,-8.204057,5.4645852999999995,-0.12696217,-2.9698563,-1.3345014,1.5883625,16.560115805765825,-0.9200106243848656,-4.107801731292944,0.4110526298586164,18.275887,-3.622327,-0.9161055,0.22596166,0
-1.2599999999999996,8.703078,-9.375399,2.16832,-0.3347059,0.26608157,0.8699908000000002,0.24553789,-8.278186999999999,5.570978,-0.12207269,-2.6498027000000004,-1.7665646000000002,1.5305915,16.560115805765825,-0.9200106243848656,-4.107801731292944,0.4110526298586164,18.275887,-3.622327,-0.9161055,0.22596166,0
-1.2499999999999996,8.619922,-9.319174,2.1671376,-0.32723779999999997,0.25523847,0.8783118000000001,0.23735486,-8.353177,5.6733910000000005,-0.11382516,-2.3797544999999998,-2.1313245,1.4756553,16.560115805765825,-0.9200106243848656,-4.107801731292944,0.4110526298586164,18.275887,-3.622327,-0.9161055,0.22596166,0
-1.2399999999999995,8.5360155,-9.261944999999999,2.1660557000000003,-0.31796813,0.24492033,0.88652855,0.23016885,-8.428196,5.771925,-0.101995125,-2.1518947999999996,-2.4392626,1.4234149999999999,16.929573727182785,0.17240805998251374,-5.176968152566804,-0.2772577426037973,18.173328,-2.8852564999999997,-1.9508975,-0.35527936,0
-1.2299999999999995,8.451353,-9.203738000000001,2.1651232000000005,-0.30670425,0.23531082,0.8946094000000001,0.22413322,-8.504139,5.868801,-0.08387854,-1.7891805,-2.865772,1.3399626,16.929573727182785,0.17240805998251374,-5.176968152566804,-0.2772577426037973,18.173328,-2.8852564999999997,-1.9508975,-0.35527936,0
-1.2199999999999995,8.365938,-9.144582000000002,2.1643917999999998,-0.29330564,0.22655036,0.9025118000000001,0.21936168,-8.578411000000001,5.962013,-0.06175517,-1.4831237,-3.2258568,1.2606051,16.929573727182785,0.17240805998251374,-5.176968152566804,-0.2772577426037973,18.173328,-2.8852564999999997,-1.9508975,-0.35527936,0
-1.2099999999999995,8.279793,-9.084511000000001,2.1639022999999997,-0.27808696,0.21850229999999995,0.9101756,0.21565041,-8.650126,6.051751599999999,-0.03550926,-1.2248678,-3.5298586000000003,1.1851417,16.929573727182785,0.17240805998251374,-5.176968152566804,-0.2772577426037973,18.173328,-2.8852564999999997,-1.9508975,-0.35527936,0
-1.1999999999999995,8.192946000000001,-9.023558999999999,2.1636957999999997,-0.26131314,0.21104698,0.91753983,0.21282782,-8.71851,6.138169,-0.005104214,-1.0069419,-3.7865086000000003,1.1133813,18.060467714889818,0.8601496321879454,-5.48981679692584,-0.8219039815769551,18.754929999999998,-2.5994740000000003,-2.9692705000000004,-0.6324125,0
-1.1899999999999995,8.105414,-8.961731,2.1638582000000004,-0.24304909,0.20428994,0.92450583,0.21090798,-8.787158999999999,6.22695,0.038284168,-0.7158276,-4.051882,1.0184163,18.060467714889818,0.8601496321879454,-5.48981679692584,-0.8219039815769551,18.754929999999998,-2.5994740000000003,-2.9692705000000004,-0.6324125,0
-1.1799999999999995,8.01722,-8.899030999999999,2.1644762,-0.22335973,0.19830851,0.9309822,0.20989716,-8.850742,6.3125067,0.08596096,-0.4701572,-4.2759356,0.92811126,18.060467714889818,0.8601496321879454,-5.48981679692584,-0.8219039815769551,18.754929999999998,-2.5994740000000003,-2.9692705000000004,-0.6324125,0
-1.1699999999999995,7.928418,-8.835491000000001,2.1655915,-0.20245318,0.192968,0.93692183,0.20965217,-8.90855,6.3950005,0.13774809,-0.26283163,-4.465099299999999,0.8422375,18.060467714889818,0.8601496321879454,-5.48981679692584,-0.8219039815769551,18.754929999999998,-2.5994740000000003,-2.9692705000000004,-0.6324125,0
-1.1599999999999995,7.8390702999999995,-8.771141,2.1672442000000003,-0.18050772,0.18815355,0.94228107,0.21005256,-8.959966,6.474544,0.19340767,-0.08786146,-4.6248026,0.7605776,18.060467714889818,0.8601496321879454,-5.48981679692584,-0.8219039815769551,18.156929,-1.6977794999999998,-3.236437,-0.5603928,0
-1.1499999999999995,7.7492423,-8.706010000000001,2.1694717,-0.15767704,0.18376769,0.9470207,0.21099685,-9.004452,6.551206,0.25264913,0.059806625999999995,-4.7596300000000005,0.68292475,18.060467714889818,0.8601496321879454,-5.48981679692584,-0.8219039815769551,18.156929,-1.6977794999999998,-3.236437,-0.5603928,0
-1.1399999999999995,7.659006599999999,-8.640127,2.1723082000000002,-0.13409443,0.17972814,0.9511065000000001,0.21239932,-9.041545,6.6250176,0.31513587,0.18443581,-4.8734555,0.6090824,18.060467714889818,0.8601496321879454,-5.48981679692584,-0.8219039815769551,18.156929,-1.6977794999999998,-3.236437,-0.5603928,0
-1.1299999999999994,7.568438499999999,-8.57352,2.1757842999999997,-0.10987607,0.17596568,0.9545091,0.21418741,-9.070847,6.6959789999999995,0.38049158,0.2896238,-4.9695480000000005,0.5388635,18.060467714889818,0.8601496321879454,-5.48981679692584,-0.8219039815769551,18.156929,-1.6977794999999998,-3.236437,-0.5603928,0
-1.1199999999999994,7.4776177,-8.506217,2.1799269,-0.08512375,0.17242241,0.95720404,0.21629938,-9.092021,6.764064299999999,0.44830647,0.378406,-5.0506687,0.47209018,18.216468965151137,0.8900282949838011,-4.955558437232918,-1.1181415211903338,17.645119,-1.440861,-3.6450921999999997,-0.33042648,0
-1.1099999999999994,7.386626,-8.438246000000001,2.1847649,-0.060135957000000004,0.16910551,0.9591483000000001,0.21868272,-9.104917,6.8297944,0.51958925,0.4579323,-5.0358343,0.3940571,18.216468965151137,0.8900282949838011,-4.955558437232918,-1.1181415211903338,17.645119,-1.440861,-3.6450921999999997,-0.33042648,0
-1.0999999999999994,7.2955483999999995,-8.369632000000001,2.1903238,-0.03515927,0.16602264,0.9603264000000001,0.22130103,-9.109227,6.892569,0.5924222,0.52507097,-5.023323,0.3198531,18.216468965151137,0.8900282949838011,-4.955558437232918,-1.1181415211903338,17.645119,-1.440861,-3.6450921999999997,-0.33042648,0
-1.0899999999999994,7.204471000000001,-8.3004055,2.196617,-0.0102070635,0.16312997,0.9607561,0.22412664,-9.104897,6.9523735,0.66631657,0.581753,-5.01277,0.24929027,18.216468965151137,0.8900282949838011,-4.955558437232918,-1.1181415211903338,17.645119,-1.440861,-3.6450921999999997,-0.33042648,0
-1.0799999999999994,7.113481,-8.230596,2.2036521000000002,0.014707331,0.16039096,0.9604524999999999,0.22713466,-9.091897,7.009176299999999,0.7407906999999999,0.629608,-5.003868,0.18218999,19.123870112325516,0.7114025304351186,-3.946302501434432,-1.3585884127159265,18.338188,-1.6787936999999997,-3.971194,0.15387163,0
-1.0699999999999994,7.0226690000000005,-8.160217999999999,2.2114759999999998,0.03916187,0.15780042,0.9594486999999999,0.23026997,-9.069186,7.065622,0.82397294,0.6421051999999999,-4.838971599999999,0.10658355,19.123870112325516,0.7114025304351186,-3.946302501434432,-1.3585884127159265,18.338188,-1.6787936999999997,-3.971194,0.15387163,0
-1.0599999999999994,6.932128,-8.0892935,2.2201302000000003,0.06282056,0.15535986,0.9578075999999999,0.23349968,-9.037661,7.1188955,0.9067974,0.65268177,-4.69979,0.03468714,19.123870112325516,0.7114025304351186,-3.946302501434432,-1.3585884127159265,18.338188,-1.6787936999999997,-3.971194,0.15387163,0
-1.0499999999999994,6.841945,-8.017851,2.229609,0.0857877,0.15304978,0.95557725,0.23683105,-8.997626,7.169022,0.98883766,0.66163224,-4.582313500000001,-0.033681302999999996,19.123870112325516,0.7114025304351186,-3.946302501434432,-1.3585884127159265,18.338188,-1.6787936999999997,-3.971194,0.15387163,0
-1.0399999999999994,6.752203999999999,-7.945923,2.2399025000000004,0.10815129400000001,0.15085344,0.9527950999999999,0.24026775,-8.949367,7.2160144,1.0697038,0.66920567,-4.483156,-0.09869489,19.02248243086623,0.26361126990339645,-2.5623253748830006,-1.4185059024052733,19.787317,-2.5233204,-3.7080502999999996,1.6003068999999999,0
-1.0299999999999994,6.6629834,-7.8735422999999995,2.2509928,0.12941481,0.1487218,0.94958764,0.24375698,-8.89349,7.259653,1.1481073,0.6057954000000001,-4.183625,-0.16345839,19.02248243086623,0.26361126990339645,-2.5623253748830006,-1.4185059024052733,19.787317,-2.5233204,-3.7080502999999996,1.6003068999999999,0
-1.0199999999999994,6.5743594,-7.8007407,2.2628584,0.14919406,0.14662297,0.9460978999999999,0.24726932,-8.830295,7.300254300000001,1.2247602,0.5523004,-3.9308013999999996,-0.22504391,19.02248243086623,0.26361126990339645,-2.5623253748830006,-1.4185059024052733,19.787317,-2.5233204,-3.7080502999999996,1.6003068999999999,0
-1.0099999999999993,6.486401,-7.727547599999999,2.2754812,0.1677092,0.14456545,0.942368,0.2508338,-8.760351,7.337897,1.2994959,0.50716823,-3.7174012999999997,-0.28360742,19.02248243086623,0.26361126990339645,-2.5623253748830006,-1.4185059024052733,19.787317,-2.5233204,-3.7080502999999996,1.6003068999999999,0
-0.9999999999999991,6.3991739999999995,-7.6539927,2.2888412000000002,0.18514656,0.14255497,0.9384261999999999,0.25447118,-8.684153,7.372648,1.3721818000000001,0.4690902,-3.5372779999999997,-0.33929724,18.831494590226907,-0.2730526322352053,-1.3083267487569918,-1.3592754558789522,18.012936,-2.8077965,-2.4403317,1.0106144,0
-0.9899999999999991,6.312734,-7.580106,2.3029091,0.20114057,0.14052187,0.93442494,0.2581601,-8.60299,7.404250599999999,1.4410344,0.35332555,-3.1896605,-0.38934788,18.831494590226907,-0.2730526322352053,-1.3083267487569918,-1.3592754558789522,18.012936,-2.8077965,-2.4403317,1.0106144,0
-0.9799999999999991,6.2271314,-7.5059166,2.3176547999999997,0.21541592,0.13841592,0.93051076,0.2618914,-8.516732000000001,7.4331512,1.5078103999999999,0.25562617,-2.896251,-0.4369425,18.831494590226907,-0.2730526322352053,-1.3083267487569918,-1.3592754558789522,18.012936,-2.8077965,-2.4403317,1.0106144,0
-0.9699999999999993,6.1424145999999995,-7.431452,2.3330584,0.22823888,0.13626495,0.9266860999999998,0.26569152,-8.425991,7.4594526,1.5726045,0.17317094,-2.6485965,-0.48220167,18.831494590226907,-0.2730526322352053,-1.3083267487569918,-1.3592754558789522,18.012936,-2.8077965,-2.4403317,1.0106144,0
-0.9599999999999993,6.0586257,-7.3567367,2.3491,0.23983362,0.13409045,0.9229448,0.26957873,-8.33128,7.483244,1.6355155000000001,0.10357939,-2.4395632999999997,-0.52523994,18.831494590226907,-0.2730526322352053,-1.3083267487569918,-1.3592754558789522,20.061320000000002,-3.4125892999999996,-2.777615,2.314421,0
-0.9499999999999993,5.9758015,-7.281796000000001,2.3657622000000003,0.25038898,0.1319089,0.91927564,0.2735651,-8.233031,7.504604,1.6966388,0.044843562000000003,-2.263129,-0.56616634,18.831494590226907,-0.2730526322352053,-1.3083267487569918,-1.3592754558789522,20.061320000000002,-3.4125892999999996,-2.777615,2.314421,0
-0.9399999999999993,5.893976,-7.206653599999999,2.3830270000000002,0.26006383,0.1297328,0.915665,0.27765809999999996,-8.131611,7.523599000000001,1.7560644,-0.0047310945000000005,-2.1142097,-0.6050844,18.831494590226907,-0.2730526322352053,-1.3083267487569918,-1.3592754558789522,20.061320000000002,-3.4125892999999996,-2.777615,2.314421,0
-0.9299999999999993,5.8131794999999995,-7.131333000000001,2.400878,0.26899198,0.12757161,0.9120981,0.28186157,-8.027328,7.540286500000001,1.8138736,-0.046574526,-1.9885151,-0.64209276,18.831494590226907,-0.2730526322352053,-1.3083267487569918,-1.3592754558789522,20.061320000000002,-3.4125892999999996,-2.777615,2.314421,0
-0.9199999999999993,5.7334385,-7.0558559999999995,2.4192991000000004,0.27728605,0.1254323,0.9085605,0.2861767,-7.920441,7.554714,1.8701391,-0.08189273,-1.8824236,-0.6772851,18.51334490232169,-0.7654587931918506,-0.2621951659574577,-1.1759570145303977,21.12225,-3.860612,-3.7471309,3.58083,0
-0.9099999999999993,5.6547694,-6.980247500000001,2.438263,0.28460783,0.12325568,0.9051886,0.29058585,-7.813053599999999,7.566724300000001,1.922363,-0.18840931,-1.6297002,-0.70175505,18.51334490232169,-0.7654587931918506,-0.2621951659574577,-1.1759570145303977,21.12225,-3.860612,-3.7471309,3.58083,0
-0.8999999999999992,5.5771837,-6.9045296,2.4577424999999997,0.29069743,0.120997205,0.90210044,0.29507565,-7.703747999999999,7.576643499999999,1.9733523999999998,-0.27832407,-1.4163934,-0.7250243000000001,18.51334490232169,-0.7654587931918506,-0.2621951659574577,-1.1759570145303977,21.12225,-3.860612,-3.7471309,3.58083,0
-0.8899999999999992,5.500699,-6.8287225000000005,2.4777267000000003,0.295747,0.11867999,0.8992546999999999,0.2996498,-7.592910000000001,7.584560000000001,2.0233269,-0.3542255,-1.236356,-0.7471515999999999,18.51334490232169,-0.7654587931918506,-0.2621951659574577,-1.1759570145303977,21.12225,-3.860612,-3.7471309,3.58083,0
-0.8799999999999992,5.4253290000000005,-6.7528453,2.4982061,0.29991797,0.11632212,0.89661276,0.3043092,-7.4808607,7.590553,2.0724785,-0.41829833,-1.0843993,-0.76819324,18.069807818276008,-1.217713251346511,0.6938072065180141,-0.9215831412213348,21.196262,-3.8957767,-3.925756,4.026673000000001,0
-0.8699999999999992,5.3510714,-6.6769185,2.5191565,0.30295184,0.11388339,0.8942863999999999,0.30903515,-7.3706045,7.5946,2.1174822,-0.542832,-0.80702424,-0.7757201,18.069807818276008,-1.217713251346511,0.6938072065180141,-0.9215831412213348,21.196262,-3.8957767,-3.925756,4.026673000000001,0
-0.8599999999999992,5.277919,-6.6009592999999995,2.5405545,0.30465162,0.111333065,0.8923653,0.31380990000000003,-7.259853,7.596956,2.162141,-0.647964,-0.5729143,-0.7828776999999999,18.069807818276008,-1.217713251346511,0.6938072065180141,-0.9215831412213348,21.196262,-3.8957767,-3.925756,4.026673000000001,0
-0.8499999999999992,5.205874400000001,-6.524985,2.562399,0.30522436,0.10869572,0.8907844000000001,0.31863236,-7.1489899999999995,7.597736,2.2067308,-0.7367168000000001,-0.37532127,-0.78968394,18.069807818276008,-1.217713251346511,0.6938072065180141,-0.9215831412213348,21.196262,-3.8957767,-3.925756,4.026673000000001,0
-0.8399999999999992,5.1349373,-6.4490099999999995,2.5846899,0.30484375,0.1059907,0.8894854,0.32349965,-7.038339,7.5970435,2.2514857999999998,-0.81164294,-0.20854938,-0.7961562,17.785300129259667,-1.5089059740394382,1.2835275424409416,-0.6198261715346206,22.027597,-4.338435,-4.2959685,4.693808,0
-0.8299999999999992,5.065096,-6.3730493,2.6074189999999997,0.3034119,0.10319504,0.88851285,0.3283853,-6.9299254,7.595008999999999,2.2943606,-0.9202601999999999,0.024190277000000003,-0.78750366,17.785300129259667,-1.5089059740394382,1.2835275424409416,-0.6198261715346206,22.027597,-4.338435,-4.2959685,4.693808,0
-0.8199999999999992,4.996335,-6.2971144,2.6305794999999996,0.300858,0.10029019,0.8878978000000001,0.33326238,-6.822343300000001,7.591737299999999,2.3378474999999996,-1.0119597,0.22062497,-0.77927566,17.785300129259667,-1.5089059740394382,1.2835275424409416,-0.6198261715346206,22.027597,-4.338435,-4.2959685,4.693808,0
-0.8099999999999992,4.9286447,-6.2212176,2.6541789000000002,0.29735267,0.09729548,0.88757294,0.33812603,-6.715911999999999,7.587343700000001,2.382171,-1.0893761,0.38641778,-0.7714514,17.785300129259667,-1.5089059740394382,1.2835275424409416,-0.6198261715346206,22.027597,-4.338435,-4.2959685,4.693808,0
-0.7999999999999992,4.8620114,-6.145371,2.6782265,0.29303944,0.094226375,0.8874796,0.34297115,-6.610905000000001,7.5819306,2.4275126,-1.154734,0.52634877,-0.7640110999999999,17.028813283916627,-1.6703247940888597,1.5356641668035935,-0.3234165894868612,21.91435,-4.048294,-4.8214073,5.110148000000001,0
-0.7899999999999991,4.796398,-6.0695809999999994,2.7027025,0.28793076,0.091062054,0.8876146999999999,0.34776944,-6.511963,7.575864299999999,2.467873,-1.2350712,0.6837736999999999,-0.742391,17.028813283916627,-1.6703247940888597,1.5356641668035935,-0.3234165894868612,21.91435,-4.048294,-4.8214073,5.110148000000001,0
-0.7799999999999991,4.7317656999999995,-5.9938564,2.7275883999999997,0.28204218,0.08778527,0.88797235,0.35249248,-6.414865,7.5690064,2.5094967,-1.3028954,0.8166412,-0.72183186,17.028813283916627,-1.6703247940888597,1.5356641668035935,-0.3234165894868612,21.91435,-4.048294,-4.8214073,5.110148000000001,0
-0.7699999999999991,4.668093700000001,-5.9182034,2.7528973,0.27548945,0.08441216,0.88850117,0.35713544,-6.3198414000000005,7.561444,2.5525026,-1.360155,0.92878205,-0.70228153,17.028813283916627,-1.6703247940888597,1.5356641668035935,-0.3234165894868612,21.91435,-4.048294,-4.8214073,5.110148000000001,0
-0.7599999999999991,4.605361,-5.8426294,2.7786433999999995,0.2683704,0.08095614,0.8891573,0.36169409999999996,-6.2270923,7.5532565,2.596979,-1.4084948,1.0234301,-0.6836905,17.028813283916627,-1.6703247940888597,1.5356641668035935,-0.3234165894868612,21.846476000000003,-4.087890600000001,-5.4389234,5.206084,0
-0.7499999999999991,4.5435433,-5.767140400000001,2.804842,0.26076773,0.0774284,0.8899034,0.36616492,-6.1367955,7.544517,2.642988,-1.4493041000000002,1.1033138999999998,-0.66601175,17.028813283916627,-1.6703247940888597,1.5356641668035935,-0.3234165894868612,21.846476000000003,-4.087890600000001,-5.4389234,5.206084,0
-0.7399999999999989,4.4826155,-5.691741,2.8315086,0.25275156,0.073838346,0.8907079,0.37054515,-6.049107,7.535292599999999,2.690569,-1.4837556,1.1707374,-0.64920056,17.028813283916627,-1.6703247940888597,1.5356641668035935,-0.3234165894868612,21.846476000000003,-4.087890600000001,-5.4389234,5.206084,0
-0.7299999999999989,4.422551599999999,-5.6164365,2.8586588,0.24438130000000002,0.07019394,0.89154404,0.37483254,-5.9641660000000005,7.525645299999999,2.7397416,-1.5128393999999998,1.2276441,-0.6332142,17.028813283916627,-1.6703247940888597,1.5356641668035935,-0.3234165894868612,21.846476000000003,-4.087890600000001,-5.4389234,5.206084,0
-0.7199999999999989,4.3633227,-5.5412297,2.8863087000000003,0.2357074,0.066501915,0.8923895000000001,0.37902546,-5.8820963,7.515633,2.7905087,-1.537392,1.2756746,-0.61801237,15.517014490533132,-1.6727465561089456,1.5774266178438687,-0.07294747183358317,20.292273,-0.7742226,-5.498522,1.8855718000000001,0
-0.7099999999999989,4.3048644,-5.4661207,2.9144077,0.22675952,0.06276632,0.89324075,0.38309425,-5.81003,7.506226,2.8295035,-1.5585046,1.3227138999999999,-0.59126586,15.517014490533132,-1.6727465561089456,1.5774266178438687,-0.07294747183358317,20.292273,-0.7742226,-5.498522,1.8855718000000001,0
-0.6999999999999991,4.2471128,-5.3911066,2.942904,0.21756373,0.058990162,0.89409614,0.3870116,-5.740777,7.496587,2.8699248,-1.5763278,1.3624169,-0.56583184,15.517014490533132,-1.6727465561089456,1.5774266178438687,-0.07294747183358317,20.292273,-0.7742226,-5.498522,1.8855718000000001,0
-0.6899999999999991,4.190039,-5.31619,2.971811,0.2081549,0.055177495,0.89494,0.39078003,-5.6744237,7.4867625,2.9117450000000002,-1.5913737,1.3959278999999998,-0.54164594,15.517014490533132,-1.6727465561089456,1.5774266178438687,-0.07294747183358317,20.292273,-0.7742226,-5.498522,1.8855718000000001,0
-0.679999999999999,4.133614,-5.241371,3.0011432,0.19856277,0.051331967,0.8957591,0.3944022,-5.6110477,7.4767966,2.9549289,-1.6040752,1.4242128,-0.5186468,12.778073356882016,-1.516381296736543,1.4133257658497929,0.1786872273849699,18.981453,0.69211984,-5.853336,1.1116384,0
-0.669999999999999,4.0777535,-5.166644,3.0307882,0.18889798,0.04748087,0.8965393,0.39784428,-5.5613637,7.468507300000001,2.9742599999999997,-1.5904318000000002,1.4224746000000001,-0.48442844,12.778073356882016,-1.516381296736543,1.4133257658497929,0.1786872273849699,18.981453,0.69211984,-5.853336,1.1116384,0
-0.659999999999999,4.0223775,-5.092001,3.060632,0.17925063,0.043645643,0.89727396,0.40107772,-5.514204,7.460164,2.9946237,-1.5789143,1.4210107,-0.45188916,12.778073356882016,-1.516381296736543,1.4133257658497929,0.1786872273849699,18.981453,0.69211984,-5.853336,1.1116384,0
-0.649999999999999,3.9674609,-5.0174417,3.0906842,0.16961634,0.03982165,0.8979629000000001,0.40411225,-5.4695787000000005,7.451792,3.0159632999999997,-1.5691915,1.4197778,-0.42094659999999995,12.778073356882016,-1.516381296736543,1.4133257658497929,0.1786872273849699,18.981453,0.69211984,-5.853336,1.1116384,0
-0.639999999999999,3.9129777000000003,-4.9429665,3.1209542999999997,0.15999147,0.036005292,0.8986056,0.40695685,-5.4274974,7.443414,3.0382222999999997,-1.5609833,1.4187393999999998,-0.39152238,10.362476842293852,-1.2700001777664582,1.193054350056039,0.3921468568690888,18.134705,-0.56907207,-6.757109599999999,2.9234002,0
-0.629999999999999,3.8588648,-4.868566,3.1513371,0.15049355,0.032242317,0.8991955,0.4095841,-5.3954363,7.4366330000000005,3.0384274,-1.5156484,1.3834943000000002,-0.35306750000000003,10.362476842293852,-1.2700001777664582,1.193054350056039,0.3921468568690888,18.134705,-0.56907207,-6.757109599999999,2.9234002,0
-0.619999999999999,3.8050620000000004,-4.794233999999999,3.1817252999999996,0.1412165,0.02856873,0.8997334000000001,0.41197209999999995,-5.3654103,7.429879700000001,3.0392747000000004,-1.4773788,1.3537511999999998,-0.31649962,10.362476842293852,-1.2700001777664582,1.193054350056039,0.3921468568690888,18.134705,-0.56907207,-6.757109599999999,2.9234002,0
-0.6099999999999992,3.7515497000000004,-4.7199683,3.2121248,0.1321256,0.024969043,0.9002278,0.41413626,-5.3373823,7.423166800000001,3.040709,-1.4450736000000002,1.3286512,-0.28172612,10.362476842293852,-1.2700001777664582,1.193054350056039,0.3921468568690888,18.134705,-0.56907207,-6.757109599999999,2.9234002,0
-0.5999999999999992,3.6983080000000004,-4.64577,3.242541,0.12319137,0.021430451,0.9006848,0.41609025,-5.3113212999999995,7.416506299999999,3.0426803,-1.4178028999999999,1.3074694,-0.24865897,8.320668219167963,-0.9979973807337436,0.8366219158964026,0.5925542750536313,17.479260999999997,-0.39437540000000004,-7.002650699999999,2.9675326,0
-0.5899999999999992,3.6452928,-4.571632,3.2728808,0.11456339,0.01797802,0.9011009,0.41781422,-5.2919480000000005,7.411206699999999,3.0253252999999996,-1.3523797,1.233994,-0.20738040000000002,8.320668219167963,-0.9979973807337436,0.8366219158964026,0.5925542750536313,17.479260999999997,-0.39437540000000004,-7.002650699999999,2.9675326,0
-0.5799999999999992,3.592464,-4.4975457,3.3030487999999996,0.106359534,0.014630973,0.9014802,0.41929279999999997,-5.2740684,7.4059534,3.0083172,-1.2971523999999999,1.1719833999999998,-0.16812737,8.320668219167963,-0.9979973807337436,0.8366219158964026,0.5925542750536313,17.479260999999997,-0.39437540000000004,-7.002650699999999,2.9675326,0
-0.5699999999999992,3.5398068,-4.4235125,3.3330480000000002,0.098513894,0.011371855,0.90183604,0.42054359999999996,-5.2576194,7.4007416,2.9916139999999998,-1.2505323999999998,1.1196483,-0.13080050000000001,8.320668219167963,-0.9979973807337436,0.8366219158964026,0.5925542750536313,17.479260999999997,-0.39437540000000004,-7.002650699999999,2.9675326,0
-0.5599999999999992,3.487307,-4.349531,3.3628817000000004,0.09097059,0.008186157,0.90217817,0.42158198,-5.242548,7.395567,2.9751793999999996,-1.2111783,1.0754791000000001,-0.09530528,8.320668219167963,-0.9979973807337436,0.8366219158964026,0.5925542750536313,16.907501,0.6542063,-6.3279614,2.0222378,0
-0.5499999999999992,3.4349513,-4.2756014,3.3925523999999996,0.08368229,0.005061835,0.9025138,0.42242159999999995,-5.2288094,7.3904257,2.958982,-1.177958,1.0382016,-0.061551805999999994,8.320668219167963,-0.9979973807337436,0.8366219158964026,0.5925542750536313,16.907501,0.6542063,-6.3279614,2.0222378,0
-0.5399999999999991,3.3827263999999997,-4.201722599999999,3.4220620000000004,0.07660895,0.0019889034,0.902848,0.42307463,-5.2163653,7.3853135,2.9429932,-1.1499157,1.0067402,-0.02945463,8.320668219167963,-0.9979973807337436,0.8366219158964026,0.5925542750536313,16.907501,0.6542063,-6.3279614,2.0222378,0
-0.5299999999999991,3.3306197999999996,-4.127895,3.4514127,0.06971666,-0.001040906,0.90318424,0.42355204,-5.205184,7.380228,2.9271873999999998,-1.1262443000000002,0.9801873999999999,0.0010675332000000001,8.320668219167963,-0.9979973807337436,0.8366219158964026,0.5925542750536313,16.907501,0.6542063,-6.3279614,2.0222378,0
-0.5199999999999991,3.2786186,-4.054118,3.480606,0.06297676,-0.0040344265,0.90352464,0.42386359999999995,-5.1952386,7.375166,2.9115415000000002,-1.1062624,0.95777756,0.030091962000000003,6.9024689754045285,-0.8317497802166561,0.7930886672607372,0.7793111728849254,18.217598000000002,1.6783085,-6.2863917,1.1449789,0
-0.5099999999999991,3.2267034,-3.9803873999999997,3.5095735,0.05640885599999999,-0.0069459826,0.9038799000000001,0.4239935,-5.1879916,7.370984599999999,2.8819567999999998,-1.0634742,0.9320698000000001,0.06685636,6.9024689754045285,-0.8317497802166561,0.7930886672607372,0.7793111728849254,18.217598000000002,1.6783085,-6.2863917,1.1449789,0
-0.4999999999999991,3.1748557,-3.9066985,3.5382453999999997,0.050027207000000004,-0.009739549,0.9042604,0.42392814,-5.181721,7.366825599999999,2.8524697,-1.0273567,0.9103738000000001,0.10181673,6.9024689754045285,-0.8317497802166561,0.7930886672607372,0.7793111728849254,18.217598000000002,1.6783085,-6.2863917,1.1449789,0
-0.4899999999999989,3.123066,-3.833051,3.5666232000000004,0.04380219,-0.012433268,0.9046668999999999,0.42367920000000003,-5.1763973,7.362692999999999,2.823064,-0.9968699000000001,0.8920636999999999,0.13506159,6.9024689754045285,-0.8317497802166561,0.7930886672607372,0.7793111728849254,18.217598000000002,1.6783085,-6.2863917,1.1449789,0
-0.47999999999999887,3.0713246,-3.7594445,3.5947072999999996,0.037708785,-0.0150423525,0.9050992,0.42325726,-5.171997,7.3585899999999995,2.7937257,-0.9711361999999999,0.8766109000000001,0.1666751,5.6075067544206165,-0.8001372669839759,1.1690598369139489,0.9623794636182388,17.802938,2.0391904999999997,-5.6087755999999995,0.6594908,0
-0.46999999999999886,3.0196195,-3.6858752,3.6224334000000002,0.031594627,-0.017505271,0.9055711999999999,0.42265308,-5.169159,7.3552865999999995,2.7515311000000002,-0.9444973,0.9221969999999999,0.20572056,5.6075067544206165,-0.8001372669839759,1.1690598369139489,0.9623794636182388,17.802938,2.0391904999999997,-5.6087755999999995,0.6594908,0
-0.45999999999999885,2.9679391,-3.6123388,3.6497379999999997,0.025337635,-0.019773845,0.9060921000000001,0.42185740000000005,-5.1670565999999996,7.352034599999999,2.7093717999999996,-0.9220128000000001,0.9606758,0.24285002,5.6075067544206165,-0.8001372669839759,1.1690598369139489,0.9623794636182388,17.802938,2.0391904999999997,-5.6087755999999995,0.6594908,0
-0.44999999999999885,2.916276,-3.5388346,3.6766212,0.018959166,-0.021877727000000003,0.90665436,0.42087916,-5.165696,7.3488584,2.66724,-0.90303445,0.9931555000000001,0.27815753,5.6075067544206165,-0.8001372669839759,1.1690598369139489,0.9623794636182388,17.802938,2.0391904999999997,-5.6087755999999995,0.6594908,0
-0.43999999999999884,2.8646228,-3.4653616,3.7030830000000003,0.012477336,-0.02384182,0.90725124,0.41972664,-5.165082,7.345778,2.6251264,-0.887015,1.020571,0.31173253,4.466835781034091,-0.7545159965893851,1.7392723474313339,1.0959491686002072,16.735762,1.8905046000000003,-4.3408217,1.0559372999999999,0
-0.4299999999999988,2.8129716,-3.3919163,3.7290777999999998,0.005737086800000001,-0.02565447,0.9078813,0.41840150000000004,-5.165196,7.3433022,2.5737493,-0.88838226,1.1106448999999998,0.34824207,4.466835781034091,-0.7545159965893851,1.7392723474313339,1.0959491686002072,16.735762,1.8905046000000003,-4.3408217,1.0559372999999999,0
-0.4199999999999988,2.7613163,-3.3184948,3.7545550000000003,-0.0013973399,-0.027270777000000003,0.90854096,0.41690174,-5.165947,7.340988,2.5215745,-0.8812134,1.1949996,0.38370427,4.466835781034091,-0.7545159965893851,1.7392723474313339,1.0959491686002072,16.735762,1.8905046000000003,-4.3408217,1.0559372999999999,0
-0.4099999999999988,2.7096505,-3.2450957000000002,3.7795064,-0.008885699,-0.0286653,0.909221,0.41522992,-5.167336,7.3388605,2.4685972,-0.86687684,1.2744893999999998,0.41816717,4.466835781034091,-0.7545159965893851,1.7392723474313339,1.0959491686002072,16.735762,1.8905046000000003,-4.3408217,1.0559372999999999,0
-0.3999999999999988,2.6579672999999997,-3.1717167,3.8039248,-0.016691778,-0.02982227,0.9099124,0.41338919999999996,-5.169372599999999,7.3369308,2.4150846,-0.84947944,1.3468822,0.45141899999999996,4.068440291867897,-0.6894964556932249,2.181841830740749,1.1282405232763564,15.603541,2.2535808,-4.270883,0.45157185,0
-0.3899999999999988,2.6062613,-3.0983560000000003,3.8278003,-0.024889946,-0.030752098,0.91060096,0.41138779999999997,-5.1719856,7.3352685,2.3598467999999997,-0.84834373,1.4533241000000001,0.48250070000000006,4.068440291867897,-0.6894964556932249,2.181841830740749,1.1282405232763564,15.603541,2.2535808,-4.270883,0.45157185,0
-0.3799999999999988,2.5545256000000003,-3.0250106,3.851119,-0.033545226000000004,-0.031441476,0.91127104,0.40923157,-5.175218599999999,7.333857000000001,2.3037799999999997,-0.8391249,1.5514303,0.51279575,4.068440291867897,-0.6894964556932249,2.181841830740749,1.1282405232763564,15.603541,2.2535808,-4.270883,0.45157185,0
-0.3699999999999988,2.5027543999999997,-2.9516782999999998,3.873873,-0.042606767000000004,-0.031872187,0.91191167,0.40692157,-5.179073000000001,7.332718400000001,2.2468836,-0.8231975,1.6423869,0.54233253,4.068440291867897,-0.6894964556932249,2.181841830740749,1.1282405232763564,15.603541,2.2535808,-4.270883,0.45157185,0
-0.35999999999999877,2.450942,-2.8783557,3.896054,-0.052030495999999996,-0.032031264,0.9125122999999999,0.40445929999999997,-5.1835580000000006,7.3318686,2.1892786,-0.80307543,1.72584,0.571021,4.068440291867897,-0.6894964556932249,2.181841830740749,1.1282405232763564,14.815779000000001,1.3288208000000001,-3.6806864999999998,0.9916815000000001,0
-0.34999999999999876,2.3990810000000002,-2.8050401000000003,3.9176580000000003,-0.061767925,-0.031936202000000004,0.9130626000000001,0.40184656,-5.1887426,7.331318400000001,2.131527,-0.7854211999999999,1.7969456000000001,0.59836394,4.068440291867897,-0.6894964556932249,2.181841830740749,1.1282405232763564,14.815779000000001,1.3288208000000001,-3.6806864999999998,0.9916815000000001,0
-0.33999999999999875,2.3471646,-2.7317283,3.9386842000000004,-0.07176909599999999,-0.031623956,0.91355306,0.39908530000000003,-5.194648,7.3310889999999995,2.0736792,-0.7705165,1.8569626000000001,0.6243651,4.068440291867897,-0.6894964556932249,2.181841830740749,1.1282405232763564,14.815779000000001,1.3288208000000001,-3.6806864999999998,0.9916815000000001,0
-0.32999999999999874,2.2951857999999996,-2.6584172,3.9591309999999997,-0.08199115,-0.031126288999999998,0.9139754000000001,0.3961777,-5.2012863,7.331198,2.0157177,-0.75793266,1.9076202000000002,0.64909035,4.068440291867897,-0.6894964556932249,2.181841830740749,1.1282405232763564,14.815779000000001,1.3288208000000001,-3.6806864999999998,0.9916815000000001,0
-0.31999999999999873,2.2431363999999996,-2.5851029999999997,3.9789977,-0.09239747400000001,-0.030469893999999997,0.9143224,0.39312595,-5.208667299999999,7.3316607000000005,1.9576236,-0.74730796,1.950378,0.6726024,4.262267624170373,-0.6253165022182239,2.438621555574445,1.0991373320979676,12.571902,0.68107206,-2.4387984,1.5600158000000002,0
-0.3099999999999987,2.1910076000000003,-2.5117824,3.9982922,-0.10304052,-0.029613804,0.91457677,0.38994120000000004,-5.2171874,7.332528,1.9012761999999999,-0.7283443000000001,2.0265176,0.69353265,4.262267624170373,-0.6253165022182239,2.438621555574445,1.0991373320979676,12.571902,0.68107206,-2.4387984,1.5600158000000002,0
-0.2999999999999987,2.13879,-2.4384507999999996,4.017022600000001,-0.11395967,-0.028527037999999998,0.9147206,0.38663253,-5.226507,7.333799000000001,1.8447471999999998,-0.7123333000000001,2.0907828999999998,0.7134357,4.262267624170373,-0.6253165022182239,2.438621555574445,1.0991373320979676,12.571902,0.68107206,-2.4387984,1.5600158000000002,0
-0.2899999999999987,2.086475,-2.3651047000000003,4.0351870000000005,-0.12510814,-0.027243692000000003,0.9147473,0.38319990000000004,-5.2366405,7.335491,1.7880124,-0.69881475,2.1450259999999997,0.73236215,4.262267624170373,-0.6253165022182239,2.438621555574445,1.0991373320979676,12.571902,0.68107206,-2.4387984,1.5600158000000002,0
-0.2799999999999987,2.0340545,-2.2917395000000003,4.052782,-0.13644592,-0.025792455,0.9146514000000001,0.37964356,-5.247596,7.337618400000001,1.7310472,-0.6874001999999999,2.1908095000000003,0.7503599,4.926302183356845,-0.5980127260049624,2.4510610343556243,1.0487188583222715,11.258264,0.3919414,-1.7289855,1.3178045,0
-0.2699999999999989,1.9815115,-2.2183487,4.069838,-0.14793901,-0.024186479,0.91442525,0.37597156,-5.261218,7.3405924,1.6801949,-0.6735015000000001,2.2313959999999997,0.7650004,4.926302183356845,-0.5980127260049624,2.4510610343556243,1.0487188583222715,11.258264,0.3919414,-1.7289855,1.3178045,0
-0.2599999999999989,1.9288272000000002,-2.1449256,4.086385,-0.15955822,-0.022437638,0.9140623999999999,0.37219167,-5.275805,7.344092,1.6290171999999998,-0.6617666999999999,2.2656527000000004,0.77892256,4.926302183356845,-0.5980127260049624,2.4510610343556243,1.0487188583222715,11.258264,0.3919414,-1.7289855,1.3178045,0
-0.2499999999999989,1.8759921999999998,-2.0714650000000003,4.1024175000000005,-0.17127825,-0.020566499,0.9135599,0.36830440000000003,-5.2913613,7.348122,1.5774845,-0.6518586999999999,2.2945664,0.7921615,4.926302183356845,-0.5980127260049624,2.4510610343556243,1.0487188583222715,11.258264,0.3919414,-1.7289855,1.3178045,0
-0.23999999999999888,1.8229967,-1.9979613999999997,4.1179333,-0.18307726,-0.018590426,0.91291517,0.36431056,-5.3078885,7.3526864000000005,1.525566,-0.64349294,2.318971,0.8047508000000001,6.324778377547159,-0.6314804416035172,2.512888246033564,0.9759369918638492,9.990915,-0.25783733,-1.5471219999999999,0.96597403,0
-0.22999999999999865,1.7698064999999998,-1.9244025000000002,4.1329927,-0.19496365,-0.01652901,0.91211766,0.3602172,-5.3303556,7.3592343,1.4862236999999998,-0.6416483000000001,2.3492097999999997,0.81315094,6.324778377547159,-0.6314804416035172,2.512888246033564,0.9759369918638492,9.990915,-0.25783733,-1.5471219999999999,0.96597403,0
-0.21999999999999864,1.7163852,-1.8507744,4.147656,-0.2069424,-0.014399026,0.9111577,0.35603118,-5.3540735,7.366467999999999,1.4463068000000001,-0.64008856,2.3747325,0.8211389000000001,6.324778377547159,-0.6314804416035172,2.512888246033564,0.9759369918638492,9.990915,-0.25783733,-1.5471219999999999,0.96597403,0
-0.20999999999999863,1.6627207,-1.7770706000000003,4.1619163,-0.21899134,-0.012210211,0.9100344000000001,0.35175297,-5.379043599999999,7.374382499999999,1.4057736,-0.6387695,2.3962752999999997,0.82873493,6.324778377547159,-0.6314804416035172,2.512888246033564,0.9759369918638492,9.990915,-0.25783733,-1.5471219999999999,0.96597403,0
-0.19999999999999862,1.6088,-1.7032843999999998,4.175769,-0.23109134,-0.00997081,0.9087470999999999,0.3473835,-5.4052653,7.382973,1.3645834,-0.63765395,2.4144585,0.8359582,8.067631552889278,-0.6507636809961754,2.39116245671787,0.8646526050528325,11.342004,-1.3394897,-1.0649648999999999,1.8364553,0
-0.18999999999999884,1.5545733999999998,-1.6293963,4.1892830000000005,-0.24318424,-0.007714872199999999,0.9073022,0.3429342,-5.4403043,7.394779,1.3381858999999998,-0.63969857,2.4108237999999997,0.8373662000000001,8.067631552889278,-0.6507636809961754,2.39116245671787,0.8646526050528325,11.342004,-1.3394897,-1.0649648999999999,1.8364553,0
-0.17999999999999883,1.4999883999999999,-1.5553861,4.202529,-0.25522316,-0.005470199,0.9057066999999999,0.33841687,-5.476921599999999,7.407412,1.3108526000000003,-0.64142454,2.407756,0.8387051,8.067631552889278,-0.6507636809961754,2.39116245671787,0.8646526050528325,11.342004,-1.3394897,-1.0649648999999999,1.8364553,0
-0.16999999999999882,1.4450296,-1.4812454,4.2154964999999995,-0.26720792,-0.0032348834999999998,0.9039603,0.3338331,-5.5151010000000005,7.4208455,1.2825393999999999,-0.6428816999999999,2.4051668999999998,0.8399784,8.067631552889278,-0.6507636809961754,2.39116245671787,0.8646526050528325,11.342004,-1.3394897,-1.0649648999999999,1.8364553,0
-0.1599999999999988,1.3896812,-1.4069666,4.228176,-0.27913806,-0.0010073874000000001,0.9020632,0.3291843,-5.554826,7.435053,1.2532028999999998,-0.64411163,2.4029818,0.8411892,8.067631552889278,-0.6507636809961754,2.39116245671787,0.8646526050528325,11.464806,-1.1614496,-0.73235524,1.8681245,0
-0.1499999999999988,1.3339279,-1.3325418,4.2405567,-0.29101288,0.0012135163,0.90001523,0.32447177,-5.596077999999999,7.4500093,1.2228004,-0.6451498,2.4011374,0.8423405,8.067631552889278,-0.6507636809961754,2.39116245671787,0.8646526050528325,11.464806,-1.1614496,-0.73235524,1.8681245,0
-0.1399999999999988,1.2777545,-1.2579639,4.2526283,-0.30283147,0.0034287926,0.89781654,0.31969693,-5.6388383,7.4656877999999995,1.1912897,-0.64602613,2.3995807,0.8434354,8.067631552889278,-0.6507636809961754,2.39116245671787,0.8646526050528325,11.464806,-1.1614496,-0.73235524,1.8681245,0
-0.12999999999999878,1.2211458999999998,-1.1832256,4.2643785,-0.31459275,0.005639186,0.89546716,0.31486106,-5.6830864000000005,7.482062299999999,1.1586295,-0.64676577,2.3982673,0.8444765999999999,8.067631552889278,-0.6507636809961754,2.39116245671787,0.8646526050528325,11.464806,-1.1614496,-0.73235524,1.8681245,0
-0.11999999999999877,1.1640877,-1.1083204,4.275797,-0.32629552,0.007845256,0.8929671999999998,0.30996543,-5.7288003,7.499105999999999,1.1247793,-0.6473901999999999,2.3971586,0.8454666,9.300037810221344,-0.5862680299092371,1.9939517079757303,0.7034918225675769,12.508823,-1.1459928999999998,-1.224456,2.3548374,0
-0.10999999999999877,1.1065291000000002,-1.033228,4.286919,-0.33778933,0.010014953,0.8903641,0.30503938,-5.783159700000001,7.519491,1.0993304,-0.6378129,2.334287,0.83849984,9.300037810221344,-0.5862680299092371,1.9939517079757303,0.7034918225675769,12.508823,-1.1459928999999998,-1.224456,2.3548374,0
-0.09999999999999876,1.0484189,-0.95792824,4.297779,-0.34895709999999996,0.012122495,0.88770175,0.30011126,-5.839125,7.540564999999999,1.0724517,-0.62973565,2.2812189999999997,0.83187497,9.300037810221344,-0.5862680299092371,1.9939517079757303,0.7034918225675769,12.508823,-1.1459928999999998,-1.224456,2.3548374,0
