time-since-start [s],throttle_mpc,roll_mpc,pitch_mpc,yaw_mpc,throttle_nw,roll_nw,pitch_nw,yaw_nw,position_x [m],position_y [m],position_z [m],rotation_w [quaternion],rotation_x [quaternion],rotation_y [quaternion],rotation_z [quaternion],velocity_x [m/s],velocity_y [m/s],velocity_z [m/s],omega_x [rad/s],omega_y [rad/s],omega_z [rad/s],network_used
0.0,6.068986465701239,-2.221435830773257,-5.999999701118601,1.4741796908759641,9.926892,-0.64991033,0.13373558,0.19720447,12.912894,-11.834263,1.0952393,-0.28953838,0.46283114,-0.235157,-0.80414927,-3.2239192,3.3651,0.09970869,0.13888502,0.9221162,0.8751289,0
0.01,6.068986465701239,-2.221435830773257,-5.999999701118601,1.4741796908759641,9.742316,-0.53330684,-1.1460359,-0.24767736,12.880389,-11.80033,1.0959464,-0.28562206,0.46371028,-0.23829708,-0.804119,-3.2767549,3.4212508,0.04140948,0.042526856,0.11383341,0.8802469,0
0.02,6.068986465701239,-2.221435830773257,-5.999999701118601,1.4741796908759641,9.742316,-0.53330684,-1.1460359,-0.24767736,12.847365,-11.765845,1.0960617,-0.28233284,0.46166155,-0.2399312,-0.8059714,-3.3276312,3.4753509,-0.018565461,-0.073091246,-0.60265046,0.88817626,0
0.03,6.068986465701239,-2.221435830773257,-5.999999701118601,1.4741796908759641,9.742316,-0.53330684,-1.1460359,-0.24767736,12.813843,-11.73083,1.0955718,-0.27952442,0.4570378,-0.24012916,-0.8095187,-3.3764966,3.5273297,-0.079578176,-0.20270832,-1.2394011,0.8985781,0
0.04,6.068986465701239,-2.221435830773257,-5.999999701118601,1.4741796908759641,8.117213,-1.8287157,-1.2751306,0.025082555,12.779841,-11.695307,1.0944685,-0.27706623,0.45012686,-0.23895244,-0.8145685,-3.4233303,3.5771356,-0.14111416,-0.34207508,-1.8067923,0.91114676,0
0.05,6.068986465701239,-2.221435830773257,-5.999999701118601,1.4741796908759641,8.117213,-1.8287157,-1.2751306,0.025082555,12.745382,-11.659295,1.092749,-0.2748432,0.44116467,-0.23645581,-0.8209286,-3.4681277,3.624727,-0.20276347,-0.48777926,-2.3137531,0.92560726,0
0.060000000000000005,6.068986465701239,-2.221435830773257,-5.999999701118601,1.4741796908759641,8.117213,-1.8287157,-1.2751306,0.025082555,12.710485,-11.62282,1.0904139,-0.27275464,0.43034586,-0.23268859,-0.82841027,-3.5108917,3.6700673,-0.26420468,-0.6370994,-2.7679782,0.9417121,0
0.07,6.068986465701239,-2.221435830773257,-5.999999701118601,1.4741796908759641,8.117213,-1.8287157,-1.2751306,0.025082555,12.675172,-11.585902,1.0874666,-0.27071318,0.41783217,-0.22769581,-0.8368306,-3.5516262,3.713122,-0.32519153,-0.78788364,-3.1761065,0.95923877,0
0.08,9.423342393431025,-2.9387204535348586,-5.9999997725904395,2.143936123968806,10.142529,-2.281761,-1.2846719,0.33514103,12.6394615,-11.548567,1.0839124,-0.26864332,0.40375924,-0.22151919,-0.84601337,-3.5903325,3.753857,-0.38554168,-0.93844676,-3.5438712,0.9779875,0
0.09,9.423342393431025,-2.9387204535348586,-5.9999997725904395,2.143936123968806,10.142529,-2.281761,-1.2846719,0.33514103,12.603271,-11.510728,1.0798647,-0.26631558,0.38834864,-0.21407376,-0.85582346,-3.6473908,3.8135552,-0.42373058,-1.1691937,-3.8462107,1.0279489,0
0.09999999999999999,9.423342393431025,-2.9387204535348586,-5.9999997725904395,2.143936123968806,10.142529,-2.281761,-1.2846719,0.33514103,12.566523,-11.472309,1.0754433,-0.26353288,0.37176916,-0.2052765,-0.8661407,-3.7016144,3.869783,-0.46029872,-1.3908756,-4.1283345,1.0778661,0
0.10999999999999999,9.423342393431025,-2.9387204535348586,-5.9999997725904395,2.143936123968806,10.142529,-2.281761,-1.2846719,0.33514103,12.529246,-11.433345,1.0706646,-0.26027775,0.35405615,-0.19516823,-0.87681764,-3.7529857,3.922385,-0.4951932,-1.6037962,-4.392284,1.1276424,0
0.11999999999999998,9.423342393431025,-2.9387204535348586,-5.9999997725904395,2.143936123968806,10.142529,-2.281761,-1.2846719,0.33514103,12.491472,-11.393874,1.0655454,-0.25653458,0.33524176,-0.18378867,-0.8877076,-3.8015347,3.971283,-0.52831995,-1.8068519,-4.638418,1.177069,0
0.12999999999999998,13.255325539909016,-1.7237352919698556,-5.831932265428709,0.5575206014082065,10.866631,-2.7164698,-0.9948932,0.19551954,12.453223,-11.35393,1.0601087,-0.2523002,0.31538638,-0.17122851,-0.8986417,-3.8480287,4.0171523,-0.55850464,-1.9830536,-4.8509526,1.2245134,0
0.13999999999999999,13.255325539909016,-1.7237352919698556,-5.831932265428709,0.5575206014082065,10.866631,-2.7164698,-0.9948932,0.19551954,12.414428,-11.313455,1.0545301,-0.24790397,0.29456365,-0.1580382,-0.9092854,-3.9105954,4.077389,-0.55648744,-1.9425977,-5.003862,1.1917839,0
0.15,13.255325539909016,-1.7237352919698556,-5.831932265428709,0.5575206014082065,10.866631,-2.7164698,-0.9948932,0.19551954,12.375022,-11.272399,1.0489941,-0.2436319,0.27285832,-0.14467618,-0.91938066,-3.9699483,4.133141,-0.55001557,-1.9084702,-5.1329336,1.1606605,0
0.16,15.026409992562344,-0.5235739506902456,-4.179188170647638,-0.61534355419466,14.104258,-2.0991597,-0.9149128,-0.055783425,12.335041,-11.230808,1.0435442,-0.2394376,0.2503775,-0.13115902,-0.9288586,-4.0256996,4.184275,-0.53928906,-1.8796794,-5.2418838,1.1310642,0
0.17,15.026409992562344,-0.5235739506902456,-4.179188170647638,-0.61534355419466,14.104258,-2.0991597,-0.9149128,-0.055783425,12.294487,-11.188698,1.0382969,-0.23545453,0.2277412,-0.11807372,-0.9374187,-4.0844264,4.2369146,-0.50950515,-1.6686016,-5.075907,1.0453675,0
0.18000000000000002,15.026409992562344,-0.5235739506902456,-4.179188170647638,-0.61534355419466,14.104258,-2.0991597,-0.9149128,-0.055783425,12.253368,-11.146088,1.0333681,-0.23181967,0.20547162,-0.10589513,-0.9448954,-4.138431,4.2844024,-0.4756853,-1.490393,-4.935863,0.963876,0
0.19000000000000003,15.026409992562344,-0.5235739506902456,-4.179188170647638,-0.61534355419466,14.104258,-2.0991597,-0.9149128,-0.055783425,12.211735,-11.103026,1.0287955,-0.22850108,0.18352075,-0.09448554,-0.9514094,-4.187542,4.326984,-0.43832445,-1.3399361,-4.8176975,0.8863833,0
0.20000000000000004,15.239924217068406,-0.029623041005398802,-2.8162038943300054,-1.0948444721196937,13.816788,-1.8676249,0.46259353,-0.40181717,12.169636,-11.059565,1.0246122,-0.22547033,0.1618457,-0.08372804,-0.95705736,-4.23162,4.364874,-0.3978733,-1.2129095,-4.717991,0.8126931,0
0.21000000000000005,15.239924217068406,-0.029623041005398802,-2.8162038943300054,-1.0948444721196937,13.816788,-1.8676249,0.46259353,-0.40181717,12.127118,-11.015742,1.0208572,-0.22274783,0.14089377,-0.07382685,-0.96181184,-4.27113,4.398762,-0.35275334,-1.0288044,-4.4212475,0.7190897,0
0.22000000000000006,15.239924217068406,-0.029623041005398802,-2.8162038943300054,-1.0948444721196937,13.816788,-1.8676249,0.46259353,-0.40181717,12.084231,-10.971603,1.0175648,-0.22036496,0.121024445,-0.06494064,-0.96569926,-4.305525,4.4284563,-0.30539832,-0.87334293,-4.170818,0.63007945,0
0.23000000000000007,15.239924217068406,-0.029623041005398802,-2.8162038943300054,-1.0948444721196937,13.816788,-1.8676249,0.46259353,-0.40181717,12.041025,-10.927187,1.0147554,-0.21831053,0.10208134,-0.056915987,-0.9688552,-4.3349376,4.4543104,-0.25622705,-0.74207103,-3.9594712,0.5454369,0
0.24000000000000007,15.239924217068406,-0.029623041005398802,-2.8162038943300054,-1.0948444721196937,14.2008705,-1.6621327,1.5075428,-0.4071547,11.99755,-10.88253,1.0124452,-0.21657196,0.083929144,-0.049622804,-0.9713856,-4.3594923,4.476628,-0.20559348,-0.63122743,-3.7811065,0.46494782,0
0.25000000000000006,15.239924217068406,-0.029623041005398802,-2.8162038943300054,-1.0948444721196937,14.2008705,-1.6621327,1.5075428,-0.4071547,11.953853,-10.8376665,1.0106474,-0.21513589,0.06645135,-0.042951033,-0.97337353,-4.3793044,4.4956684,-0.15380068,-0.53763473,-3.630575,0.38840836,0
0.26000000000000006,15.239924217068406,-0.029623041005398802,-2.8162038943300054,-1.0948444721196937,14.2008705,-1.6621327,1.5075428,-0.4071547,11.909981,-10.792627,1.0093722,-0.21398863,0.049548093,-0.036807764,-0.97488415,-4.3944798,4.511655,-0.10111177,-0.45860907,-3.5035322,0.3156247,0
0.2700000000000001,15.239924217068406,-0.029623041005398802,-2.8162038943300054,-1.0948444721196937,14.2008705,-1.6621327,1.5075428,-0.4071547,11.865978,-10.747443,1.0086275,-0.21311651,0.033134054,-0.031114692,-0.9759689,-4.4051127,4.5247765,-0.047758523,-0.39188448,-3.396312,0.24641258,0
0.2800000000000001,16.059331832455413,0.4772389446214885,-0.36730107142359947,-1.3186547104694055,14.583242,-0.87696147,1.9185675,-0.03156646,11.821894,-10.702142,1.0084188,-0.21250597,0.0171366,-0.025805898,-0.9766686,-4.41129,4.5351934,0.0060519017,-0.33554664,-3.3058207,0.18059672,0
0.2900000000000001,16.059331832455413,0.4772389446214885,-0.36730107142359947,-1.3186547104694055,14.583242,-0.87696147,1.9185675,-0.03156646,11.777768,-10.656746,1.0087905,-0.21215177,0.0024091108,-0.021231992,-0.97700304,-4.4132447,4.5435057,0.068311825,-0.20898487,-2.847535,0.10702804,0
0.3000000000000001,16.059331832455413,0.4772389446214885,-0.36730107142359947,-1.3186547104694055,14.583242,-0.87696147,1.9185675,-0.03156646,11.733643,-10.611279,1.0097854,-0.21206093,-0.010375487,-0.017668843,-0.9770416,-4.4111023,4.5495543,0.13067225,-0.10210906,-2.4607315,0.037069388,0
0.3100000000000001,16.059331832455413,0.4772389446214885,-0.36730107142359947,-1.3186547104694055,14.583242,-0.87696147,1.9185675,-0.03156646,11.689557,-10.565761,1.0114039,-0.21223438,-0.021518508,-0.01496416,-0.97686726,-4.405368,4.553762,0.19300455,-0.011861235,-2.1342592,-0.029456383,0
0.3200000000000001,16.586762662704597,0.8482111337562476,2.009860253021758,-1.3951935451281625,14.454912,-0.2360163,2.9705985,-0.1816589,11.645545,-10.520209,1.0136452,-0.21266893,-0.031275425,-0.012988972,-0.97653735,-4.396471,4.5564837,0.25522554,0.06434171,-1.858707,-0.09271771,0
0.3300000000000001,16.586762662704597,0.8482111337562476,2.009860253021758,-1.3951935451281625,14.454912,-0.2360163,2.9705985,-0.1816589,11.601639,-10.474637,1.0165341,-0.21335207,-0.03896525,-0.011982031,-0.9761246,-4.3844523,4.558109,0.3225474,0.18656832,-1.2554209,-0.15663058,0
0.34000000000000014,16.586762662704597,0.8482111337562476,2.009860253021758,-1.3951935451281625,14.454912,-0.2360163,2.9705985,-0.1816589,11.557864,-10.429051,1.0200956,-0.21427508,-0.044060905,-0.012127569,-0.97570384,-4.370311,4.559068,0.38970754,0.28977236,-0.74622387,-0.21740726,0
0.35000000000000014,16.586762662704597,0.8482111337562476,2.009860253021758,-1.3951935451281625,14.454912,-0.2360163,2.9705985,-0.1816589,11.514237,-10.383456,1.024328,-0.21543397,-0.046968553,-0.013250984,-0.97529835,-4.354759,4.55988,0.4567422,0.37690842,-0.31644046,-0.27520156,0
0.36000000000000015,17.41696893765016,1.0915553987861848,3.9606465771971036,-1.3693694425661638,15.138301,-0.3928366,3.7545993,0.015180614,11.470772,-10.3378525,1.0292301,-0.21682085,-0.048030294,-0.015204292,-0.97491074,-4.3383956,4.5609813,0.5236969,0.45047373,0.046315603,-0.3301599,0
0.37000000000000016,17.41696893765016,1.0915553987861848,3.9606465771971036,-1.3693694425661638,15.138301,-0.3928366,3.7545993,0.015180614,11.427475,-10.292233,1.034843,-0.21840513,-0.04679436,-0.018126553,-0.9745672,-4.3209405,4.5628653,0.59887916,0.55060196,0.6567137,-0.38115418,0
0.38000000000000017,17.41696893765016,1.0915553987861848,3.9606465771971036,-1.3693694425661638,15.138301,-0.3928366,3.7545993,0.015180614,11.384352,-10.246591,1.0412079,-0.22015435,-0.04291709,-0.022121986,-0.9742695,-4.303994,4.566027,0.6740928,0.6351272,1.1719191,-0.42964622,0
0.3900000000000002,17.41696893765016,1.0915553987861848,3.9606465771971036,-1.3693694425661638,15.138301,-0.3928366,3.7545993,0.015180614,11.341392,-10.200907,1.0483252,-0.22205405,-0.03680919,-0.027026864,-0.9739646,-4.2883153,4.570998,0.74938256,0.7064761,1.6067785,-0.4757587,0
0.4000000000000002,17.649083166166644,1.0961229729048994,4.789480693249385,-1.2692647268585047,18.147434,0.33709368,4.3133445,0.49014112,11.298579,-10.155162,1.0561957,-0.22408837,-0.028816875,-0.032701448,-0.9735939,-4.274541,4.5782356,0.82475334,0.76669854,1.9738226,-0.5196085,0
0.4100000000000002,17.649083166166644,1.0961229729048994,4.789480693249385,-1.2692647268585047,18.147434,0.33709368,4.3133445,0.49014112,11.255894,-10.109331,1.064832,-0.22621705,-0.018910427,-0.03910221,-0.9731083,-4.2630777,4.5882716,0.9024817,0.8182778,2.4128857,-0.55639434,0
0.4200000000000002,17.649083166166644,1.0961229729048994,4.789480693249385,-1.2692647268585047,18.147434,0.33709368,4.3133445,0.49014112,11.213307,-10.063385,1.0742453,-0.22839859,-0.007082225,-0.046187256,-0.97244596,-4.2547164,4.601424,0.980178,0.8618049,2.7834792,-0.5913751,0
0.4300000000000002,17.649083166166644,1.0961229729048994,4.789480693249385,-1.2692647268585047,18.147434,0.33709368,4.3133445,0.49014112,11.170787,-10.01729,1.084435,-0.23061565,0.0063672625,-0.053847153,-0.97153324,-4.25001,4.618071,1.0577126,0.89853394,3.0962806,-0.6246394,0
0.4400000000000002,17.649083166166644,1.0961229729048994,4.789480693249385,-1.2692647268585047,18.485643,0.19538686,3.8190508,1.0997735,11.128294,-9.971011,1.0953985,-0.232852,0.021182556,-0.06198729,-0.9703037,-4.249417,4.63853,1.1349049,0.9295242,3.3603027,-0.65627134,0
0.45000000000000023,17.649083166166644,1.0961229729048994,4.789480693249385,-1.2692647268585047,18.485643,0.19538686,3.8190508,1.0997735,11.085784,-9.924506,1.1071312,-0.23509274,0.03714583,-0.07052561,-0.9686992,-4.253312,4.6630692,1.211529,0.9556704,3.5831523,-0.68635106,0
0.46000000000000024,17.649083166166644,1.0961229729048994,4.789480693249385,-1.2692647268585047,18.485643,0.19538686,3.8190508,1.0997735,11.043211,-9.877734,1.1196262,-0.23732442,0.054070845,-0.07939079,-0.9666701,-4.261999,4.6919107,1.2873204,0.9777281,3.7712505,-0.71495485,0
0.47000000000000025,17.649083166166644,1.0961229729048994,4.789480693249385,-1.2692647268585047,18.485643,0.19538686,3.8190508,1.0997735,11.000526,-9.830652,1.1328737,-0.23953484,0.071797945,-0.088520594,-0.9641746,-4.275717,4.725236,1.3619816,0.9963351,3.9300165,-0.74215496,0
0.48000000000000026,15.940386866432352,0.8696552276968695,4.480021742442957,-1.1301908752487646,16.992275,-0.004743122,3.2311597,1.1246362,10.957679,-9.783214,1.1468607,-0.24171314,0.090189874,-0.09786066,-0.9611786,-4.294645,4.763188,1.4351892,1.01203,4.0640244,-0.7680204,0
0.49000000000000027,15.940386866432352,0.8696552276968695,4.480021742442957,-1.1301908752487646,16.992275,-0.004743122,3.2311597,1.1246362,10.914626,-9.735393,1.161489,-0.24383724,0.109029874,-0.10724807,-0.9576817,-4.3165593,4.801733,1.4901909,0.9899069,4.1288986,-0.78579223,0
0.5000000000000002,15.940386866432352,0.8696552276968695,4.480021742442957,-1.1301908752487646,16.992275,-0.004743122,3.2311597,1.1246362,10.87133,-9.687165,1.176658,-0.24588774,0.12813891,-0.11655132,-0.95369595,-4.343338,4.844553,1.5432706,0.97122794,4.183655,-0.802692,0
0.5100000000000002,15.940386866432352,0.8696552276968695,4.480021742442957,-1.1301908752487646,16.992275,-0.004743122,3.2311597,1.1246362,10.827742,-9.638487,1.1923468,-0.24785925,0.14745772,-0.12576835,-0.94921273,-4.374986,4.8916245,1.594129,0.95545626,4.2298717,-0.8187625,0
0.5200000000000002,12.521151575701134,0.48990779799093975,3.2018387863776185,-0.9618355179096256,15.911133,0.73679554,3.689099,0.62319434,10.783813,-9.589318,1.208532,-0.24974717,0.16693434,-0.1348964,-0.94422597,-4.4114847,4.9429097,1.6424649,0.94213885,4.26888,-0.8340444,0
0.5300000000000002,12.521151575701134,0.48990779799093975,3.2018387863776185,-0.9618355179096256,15.911133,0.73679554,3.689099,0.62319434,10.739539,-9.539675,1.225032,-0.25157392,0.18607771,-0.14366531,-0.93885374,-4.4439106,4.9864497,1.6571854,0.87154007,4.10251,-0.84031516,0
0.5400000000000003,12.521151575701134,0.48990779799093975,3.2018387863776185,-0.9618355179096256,15.911133,0.73679554,3.689099,0.62319434,10.694922,-9.489579,1.2416675,-0.25336364,0.20450348,-0.15186545,-0.93323225,-4.479921,5.033077,1.6695617,0.8119634,3.96208,-0.84627825,0
0.5500000000000003,12.521151575701134,0.48990779799093975,3.2018387863776185,-0.9618355179096256,15.911133,0.73679554,3.689099,0.62319434,10.649929,-9.439003,1.2584147,-0.25511426,0.22231285,-0.15957542,-0.92737794,-4.519321,5.0826044,1.6794925,0.76168793,3.8435457,-0.8519487,0
0.5600000000000003,9.791756800353237,0.08566158964913995,1.5076922566622908,-0.7716405899507882,13.468984,1.665443,3.2425714,1.670355,10.604526,-9.3879175,1.2752486,-0.25682348,0.23959053,-0.16686153,-0.9213012,-4.561935,5.1348696,1.6868845,0.7192617,3.7434926,-0.8573409,0
0.5700000000000003,9.791756800353237,0.08566158964913995,1.5076922566622908,-0.7716405899507882,13.468984,1.665443,3.2425714,1.670355,10.55873,-9.336356,1.2920308,-0.25854442,0.25582388,-0.17346333,-0.9152158,-4.597629,5.1777525,1.6692448,0.6202482,3.3948777,-0.8531355,0
0.5800000000000003,9.791756800353237,0.08566158964913995,1.5076922566622908,-0.7716405899507882,13.468984,1.665443,3.2425714,1.670355,10.512566,-9.284356,1.3086267,-0.2603261,0.2706225,-0.17918405,-0.9093335,-4.6354613,5.2224345,1.6496255,0.5367081,3.1006203,-0.84913653,0
0.5900000000000003,9.791756800353237,0.08566158964913995,1.5076922566622908,-0.7716405899507882,13.468984,1.665443,3.2425714,1.670355,10.466014,-9.231902,1.3250167,-0.26215914,0.28421456,-0.1841606,-0.90364826,-4.675202,5.2687073,1.6281197,0.46622324,2.8522441,-0.8453338,0
0.6000000000000003,7.7823389644664465,-0.3219090510525399,-0.5053508029326113,-0.5621783955158196,10.998794,1.2678013,0.8338499,0.064934194,10.419056,-9.178978,1.3411828,-0.264034,0.296791,-0.18850814,-0.8981461,-4.716661,5.3163953,1.6048145,0.4067532,2.6425955,-0.84171766,0
0.6100000000000003,7.7823389644664465,-0.3219090510525399,-0.5053508029326113,-0.5621783955158196,10.998794,1.2678013,0.8338499,0.064934194,10.371718,-9.12562,1.3570321,-0.2660239,0.30783,-0.19197282,-0.8930952,-4.750835,5.355292,1.5648127,0.29283032,2.15174,-0.82800055,0
0.6200000000000003,7.7823389644664465,-0.3219090510525399,-0.5053508029326113,-0.5621783955158196,10.998794,1.2678013,0.8338499,0.064934194,10.324036,-9.07187,1.3724751,-0.26818976,0.31693667,-0.19436333,-0.8887344,-4.786024,5.394994,1.523649,0.19672374,1.7374216,-0.81495655,0
0.6300000000000003,7.7823389644664465,-0.3219090510525399,-0.5053508029326113,-0.5621783955158196,10.998794,1.2678013,0.8338499,0.064934194,10.275996,-9.017718,1.3875017,-0.2705041,0.32442558,-0.1958518,-0.8849962,-4.822032,5.4353166,1.4815297,0.115646295,1.3877064,-0.8025527,0
0.6400000000000003,7.7823389644664465,-0.3219090510525399,-0.5053508029326113,-0.5621783955158196,10.382694,1.0208628,-0.8840482,0.057208505,10.2275915,-8.963161,1.4021031,-0.27294123,0.33055848,-0.19658202,-0.8818108,-4.8587,5.4761086,1.4386371,0.04724712,1.0925213,-0.7907575,0
0.6500000000000004,7.7823389644664465,-0.3219090510525399,-0.5053508029326113,-0.5621783955158196,10.382694,1.0208628,-0.8840482,0.057208505,10.178819,-8.908194,1.4162724,-0.275478,0.33555317,-0.19667426,-0.87911075,-4.8958993,5.517243,1.3951313,-0.010457081,0.8433637,-0.7795411,0
0.6600000000000004,7.7823389644664465,-0.3219090510525399,-0.5053508029326113,-0.5621783955158196,10.382694,1.0208628,-0.8840482,0.057208505,10.129671,-8.852814,1.430004,-0.27809387,0.33959135,-0.19622931,-0.876833,-4.9335265,5.5586157,1.351151,-0.0591389,0.6330567,-0.768875,0
0.6700000000000004,7.7823389644664465,-0.3219090510525399,-0.5053508029326113,-0.5621783955158196,10.382694,1.0208628,-0.8840482,0.057208505,10.080147,-8.79702,1.443294,-0.280771,0.34282473,-0.19533181,-0.87492,-4.971496,5.600139,1.3068154,-0.10020979,0.4555425,-0.7587324,0
0.6800000000000004,6.674854703737033,-0.6083484947330883,-1.8265433279489587,-0.35892603664413025,9.534004,0.34664103,-1.8426108,0.70277363,10.030241,-8.74081,1.4561394,-0.28349397,0.34538013,-0.19405289,-0.87332004,-5.009738,5.6417394,1.2622268,-0.1348597,0.30570793,-0.74908745,0
0.6900000000000004,6.674854703737033,-0.6083484947330883,-1.8265433279489587,-0.35892603664413025,9.534004,0.34664103,-1.8426108,0.70277363,9.979979,-8.684215,1.4685001,-0.28629053,0.3469302,-0.19221054,-0.8722001,-5.042716,5.6774225,1.2098929,-0.20886208,-0.026782066,-0.7299421,0
0.7000000000000004,6.674854703737033,-0.6083484947330883,-1.8265433279489587,-0.35892603664413025,9.534004,0.34664103,-1.8426108,0.70277363,9.929386,-8.627262,1.4803374,-0.28917736,0.34722054,-0.18966311,-0.87168974,-5.0757847,5.7130084,1.1575693,-0.27129158,-0.30742747,-0.7117362,0
0.7100000000000004,6.674854703737033,-0.6083484947330883,-1.8265433279489587,-0.35892603664413025,9.534004,0.34664103,-1.8426108,0.70277363,9.878463,-8.569955,1.491652,-0.29212704,0.34644577,-0.18651979,-0.8716927,-5.1088576,5.7483926,1.105398,-0.3239593,-0.54431194,-0.6944237,0
0.7200000000000004,5.866919784001329,-0.7843671108171734,-2.857724833906023,-0.16891560738232458,8.167606,-0.11697271,-2.0455875,0.6417579,9.827209,-8.512294,1.5024463,-0.29511607,0.34476843,-0.18287219,-0.87212366,-5.1418633,5.7834864,1.0534974,-0.36839208,-0.744259,-0.67796075,0
0.7300000000000004,5.866919784001329,-0.7843671108171734,-2.857724833906023,-0.16891560738232458,8.167606,-0.11697271,-2.0455875,0.6417579,9.775644,-8.454304,1.5126989,-0.29816106,0.3419979,-0.1786542,-0.8730526,-5.171154,5.8144217,0.99689555,-0.42525545,-1.0657012,-0.65372413,0
0.7400000000000004,5.866919784001329,-0.7843671108171734,-2.857724833906023,-0.16891560738232458,8.167606,-0.11697271,-2.0455875,0.6417579,9.723789,-8.3960085,1.5223838,-0.30125773,0.3379614,-0.17376702,-0.8745465,-5.1998525,5.844513,0.94018334,-0.48135698,-1.3451498,-0.62993443,0
0.7500000000000004,5.866919784001329,-0.7843671108171734,-2.857724833906023,-0.16891560738232458,8.167606,-0.11697271,-2.0455875,0.6417579,9.671649,-8.337415,1.5315044,-0.30437088,0.33283776,-0.16829568,-0.87650144,-5.2282767,5.8740797,0.8840341,-0.5286848,-1.5810235,-0.6073121,0
0.7600000000000005,5.142107548733786,-0.8842493068781292,-3.4287103281860873,0.026228740945377225,9.45873,-0.69823253,-3.0330532,1.1411469,9.6192255,-8.278529,1.5400667,-0.30747363,0.32678464,-0.16232696,-0.8788188,-5.2563596,5.903032,0.82853824,-0.56861216,-1.7801164,-0.5857999,0
0.7700000000000005,5.142107548733786,-0.8842493068781292,-3.4287103281860873,0.026228740945377225,9.45873,-0.69823253,-3.0330532,1.1411469,9.566535,-8.219369,1.5480589,-0.31055954,0.31977576,-0.15590295,-0.8814711,-5.2815375,5.928733,0.7698502,-0.5978175,-2.0171418,-0.5575736,0
0.7800000000000005,5.142107548733786,-0.8842493068781292,-3.4287103281860873,0.026228740945377225,9.45873,-0.69823253,-3.0330532,1.1411469,9.513598,-8.159959,1.5554627,-0.31360573,0.31176692,-0.14900504,-0.8844496,-5.3056536,5.953085,0.71086764,-0.6365868,-2.2313359,-0.5294685,0
0.7900000000000005,5.142107548733786,-0.8842493068781292,-3.4287103281860873,0.026228740945377225,9.45873,-0.69823253,-3.0330532,1.1411469,9.460424,-8.100311,1.5622774,-0.31657258,0.30286586,-0.14163749,-0.88769,-5.329017,5.9763927,0.65219986,-0.6752312,-2.4180646,-0.5022003,0
0.8000000000000005,4.979409059101315,-0.9718321514808927,-3.7998390924901813,0.21554566333459976,7.7917795,-0.6507922,-2.2118216,1.0978161,9.407021,-8.040435,1.5685095,-0.3194375,0.29319027,-0.13385747,-0.8911128,-5.351846,5.998855,0.59432757,-0.7078355,-2.5756755,-0.47627014,0
0.8100000000000005,4.979409059101315,-0.9718321514808927,-3.7998390924901813,0.21554566333459976,7.7917795,-0.6507922,-2.2118216,1.0978161,9.35339,-7.980337,1.5741678,-0.3221842,0.2827502,-0.1257116,-0.89467704,-5.3741136,6.020422,0.5373178,-0.73166054,-2.74925,-0.44388276,0
0.8200000000000005,4.979409059101315,-0.9718321514808927,-3.7998390924901813,0.21554566333459976,7.7917795,-0.6507922,-2.2118216,1.0978161,9.299541,-7.920031,1.5792556,-0.32478508,0.27153468,-0.11719222,-0.8983598,-5.395253,6.0405364,0.48021254,-0.7637676,-2.907762,-0.412011,0
0.8300000000000005,4.979409059101315,-0.9718321514808927,-3.7998390924901813,0.21554566333459976,7.7917795,-0.6507922,-2.2118216,1.0978161,9.245487,-7.8595304,1.5837735,-0.32721272,0.2596206,-0.10829627,-0.90210956,-5.415494,6.0594053,0.42350745,-0.79619145,-3.0468884,-0.38121662,0
0.8400000000000005,4.979409059101315,-0.9718321514808927,-3.7998390924901813,0.21554566333459976,7.4787216,-0.5024473,-1.7151122,0.93591446,9.191234,-7.7988462,1.5877284,-0.32945335,0.24709658,-0.09906827,-0.9058642,-5.43501,6.0771704,0.3676305,-0.82355136,-3.1643195,-0.35193333,0
0.8500000000000005,4.979409059101315,-0.9718321514808927,-3.7998390924901813,0.21554566333459976,7.4787216,-0.5024473,-1.7151122,0.93591446,9.136789,-7.737991,1.5911288,-0.33149812,0.23404391,-0.08955694,-0.90956736,-5.4537554,6.093767,0.31256998,-0.8466393,-3.2634385,-0.32408696,0
0.8600000000000005,4.979409059101315,-0.9718321514808927,-3.7998390924901813,0.21554566333459976,7.4787216,-0.5024473,-1.7151122,0.93591446,9.082161,-7.6769753,1.5939827,-0.33334047,0.22053258,-0.07980407,-0.9131712,-5.4716883,6.109137,0.25830376,-0.866123,-3.3471007,-0.29760706,0
0.8700000000000006,4.979409059101315,-0.9718321514808927,-3.7998390924901813,0.21554566333459976,7.4787216,-0.5024473,-1.7151122,0.93591446,9.027358,-7.615813,1.5962977,-0.33497557,0.20662312,-0.069845624,-0.91663545,-5.4887695,6.123228,0.2048008,-0.8825659,-3.4177165,-0.27242652,0
0.8800000000000006,5.24230885669388,-1.0452668194186745,-3.2514720064400824,0.3843985788658038,6.6975813,-0.07831367,-1.0375428,0.78642756,8.972388,-7.554516,1.5980814,-0.33640036,0.19236803,-0.059712615,-0.9199264,-5.504963,6.1359925,0.15202235,-0.89644325,-3.4773197,-0.24848162,0
0.8900000000000006,5.24230885669388,-1.0452668194186745,-3.2514720064400824,0.3843985788658038,6.6975813,-0.07831367,-1.0375428,0.78642756,8.917257,-7.493095,1.5993527,-0.33757672,0.17802425,-0.049482808,-0.9229852,-5.5210457,6.1479926,0.10234995,-0.91957676,-3.4421139,-0.21742602,0
0.9000000000000006,5.24230885669388,-1.0452668194186745,-3.2514720064400824,0.3843985788658038,6.6975813,-0.07831367,-1.0375428,0.78642756,8.861971,-7.431561,1.6001304,-0.33847868,0.16380158,-0.039220646,-0.9257775,-5.5361586,6.158532,0.05332572,-0.93910825,-3.4123988,-0.18789431,0
0.9100000000000006,5.24230885669388,-1.0452668194186745,-3.2514720064400824,0.3843985788658038,6.6975813,-0.07831367,-1.0375428,0.78642756,8.806539,-7.3699293,1.6004211,-0.3391209,0.14967872,-0.028932847,-0.9283088,-5.5503025,6.1675973,0.0048812423,-0.95559853,-3.3873177,-0.15981175,0
0.9200000000000006,5.241543491351451,-0.9725928001351271,-2.1866897220453523,0.5405034837773323,6.4069986,-0.01171007,-0.547973,0.58783925,8.750969,-7.308214,1.6002297,-0.33951595,0.13563825,-0.018625284,-0.9305833,-5.5634794,6.175176,-0.043050483,-0.9695214,-3.3661482,-0.1331072,0
0.9300000000000006,5.241543491351451,-0.9725928001351271,-2.1866897220453523,0.5405034837773323,6.4069986,-0.01171007,-0.547973,0.58783925,8.695272,-7.2464304,1.5995619,-0.33965588,0.122051805,-0.008474486,-0.9325591,-5.5757046,6.181272,-0.09049474,-0.97042704,-3.1827443,-0.10010077,0
0.9400000000000006,5.241543491351451,-0.9725928001351271,-2.1866897220453523,0.5405034837773323,6.4069986,-0.01171007,-0.547973,0.58783925,8.639459,-7.184593,1.5984211,-0.3395436,0.109219536,0.0013733441,-0.93422717,-5.586999,6.1859097,-0.13762346,-0.97069246,-3.0274298,-0.06866614,0
0.9500000000000006,5.241543491351451,-0.9725928001351271,-2.1866897220453523,0.5405034837773323,6.4069986,-0.01171007,-0.547973,0.58783925,8.583536,-7.1227174,1.5968105,-0.33920276,0.097027555,0.010962697,-0.9356324,-5.597427,6.189143,-0.18445967,-0.9709264,-2.8963356,-0.03877401,0
0.9600000000000006,5.2564329599065855,-0.8704687031989595,-0.8185490302947422,0.666558957630136,7.1862583,-0.5507821,0.16418432,0.4987215,8.5275135,-7.060816,1.5947326,-0.33865267,0.085378975,0.020331841,-0.9368097,-5.607031,6.1910124,-0.23106742,-0.9711318,-2.7856846,-0.010348697,0
0.9700000000000006,5.2564329599065855,-0.8704687031989595,-0.8185490302947422,0.666558957630136,7.1862583,-0.5507821,0.16418432,0.4987215,8.4713955,-6.998902,1.5922062,-0.3379099,0.07464019,0.029398315,-0.937754,-5.6163864,6.191595,-0.27441055,-0.9863555,-2.5099044,0.020086654,0
0.9800000000000006,5.2564329599065855,-0.8704687031989595,-0.8185490302947422,0.666558957630136,7.1862583,-0.5507821,0.16418432,0.4987215,8.415189,-6.9369884,1.5892404,-0.33699885,0.065127365,0.03803843,-0.93847984,-5.6248,6.190872,-0.31898135,-0.985024,-2.2629402,0.050297514,0
0.9900000000000007,5.2564329599065855,-0.8704687031989595,-0.8185490302947422,0.666558957630136,7.1862583,-0.5507821,0.16418432,0.4987215,8.358901,-6.875088,1.5858227,-0.3359421,0.05669534,0.046229735,-0.9390381,-5.6324153,6.188991,-0.36474591,-0.9706958,-2.041276,0.08020917,0
1.0000000000000007,5.458787958762271,-0.7009035705738187,-0.12225398017138393,0.772307555980875,6.701296,-0.078833245,0.82633036,0.35947093,8.302542,-6.8132124,1.5819448,-0.33475614,0.049206503,0.053984556,-0.93947005,-5.639463,6.186034,-0.41084123,-0.95504045,-1.8506095,0.10898153,0
1.0100000000000007,5.458787958762271,-0.7009035705738187,-0.12225398017138393,0.772307555980875,6.701296,-0.078833245,0.82633036,0.35947093,8.246111,-6.751373,1.5776268,-0.33345836,0.042724058,0.061282303,-0.939801,-5.646571,6.1817694,-0.4530032,-0.9356419,-1.6013391,0.13970889,0
1.0200000000000007,5.458787958762271,-0.7009035705738187,-0.12225398017138393,0.772307555980875,6.701296,-0.078833245,0.82633036,0.35947093,8.189612,-6.68958,1.57288,-0.3320655,0.037317738,0.06805441,-0.9400584,-5.653129,6.176641,-0.4965754,-0.9048047,-1.3764693,0.17022246,0
1.0300000000000007,5.458787958762271,-0.7009035705738187,-0.12225398017138393,0.772307555980875,6.701296,-0.078833245,0.82633036,0.35947093,8.133049,-6.627843,1.5676934,-0.33058578,0.032857,0.07431284,-0.9402725,-5.6593304,6.170698,-0.54076797,-0.8730052,-1.1808885,0.19976695,0
1.0400000000000007,5.458787958762271,-0.7009035705738187,-0.12225398017138393,0.772307555980875,6.312709,-0.027204297,1.4737096,0.34696546,8.076426,-6.566169,1.5620643,-0.32902384,0.029202668,0.08012747,-0.9404634,-5.665314,6.1639743,-0.58502775,-0.84616864,-1.015807,0.22786167,0
1.0500000000000007,5.458787958762271,-0.7009035705738187,-0.12225398017138393,0.772307555980875,6.312709,-0.027204297,1.4737096,0.34696546,8.019743,-6.5045657,1.5559925,-0.3273825,0.026231488,0.08556852,-0.9406445,-5.67114,6.1565404,-0.62936366,-0.82351995,-0.87646896,0.2545778,0
1.0600000000000007,5.458787958762271,-0.7009035705738187,-0.12225398017138393,0.772307555980875,6.312709,-0.027204297,1.4737096,0.34696546,7.9630036,-6.4430404,1.5494767,-0.32566366,0.023839222,0.09069505,-0.94082445,-5.6768594,6.1484547,-0.67378205,-0.8044048,-0.7588597,0.27998295,0
1.0700000000000007,5.458787958762271,-0.7009035705738187,-0.12225398017138393,0.772307555980875,6.312709,-0.027204297,1.4737096,0.34696546,7.9062066,-6.381599,1.5425165,-0.32386872,0.021937732,0.09555675,-0.941009,-5.682514,6.139768,-0.7182875,-0.78827155,-0.65959084,0.3041415,0
1.0800000000000007,6.556620005786728,-0.513046986499068,0.7904054738171121,0.8119533440658167,7.535474,0.06888566,2.272643,0.2605358,7.8493533,-6.320247,1.5351107,-0.32199878,0.0204525,0.10019537,-0.9412017,-5.688141,6.1305237,-0.76288354,-0.7746545,-0.5758023,0.32711452,0
1.0900000000000007,6.556620005786728,-0.513046986499068,0.7904054738171121,0.8119533440658167,7.535474,0.06888566,2.272643,0.2605358,7.792438,-6.259,1.527312,-0.32008913,0.019640706,0.104457915,-0.9414069,-5.694909,6.118799,-0.79683036,-0.7338966,-0.36274588,0.3509057,0
1.1000000000000008,6.556620005786728,-0.513046986499068,0.7904054738171121,0.8119533440658167,7.535474,0.06888566,2.272643,0.2605358,7.735455,-6.197873,1.5191735,-0.31816977,0.0197032,0.10822583,-0.9416306,-5.701764,6.1065445,-0.8308855,-0.6994934,-0.18291514,0.3735294,0
1.1100000000000008,6.556620005786728,-0.513046986499068,0.7904054738171121,0.8119533440658167,7.535474,0.06888566,2.272643,0.2605358,7.6784024,-6.1368704,1.510694,-0.31623375,0.020505838,0.11157751,-0.9418744,-5.7087865,6.0938516,-0.8650443,-0.67045367,-0.031128675,0.39504302,0
1.1200000000000008,8.67702457914234,-0.25334633347660224,1.770072778936462,0.7755850588763868,8.806839,-0.089246,3.2009835,0.13043854,7.6212783,-6.0759964,1.5018724,-0.31427464,0.02193521,0.114578694,-0.9421376,-5.716044,6.0807953,-0.89930236,-0.6459403,0.096986584,0.41550094,0
1.1300000000000008,8.67702457914234,-0.25334633347660224,1.770072778936462,0.7755850588763868,8.806839,-0.089246,3.2009835,0.13043854,7.5640683,-6.015277,1.4928107,-0.31233862,0.024231786,0.11706379,-0.94241965,-5.726045,6.0631337,-0.9130395,-0.58479005,0.35791326,0.43317035,0
1.1400000000000008,8.67702457914234,-0.25334633347660224,1.770072778936462,0.7755850588763868,8.806839,-0.089246,3.2009835,0.13043854,7.506756,-5.954735,1.4836111,-0.31046334,0.02758125,0.1189048,-0.94271666,-5.7365723,6.04524,-0.9268898,-0.5331699,0.5781476,0.44997275,0
1.1500000000000008,8.67702457914234,-0.25334633347660224,1.770072778936462,0.7755850588763868,8.806839,-0.089246,3.2009835,0.13043854,7.449335,-5.894372,1.4742725,-0.3086313,0.03182114,0.120202675,-0.94302,-5.747755,6.027263,-0.94084215,-0.48959392,0.7640354,0.46595064,0
1.1600000000000008,11.391990292581399,0.01718016513477404,2.6569524631630785,0.6634703671360602,11.042485,-0.20165089,3.8342042,0.21555948,7.391799,-5.8341894,1.4647938,-0.30682686,0.036813993,0.12104197,-0.9433197,-5.759703,6.0093303,-0.9548906,-0.45280796,0.92093307,0.48114452,0
1.1700000000000008,11.391990292581399,0.01718016513477404,2.6569524631630785,0.6634703671360602,11.042485,-0.20165089,3.8342042,0.21555948,7.334119,-5.774213,1.4553056,-0.30509615,0.0427435,0.12128318,-0.94359994,-5.776529,5.9859967,-0.9427633,-0.37960523,1.1916851,0.4900913,0
1.1800000000000008,11.391990292581399,0.01718016513477404,2.6569524631630785,0.6634703671360602,11.042485,-0.20165089,3.8342042,0.21555948,7.2762637,-5.7144675,1.445938,-0.30347583,0.049748734,0.12081928,-0.94383866,-5.7946725,5.963088,-0.93075633,-0.31780753,1.4202106,0.49859905,0
1.1900000000000008,11.391990292581399,0.01718016513477404,2.6569524631630785,0.6634703671360602,11.042485,-0.20165089,3.8342042,0.21555948,7.2182207,-5.6549487,1.43669,-0.30193946,0.05766185,0.11975879,-0.9440162,-5.8143096,5.940814,-0.91887546,-0.26563752,1.6130953,0.50668937,0
1.2000000000000008,12.87924593525429,0.27912917920093866,2.756907506693335,0.5167545538497117,12.80459,-0.37699524,4.049276,0.13499174,7.1599727,-5.595649,1.42756,-0.30046383,0.06634051,0.118192784,-0.9441144,-5.835586,5.919352,-0.9071386,-0.22159481,1.7758976,0.5143826,0
1.2100000000000009,12.87924593525429,0.27912917920093866,2.756907506693335,0.5167545538497117,12.80459,-0.37699524,4.049276,0.13499174,7.1014886,-5.536572,1.4186182,-0.2990577,0.07566816,0.116087995,-0.94412047,-5.861633,5.8961806,-0.8812559,-0.14355855,1.9289116,0.51449895,0
1.2200000000000009,12.87924593525429,0.27912917920093866,2.756907506693335,0.5167545538497117,12.80459,-0.37699524,4.049276,0.13499174,7.042733,-5.477721,1.4099342,-0.29772994,0.0855454,0.11342213,-0.9440208,-5.889779,5.874284,-0.8556009,-0.07768403,2.0580592,0.51460963,0
1.2300000000000009,12.87924593525429,0.27912917920093866,2.756907506693335,0.5167545538497117,12.80459,-0.37699524,4.049276,0.13499174,6.983685,-5.419082,1.4015054,-0.2964614,0.09588359,0.11028053,-0.94379884,-5.920111,5.853828,-0.8302162,-0.022075973,2.1670628,0.5147149,0
1.2400000000000009,12.87924593525429,0.27912917920093866,2.756907506693335,0.5167545538497117,13.885941,-0.48079446,3.530541,0.3208541,6.924323,-5.3606396,1.3933287,-0.29523543,0.10660731,0.106735125,-0.9434403,-5.9526978,5.834953,-0.80515516,0.024865827,2.2590647,0.514815,0
1.2500000000000009,12.87924593525429,0.27912917920093866,2.756907506693335,0.5167545538497117,13.885941,-0.48079446,3.530541,0.3208541,6.864623,-5.302377,1.3854009,-0.29403755,0.117652245,0.10284669,-0.94293344,-5.9875965,5.8177752,-0.7804797,0.06449197,2.3367164,0.5149102,0
1.260000000000001,12.87924593525429,0.27912917920093866,2.756907506693335,0.5167545538497117,13.885941,-0.48079446,3.530541,0.3208541,6.8045626,-5.244278,1.3777176,-0.29285532,0.12896356,0.09866657,-0.9422686,-6.0248513,5.802394,-0.7562595,0.09794247,2.4022565,0.5150007,0
1.270000000000001,12.87924593525429,0.27912917920093866,2.756907506693335,0.5167545538497117,13.885941,-0.48079446,3.530541,0.3208541,6.7441177,-5.1863227,1.370274,-0.29167798,0.14049442,0.09423821,-0.94143796,-6.0644956,5.788891,-0.73257,0.12617975,2.4575734,0.51508677,0
1.280000000000001,14.18284127726389,0.5380962662591968,2.624488973736142,0.3431533023515011,15.207325,-0.5173745,2.6870086,0.4706891,6.6832643,-5.1284933,1.3630642,-0.29049644,0.15220477,0.089598395,-0.94043535,-6.106554,5.777333,-0.7094916,0.15001631,2.5042624,0.5151686,0
1.290000000000001,14.18284127726389,0.5380962662591968,2.624488973736142,0.3431533023515011,15.207325,-0.5173745,2.6870086,0.4706891,6.621956,-5.0707746,1.3561428,-0.28933463,0.16397862,0.084699616,-0.93926746,-6.155538,5.7668114,-0.6749111,0.21054466,2.523031,0.5067278,0
1.300000000000001,14.18284127726389,0.5380962662591968,2.624488973736142,0.3431533023515011,15.207325,-0.5173745,2.6870086,0.4706891,6.5601444,-5.0131497,1.3495629,-0.28821617,0.17572217,0.07950697,-0.93794066,-6.2071605,5.758569,-0.64117247,0.26163417,2.5388687,0.49870116,0
1.310000000000001,14.18284127726389,0.5380962662591968,2.624488973736142,0.3431533023515011,15.207325,-0.5173745,2.6870086,0.4706891,6.4978037,-4.955595,1.3433161,-0.2871327,0.18743347,0.074066356,-0.93644994,-6.2613783,5.7526703,-0.6083532,0.3047567,2.5522335,0.4910684,0
1.320000000000001,15.396129016883776,0.7659764749777871,1.9985709486768846,0.16953176033980738,16.22986,-0.30045393,2.3942769,0.3854242,6.4349084,-4.8980875,1.3373924,-0.28607664,0.19911054,0.068416625,-0.9347915,-6.3181496,5.749168,-0.5765341,0.34115434,2.5635116,0.48381016,0
1.330000000000001,15.396129016883776,0.7659764749777871,1.9985709486768846,0.16953176033980738,16.22986,-0.30045393,2.3942769,0.3854242,6.371407,-4.840604,1.3318368,-0.28506345,0.21049023,0.06258152,-0.93301505,-6.3824887,5.7480083,-0.5347698,0.40745783,2.4754262,0.46838844,0
1.340000000000001,15.396129016883776,0.7659764749777871,1.9985709486768846,0.16953176033980738,16.22986,-0.30045393,2.3942769,0.3854242,6.3072495,-4.7831187,1.3266928,-0.28411263,0.22136591,0.05658298,-0.9311694,-6.449388,5.7494974,-0.49421492,0.4634141,2.4010737,0.45372346,0
1.350000000000001,15.396129016883776,0.7659764749777871,1.9985709486768846,0.16953176033980738,16.22986,-0.30045393,2.3942769,0.3854242,6.242411,-4.725605,1.3219483,-0.2832219,0.23181169,0.050449014,-0.92924947,-6.5186863,5.7536297,-0.454897,0.5106384,2.338313,0.43977812,0
1.360000000000001,15.725271556214217,0.9649489777166563,1.104297116867001,0.032818497045592254,16.680109,-0.10492232,1.8050828,0.24279433,6.1768684,-4.6680374,1.3175906,-0.2823881,0.24188991,0.04420324,-0.92725044,-6.5902424,5.760398,-0.41684648,0.55049324,2.2853372,0.42651704,0
1.370000000000001,15.725271556214217,0.9649489777166563,1.104297116867001,0.032818497045592254,16.680109,-0.10492232,1.8050828,0.24279433,6.110591,-4.610388,1.3136214,-0.28162825,0.25129882,0.037896946,-0.9252564,-6.6654882,5.769986,-0.3772021,0.61520505,2.101165,0.40719813,0
1.380000000000001,15.725271556214217,0.9649489777166563,1.104297116867001,0.032818497045592254,16.680109,-0.10492232,1.8050828,0.24279433,6.043552,-4.5526285,1.3100421,-0.28096297,0.2598052,0.031572785,-0.9233447,-6.7426486,5.7821817,-0.3388283,0.669812,1.9457105,0.38882723,0
1.390000000000001,15.725271556214217,0.9649489777166563,1.104297116867001,0.032818497045592254,16.680109,-0.10492232,1.8050828,0.24279433,5.975733,-4.4947352,1.3068405,-0.28039202,0.26754937,0.025237413,-0.9214998,-6.8214746,5.7969093,-0.3016612,0.71589255,1.814496,0.3713578,0
1.400000000000001,15.67514267437081,1.1006450158474201,-0.10303653106716623,-0.09882682461127143,16.831715,0.03536985,1.0817325,0.030318346,5.9071183,-4.436682,1.3040049,-0.27991316,0.2746493,0.018896254,-0.91970676,-6.901757,5.8141055,-0.2656464,0.75477815,1.7037423,0.35474557,0
1.410000000000001,15.67514267437081,1.1006450158474201,-0.10303653106716623,-0.09882682461127143,16.831715,0.03536985,1.0817325,0.030318346,5.837695,-4.378445,1.3015218,-0.2795455,0.28074542,0.012643436,-0.9180837,-6.9830327,5.833639,-0.23114511,0.80880195,1.4219769,0.33248863,0
1.420000000000001,15.67514267437081,1.1006450158474201,-0.10303653106716623,-0.09882682461127143,16.831715,0.03536985,1.0817325,0.030318346,5.7674546,-4.3200016,1.2993786,-0.27931088,0.285561,0.006554383,-0.9167326,-7.0652432,5.8554235,-0.1975736,0.85438293,1.18415,0.31132388,0
1.430000000000001,15.67514267437081,1.1006450158474201,-0.10303653106716623,-0.09882682461127143,16.831715,0.03536985,1.0817325,0.030318346,5.6963887,-4.26133,1.2975674,-0.27920765,0.28929844,0.00060779764,-0.9156148,-7.148076,5.879314,-0.16475932,0.892841,0.9834101,0.29119766,0
1.440000000000001,15.67514267437081,1.1006450158474201,-0.10303653106716623,-0.09882682461127143,16.443892,0.3638657,0.5440948,-0.041726563,5.624492,-4.2024093,1.2960812,-0.27923173,0.2921275,-0.005214574,-0.9146941,-7.23127,5.9051905,-0.13255256,0.9252902,0.8139741,0.27205905,1
1.450000000000001,15.67514267437081,1.1006450158474201,-0.10303653106716623,-0.09882682461127143,16.443892,0.3638657,0.5440948,-0.041726563,5.551742,-4.1432133,1.2949463,-0.27928293,0.29450992,-0.010733084,-0.913866,-7.318717,5.9343038,-0.094471335,0.8377516,0.7718627,0.25666153,1
1.460000000000001,15.67514267437081,1.1006450158474201,-0.10303653106716623,-0.09882682461127143,16.443892,0.3638657,0.5440948,-0.041726563,5.478117,-4.083717,1.29419,-0.27927664,0.29681846,-0.015807036,-0.91304696,-7.4063,5.9652405,-0.056880586,0.76386243,0.7363227,0.24201955,1
1.470000000000001,15.67514267437081,1.1006450158474201,-0.10303653106716623,-0.09882682461127143,16.443892,0.3638657,0.5440948,-0.041726563,5.403615,-4.023903,1.293807,-0.27922902,0.299065,-0.020503344,-0.9122347,-7.4940376,5.9978604,-0.01978432,0.7014944,0.7063286,0.22809605,1
1.480000000000001,15.901349236771209,1.1299695237169416,-0.8545092738360938,-0.20079174463145325,16.536448,0.33688864,0.08607195,-0.09930068,5.328235,-3.9637547,1.2937926,-0.27915302,0.30125934,-0.02487858,-0.9114268,-7.5819435,6.032046,0.016814712,0.64885104,0.68101484,0.21485579,1
1.490000000000001,15.901349236771209,1.1299695237169416,-0.8545092738360938,-0.20079174463145325,16.536448,0.33688864,0.08607195,-0.09930068,5.251973,-3.903256,1.2941456,-0.2790675,0.30324605,-0.028917463,-0.91067463,-7.670518,6.0678897,0.05367744,0.6002196,0.58822113,0.19944005,1
1.500000000000001,15.901349236771209,1.1299695237169416,-0.8545092738360938,-0.20079174463145325,16.536448,0.33688864,0.08607195,-0.09930068,5.174824,-3.842392,1.2948648,-0.27898964,0.30490297,-0.032610167,-0.9100202,-7.759222,6.105066,0.090094544,0.5591682,0.50990057,0.18478076,1
1.5100000000000011,15.901349236771209,1.1299695237169416,-0.8545092738360938,-0.20079174463145325,16.536448,0.33688864,0.08607195,-0.09930068,5.096788,-3.7811503,1.2959461,-0.27892673,0.3062824,-0.036008224,-0.9094479,-7.848,6.143449,0.12612353,0.52451587,0.4437957,0.1708408,1
1.5200000000000011,15.741634968258866,1.269098949561101,-1.6961207374246678,-0.27947599525066424,16.326534,0.65750825,-0.74422455,-0.25098523,5.0178638,-3.7195194,1.297386,-0.27888423,0.30742833,-0.039155234,-0.90894413,-7.936806,6.182931,0.161814,0.49526513,0.38800132,0.15758489,1
1.5300000000000011,15.741634968258866,1.269098949561101,-1.6961207374246678,-0.27947599525066424,16.326534,0.65750825,-0.74422455,-0.25098523,4.9380574,-3.6574907,1.2991729,-0.27893612,0.30804083,-0.042106293,-0.9085888,-8.024455,6.2229056,0.19552903,0.52058786,0.21142717,0.13753624,1
1.5400000000000011,15.741634968258866,1.269098949561101,-1.6961207374246678,-0.27947599525066424,16.326534,0.65750825,-0.74422455,-0.25098523,4.857375,-3.595058,1.3012962,-0.27914444,0.30788437,-0.044906143,-0.90844375,-8.111905,6.2637744,0.2291022,0.54195476,0.062389206,0.11847139,1
1.5500000000000012,15.741634968258866,1.269098949561101,-1.6961207374246678,-0.27947599525066424,16.326534,0.65750825,-0.74422455,-0.25098523,4.7758207,-3.5322125,1.3037553,-0.279496,0.30707943,-0.047574926,-0.9084723,-8.198971,6.305447,0.26267746,0.5599842,-0.06340705,0.10034204,1
1.5600000000000012,15.933215411036924,1.4895812306784928,-2.512446234892392,-0.368195221497282,16.007349,1.1540986,-1.9465705,-0.30679592,4.693398,-3.4689467,1.3065504,-0.27997854,0.3057273,-0.05012978,-0.9086423,-8.285499,6.347847,0.2963758,0.5751983,-0.16958569,0.08310233,1
1.5700000000000012,15.933215411036924,1.4895812306784928,-2.512446234892392,-0.368195221497282,16.007349,1.1540986,-1.9465705,-0.30679592,4.6101217,-3.4052577,1.3096707,-0.28067192,0.30342036,-0.052628975,-0.90906024,-8.369646,6.3900633,0.3277382,0.6654869,-0.4467088,0.06396992,1
1.5800000000000012,15.933215411036924,1.4895812306784928,-2.512446234892392,-0.368195221497282,16.007349,1.1540986,-1.9465705,-0.30679592,4.5260086,-3.3411438,1.3131068,-0.28163856,0.299838,-0.055118755,-0.909802,-8.452793,6.4328413,0.3595614,0.7416874,-0.6806171,0.045776334,1
1.5900000000000012,15.933215411036924,1.4895812306784928,-2.512446234892392,-0.368195221497282,16.007349,1.1540986,-1.9465705,-0.30679592,4.44107,-3.2765994,1.3168643,-0.28284302,0.29517534,-0.057596397,-0.9107991,-8.534612,6.476099,0.39206624,0.8059989,-0.8780489,0.028475508,1
1.6000000000000012,15.517398712303207,1.5834619649609307,-3.448656600681576,-0.43720719727933227,16.197943,1.0725691,-2.858379,-0.24859706,4.3553214,-3.2116203,1.320951,-0.28425384,0.28959626,-0.060059667,-0.911991,-8.614823,6.519765,0.42543012,0.860277,-1.0446923,0.012023651,1
1.6100000000000012,15.517398712303207,1.5834619649609307,-3.448656600681576,-0.43720719727933227,16.197943,1.0725691,-2.858379,-0.24859706,4.268775,-3.1462004,1.3253843,-0.28584903,0.28291425,-0.062375084,-0.9134332,-8.6940975,6.5642834,0.46138424,0.8933751,-1.3275428,-0.0007650708,1
1.6200000000000012,15.517398712303207,1.5834619649609307,-3.448656600681576,-0.43720719727933227,16.197943,1.0725691,-2.858379,-0.24859706,4.181447,-3.0803342,1.3301829,-0.28760698,0.27498615,-0.064436056,-0.91515785,-8.771156,6.6089787,0.49856544,0.92130774,-1.5662832,-0.012926245,1
1.6300000000000012,15.517398712303207,1.5834619649609307,-3.448656600681576,-0.43720719727933227,16.197943,1.0725691,-2.858379,-0.24859706,4.0933604,-3.014021,1.3353603,-0.2895015,0.26599732,-0.06627718,-0.91708374,-8.845683,6.6536827,0.53715456,0.944882,-1.7677921,-0.024490671,1
1.6400000000000012,15.517398712303207,1.5834619649609307,-3.448656600681576,-0.43720719727933227,15.924498,0.8562198,-3.235829,-0.14379314,4.004542,-2.9472613,1.3409313,-0.2915089,0.2561042,-0.0679278,-0.9191409,-8.9174,6.698246,0.5772834,0.96477824,-1.9378757,-0.035487637,1
1.6500000000000012,15.517398712303207,1.5834619649609307,-3.448656600681576,-0.43720719727933227,15.924498,0.8562198,-3.235829,-0.14379314,3.9150276,-2.880061,1.3468999,-0.29358435,0.2453243,-0.06929228,-0.9213163,-8.9848995,6.7417784,0.6166853,0.9478365,-2.1402936,-0.040802218,1
1.6600000000000013,15.517398712303207,1.5834619649609307,-3.448656600681576,-0.43720719727933227,15.924498,0.8562198,-3.235829,-0.14379314,3.8248549,-2.8124273,1.3532708,-0.2956888,0.23367779,-0.07029581,-0.92359203,-9.049151,6.7848444,0.65777874,0.9335368,-2.3111444,-0.045856006,1
1.6700000000000013,15.517398712303207,1.5834619649609307,-3.448656600681576,-0.43720719727933227,15.924498,0.8562198,-3.235829,-0.14379314,3.7340565,-2.7443662,1.3600613,-0.29780993,0.22129044,-0.070989594,-0.92590564,-9.109937,6.827256,0.7006189,0.9214675,-2.4553509,-0.050661813,1
1.6800000000000013,15.70508768030772,1.581531465721151,-3.2715823507775736,-0.4636244508349298,17.350164,-0.5765095,-4.3974614,1.2863392,3.6426685,-2.6758847,1.3672892,-0.29993632,0.20826916,-0.07141711,-0.9282041,-9.167057,6.868848,0.7452246,0.91128045,-2.5770683,-0.055231787,0
1.6900000000000013,15.70508768030772,1.581531465721151,-3.2715823507775736,-0.4636244508349298,17.350164,-0.5765095,-4.3974614,1.2863392,3.5507321,-2.606995,1.3749619,-0.30215424,0.1946071,-0.071872376,-0.93041193,-9.219592,6.9089265,0.78959286,1.0157669,-2.6853943,-0.075271726,0
1.7000000000000013,15.70508768030772,1.581531465721151,-3.2715823507775736,-0.4636244508349298,17.350164,-0.5765095,-4.3974614,1.2863392,3.4582906,-2.5377095,1.3830867,-0.30453032,0.18030323,-0.07259042,-0.93246114,-9.268091,6.9480386,0.83565044,1.1039587,-2.776828,-0.0943283,0
1.7100000000000013,15.70508768030772,1.581531465721151,-3.2715823507775736,-0.4636244508349298,17.350164,-0.5765095,-4.3974614,1.2863392,3.365385,-2.4680374,1.3916802,-0.3070289,0.16545026,-0.07352567,-0.93432045,-9.312322,6.9861817,0.883331,1.1783977,-2.8540032,-0.112449765,0
1.7200000000000013,15.854887251351332,1.5138847328614677,-2.8111989015367156,-0.5165708347917182,17.56883,-0.7911563,-4.982327,1.8501614,3.2720594,-2.3979888,1.4007583,-0.30961964,0.15012762,-0.07463967,-0.93596345,-9.352079,7.0233455,0.9325446,1.2412286,-2.919143,-0.12968202,0
1.7300000000000013,15.854887251351332,1.5138847328614677,-2.8111989015367156,-0.5165708347917182,17.56883,-0.7911563,-4.982327,1.8501614,3.178358,-2.3275719,1.4103429,-0.3122659,0.1345853,-0.075931035,-0.93734336,-9.387533,7.0598617,0.9845957,1.2837147,-2.9023287,-0.14866677,0
1.7400000000000013,15.854887251351332,1.5138847328614677,-2.8111989015367156,-0.5165708347917182,17.56883,-0.7911563,-4.982327,1.8501614,3.0843256,-2.256795,1.4204546,-0.31494063,0.11902753,-0.077398084,-0.9384326,-9.418223,7.0953903,1.0379276,1.319577,-2.888136,-0.16671991,0
1.7500000000000013,15.854887251351332,1.5138847328614677,-2.8111989015367156,-0.5165708347917182,17.56883,-0.7911563,-4.982327,1.8501614,2.99001,-2.1856675,1.4311054,-0.31763303,0.103455804,-0.07901043,-0.9392363,-9.444103,7.1299458,1.092379,1.3498483,-2.8761559,-0.1838872,0
1.7600000000000013,15.473754111654154,1.1824593308596962,-1.939581337920446,-0.5157008191592294,18.438229,-0.90787745,-5.49229,2.238137,2.89546,-2.1141994,1.4423056,-0.32033375,0.087872036,-0.080742374,-0.9397589,-9.465134,7.163536,1.1477885,1.3754005,-2.8660436,-0.20021208,0
1.7700000000000014,15.473754111654154,1.1824593308596962,-1.939581337920446,-0.5157008191592294,18.438229,-0.90787745,-5.49229,2.238137,2.800726,-2.0424042,1.4540453,-0.32299647,0.07264922,-0.08255995,-0.9399896,-9.480919,7.195382,1.2002825,1.3453028,-2.721572,-0.21569319,0
1.7800000000000014,15.473754111654154,1.1824593308596962,-1.939581337920446,-0.5157008191592294,18.438229,-0.90787745,-5.49229,2.238137,2.7058573,-1.9702948,1.466313,-0.32559025,0.058085077,-0.08443734,-0.9399408,-9.492102,7.2263336,1.2533743,1.3198997,-2.5996299,-0.23041466,0
1.7900000000000014,15.473754111654154,1.1824593308596962,-1.939581337920446,-0.5157008191592294,18.438229,-0.90787745,-5.49229,2.238137,2.6108992,-1.8978803,1.479114,-0.32812765,0.044079762,-0.08636522,-0.9396444,-9.498851,7.2564363,1.3069003,1.2984586,-2.4967043,-0.24441373,0
1.8000000000000014,14.336833629566874,0.650330112793918,-1.0670233380301415,-0.45720247530287705,17.964876,-1.370146,-5.277816,2.7303827,2.5158951,-1.8251688,1.492452,-0.33061844,0.030548712,-0.088335484,-0.9391253,-9.501311,7.285728,1.3607153,1.2803613,-2.4098296,-0.25772586,0
1.8100000000000014,14.336833629566874,0.650330112793918,-1.0670233380301415,-0.45720247530287705,17.964876,-1.370146,-5.277816,2.7303827,2.4208868,-1.7521789,1.5062732,-0.33302787,0.01781831,-0.09025743,-0.93841875,-9.49976,7.3121467,1.4035159,1.1821293,-2.200411,-0.26751423,0
1.8200000000000014,14.336833629566874,0.650330112793918,-1.0670233380301415,-0.45720247530287705,17.964876,-1.370146,-5.277816,2.7303827,2.325912,-1.6789281,1.5205225,-0.33533427,0.006143744,-0.09206093,-0.93757087,-9.494647,7.337888,1.4463584,1.0992137,-2.023652,-0.27682227,0
1.8300000000000014,14.336833629566874,0.650330112793918,-1.0670233380301415,-0.45720247530287705,17.964876,-1.370146,-5.277816,2.7303827,2.2310052,-1.6054232,1.5352002,-0.33756068,-0.004637343,-0.09376672,-0.936611,-9.4862585,7.362997,1.4891584,1.0292267,-1.8744597,-0.28567356,0
1.8400000000000014,14.336833629566874,0.650330112793918,-1.0670233380301415,-0.45720247530287705,17.934256,-1.8095385,-4.928529,3.120211,2.1361976,-1.5316702,1.5503054,-0.3397252,-0.014662461,-0.09539184,-0.9355604,-9.474833,7.387513,1.5318496,0.9701518,-1.7485348,-0.2940905,0
1.8500000000000014,14.336833629566874,0.650330112793918,-1.0670233380301415,-0.45720247530287705,17.934256,-1.8095385,-4.928529,3.120211,2.0415184,-1.4576747,1.5658367,-0.34184203,-0.024047973,-0.0969503,-0.9344343,-9.460573,7.4114695,1.574379,0.92028743,-1.6422487,-0.3020945,0
1.8600000000000014,14.336833629566874,0.650330112793918,-1.0670233380301415,-0.45720247530287705,17.934256,-1.8095385,-4.928529,3.120211,1.9469954,-1.3834425,1.5817921,-0.34392226,-0.032892283,-0.09845362,-0.9332435,-9.443654,7.4348927,1.6167034,0.8781978,-1.5525388,-0.3097057,0
1.8700000000000014,14.336833629566874,0.650330112793918,-1.0670233380301415,-0.45720247530287705,17.934256,-1.8095385,-4.928529,3.120211,1.852654,-1.3089787,1.5981697,-0.3459746,-0.041278567,-0.09991128,-0.93199587,-9.424221,7.457807,1.6587864,0.8426703,-1.4768198,-0.3169434,0
1.8800000000000014,14.560081600807248,0.201609689971779,-0.0842590879692792,-0.3934013573316988,21.257578,-2.922713,-5.777543,4.378555,1.758519,-1.234288,1.6149669,-0.34800583,-0.0492771,-0.10133108,-0.93069685,-9.402401,7.4802313,1.7005974,0.812682,-1.4129097,-0.32382593,0
1.8900000000000015,14.560081600807248,0.201609689971779,-0.0842590879692792,-0.3934013573316988,21.257578,-2.922713,-5.777543,4.378555,1.6646156,-1.1593739,1.6321914,-0.34998396,-0.05651966,-0.10268941,-0.92939365,-9.37795,7.5025296,1.7442864,0.71742654,-1.205689,-0.32724,0
1.9000000000000015,14.560081600807248,0.201609689971779,-0.0842590879692792,-0.3934013573316988,21.257578,-2.922713,-5.777543,4.378555,1.5709671,-1.0842389,1.6498514,-0.35188603,-0.06271835,-0.1039696,-0.9281346,-9.351476,7.524421,1.7876756,0.63702023,-1.0307866,-0.33048654,0
1.9100000000000015,14.560081600807248,0.201609689971779,-0.0842590879692792,-0.3934013573316988,21.257578,-2.922713,-5.777543,4.378555,1.4775923,-1.0088867,1.667944,-0.35372832,-0.06803605,-0.105186395,-0.92692184,-9.323256,7.545981,1.830778,0.5691481,-0.8831626,-0.3335738,0
1.9200000000000015,13.743068708761546,-0.24512858434884502,0.07889325746711788,-0.26396629208558703,21.807272,-3.012914,-5.9667315,4.5669546,1.3845074,-0.9333202,1.6864661,-0.35552353,-0.072610244,-0.106351756,-0.92575425,-9.293523,7.5672736,1.8736104,0.51185644,-0.75856256,-0.33650956,0
1.9300000000000015,13.743068708761546,-0.24512858434884502,0.07889325746711788,-0.26396629208558703,21.807272,-3.012914,-5.9667315,4.5669546,1.2917178,-0.8575479,1.7053759,-0.35727325,-0.07643453,-0.107332066,-0.924659,-9.264224,7.5871673,1.9082994,0.39383507,-0.62793505,-0.33294982,0
1.9400000000000015,13.743068708761546,-0.24512858434884502,0.07889325746711788,-0.26396629208558703,21.807272,-3.012914,-5.9667315,4.5669546,1.1992263,-0.7815776,1.7246315,-0.3589779,-0.07950986,-0.108021885,-0.92365855,-9.233913,7.6068673,1.94279,0.2942142,-0.51768345,-0.32956478,0
1.9500000000000015,13.743068708761546,-0.24512858434884502,0.07889325746711788,-0.26396629208558703,21.807272,-3.012914,-5.9667315,4.5669546,1.1070422,-0.70541126,1.7442312,-0.3606447,-0.081953146,-0.10846787,-0.92274296,-9.202796,7.6263742,1.9771223,0.21012479,-0.4246291,-0.32634583,0
1.9600000000000015,12.516158927693752,-0.6009496999228795,0.15826161340819442,-0.10371227704012846,19.908623,-1.4837301,-5.679902,3.5601556,1.0151725,-0.62905073,1.7641736,-0.36227927,-0.083863,-0.108709075,-0.9219023,-9.171045,7.645689,2.0113328,0.13914573,-0.3460897,-0.32328483,0
1.9700000000000015,12.516158927693752,-0.6009496999228795,0.15826161340819442,-0.10371227704012846,19.908623,-1.4837301,-5.679902,3.5601556,0.9236085,-0.5525066,1.7843984,-0.36387622,-0.085243836,-0.108656846,-0.92115253,-9.141692,7.663102,2.033651,0.023746751,-0.26741186,-0.31251037,0
1.9800000000000015,12.516158927693752,-0.6009496999228795,0.15826161340819442,-0.10371227704012846,19.908623,-1.4837301,-5.679902,3.5601556,0.83233964,-0.47578943,1.8048464,-0.36542913,-0.08610352,-0.10824236,-0.92050636,-9.112057,7.6803102,2.05593,-0.07365944,-0.20100908,-0.3022646,0
1.9900000000000015,12.516158927693752,-0.6009496999228795,0.15826161340819442,-0.10371227704012846,19.908623,-1.4837301,-5.679902,3.5601556,0.74136794,-0.39890128,1.825517,-0.3669403,-0.08652344,-0.10752235,-0.91995007,-9.082284,7.697283,2.078208,-0.15587814,-0.14496574,-0.29252157,0
2.0000000000000013,,,,,19.563448,-2.178597,-5.715771,4.1028814,0.6506941,-0.32184467,1.8464108,-0.3684115,-0.086572275,-0.106544524,-0.9194711,-9.052494,7.7139945,2.100518,-0.22527738,-0.09766578,-0.28325665,0
2.010000000000001,,,,,19.563448,-2.178597,-5.715771,4.1028814,0.5603,-0.24463224,1.8674557,-0.36984336,-0.08640869,-0.10523981,-0.9190618,-9.0263405,7.7284527,2.1084766,-0.30861613,-0.10937231,-0.26559886,0
2.020000000000001,,,,,19.563448,-2.178597,-5.715771,4.1028814,0.47016683,-0.16727674,1.8885806,-0.37123322,-0.08616152,-0.10355495,-0.918716,-9.000319,7.7425966,2.1165102,-0.37895775,-0.11925706,-0.24880756,0
2.0300000000000007,,,,,19.563448,-2.178597,-5.715771,4.1028814,0.38029298,-0.08978162,1.9097862,-0.37257844,-0.08584404,-0.10154832,-0.91842514,-8.974476,7.7563634,2.124637,-0.43832913,-0.12760326,-0.2328402,0
2.0400000000000005,,,,,19.563448,-2.178597,-5.715771,4.1028814,0.29067653,-0.012150956,1.9310737,-0.37387702,-0.08546743,-0.09926922,-0.9181817,-8.948851,7.769699,2.1328712,-0.48844108,-0.13465029,-0.21765636,0
2.0500000000000003,,,,,19.890444,-1.0163395,-6.256004,2.921494,0.2013151,0.06561072,1.9524441,-0.37512767,-0.08504111,-0.096759275,-0.9179791,-8.923476,7.7825584,2.1412244,-0.5307381,-0.14059976,-0.20321758,1
2.06,,,,,19.890444,-1.0163395,-6.256004,2.921494,0.11232375,0.14355624,1.9743961,-0.37620047,-0.08650008,-0.09354601,-0.9177368,-8.874963,7.8062463,2.2485225,-0.46674937,-0.91468096,-0.062417433,1
2.07,,,,,19.890444,-1.0163395,-6.256004,2.921494,0.023814134,0.22172743,1.9973998,-0.3769519,-0.091465265,-0.08904516,-0.9173947,-8.826952,7.827545,2.3515768,-0.45921883,-1.6146501,0.07564154,1
2.0799999999999996,,,,,19.890444,-1.0163395,-6.256004,2.921494,-0.06421344,0.30009577,2.0214126,-0.37735385,-0.09951457,-0.0831426,-0.91694546,-8.77841,7.8455453,2.4503314,-0.49804184,-2.250756,0.21097554,1
2.0899999999999994,,,,,18.481823,0.17949983,-6.633469,1.8358083,-0.15174936,0.37862414,2.0463915,-0.37737232,-0.11028146,-0.07575091,-0.91634643,-8.728456,7.8594375,2.5450103,-0.57131374,-2.828272,0.34331098,1
2.099999999999999,,,,,18.481823,0.17949983,-6.633469,1.8358083,-0.23879093,0.4572649,2.0722413,-0.3770304,-0.12356823,-0.06737466,-0.9154455,-8.679362,7.867989,2.6248767,-0.45395708,-3.322897,0.41654828,1
2.109999999999999,,,,,18.481823,0.17949983,-6.633469,1.8358083,-0.3253244,0.5359672,2.098886,-0.3763411,-0.1391299,-0.058571585,-0.9141008,-8.626722,7.87167,2.703893,-0.35488796,-3.740379,0.48619178,1
2.1199999999999988,,,,,18.481823,0.17949983,-6.633469,1.8358083,-0.4113111,0.6146802,2.126315,-0.3752562,-0.15658824,-0.04939426,-0.9122631,-8.569916,7.8700686,2.7816455,-0.27126336,-4.092751,0.5524178,1
2.1299999999999986,,,,,13.576174,-0.85545015,-6.3695974,2.576175,-0.49670672,0.6933493,2.1545131,-0.3737366,-0.17561829,-0.03988805,-0.909884,-8.508445,7.862855,2.857679,-0.20068079,-4.390168,0.6153941,1
2.1399999999999983,,,,,13.576174,-0.85545015,-6.3695974,2.576175,-0.5815493,0.77193314,2.183234,-0.37174276,-0.19578475,-0.029710097,-0.9069695,-8.459536,7.8532205,2.8860385,-0.30064464,-4.639522,0.71144605,1
2.149999999999998,,,,,13.576174,-0.85545015,-6.3695974,2.576175,-0.6658844,0.850398,2.2122273,-0.36924407,-0.21673048,-0.018570216,-0.9035168,-8.406893,7.839019,2.9122567,-0.3867792,-4.8517504,0.80294883,1
2.159999999999998,,,,,13.576174,-0.85545015,-6.3695974,2.576175,-0.74967396,0.928697,2.2414715,-0.36622193,-0.23828833,-0.0066040354,-0.8994762,-8.350427,7.820016,2.9361331,-0.45948967,-5.0308833,0.88996154,1
2.1699999999999977,,,,,13.2992935,-1.2296487,-6.2401247,3.1851685,-0.83287984,1.0067812,2.270941,-0.36266264,-0.2603109,0.006070078,-0.89480615,-8.290147,7.796056,2.9572797,-0.52087295,-5.1820803,0.9727045,1
