time-since-start [s],throttle_mpc,roll_mpc,pitch_mpc,yaw_mpc,throttle_nw,roll_nw,pitch_nw,yaw_nw,position_x [m],position_y [m],position_z [m],rotation_w [quaternion],rotation_x [quaternion],rotation_y [quaternion],rotation_z [quaternion],velocity_x [m/s],velocity_y [m/s],velocity_z [m/s],omega_x [rad/s],omega_y [rad/s],omega_z [rad/s],network_used
0.0,6.068986465645289,-2.2214358307927373,-5.999999701118602,1.474179690885645,9.996503,-0.64245725,0.17933922,0.1828028,12.912894,-11.834263,1.0952393,-0.28953838,0.46283114,-0.235157,-0.80414927,-3.2239192,3.3651,0.09970869,0.13888502,0.9221162,0.8751289,0
0.01,6.068986465645289,-2.2214358307927373,-5.999999701118602,1.474179690885645,9.843189,-0.51661646,-1.1097484,-0.26589355,12.880389,-11.80033,1.0959464,-0.28562206,0.46371028,-0.23829708,-0.804119,-3.2767549,3.4212508,0.04140948,0.042526856,0.11383341,0.8802469,0
0.02,6.068986465645289,-2.2214358307927373,-5.999999701118602,1.474179690885645,9.843189,-0.51661646,-1.1097484,-0.26589355,12.847365,-11.765845,1.0960617,-0.28233284,0.46166155,-0.2399312,-0.8059714,-3.3276312,3.4753509,-0.018565461,-0.073091246,-0.60265046,0.88817626,0
0.03,6.068986465645289,-2.2214358307927373,-5.999999701118602,1.474179690885645,9.843189,-0.51661646,-1.1097484,-0.26589355,12.813843,-11.73083,1.0955718,-0.27952442,0.4570378,-0.24012916,-0.8095187,-3.3764966,3.5273297,-0.079578176,-0.20270832,-1.2394011,0.8985781,0
0.04,6.068986465645289,-2.2214358307927373,-5.999999701118602,1.474179690885645,8.065343,-1.7999569,-1.141391,-0.019489083,12.779841,-11.695307,1.0944685,-0.27706623,0.45012686,-0.23895244,-0.8145685,-3.4233303,3.5771356,-0.14111416,-0.34207508,-1.8067923,0.91114676,0
0.05,6.068986465645289,-2.2214358307927373,-5.999999701118602,1.474179690885645,8.065343,-1.7999569,-1.141391,-0.019489083,12.745382,-11.659295,1.092749,-0.2748432,0.44116467,-0.23645581,-0.8209286,-3.4681277,3.624727,-0.20276347,-0.48777926,-2.3137531,0.92560726,0
0.060000000000000005,6.068986465645289,-2.2214358307927373,-5.999999701118602,1.474179690885645,8.065343,-1.7999569,-1.141391,-0.019489083,12.710485,-11.62282,1.0904139,-0.27275464,0.43034586,-0.23268859,-0.82841027,-3.5108917,3.6700673,-0.26420468,-0.6370994,-2.7679782,0.9417121,0
0.07,6.068986465645289,-2.2214358307927373,-5.999999701118602,1.474179690885645,8.065343,-1.7999569,-1.141391,-0.019489083,12.675172,-11.585902,1.0874666,-0.27071318,0.41783217,-0.22769581,-0.8368306,-3.5516262,3.713122,-0.32519153,-0.78788364,-3.1761065,0.95923877,0
0.08,9.423342393431032,-2.938720453534871,-5.9999997725904395,2.143936123968816,10.331875,-2.2695844,-1.4016486,0.2941197,12.6394615,-11.548567,1.0839124,-0.26864332,0.40375924,-0.22151919,-0.84601337,-3.5903325,3.753857,-0.38554168,-0.93844676,-3.5438712,0.9779875,0
0.09,9.423342393431032,-2.938720453534871,-5.9999997725904395,2.143936123968816,10.331875,-2.2695844,-1.4016486,0.2941197,12.603271,-11.510728,1.0798647,-0.26631558,0.38834864,-0.21407376,-0.85582346,-3.6473908,3.8135552,-0.42373058,-1.1691937,-3.8462107,1.0279489,0
0.09999999999999999,9.423342393431032,-2.938720453534871,-5.9999997725904395,2.143936123968816,10.331875,-2.2695844,-1.4016486,0.2941197,12.566523,-11.472309,1.0754433,-0.26353288,0.37176916,-0.2052765,-0.8661407,-3.7016144,3.869783,-0.46029872,-1.3908756,-4.1283345,1.0778661,0
0.10999999999999999,9.423342393431032,-2.938720453534871,-5.9999997725904395,2.143936123968816,10.331875,-2.2695844,-1.4016486,0.2941197,12.529246,-11.433345,1.0706646,-0.26027775,0.35405615,-0.19516823,-0.87681764,-3.7529857,3.922385,-0.4951932,-1.6037962,-4.392284,1.1276424,0
0.11999999999999998,9.423342393431032,-2.938720453534871,-5.9999997725904395,2.143936123968816,10.331875,-2.2695844,-1.4016486,0.2941197,12.491472,-11.393874,1.0655454,-0.25653458,0.33524176,-0.18378867,-0.8877076,-3.8015347,3.971283,-0.52831995,-1.8068519,-4.638418,1.177069,0
0.12999999999999998,13.255325539909014,-1.7237352919698634,-5.831932265428709,0.5575206014082129,11.352272,-2.618049,-1.2028883,0.14835832,12.453223,-11.35393,1.0601087,-0.2523002,0.31538638,-0.17122851,-0.8986417,-3.8480287,4.0171523,-0.55850464,-1.9830536,-4.8509526,1.2245134,0
0.13999999999999999,13.255325539909014,-1.7237352919698634,-5.831932265428709,0.5575206014082129,11.352272,-2.618049,-1.2028883,0.14835832,12.414428,-11.313455,1.0545301,-0.24790397,0.29456365,-0.1580382,-0.9092854,-3.9105954,4.077389,-0.55648744,-1.9425977,-5.003862,1.1917839,0
0.15,13.255325539909014,-1.7237352919698634,-5.831932265428709,0.5575206014082129,11.352272,-2.618049,-1.2028883,0.14835832,12.375022,-11.272399,1.0489941,-0.2436319,0.27285832,-0.14467618,-0.91938066,-3.9699483,4.133141,-0.55001557,-1.9084702,-5.1329336,1.1606605,0
0.16,15.026409992562348,-0.5235739506902475,-4.179188170647638,-0.6153435541946598,14.609191,-1.7763515,-1.1943161,-0.08732191,12.335041,-11.230808,1.0435442,-0.2394376,0.2503775,-0.13115902,-0.9288586,-4.0256996,4.184275,-0.53928906,-1.8796794,-5.2418838,1.1310642,0
0.17,15.026409992562348,-0.5235739506902475,-4.179188170647638,-0.6153435541946598,14.609191,-1.7763515,-1.1943161,-0.08732191,12.294487,-11.188698,1.0382969,-0.23545453,0.2277412,-0.11807372,-0.9374187,-4.0844264,4.2369146,-0.50950515,-1.6686016,-5.075907,1.0453675,0
0.18000000000000002,15.026409992562348,-0.5235739506902475,-4.179188170647638,-0.6153435541946598,14.609191,-1.7763515,-1.1943161,-0.08732191,12.253368,-11.146088,1.0333681,-0.23181967,0.20547162,-0.10589513,-0.9448954,-4.138431,4.2844024,-0.4756853,-1.490393,-4.935863,0.963876,0
0.19000000000000003,15.026409992562348,-0.5235739506902475,-4.179188170647638,-0.6153435541946598,14.609191,-1.7763515,-1.1943161,-0.08732191,12.211735,-11.103026,1.0287955,-0.22850108,0.18352075,-0.09448554,-0.9514094,-4.187542,4.326984,-0.43832445,-1.3399361,-4.8176975,0.8863833,0
0.20000000000000004,15.239924217068408,-0.02962304100539724,-2.816203894330007,-1.0948444721196964,14.04341,-1.80795,0.21113132,-0.39310154,12.169636,-11.059565,1.0246122,-0.22547033,0.1618457,-0.08372804,-0.95705736,-4.23162,4.364874,-0.3978733,-1.2129095,-4.717991,0.8126931,0
0.21000000000000005,15.239924217068408,-0.02962304100539724,-2.816203894330007,-1.0948444721196964,14.04341,-1.80795,0.21113132,-0.39310154,12.127118,-11.015742,1.0208572,-0.22274783,0.14089377,-0.07382685,-0.96181184,-4.27113,4.398762,-0.35275334,-1.0288044,-4.4212475,0.7190897,0
0.22000000000000006,15.239924217068408,-0.02962304100539724,-2.816203894330007,-1.0948444721196964,14.04341,-1.80795,0.21113132,-0.39310154,12.084231,-10.971603,1.0175648,-0.22036496,0.121024445,-0.06494064,-0.96569926,-4.305525,4.4284563,-0.30539832,-0.87334293,-4.170818,0.63007945,0
0.23000000000000007,15.239924217068408,-0.02962304100539724,-2.816203894330007,-1.0948444721196964,14.04341,-1.80795,0.21113132,-0.39310154,12.041025,-10.927187,1.0147554,-0.21831053,0.10208134,-0.056915987,-0.9688552,-4.3349376,4.4543104,-0.25622705,-0.74207103,-3.9594712,0.5454369,0
0.24000000000000007,15.239924217068408,-0.02962304100539724,-2.816203894330007,-1.0948444721196964,14.311639,-1.5442568,1.253574,-0.44161168,11.99755,-10.88253,1.0124452,-0.21657196,0.083929144,-0.049622804,-0.9713856,-4.3594923,4.476628,-0.20559348,-0.63122743,-3.7811065,0.46494782,0
0.25000000000000006,15.239924217068408,-0.02962304100539724,-2.816203894330007,-1.0948444721196964,14.311639,-1.5442568,1.253574,-0.44161168,11.953853,-10.8376665,1.0106474,-0.21513589,0.06645135,-0.042951033,-0.97337353,-4.3793044,4.4956684,-0.15380068,-0.53763473,-3.630575,0.38840836,0
0.26000000000000006,15.239924217068408,-0.02962304100539724,-2.816203894330007,-1.0948444721196964,14.311639,-1.5442568,1.253574,-0.44161168,11.909981,-10.792627,1.0093722,-0.21398863,0.049548093,-0.036807764,-0.97488415,-4.3944798,4.511655,-0.10111177,-0.45860907,-3.5035322,0.3156247,0
0.2700000000000001,15.239924217068408,-0.02962304100539724,-2.816203894330007,-1.0948444721196964,14.311639,-1.5442568,1.253574,-0.44161168,11.865978,-10.747443,1.0086275,-0.21311651,0.033134054,-0.031114692,-0.9759689,-4.4051127,4.5247765,-0.047758523,-0.39188448,-3.396312,0.24641258,0
0.2800000000000001,16.059331832455413,0.47723894462149097,-0.36730107142360363,-1.3186547104694062,14.861539,-0.62207365,1.8022382,-0.118628606,11.821894,-10.702142,1.0084188,-0.21250597,0.0171366,-0.025805898,-0.9766686,-4.41129,4.5351934,0.0060519017,-0.33554664,-3.3058207,0.18059672,0
0.2900000000000001,16.059331832455413,0.47723894462149097,-0.36730107142360363,-1.3186547104694062,14.861539,-0.62207365,1.8022382,-0.118628606,11.777768,-10.656746,1.0087905,-0.21215177,0.0024091108,-0.021231992,-0.97700304,-4.4132447,4.5435057,0.068311825,-0.20898487,-2.847535,0.10702804,0
0.3000000000000001,16.059331832455413,0.47723894462149097,-0.36730107142360363,-1.3186547104694062,14.861539,-0.62207365,1.8022382,-0.118628606,11.733643,-10.611279,1.0097854,-0.21206093,-0.010375487,-0.017668843,-0.9770416,-4.4111023,4.5495543,0.13067225,-0.10210906,-2.4607315,0.037069388,0
0.3100000000000001,16.059331832455413,0.47723894462149097,-0.36730107142360363,-1.3186547104694062,14.861539,-0.62207365,1.8022382,-0.118628606,11.689557,-10.565761,1.0114039,-0.21223438,-0.021518508,-0.01496416,-0.97686726,-4.405368,4.553762,0.19300455,-0.011861235,-2.1342592,-0.029456383,0
0.3200000000000001,16.5867626627046,0.8482111337562486,2.009860253021759,-1.3951935451281634,14.872311,-0.21386519,2.6539273,-0.19581556,11.645545,-10.520209,1.0136452,-0.21266893,-0.031275425,-0.012988972,-0.97653735,-4.396471,4.5564837,0.25522554,0.06434171,-1.858707,-0.09271771,0
0.3300000000000001,16.5867626627046,0.8482111337562486,2.009860253021759,-1.3951935451281634,14.872311,-0.21386519,2.6539273,-0.19581556,11.601639,-10.474637,1.0165341,-0.21335207,-0.03896525,-0.011982031,-0.9761246,-4.3844523,4.558109,0.3225474,0.18656832,-1.2554209,-0.15663058,0
0.34000000000000014,16.5867626627046,0.8482111337562486,2.009860253021759,-1.3951935451281634,14.872311,-0.21386519,2.6539273,-0.19581556,11.557864,-10.429051,1.0200956,-0.21427508,-0.044060905,-0.012127569,-0.97570384,-4.370311,4.559068,0.38970754,0.28977236,-0.74622387,-0.21740726,0
0.35000000000000014,16.5867626627046,0.8482111337562486,2.009860253021759,-1.3951935451281634,14.872311,-0.21386519,2.6539273,-0.19581556,11.514237,-10.383456,1.024328,-0.21543397,-0.046968553,-0.013250984,-0.97529835,-4.354759,4.55988,0.4567422,0.37690842,-0.31644046,-0.27520156,0
0.36000000000000015,17.416968937650164,1.091555398786186,3.9606465771971058,-1.3693694425661644,15.445074,-0.3444207,3.6818893,-0.0118136145,11.470772,-10.3378525,1.0292301,-0.21682085,-0.048030294,-0.015204292,-0.97491074,-4.3383956,4.5609813,0.5236969,0.45047373,0.046315603,-0.3301599,0
0.37000000000000016,17.416968937650164,1.091555398786186,3.9606465771971058,-1.3693694425661644,15.445074,-0.3444207,3.6818893,-0.0118136145,11.427475,-10.292233,1.034843,-0.21840513,-0.04679436,-0.018126553,-0.9745672,-4.3209405,4.5628653,0.59887916,0.55060196,0.6567137,-0.38115418,0
0.38000000000000017,17.416968937650164,1.091555398786186,3.9606465771971058,-1.3693694425661644,15.445074,-0.3444207,3.6818893,-0.0118136145,11.384352,-10.246591,1.0412079,-0.22015435,-0.04291709,-0.022121986,-0.9742695,-4.303994,4.566027,0.6740928,0.6351272,1.1719191,-0.42964622,0
0.3900000000000002,17.416968937650164,1.091555398786186,3.9606465771971058,-1.3693694425661644,15.445074,-0.3444207,3.6818893,-0.0118136145,11.341392,-10.200907,1.0483252,-0.22205405,-0.03680919,-0.027026864,-0.9739646,-4.2883153,4.570998,0.74938256,0.7064761,1.6067785,-0.4757587,0
0.4000000000000002,17.649083166166648,1.0961229729048987,4.789480693249385,-1.2692647268585053,18.24916,0.5581125,4.1998415,0.50036263,11.298579,-10.155162,1.0561957,-0.22408837,-0.028816875,-0.032701448,-0.9735939,-4.274541,4.5782356,0.82475334,0.76669854,1.9738226,-0.5196085,0
0.4100000000000002,17.649083166166648,1.0961229729048987,4.789480693249385,-1.2692647268585053,18.24916,0.5581125,4.1998415,0.50036263,11.255894,-10.109331,1.064832,-0.22621705,-0.018910427,-0.03910221,-0.9731083,-4.2630777,4.5882716,0.9024817,0.8182778,2.4128857,-0.55639434,0
0.4200000000000002,17.649083166166648,1.0961229729048987,4.789480693249385,-1.2692647268585053,18.24916,0.5581125,4.1998415,0.50036263,11.213307,-10.063385,1.0742453,-0.22839859,-0.007082225,-0.046187256,-0.97244596,-4.2547164,4.601424,0.980178,0.8618049,2.7834792,-0.5913751,0
0.4300000000000002,17.649083166166648,1.0961229729048987,4.789480693249385,-1.2692647268585053,18.24916,0.5581125,4.1998415,0.50036263,11.170787,-10.01729,1.084435,-0.23061565,0.0063672625,-0.053847153,-0.97153324,-4.25001,4.618071,1.0577126,0.89853394,3.0962806,-0.6246394,0
0.4400000000000002,17.649083166166648,1.0961229729048987,4.789480693249385,-1.2692647268585053,18.386515,0.47089908,3.6262875,1.1439453,11.128294,-9.971011,1.0953985,-0.232852,0.021182556,-0.06198729,-0.9703037,-4.249417,4.63853,1.1349049,0.9295242,3.3603027,-0.65627134,0
0.45000000000000023,17.649083166166648,1.0961229729048987,4.789480693249385,-1.2692647268585053,18.386515,0.47089908,3.6262875,1.1439453,11.085784,-9.924506,1.1071312,-0.23509274,0.03714583,-0.07052561,-0.9686992,-4.253312,4.6630692,1.211529,0.9556704,3.5831523,-0.68635106,0
0.46000000000000024,17.649083166166648,1.0961229729048987,4.789480693249385,-1.2692647268585053,18.386515,0.47089908,3.6262875,1.1439453,11.043211,-9.877734,1.1196262,-0.23732442,0.054070845,-0.07939079,-0.9666701,-4.261999,4.6919107,1.2873204,0.9777281,3.7712505,-0.71495485,0
0.47000000000000025,17.649083166166648,1.0961229729048987,4.789480693249385,-1.2692647268585053,18.386515,0.47089908,3.6262875,1.1439453,11.000526,-9.830652,1.1328737,-0.23953484,0.071797945,-0.088520594,-0.9641746,-4.275717,4.725236,1.3619816,0.9963351,3.9300165,-0.74215496,0
0.48000000000000026,15.94038686643235,0.8696552276968694,4.480021742442954,-1.1301908752487655,17.594137,0.26160786,3.4903245,0.9166509,10.957679,-9.783214,1.1468607,-0.24171314,0.090189874,-0.09786066,-0.9611786,-4.294645,4.763188,1.4351892,1.01203,4.0640244,-0.7680204,0
0.49000000000000027,15.94038686643235,0.8696552276968694,4.480021742442954,-1.1301908752487655,17.594137,0.26160786,3.4903245,0.9166509,10.914626,-9.735393,1.161489,-0.24383724,0.109029874,-0.10724807,-0.9576817,-4.3165593,4.801733,1.4901909,0.9899069,4.1288986,-0.78579223,0
0.5000000000000002,15.94038686643235,0.8696552276968694,4.480021742442954,-1.1301908752487655,17.594137,0.26160786,3.4903245,0.9166509,10.87133,-9.687165,1.176658,-0.24588774,0.12813891,-0.11655132,-0.95369595,-4.343338,4.844553,1.5432706,0.97122794,4.183655,-0.802692,0
0.5100000000000002,15.94038686643235,0.8696552276968694,4.480021742442954,-1.1301908752487655,17.594137,0.26160786,3.4903245,0.9166509,10.827742,-9.638487,1.1923468,-0.24785925,0.14745772,-0.12576835,-0.94921273,-4.374986,4.8916245,1.594129,0.95545626,4.2298717,-0.8187625,0
0.5200000000000002,12.521151575701142,0.4899077979909374,3.201838786377623,-0.9618355179096255,16.555803,0.7864394,3.7947443,0.5029319,10.783813,-9.589318,1.208532,-0.24974717,0.16693434,-0.1348964,-0.94422597,-4.4114847,4.9429097,1.6424649,0.94213885,4.26888,-0.8340444,0
0.5300000000000002,12.521151575701142,0.4899077979909374,3.201838786377623,-0.9618355179096255,16.555803,0.7864394,3.7947443,0.5029319,10.739539,-9.539675,1.225032,-0.25157392,0.18607771,-0.14366531,-0.93885374,-4.4439106,4.9864497,1.6571854,0.87154007,4.10251,-0.84031516,0
0.5400000000000003,12.521151575701142,0.4899077979909374,3.201838786377623,-0.9618355179096255,16.555803,0.7864394,3.7947443,0.5029319,10.694922,-9.489579,1.2416675,-0.25336364,0.20450348,-0.15186545,-0.93323225,-4.479921,5.033077,1.6695617,0.8119634,3.96208,-0.84627825,0
0.5500000000000003,12.521151575701142,0.4899077979909374,3.201838786377623,-0.9618355179096255,16.555803,0.7864394,3.7947443,0.5029319,10.649929,-9.439003,1.2584147,-0.25511426,0.22231285,-0.15957542,-0.92737794,-4.519321,5.0826044,1.6794925,0.76168793,3.8435457,-0.8519487,0
0.5600000000000003,9.791756800353237,0.08566158964914178,1.5076922566622915,-0.7716405899507882,13.456591,1.3976507,3.2499475,1.5594529,10.604526,-9.3879175,1.2752486,-0.25682348,0.23959053,-0.16686153,-0.9213012,-4.561935,5.1348696,1.6868845,0.7192617,3.7434926,-0.8573409,0
0.5700000000000003,9.791756800353237,0.08566158964914178,1.5076922566622915,-0.7716405899507882,13.456591,1.3976507,3.2499475,1.5594529,10.55873,-9.336356,1.2920308,-0.25854442,0.25582388,-0.17346333,-0.9152158,-4.597629,5.1777525,1.6692448,0.6202482,3.3948777,-0.8531355,0
0.5800000000000003,9.791756800353237,0.08566158964914178,1.5076922566622915,-0.7716405899507882,13.456591,1.3976507,3.2499475,1.5594529,10.512566,-9.284356,1.3086267,-0.2603261,0.2706225,-0.17918405,-0.9093335,-4.6354613,5.2224345,1.6496255,0.5367081,3.1006203,-0.84913653,0
0.5900000000000003,9.791756800353237,0.08566158964914178,1.5076922566622915,-0.7716405899507882,13.456591,1.3976507,3.2499475,1.5594529,10.466014,-9.231902,1.3250167,-0.26215914,0.28421456,-0.1841606,-0.90364826,-4.675202,5.2687073,1.6281197,0.46622324,2.8522441,-0.8453338,0
0.6000000000000003,7.782338964466448,-0.321909051052539,-0.5053508029326093,-0.5621783955158197,11.261108,1.327183,1.0399562,0.002387371,10.419056,-9.178978,1.3411828,-0.264034,0.296791,-0.18850814,-0.8981461,-4.716661,5.3163953,1.6048145,0.4067532,2.6425955,-0.84171766,0
0.6100000000000003,7.782338964466448,-0.321909051052539,-0.5053508029326093,-0.5621783955158197,11.261108,1.327183,1.0399562,0.002387371,10.371718,-9.12562,1.3570321,-0.2660239,0.30783,-0.19197282,-0.8930952,-4.750835,5.355292,1.5648127,0.29283032,2.15174,-0.82800055,0
0.6200000000000003,7.782338964466448,-0.321909051052539,-0.5053508029326093,-0.5621783955158197,11.261108,1.327183,1.0399562,0.002387371,10.324036,-9.07187,1.3724751,-0.26818976,0.31693667,-0.19436333,-0.8887344,-4.786024,5.394994,1.523649,0.19672374,1.7374216,-0.81495655,0
0.6300000000000003,7.782338964466448,-0.321909051052539,-0.5053508029326093,-0.5621783955158197,11.261108,1.327183,1.0399562,0.002387371,10.275996,-9.017718,1.3875017,-0.2705041,0.32442558,-0.1958518,-0.8849962,-4.822032,5.4353166,1.4815297,0.115646295,1.3877064,-0.8025527,0
0.6400000000000003,7.782338964466448,-0.321909051052539,-0.5053508029326093,-0.5621783955158197,10.955201,1.047201,-0.64680684,-0.039722953,10.2275915,-8.963161,1.4021031,-0.27294123,0.33055848,-0.19658202,-0.8818108,-4.8587,5.4761086,1.4386371,0.04724712,1.0925213,-0.7907575,0
0.6500000000000004,7.782338964466448,-0.321909051052539,-0.5053508029326093,-0.5621783955158197,10.955201,1.047201,-0.64680684,-0.039722953,10.178819,-8.908194,1.4162724,-0.275478,0.33555317,-0.19667426,-0.87911075,-4.8958993,5.517243,1.3951313,-0.010457081,0.8433637,-0.7795411,0
0.6600000000000004,7.782338964466448,-0.321909051052539,-0.5053508029326093,-0.5621783955158197,10.955201,1.047201,-0.64680684,-0.039722953,10.129671,-8.852814,1.430004,-0.27809387,0.33959135,-0.19622931,-0.876833,-4.9335265,5.5586157,1.351151,-0.0591389,0.6330567,-0.768875,0
0.6700000000000004,7.782338964466448,-0.321909051052539,-0.5053508029326093,-0.5621783955158197,10.955201,1.047201,-0.64680684,-0.039722953,10.080147,-8.79702,1.443294,-0.280771,0.34282473,-0.19533181,-0.87492,-4.971496,5.600139,1.3068154,-0.10020979,0.4555425,-0.7587324,0
0.6800000000000004,6.674854703737036,-0.6083484947330923,-1.8265433279489571,-0.3589260366441306,9.801104,0.4135659,-2.1273122,0.7596798,10.030241,-8.74081,1.4561394,-0.28349397,0.34538013,-0.19405289,-0.87332004,-5.009738,5.6417394,1.2622268,-0.1348597,0.30570793,-0.74908745,0
0.6900000000000004,6.674854703737036,-0.6083484947330923,-1.8265433279489571,-0.3589260366441306,9.801104,0.4135659,-2.1273122,0.7596798,9.979979,-8.684215,1.4685001,-0.28629053,0.3469302,-0.19221054,-0.8722001,-5.042716,5.6774225,1.2098929,-0.20886208,-0.026782066,-0.7299421,0
0.7000000000000004,6.674854703737036,-0.6083484947330923,-1.8265433279489571,-0.3589260366441306,9.801104,0.4135659,-2.1273122,0.7596798,9.929386,-8.627262,1.4803374,-0.28917736,0.34722054,-0.18966311,-0.87168974,-5.0757847,5.7130084,1.1575693,-0.27129158,-0.30742747,-0.7117362,0
0.7100000000000004,6.674854703737036,-0.6083484947330923,-1.8265433279489571,-0.3589260366441306,9.801104,0.4135659,-2.1273122,0.7596798,9.878463,-8.569955,1.491652,-0.29212704,0.34644577,-0.18651979,-0.8716927,-5.1088576,5.7483926,1.105398,-0.3239593,-0.54431194,-0.6944237,0
0.7200000000000004,5.866919784001328,-0.784367110817176,-2.857724833906023,-0.16891560738232508,8.665923,0.055302896,-2.3668444,0.6770567,9.827209,-8.512294,1.5024463,-0.29511607,0.34476843,-0.18287219,-0.87212366,-5.1418633,5.7834864,1.0534974,-0.36839208,-0.744259,-0.67796075,0
0.7300000000000004,5.866919784001328,-0.784367110817176,-2.857724833906023,-0.16891560738232508,8.665923,0.055302896,-2.3668444,0.6770567,9.775644,-8.454304,1.5126989,-0.29816106,0.3419979,-0.1786542,-0.8730526,-5.171154,5.8144217,0.99689555,-0.42525545,-1.0657012,-0.65372413,0
0.7400000000000004,5.866919784001328,-0.784367110817176,-2.857724833906023,-0.16891560738232508,8.665923,0.055302896,-2.3668444,0.6770567,9.723789,-8.3960085,1.5223838,-0.30125773,0.3379614,-0.17376702,-0.8745465,-5.1998525,5.844513,0.94018334,-0.48135698,-1.3451498,-0.62993443,0
0.7500000000000004,5.866919784001328,-0.784367110817176,-2.857724833906023,-0.16891560738232508,8.665923,0.055302896,-2.3668444,0.6770567,9.671649,-8.337415,1.5315044,-0.30437088,0.33283776,-0.16829568,-0.87650144,-5.2282767,5.8740797,0.8840341,-0.5286848,-1.5810235,-0.6073121,0
0.7600000000000005,5.142107548733787,-0.8842493068781302,-3.428710328186087,0.02622874094537773,9.538471,-0.5755377,-2.9677255,1.1071038,9.6192255,-8.278529,1.5400667,-0.30747363,0.32678464,-0.16232696,-0.8788188,-5.2563596,5.903032,0.82853824,-0.56861216,-1.7801164,-0.5857999,0
0.7700000000000005,5.142107548733787,-0.8842493068781302,-3.428710328186087,0.02622874094537773,9.538471,-0.5755377,-2.9677255,1.1071038,9.566535,-8.219369,1.5480589,-0.31055954,0.31977576,-0.15590295,-0.8814711,-5.2815375,5.928733,0.7698502,-0.5978175,-2.0171418,-0.5575736,0
0.7800000000000005,5.142107548733787,-0.8842493068781302,-3.428710328186087,0.02622874094537773,9.538471,-0.5755377,-2.9677255,1.1071038,9.513598,-8.159959,1.5554627,-0.31360573,0.31176692,-0.14900504,-0.8844496,-5.3056536,5.953085,0.71086764,-0.6365868,-2.2313359,-0.5294685,0
0.7900000000000005,5.142107548733787,-0.8842493068781302,-3.428710328186087,0.02622874094537773,9.538471,-0.5755377,-2.9677255,1.1071038,9.460424,-8.100311,1.5622774,-0.31657258,0.30286586,-0.14163749,-0.88769,-5.329017,5.9763927,0.65219986,-0.6752312,-2.4180646,-0.5022003,0
0.8000000000000005,4.979409059101315,-0.971832151480892,-3.799839092490182,0.2155456633346003,7.6055326,-0.5507284,-2.0799005,1.1510271,9.407021,-8.040435,1.5685095,-0.3194375,0.29319027,-0.13385747,-0.8911128,-5.351846,5.998855,0.59432757,-0.7078355,-2.5756755,-0.47627014,0
0.8100000000000005,4.979409059101315,-0.971832151480892,-3.799839092490182,0.2155456633346003,7.6055326,-0.5507284,-2.0799005,1.1510271,9.35339,-7.980337,1.5741678,-0.3221842,0.2827502,-0.1257116,-0.89467704,-5.3741136,6.020422,0.5373178,-0.73166054,-2.74925,-0.44388276,0
0.8200000000000005,4.979409059101315,-0.971832151480892,-3.799839092490182,0.2155456633346003,7.6055326,-0.5507284,-2.0799005,1.1510271,9.299541,-7.920031,1.5792556,-0.32478508,0.27153468,-0.11719222,-0.8983598,-5.395253,6.0405364,0.48021254,-0.7637676,-2.907762,-0.412011,0
0.8300000000000005,4.979409059101315,-0.971832151480892,-3.799839092490182,0.2155456633346003,7.6055326,-0.5507284,-2.0799005,1.1510271,9.245487,-7.8595304,1.5837735,-0.32721272,0.2596206,-0.10829627,-0.90210956,-5.415494,6.0594053,0.42350745,-0.79619145,-3.0468884,-0.38121662,0
0.8400000000000005,4.979409059101315,-0.971832151480892,-3.799839092490182,0.2155456633346003,7.420706,-0.43866858,-1.462728,0.87731355,9.191234,-7.7988462,1.5877284,-0.32945335,0.24709658,-0.09906827,-0.9058642,-5.43501,6.0771704,0.3676305,-0.82355136,-3.1643195,-0.35193333,0
0.8500000000000005,4.979409059101315,-0.971832151480892,-3.799839092490182,0.2155456633346003,7.420706,-0.43866858,-1.462728,0.87731355,9.136789,-7.737991,1.5911288,-0.33149812,0.23404391,-0.08955694,-0.90956736,-5.4537554,6.093767,0.31256998,-0.8466393,-3.2634385,-0.32408696,0
0.8600000000000005,4.979409059101315,-0.971832151480892,-3.799839092490182,0.2155456633346003,7.420706,-0.43866858,-1.462728,0.87731355,9.082161,-7.6769753,1.5939827,-0.33334047,0.22053258,-0.07980407,-0.9131712,-5.4716883,6.109137,0.25830376,-0.866123,-3.3471007,-0.29760706,0
0.8700000000000006,4.979409059101315,-0.971832151480892,-3.799839092490182,0.2155456633346003,7.420706,-0.43866858,-1.462728,0.87731355,9.027358,-7.615813,1.5962977,-0.33497557,0.20662312,-0.069845624,-0.91663545,-5.4887695,6.123228,0.2048008,-0.8825659,-3.4177165,-0.27242652,0
0.8800000000000006,5.242308856693881,-1.0452668194186725,-3.2514720064400806,0.3843985788658033,6.815982,0.14382938,-0.8791911,0.6838667,8.972388,-7.554516,1.5980814,-0.33640036,0.19236803,-0.059712615,-0.9199264,-5.504963,6.1359925,0.15202235,-0.89644325,-3.4773197,-0.24848162,0
0.8900000000000006,5.242308856693881,-1.0452668194186725,-3.2514720064400806,0.3843985788658033,6.815982,0.14382938,-0.8791911,0.6838667,8.917257,-7.493095,1.5993527,-0.33757672,0.17802425,-0.049482808,-0.9229852,-5.5210457,6.1479926,0.10234995,-0.91957676,-3.4421139,-0.21742602,0
0.9000000000000006,5.242308856693881,-1.0452668194186725,-3.2514720064400806,0.3843985788658033,6.815982,0.14382938,-0.8791911,0.6838667,8.861971,-7.431561,1.6001304,-0.33847868,0.16380158,-0.039220646,-0.9257775,-5.5361586,6.158532,0.05332572,-0.93910825,-3.4123988,-0.18789431,0
0.9100000000000006,5.242308856693881,-1.0452668194186725,-3.2514720064400806,0.3843985788658033,6.815982,0.14382938,-0.8791911,0.6838667,8.806539,-7.3699293,1.6004211,-0.3391209,0.14967872,-0.028932847,-0.9283088,-5.5503025,6.1675973,0.0048812423,-0.95559853,-3.3873177,-0.15981175,0
0.9200000000000006,5.2415434913514485,-0.972592800135124,-2.1866897220453496,0.540503483777332,6.477935,0.20519081,-0.4170021,0.46299103,8.750969,-7.308214,1.6002297,-0.33951595,0.13563825,-0.018625284,-0.9305833,-5.5634794,6.175176,-0.043050483,-0.9695214,-3.3661482,-0.1331072,0
0.9300000000000006,5.2415434913514485,-0.972592800135124,-2.1866897220453496,0.540503483777332,6.477935,0.20519081,-0.4170021,0.46299103,8.695272,-7.2464304,1.5995619,-0.33965588,0.122051805,-0.008474486,-0.9325591,-5.5757046,6.181272,-0.09049474,-0.97042704,-3.1827443,-0.10010077,0
0.9400000000000006,5.2415434913514485,-0.972592800135124,-2.1866897220453496,0.540503483777332,6.477935,0.20519081,-0.4170021,0.46299103,8.639459,-7.184593,1.5984211,-0.3395436,0.109219536,0.0013733441,-0.93422717,-5.586999,6.1859097,-0.13762346,-0.97069246,-3.0274298,-0.06866614,0
0.9500000000000006,5.2415434913514485,-0.972592800135124,-2.1866897220453496,0.540503483777332,6.477935,0.20519081,-0.4170021,0.46299103,8.583536,-7.1227174,1.5968105,-0.33920276,0.097027555,0.010962697,-0.9356324,-5.597427,6.189143,-0.18445967,-0.9709264,-2.8963356,-0.03877401,0
0.9600000000000006,5.256432959906582,-0.8704687031989587,-0.8185490302947437,0.6665589576301354,6.8604527,-0.0653713,0.5366298,0.2975295,8.5275135,-7.060816,1.5947326,-0.33865267,0.085378975,0.020331841,-0.9368097,-5.607031,6.1910124,-0.23106742,-0.9711318,-2.7856846,-0.010348697,0
0.9700000000000006,5.256432959906582,-0.8704687031989587,-0.8185490302947437,0.6665589576301354,6.8604527,-0.0653713,0.5366298,0.2975295,8.4713955,-6.998902,1.5922062,-0.3379099,0.07464019,0.029398315,-0.937754,-5.6163864,6.191595,-0.27441055,-0.9863555,-2.5099044,0.020086654,0
0.9800000000000006,5.256432959906582,-0.8704687031989587,-0.8185490302947437,0.6665589576301354,6.8604527,-0.0653713,0.5366298,0.2975295,8.415189,-6.9369884,1.5892404,-0.33699885,0.065127365,0.03803843,-0.93847984,-5.6248,6.190872,-0.31898135,-0.985024,-2.2629402,0.050297514,0
0.9900000000000007,5.256432959906582,-0.8704687031989587,-0.8185490302947437,0.6665589576301354,6.8604527,-0.0653713,0.5366298,0.2975295,8.358901,-6.875088,1.5858227,-0.3359421,0.05669534,0.046229735,-0.9390381,-5.6324153,6.188991,-0.36474591,-0.9706958,-2.041276,0.08020917,0
1.0000000000000007,5.458787958762273,-0.7009035705738241,-0.12225398017138624,0.7723075559808765,6.3146563,0.19073638,1.0745236,0.39098576,8.302542,-6.8132124,1.5819448,-0.33475614,0.049206503,0.053984556,-0.93947005,-5.639463,6.186034,-0.41084123,-0.95504045,-1.8506095,0.10898153,0
1.0100000000000007,5.458787958762273,-0.7009035705738241,-0.12225398017138624,0.7723075559808765,6.3146563,0.19073638,1.0745236,0.39098576,8.246111,-6.751373,1.5776268,-0.33345836,0.042724058,0.061282303,-0.939801,-5.646571,6.1817694,-0.4530032,-0.9356419,-1.6013391,0.13970889,0
1.0200000000000007,5.458787958762273,-0.7009035705738241,-0.12225398017138624,0.7723075559808765,6.3146563,0.19073638,1.0745236,0.39098576,8.189612,-6.68958,1.57288,-0.3320655,0.037317738,0.06805441,-0.9400584,-5.653129,6.176641,-0.4965754,-0.9048047,-1.3764693,0.17022246,0
1.0300000000000007,5.458787958762273,-0.7009035705738241,-0.12225398017138624,0.7723075559808765,6.3146563,0.19073638,1.0745236,0.39098576,8.133049,-6.627843,1.5676934,-0.33058578,0.032857,0.07431284,-0.9402725,-5.6593304,6.170698,-0.54076797,-0.8730052,-1.1808885,0.19976695,0
1.0400000000000007,5.458787958762273,-0.7009035705738241,-0.12225398017138624,0.7723075559808765,6.0288305,0.1732808,1.5197171,0.40525287,8.076426,-6.566169,1.5620643,-0.32902384,0.029202668,0.08012747,-0.9404634,-5.665314,6.1639743,-0.58502775,-0.84616864,-1.015807,0.22786167,0
1.0500000000000007,5.458787958762273,-0.7009035705738241,-0.12225398017138624,0.7723075559808765,6.0288305,0.1732808,1.5197171,0.40525287,8.019743,-6.5045657,1.5559925,-0.3273825,0.026231488,0.08556852,-0.9406445,-5.67114,6.1565404,-0.62936366,-0.82351995,-0.87646896,0.2545778,0
1.0600000000000007,5.458787958762273,-0.7009035705738241,-0.12225398017138624,0.7723075559808765,6.0288305,0.1732808,1.5197171,0.40525287,7.9630036,-6.4430404,1.5494767,-0.32566366,0.023839222,0.09069505,-0.94082445,-5.6768594,6.1484547,-0.67378205,-0.8044048,-0.7588597,0.27998295,0
1.0700000000000007,5.458787958762273,-0.7009035705738241,-0.12225398017138624,0.7723075559808765,6.0288305,0.1732808,1.5197171,0.40525287,7.9062066,-6.381599,1.5425165,-0.32386872,0.021937732,0.09555675,-0.941009,-5.682514,6.139768,-0.7182875,-0.78827155,-0.65959084,0.3041415,0
1.0800000000000007,6.556620005786727,-0.5130469864990687,0.7904054738171122,0.8119533440658174,7.71716,0.12244127,2.2205114,0.13338977,7.8493533,-6.320247,1.5351107,-0.32199878,0.0204525,0.10019537,-0.9412017,-5.688141,6.1305237,-0.76288354,-0.7746545,-0.5758023,0.32711452,0
1.0900000000000007,6.556620005786727,-0.5130469864990687,0.7904054738171122,0.8119533440658174,7.71716,0.12244127,2.2205114,0.13338977,7.792438,-6.259,1.527312,-0.32008913,0.019640706,0.104457915,-0.9414069,-5.694909,6.118799,-0.79683036,-0.7338966,-0.36274588,0.3509057,0
1.1000000000000008,6.556620005786727,-0.5130469864990687,0.7904054738171122,0.8119533440658174,7.71716,0.12244127,2.2205114,0.13338977,7.735455,-6.197873,1.5191735,-0.31816977,0.0197032,0.10822583,-0.9416306,-5.701764,6.1065445,-0.8308855,-0.6994934,-0.18291514,0.3735294,0
1.1100000000000008,6.556620005786727,-0.5130469864990687,0.7904054738171122,0.8119533440658174,7.71716,0.12244127,2.2205114,0.13338977,7.6784024,-6.1368704,1.510694,-0.31623375,0.020505838,0.11157751,-0.9418744,-5.7087865,6.0938516,-0.8650443,-0.67045367,-0.031128675,0.39504302,0
1.1200000000000008,8.67702457914234,-0.2533463334766025,1.7700727789364625,0.7755850588763872,9.127327,0.09676818,3.1312652,-0.036248002,7.6212783,-6.0759964,1.5018724,-0.31427464,0.02193521,0.114578694,-0.9421376,-5.716044,6.0807953,-0.89930236,-0.6459403,0.096986584,0.41550094,0
1.1300000000000008,8.67702457914234,-0.2533463334766025,1.7700727789364625,0.7755850588763872,9.127327,0.09676818,3.1312652,-0.036248002,7.5640683,-6.015277,1.4928107,-0.31233862,0.024231786,0.11706379,-0.94241965,-5.726045,6.0631337,-0.9130395,-0.58479005,0.35791326,0.43317035,0
1.1400000000000008,8.67702457914234,-0.2533463334766025,1.7700727789364625,0.7755850588763872,9.127327,0.09676818,3.1312652,-0.036248002,7.506756,-5.954735,1.4836111,-0.31046334,0.02758125,0.1189048,-0.94271666,-5.7365723,6.04524,-0.9268898,-0.5331699,0.5781476,0.44997275,0
1.1500000000000008,8.67702457914234,-0.2533463334766025,1.7700727789364625,0.7755850588763872,9.127327,0.09676818,3.1312652,-0.036248002,7.449335,-5.894372,1.4742725,-0.3086313,0.03182114,0.120202675,-0.94302,-5.747755,6.027263,-0.94084215,-0.48959392,0.7640354,0.46595064,0
1.1600000000000008,11.391990292581399,0.01718016513477004,2.6569524631630816,0.6634703671360606,11.59504,-0.167887,3.8541353,0.032087293,7.391799,-5.8341894,1.4647938,-0.30682686,0.036813993,0.12104197,-0.9433197,-5.759703,6.0093303,-0.9548906,-0.45280796,0.92093307,0.48114452,0
1.1700000000000008,11.391990292581399,0.01718016513477004,2.6569524631630816,0.6634703671360606,11.59504,-0.167887,3.8541353,0.032087293,7.334119,-5.774213,1.4553056,-0.30509615,0.0427435,0.12128318,-0.94359994,-5.776529,5.9859967,-0.9427633,-0.37960523,1.1916851,0.4900913,0
1.1800000000000008,11.391990292581399,0.01718016513477004,2.6569524631630816,0.6634703671360606,11.59504,-0.167887,3.8541353,0.032087293,7.2762637,-5.7144675,1.445938,-0.30347583,0.049748734,0.12081928,-0.94383866,-5.7946725,5.963088,-0.93075633,-0.31780753,1.4202106,0.49859905,0
1.1900000000000008,11.391990292581399,0.01718016513477004,2.6569524631630816,0.6634703671360606,11.59504,-0.167887,3.8541353,0.032087293,7.2182207,-5.6549487,1.43669,-0.30193946,0.05766185,0.11975879,-0.9440162,-5.8143096,5.940814,-0.91887546,-0.26563752,1.6130953,0.50668937,0
1.2000000000000008,12.879245935254286,0.2791291792009384,2.7569075066933344,0.516754553849711,13.492834,-0.24092463,4.016518,0.020178702,7.1599727,-5.595649,1.42756,-0.30046383,0.06634051,0.118192784,-0.9441144,-5.835586,5.919352,-0.9071386,-0.22159481,1.7758976,0.5143826,0
1.2100000000000009,12.879245935254286,0.2791291792009384,2.7569075066933344,0.516754553849711,13.492834,-0.24092463,4.016518,0.020178702,7.1014886,-5.536572,1.4186182,-0.2990577,0.07566816,0.116087995,-0.94412047,-5.861633,5.8961806,-0.8812559,-0.14355855,1.9289116,0.51449895,0
1.2200000000000009,12.879245935254286,0.2791291792009384,2.7569075066933344,0.516754553849711,13.492834,-0.24092463,4.016518,0.020178702,7.042733,-5.477721,1.4099342,-0.29772994,0.0855454,0.11342213,-0.9440208,-5.889779,5.874284,-0.8556009,-0.07768403,2.0580592,0.51460963,0
1.2300000000000009,12.879245935254286,0.2791291792009384,2.7569075066933344,0.516754553849711,13.492834,-0.24092463,4.016518,0.020178702,6.983685,-5.419082,1.4015054,-0.2964614,0.09588359,0.11028053,-0.94379884,-5.920111,5.853828,-0.8302162,-0.022075973,2.1670628,0.5147149,0
1.2400000000000009,12.879245935254286,0.2791291792009384,2.7569075066933344,0.516754553849711,14.599943,-0.38118234,3.3960547,0.24405688,6.924323,-5.3606396,1.3933287,-0.29523543,0.10660731,0.106735125,-0.9434403,-5.9526978,5.834953,-0.80515516,0.024865827,2.2590647,0.514815,0
1.2500000000000009,12.879245935254286,0.2791291792009384,2.7569075066933344,0.516754553849711,14.599943,-0.38118234,3.3960547,0.24405688,6.864623,-5.302377,1.3854009,-0.29403755,0.117652245,0.10284669,-0.94293344,-5.9875965,5.8177752,-0.7804797,0.06449197,2.3367164,0.5149102,0
1.260000000000001,12.879245935254286,0.2791291792009384,2.7569075066933344,0.516754553849711,14.599943,-0.38118234,3.3960547,0.24405688,6.8045626,-5.244278,1.3777176,-0.29285532,0.12896356,0.09866657,-0.9422686,-6.0248513,5.802394,-0.7562595,0.09794247,2.4022565,0.5150007,0
1.270000000000001,12.879245935254286,0.2791291792009384,2.7569075066933344,0.516754553849711,14.599943,-0.38118234,3.3960547,0.24405688,6.7441177,-5.1863227,1.370274,-0.29167798,0.14049442,0.09423821,-0.94143796,-6.0644956,5.788891,-0.73257,0.12617975,2.4575734,0.51508677,0
1.280000000000001,14.182841277263892,0.5380962662591967,2.6244889737361436,0.3431533023515005,15.470385,-0.5331857,2.9045286,0.33554453,6.6832643,-5.1284933,1.3630642,-0.29049644,0.15220477,0.089598395,-0.94043535,-6.106554,5.777333,-0.7094916,0.15001631,2.5042624,0.5151686,0
1.290000000000001,14.182841277263892,0.5380962662591967,2.6244889737361436,0.3431533023515005,15.470385,-0.5331857,2.9045286,0.33554453,6.621956,-5.0707746,1.3561428,-0.28933463,0.16397862,0.084699616,-0.93926746,-6.155538,5.7668114,-0.6749111,0.21054466,2.523031,0.5067278,0
1.300000000000001,14.182841277263892,0.5380962662591967,2.6244889737361436,0.3431533023515005,15.470385,-0.5331857,2.9045286,0.33554453,6.5601444,-5.0131497,1.3495629,-0.28821617,0.17572217,0.07950697,-0.93794066,-6.2071605,5.758569,-0.64117247,0.26163417,2.5388687,0.49870116,0
1.310000000000001,14.182841277263892,0.5380962662591967,2.6244889737361436,0.3431533023515005,15.470385,-0.5331857,2.9045286,0.33554453,6.4978037,-4.955595,1.3433161,-0.2871327,0.18743347,0.074066356,-0.93644994,-6.2613783,5.7526703,-0.6083532,0.3047567,2.5522335,0.4910684,0
1.320000000000001,15.396129016883776,0.7659764749777855,1.9985709486768841,0.16953176033980788,16.60675,-0.3447154,2.4772243,0.24382767,6.4349084,-4.8980875,1.3373924,-0.28607664,0.19911054,0.068416625,-0.9347915,-6.3181496,5.749168,-0.5765341,0.34115434,2.5635116,0.48381016,0
1.330000000000001,15.396129016883776,0.7659764749777855,1.9985709486768841,0.16953176033980788,16.60675,-0.3447154,2.4772243,0.24382767,6.371407,-4.840604,1.3318368,-0.28506345,0.21049023,0.06258152,-0.93301505,-6.3824887,5.7480083,-0.5347698,0.40745783,2.4754262,0.46838844,0
1.340000000000001,15.396129016883776,0.7659764749777855,1.9985709486768841,0.16953176033980788,16.60675,-0.3447154,2.4772243,0.24382767,6.3072495,-4.7831187,1.3266928,-0.28411263,0.22136591,0.05658298,-0.9311694,-6.449388,5.7494974,-0.49421492,0.4634141,2.4010737,0.45372346,0
1.350000000000001,15.396129016883776,0.7659764749777855,1.9985709486768841,0.16953176033980788,16.60675,-0.3447154,2.4772243,0.24382767,6.242411,-4.725605,1.3219483,-0.2832219,0.23181169,0.050449014,-0.92924947,-6.5186863,5.7536297,-0.454897,0.5106384,2.338313,0.43977812,0
1.360000000000001,15.725271556214217,0.9649489777166546,1.104297116867,0.032818497045592226,17.26581,-0.0889677,2.1435256,0.09929231,6.1768684,-4.6680374,1.3175906,-0.2823881,0.24188991,0.04420324,-0.92725044,-6.5902424,5.760398,-0.41684648,0.55049324,2.2853372,0.42651704,0
1.370000000000001,15.725271556214217,0.9649489777166546,1.104297116867,0.032818497045592226,17.26581,-0.0889677,2.1435256,0.09929231,6.110591,-4.610388,1.3136214,-0.28162825,0.25129882,0.037896946,-0.9252564,-6.6654882,5.769986,-0.3772021,0.61520505,2.101165,0.40719813,0
1.380000000000001,15.725271556214217,0.9649489777166546,1.104297116867,0.032818497045592226,17.26581,-0.0889677,2.1435256,0.09929231,6.043552,-4.5526285,1.3100421,-0.28096297,0.2598052,0.031572785,-0.9233447,-6.7426486,5.7821817,-0.3388283,0.669812,1.9457105,0.38882723,0
1.390000000000001,15.725271556214217,0.9649489777166546,1.104297116867,0.032818497045592226,17.26581,-0.0889677,2.1435256,0.09929231,5.975733,-4.4947352,1.3068405,-0.28039202,0.26754937,0.025237413,-0.9214998,-6.8214746,5.7969093,-0.3016612,0.71589255,1.814496,0.3713578,0
1.400000000000001,15.675142674370802,1.1006450158474212,-0.1030365310671716,-0.09882682461127218,17.073198,0.087327935,1.3710942,-0.016656194,5.9071183,-4.436682,1.3040049,-0.27991316,0.2746493,0.018896254,-0.91970676,-6.901757,5.8141055,-0.2656464,0.75477815,1.7037423,0.35474557,0
1.410000000000001,15.675142674370802,1.1006450158474212,-0.1030365310671716,-0.09882682461127218,17.073198,0.087327935,1.3710942,-0.016656194,5.837695,-4.378445,1.3015218,-0.2795455,0.28074542,0.012643436,-0.9180837,-6.9830327,5.833639,-0.23114511,0.80880195,1.4219769,0.33248863,0
1.420000000000001,15.675142674370802,1.1006450158474212,-0.1030365310671716,-0.09882682461127218,17.073198,0.087327935,1.3710942,-0.016656194,5.7674546,-4.3200016,1.2993786,-0.27931088,0.285561,0.006554383,-0.9167326,-7.0652432,5.8554235,-0.1975736,0.85438293,1.18415,0.31132388,0
1.430000000000001,15.675142674370802,1.1006450158474212,-0.1030365310671716,-0.09882682461127218,17.073198,0.087327935,1.3710942,-0.016656194,5.6963887,-4.26133,1.2975674,-0.27920765,0.28929844,0.00060779764,-0.9156148,-7.148076,5.879314,-0.16475932,0.892841,0.9834101,0.29119766,0
1.440000000000001,15.675142674370802,1.1006450158474212,-0.1030365310671716,-0.09882682461127218,16.636805,0.3645105,0.9289274,-0.11009106,5.624492,-4.2024093,1.2960812,-0.27923173,0.2921275,-0.005214574,-0.9146941,-7.23127,5.9051905,-0.13255256,0.9252902,0.8139741,0.27205905,0
1.450000000000001,15.675142674370802,1.1006450158474212,-0.1030365310671716,-0.09882682461127218,16.636805,0.3645105,0.9289274,-0.11009106,5.551763,-4.14322,1.2949147,-0.2793775,0.29419076,-0.010928367,-0.91393757,-7.314605,5.9329515,-0.100824915,0.9526703,0.67096037,0.25385958,0
1.460000000000001,15.675142674370802,1.1006450158474212,-0.1030365310671716,-0.09882682461127218,16.636805,0.3645105,0.9289274,-0.11009106,5.4782004,-4.0837436,1.2940634,-0.27963853,0.29560807,-0.016546976,-0.9133158,-7.397898,5.9625125,-0.06946745,0.9757732,0.5502489,0.23655313,0
1.470000000000001,15.675142674370802,1.1006450158474212,-0.1030365310671716,-0.09882682461127218,16.636805,0.3645105,0.9289274,-0.11009106,5.4038053,-4.0239635,1.2935244,-0.28000796,0.2964802,-0.02208188,-0.9128027,-7.4809904,5.9938045,-0.03838869,0.99526745,0.44836184,0.22009596,0
1.480000000000001,15.944254412866865,1.1226577021640096,-0.8489919909952626,-0.20031552195883098,16.547241,0.42005715,0.074254856,-0.058781657,5.3285813,-3.963862,1.293295,-0.2804788,0.296892,-0.027542925,-0.91237575,-7.5637517,6.0267677,-0.0075125606,1.011717,0.36236355,0.20444635,1
1.490000000000001,15.944254412866865,1.1226577021640096,-0.8489919909952626,-0.20031552195883098,16.547241,0.42005715,0.074254856,-0.058781657,5.2525086,-3.903413,1.2934096,-0.28095692,0.29705608,-0.032711495,-0.9120045,-7.6506615,6.0632625,0.030386262,0.91945654,0.3174132,0.19152968,1
1.500000000000001,15.944254412866865,1.1226577021640096,-0.8489919909952626,-0.20031552195883098,16.547241,0.42005715,0.074254856,-0.058781657,5.1755695,-3.8425913,1.2939024,-0.28136623,0.29714558,-0.03741542,-0.9116682,-7.737108,6.1013165,0.06815296,0.84158254,0.27947646,0.17924683,1
1.5100000000000011,15.944254412866865,1.1226577021640096,-0.8489919909952626,-0.20031552195883098,16.547241,0.42005715,0.074254856,-0.058781657,5.0977683,-3.7813818,1.2947723,-0.2817244,0.2971729,-0.041725118,-0.9113616,-7.823115,6.140784,0.10579612,0.7758514,0.24745858,0.16756672,1
1.5200000000000011,15.89128052341066,1.1173852887128464,-1.570950786409877,-0.27060646842887626,16.13787,0.51351947,-0.50912845,-0.23246324,5.0191092,-3.7197711,1.2960179,-0.28204587,0.2971484,-0.045700125,-0.91107947,-7.9087,6.1815424,0.14332409,0.72037005,0.2204362,0.15645973,0
1.5300000000000011,15.89128052341066,1.1173852887128464,-1.570950786409877,-0.27060646842887626,16.13787,0.51351947,-0.50912845,-0.23246324,4.939613,-3.6577554,1.2976115,-0.2824799,0.29640323,-0.04945151,-0.9109918,-7.990462,6.22182,0.17540053,0.7823122,-0.058934055,0.13550347,0
1.5400000000000011,15.89128052341066,1.1173852887128464,-1.570950786409877,-0.27060646842887626,16.13787,0.51351947,-0.50912845,-0.23246324,4.8593025,-3.5953314,1.2995263,-0.28315035,0.29440716,-0.05306836,-0.9112274,-8.07153,6.2631087,0.20759359,0.83458364,-0.2947384,0.115575545,0
1.5500000000000012,15.89128052341066,1.1173852887128464,-1.570950786409877,-0.27060646842887626,16.13787,0.51351947,-0.50912845,-0.23246324,4.778186,-3.5324903,1.3017645,-0.28403184,0.2913539,-0.056567498,-0.9117238,-8.1516,6.3052907,0.24011767,0.8786954,-0.49377042,0.09662549,0
1.5600000000000012,16.086916231068926,1.165602035280962,-2.2291829305970223,-0.34745944066216,15.848018,0.8301757,-1.6953471,-0.24682397,4.6962743,-3.4692228,1.3043303,-0.28510112,0.28740606,-0.05996322,-0.9124258,-8.230409,6.3482666,0.27314857,0.9159219,-0.6617646,0.078605324,1
1.5700000000000012,16.086916231068926,1.165602035280962,-2.2291829305970223,-0.34745944066216,15.848018,0.8301757,-1.6953471,-0.24682397,4.613583,-3.4055228,1.3072278,-0.28630444,0.28268766,-0.06314943,-0.9133077,-8.307524,6.3918242,0.306471,0.90254956,-0.8229613,0.06263641,1
1.5800000000000012,16.086916231068926,1.165602035280962,-2.2291829305970223,-0.34745944066216,15.848018,0.8301757,-1.6953471,-0.24682397,4.530129,-3.3413842,1.3104624,-0.28759754,0.27730402,-0.06604281,-0.9143467,-8.382978,6.43595,0.34056452,0.891259,-0.95901865,0.047451112,1
1.5900000000000012,16.086916231068926,1.165602035280962,-2.2291829305970223,-0.34745944066216,15.848018,0.8301757,-1.6953471,-0.24682397,4.4459295,-3.276802,1.3140421,-0.28897285,0.27135614,-0.06868537,-0.9155022,-8.456623,6.480514,0.37552854,0.8817265,-1.0738573,0.033010952,1
1.6000000000000012,15.596148390075266,1.0862319872789195,-2.9402080094594565,-0.4019313195253897,15.792196,0.4977009,-2.142624,0.07139513,4.3610034,-3.2117727,1.3179762,-0.290423,0.26492906,-0.07111273,-0.9167396,-8.528326,6.525406,0.41143942,0.87367886,-1.1707863,0.019279368,1
1.6100000000000012,15.596148390075266,1.0862319872789195,-2.9402080094594565,-0.4019313195253897,15.792196,0.4977009,-2.142624,0.07139513,4.275371,-3.146294,1.3222721,-0.29188263,0.25796628,-0.0731914,-0.91809714,-8.597724,6.570356,0.44788432,0.81504935,-1.322343,0.021836698,1
1.6200000000000012,15.596148390075266,1.0862319872789195,-2.9402080094594565,-0.4019313195253897,15.792196,0.4977009,-2.142624,0.07139513,4.1890564,-3.0803657,1.3269376,-0.29329455,0.25042573,-0.07481783,-0.91960263,-8.664946,6.6153464,0.48541623,0.7655632,-1.4502648,0.024268553,1
1.6300000000000012,15.596148390075266,1.0862319872789195,-2.9402080094594565,-0.4019313195253897,15.792196,0.4977009,-2.142624,0.07139513,4.102081,-3.0139875,1.3319842,-0.2946628,0.24239312,-0.076060325,-0.9212143,-8.729876,6.6601977,0.5241057,0.72379434,-1.5582374,0.026581066,1
1.6400000000000012,15.596148390075266,1.0862319872789195,-2.9402080094594565,-0.4019313195253897,16.384867,0.07798312,-2.9496434,0.6058937,4.0144677,-2.9471624,1.3374237,-0.29599005,0.23394091,-0.07697664,-0.9228964,-8.79241,6.704755,0.5640014,0.68853915,-1.6493717,0.028780105,0
1.6500000000000012,15.596148390075266,1.0862319872789195,-2.9402080094594565,-0.4019313195253897,16.384867,0.07798312,-2.9496434,0.6058937,3.9262452,-2.8798964,1.3432598,-0.29741046,0.22476973,-0.07772472,-0.9246546,-8.851689,6.7483373,0.60341454,0.7505375,-1.8506862,0.007644986,0
1.6600000000000013,15.596148390075266,1.0862319872789195,-2.9402080094594565,-0.4019313195253897,16.384867,0.07798312,-2.9496434,0.6058937,3.8374434,-2.8121974,1.3494965,-0.29903263,0.2146432,-0.078430176,-0.92647624,-8.908238,6.791395,0.6441359,0.80286354,-2.0206068,-0.012453036,0
1.6700000000000013,15.596148390075266,1.0862319872789195,-2.9402080094594565,-0.4019313195253897,16.384867,0.07798312,-2.9496434,0.6058937,3.7480907,-2.7440705,1.3561472,-0.3008233,0.20370299,-0.07909461,-0.92830825,-8.961788,6.833837,0.686229,0.8470266,-2.164029,-0.031564843,0
1.6800000000000013,15.767298907416121,1.0541863484547058,-2.71713597444545,-0.4327519155178736,16.960114,-0.34549943,-3.9032829,1.1990302,3.6582186,-2.675523,1.3632258,-0.3027535,0.19206923,-0.07971952,-0.9301055,-9.012104,6.8755784,0.7297231,0.8843011,-2.285085,-0.04973882,0
1.6900000000000013,15.767298907416121,1.0541863484547058,-2.71713597444545,-0.4327519155178736,16.960114,-0.34549943,-3.9032829,1.1990302,3.567858,-2.6065598,1.3707544,-0.30479234,0.1799314,-0.08032084,-0.9318136,-9.0595,6.916993,0.7761851,0.9107635,-2.352475,-0.06853339,0
1.7000000000000013,15.767298907416121,1.0541863484547058,-2.71713597444545,-0.4327519155178736,16.960114,-0.34549943,-3.9032829,1.1990302,3.4770412,-2.5371861,1.3787544,-0.30691487,0.16744642,-0.08091183,-0.93339163,-9.103274,6.957565,0.82402074,0.93309945,-2.4093554,-0.08640569,0
1.7100000000000013,15.767298907416121,1.0541863484547058,-2.71713597444545,-0.4327519155178736,16.960114,-0.34549943,-3.9032829,1.1990302,3.3858054,-2.4674115,1.3872395,-0.30910593,0.15466481,-0.081490315,-0.9348226,-9.143311,6.997244,0.87316906,0.9519529,-2.4573653,-0.103401005,0
1.7200000000000013,15.86935971423805,0.948309870117069,-2.302864451137925,-0.4676468801629247,17.414373,-1.0353824,-4.8971305,2.0027661,3.2941883,-2.3972447,1.3962221,-0.31135213,0.14162987,-0.08205463,-0.9360927,-9.179506,7.035982,0.9235569,0.9678671,-2.4978874,-0.119562365,0
1.7300000000000013,15.86935971423805,0.948309870117069,-2.302864451137925,-0.4676468801629247,17.414373,-1.0353824,-4.8971305,2.0027661,3.2022276,-2.326694,1.4057194,-0.31362692,0.12854774,-0.08261514,-0.9371713,-9.21199,7.07398,0.9760662,0.96479213,-2.4674845,-0.13664296,0
1.7400000000000013,15.86935971423805,0.948309870117069,-2.302864451137925,-0.4676468801629247,17.414373,-1.0353824,-4.8971305,2.0027661,3.1099622,-2.2557683,1.415747,-0.31591117,0.115585335,-0.08318098,-0.938042,-9.240524,7.1109695,1.0296233,0.9621981,-2.441822,-0.15288542,0
1.7500000000000013,15.86935971423805,0.948309870117069,-2.302864451137925,-0.4676468801629247,17.414373,-1.0353824,-4.8971305,2.0027661,3.0174308,-2.1844778,1.4263151,-0.31820393,0.10272402,-0.083749376,-0.93871284,-9.265124,7.1469398,1.084112,0.96000993,-2.4201612,-0.16833086,0
1.7600000000000013,15.441124291246716,0.6818585791302597,-1.5541292325011058,-0.4546334135165798,18.080645,-1.4239651,-5.333245,2.491637,2.9246728,-2.112833,1.4374323,-0.32050383,0.08994827,-0.08431803,-0.93919045,-9.285804,7.181876,1.1394205,0.9581643,-2.4018779,-0.18301839,0
1.7700000000000014,15.441124291246716,0.6818585791302597,-1.5541292325011058,-0.4546334135165798,18.080645,-1.4239651,-5.333245,2.491637,2.8317304,-2.0408485,1.4490854,-0.32277417,0.077560924,-0.084881544,-0.9394668,-9.302144,7.2148566,1.191277,0.91507035,-2.2696748,-0.19634661,0
1.7800000000000014,15.441124291246716,0.6818585791302597,-1.5541292325011058,-0.4546334135165798,18.080645,-1.4239651,-5.333245,2.491637,2.738643,-1.9685391,1.4612598,-0.3249898,0.065802604,-0.08543722,-0.9395497,-9.314852,7.2468505,1.2436984,0.87869745,-2.1580884,-0.20902081,0
1.7900000000000014,15.441124291246716,0.6818585791302597,-1.5541292325011058,-0.4546334135165798,18.080645,-1.4239651,-5.333245,2.491637,2.6454453,-1.8959146,1.4739608,-0.32716402,0.05457712,-0.085986696,-0.9394641,-9.324095,7.2778926,1.2965713,0.8479971,-2.063904,-0.22107308,0
1.8000000000000014,14.290985214220973,0.30114583117175203,-0.84052143477542,-0.39524332927601896,18.051561,-1.6254185,-5.2161784,2.8389385,2.5521722,-1.8229845,1.4871923,-0.32930732,0.043802988,-0.08653118,-0.93922937,-9.330016,7.3080115,1.3497977,0.8220846,-1.9844072,-0.23253395,0
1.8100000000000014,14.290985214220973,0.30114583117175203,-0.84052143477542,-0.39524332927601896,18.051561,-1.6254185,-5.2161784,2.8389385,2.458857,-1.7497685,1.5009012,-0.33139065,0.033729173,-0.08702324,-0.9388669,-9.332557,7.3350573,1.3919995,0.74086213,-1.8060105,-0.24051815,0
1.8200000000000014,14.290985214220973,0.30114583117175203,-0.84052143477542,-0.39524332927601896,18.051561,-1.6254185,-5.2161784,2.8389385,2.3655303,-1.676286,1.5150329,-0.33339423,0.024549646,-0.08742664,-0.93840486,-9.33239,7.3613167,1.434374,0.672304,-1.6554354,-0.24811058,0
1.8300000000000014,14.290985214220973,0.30114583117175203,-0.84052143477542,-0.39524332927601896,18.051561,-1.6254185,-5.2161784,2.8389385,2.2722175,-1.6025447,1.529589,-0.33533695,0.016126405,-0.087756924,-0.93786424,-9.32975,7.386833,1.476861,0.6144353,-1.5283437,-0.2553304,0
1.8400000000000014,14.290985214220973,0.30114583117175203,-0.84052143477542,-0.39524332927601896,17.851007,-1.9319494,-5.1011558,3.1702464,2.1789427,-1.5285517,1.5445706,-0.33723366,0.008342635,-0.088026874,-0.9372602,-9.324838,7.411644,1.5194135,0.5655894,-1.4210725,-0.26219597,0
1.8500000000000014,14.290985214220973,0.30114583117175203,-0.84052143477542,-0.39524332927601896,17.851007,-1.9319494,-5.1011558,3.1702464,2.0857277,-1.4543141,1.5599777,-0.33909604,0.0010995275,-0.08824701,-0.93660384,-9.317823,7.4357815,1.5619942,0.5243593,-1.3305311,-0.26872465,0
1.8600000000000014,14.290985214220973,0.30114583117175203,-0.84052143477542,-0.39524332927601896,17.851007,-1.9319494,-5.1011558,3.1702464,1.9925928,-1.3798383,1.5758106,-0.3409332,-0.005686464,-0.088425994,-0.93590313,-9.308851,7.4592733,1.604573,0.4895577,-1.2541105,-0.27493298,0
1.8700000000000014,14.290985214220973,0.30114583117175203,-0.84052143477542,-0.39524332927601896,17.851007,-1.9319494,-5.1011558,3.1702464,1.899557,-1.3051307,1.592069,-0.3427524,-0.012085954,-0.08857096,-0.9351639,-9.298041,7.482143,1.6471254,0.46018204,-1.189608,-0.28083664,0
1.8800000000000014,14.532893340509359,0.0773704371888486,-0.08189146111828437,-0.3447440309886786,19.876455,-2.449362,-5.4506288,4.2065854,1.8066379,-1.2301975,1.6087528,-0.3445592,-0.018158609,-0.08868779,-0.93439037,-9.2855,7.5044093,1.6896307,0.43538624,-1.1351652,-0.28645065,0
1.8900000000000015,14.532893340509359,0.0773704371888486,-0.08189146111828437,-0.3447440309886786,19.876455,-2.449362,-5.4506288,4.2065854,1.7138537,-1.1550428,1.6258734,-0.34632736,-0.02364091,-0.08880253,-0.9336028,-9.27109,7.526464,1.734451,0.37958264,-0.97089833,-0.28931114,0
1.9000000000000015,14.532893340509359,0.0773704371888486,-0.08189146111828437,-0.3447440309886786,19.876455,-2.449362,-5.4506288,4.2065854,1.6212211,-1.0796701,1.6434417,-0.34803733,-0.028326957,-0.08893697,-0.9328234,-9.255223,7.5479994,1.7791965,0.33247748,-0.8322498,-0.29203123,0
1.9100000000000015,14.532893340509359,0.0773704371888486,-0.08189146111828437,-0.3447440309886786,19.876455,-2.449362,-5.4506288,4.2065854,1.5287536,-1.0040843,1.6614571,-0.34970126,-0.032340866,-0.08908958,-0.9320557,-9.238105,7.5690928,1.8238636,0.29271472,-0.7152248,-0.2946179,0
1.9200000000000015,13.690751291520408,-0.14189833671068416,-0.11504499137738707,-0.25196962088511515,20.303041,-1.7164404,-5.7219377,3.6498625,1.4364629,-0.9282896,1.6799186,-0.35132882,-0.035787415,-0.08925879,-0.9313011,-9.219907,7.5898085,1.8684525,0.25914982,-0.6164508,-0.2970776,0
1.9300000000000015,13.690751291520408,-0.14189833671068416,-0.11504499137738707,-0.25196962088511515,20.303041,-1.7164404,-5.7219377,3.6498625,1.3443532,-0.8522952,1.6987846,-0.35292152,-0.03873753,-0.08935625,-0.9305713,-9.201886,7.609017,1.9047024,0.19662237,-0.53824437,-0.29486415,0
1.9400000000000015,13.690751291520408,-0.14189833671068416,-0.11504499137738707,-0.25196962088511515,20.303041,-1.7164404,-5.7219377,3.6498625,1.2524276,-0.7761103,1.7180126,-0.35447946,-0.041251954,-0.089311644,-0.92987514,-9.183122,7.6279335,1.940892,0.14384355,-0.47223628,-0.29275933,0
1.9500000000000015,13.690751291520408,-0.14189833671068416,-0.11504499137738707,-0.25196962088511515,20.303041,-1.7164404,-5.7219377,3.6498625,1.1606928,-0.6997376,1.7376022,-0.3560078,-0.043398563,-0.08914773,-0.929209,-9.163733,7.6465626,1.977033,0.09929326,-0.41652393,-0.2907578,0
1.9600000000000015,12.433103672831198,-0.30021320900343,-0.17850636088071742,-0.13753591531173973,19.412804,-0.66677547,-5.8180885,2.381691,1.0691547,-0.62318003,1.7575531,-0.35751072,-0.045234676,-0.0888836,-0.92856944,-9.143817,7.6649084,2.0131361,0.061688893,-0.36950126,-0.28885445,0
1.9700000000000015,12.433103672831198,-0.30021320900343,-0.17850636088071742,-0.13753591531173973,19.412804,-0.66677547,-5.8180885,2.381691,0.9778087,-0.5464487,1.7778032,-0.35898358,-0.046810824,-0.08846668,-0.9279627,-9.125334,7.6813126,2.0368865,0.005257793,-0.339705,-0.2814292,0
1.9800000000000015,12.433103672831198,-0.30021320900343,-0.17850636088071742,-0.13753591531173973,19.412804,-0.66677547,-5.8180885,2.381691,0.88664925,-0.4695547,1.7982907,-0.36042112,-0.048169594,-0.08785594,-0.92739385,-9.1065235,7.69744,2.0606236,-0.0423742,-0.3145576,-0.27436832,0
1.9900000000000015,12.433103672831198,-0.30021320900343,-0.17850636088071742,-0.13753591531173973,19.412804,-0.66677547,-5.8180885,2.381691,0.7956792,-0.3925009,1.8190157,-0.36182553,-0.049344946,-0.08708165,-0.9268581,-9.087453,7.713268,2.0843596,-0.082578905,-0.29333362,-0.2676539,0
2.0000000000000013,,,,,19.820366,-2.718387,-6.018652,4.4145613,0.7049009,-0.31529042,1.839978,-0.3631987,-0.050365556,-0.08616929,-0.92635125,-9.068175,7.7287755,2.108104,-0.11651457,-0.27542102,-0.261269,0
2.010000000000001,,,,,19.820366,-2.718387,-6.018652,4.4145613,0.6143044,-0.2379358,1.8611037,-0.36454147,-0.05139142,-0.08506719,-0.92586917,-9.051099,7.7420945,2.117033,-0.15228665,-0.31965622,-0.24885738,0
2.020000000000001,,,,,19.820366,-2.718387,-6.018652,4.4145613,0.5238794,-0.1604497,1.8823189,-0.3658523,-0.052550606,-0.08373507,-0.92540836,-9.03388,7.7550635,2.1259816,-0.18247838,-0.35699427,-0.2370548,0
2.0300000000000007,,,,,19.820366,-2.718387,-6.018652,4.4145613,0.43362728,-0.0828359,1.9036237,-0.3671296,-0.05382247,-0.08220813,-0.9249663,-9.016512,7.767629,2.1349545,-0.20796038,-0.38851056,-0.22583137,0
2.0400000000000005,,,,,19.820366,-2.718387,-6.018652,4.4145613,0.34354964,-0.00509865,1.9250182,-0.3683722,-0.05518957,-0.08051611,-0.9245404,-8.998989,7.7797456,2.1439538,-0.22946759,-0.4151127,-0.21515867,0
2.0500000000000003,,,,,20.171858,-2.3560212,-6.556729,4.1058617,0.25364804,0.07275735,1.9465029,-0.36957952,-0.056637183,-0.07868412,-0.9241286,-8.981308,7.791375,2.1529813,-0.24761999,-0.43756714,-0.20500968,1
2.06,,,,,20.171858,-2.3560212,-6.556729,4.1058617,0.1640276,0.1507918,1.9686993,-0.370447,-0.059395477,-0.076339535,-0.9238047,-8.94278,7.8152204,2.2856398,-0.22844788,-0.95711845,-0.024611793,1
2.07,,,,,20.171858,-2.3560212,-6.556729,4.1058617,0.07479391,0.2290541,1.9922013,-0.37067586,-0.06452328,-0.07299006,-0.92363966,-8.903829,7.8368287,2.4141405,-0.25619107,-1.4396847,0.15087092,1
2.0799999999999996,,,,,20.171858,-2.3560212,-6.556729,4.1058617,-0.014045024,0.30751815,2.0169678,-0.37027067,-0.07177554,-0.06849546,-0.9236113,-8.863731,7.8554664,2.5384464,-0.323028,-1.890527,0.32163304,1
2.0899999999999994,,,,,19.673635,-1.0550673,-7.338022,3.1618128,-0.10247481,0.3861508,2.0429559,-0.3692319,-0.0809414,-0.06273925,-0.9236783,-8.821918,7.870431,2.6585033,-0.4223407,-2.314069,0.4878585,1
2.099999999999999,,,,,19.673635,-1.0550673,-7.338022,3.1618128,-0.19049676,0.4649064,2.07002,-0.36764714,-0.092263,-0.055558942,-0.92370874,-8.782109,7.88002,2.7538002,-0.5111027,-2.8794692,0.6181945,1
2.109999999999999,,,,,19.673635,-1.0550673,-7.338022,3.1618128,-0.27810615,0.5437355,2.0980275,-0.3655781,-0.1058728,-0.0469246,-0.92354923,-8.739213,7.885042,2.8476295,-0.59546614,-3.3661964,0.7430106,1
2.1199999999999988,,,,,19.673635,-1.0550673,-7.338022,3.1618128,-0.36526772,0.622589,2.1269693,-0.36298162,-0.12140435,-0.037034757,-0.92311174,-8.692466,7.884772,2.940621,-0.66665155,-3.7770221,0.8617019,1
2.1299999999999986,,,,,14.275284,-1.2487626,-7.2284336,3.0751476,-0.45194057,0.70141053,2.1568356,-0.35982087,-0.13853575,-0.02607229,-0.9223114,-8.641392,7.8785734,3.0323982,-0.7267284,-4.123781,0.97456896,1
2.1399999999999983,,,,,14.275284,-1.2487626,-7.2284336,3.0751476,-0.53815377,0.78015393,2.187357,-0.35608605,-0.1569487,-0.014151005,-0.9210706,-8.600771,7.869376,3.0713773,-0.8024617,-4.4112773,1.0771637,1
2.149999999999998,,,,,14.275284,-1.2487626,-7.2284336,3.0751476,-0.6239439,0.858781,2.2182567,-0.35177693,-0.17639142,-0.0013240231,-0.91931427,-8.556676,7.855234,3.1082983,-0.87159127,-4.6591415,1.1752053,1
2.159999999999998,,,,,14.275284,-1.2487626,-7.2284336,3.0751476,-0.7092744,0.93724066,2.2495165,-0.3468767,-0.19666575,0.012281377,-0.9169786,-8.508813,7.8358817,3.1432748,-0.9299556,-4.8683486,1.268436,1
2.1699999999999977,,,,,14.305075,-0.51143134,-6.498379,1.9351016,-0.7941069,1.01548,2.2811143,-0.34137407,-0.217595,0.026548054,-0.9140092,-8.457075,7.811155,3.175889,-0.97923654,-5.044926,1.3570918,1
