time-since-start [s],throttle_mpc,roll_mpc,pitch_mpc,yaw_mpc,throttle_nw,roll_nw,pitch_nw,yaw_nw,position_x [m],position_y [m],position_z [m],rotation_w [quaternion],rotation_x [quaternion],rotation_y [quaternion],rotation_z [quaternion],velocity_x [m/s],velocity_y [m/s],velocity_z [m/s],omega_x [rad/s],omega_y [rad/s],omega_z [rad/s],network_used
0.0,10.600891162961025,5.999999748470867,-5.999999937264966,-4.662851988754446,10.243224,0.0061633214,-4.4959226,-0.3174175,15.654562,-11.459228,1.4821949,0.038883213,-0.44004184,0.3999778,0.80303735,-11.633496,-3.421769,0.05460716,1.8413004,-0.3097791,-0.07397731,0
0.01,10.600891162961025,5.999999748470867,-5.999999937264966,-4.662851988754446,17.305088,0.33070025,-5.9851646,0.4359818,15.537633,-11.4928465,1.4825069,0.04423886,-0.43841922,0.406766,0.80023307,-11.751679,-3.3018994,0.0074413326,1.7621251,-0.46968058,-0.23408991,0
0.02,10.600891162961025,5.999999748470867,-5.999999937264966,-4.662851988754446,17.305088,0.33070025,-5.9851646,0.4359818,15.41954,-11.525263,1.4823369,0.050414905,-0.43645123,0.41290012,0.79779834,-11.866425,-3.1814325,-0.041742336,1.7208979,-0.6302644,-0.38863635,0
0.03,10.600891162961025,5.999999748470867,-5.999999937264966,-4.662851988754446,17.305088,0.33070025,-5.9851646,0.4359818,15.300318,-11.556473,1.4816661,0.057471555,-0.4341215,0.41852784,0.795657,-11.977569,-3.0604877,-0.092680156,1.7123089,-0.7920405,-0.5379441,0
0.04,10.600891162961025,5.999999748470867,-5.999999937264966,-4.662851988754446,12.637888,-0.00863114,-5.0099587,-0.20988245,15.180003,-11.586472,1.480478,0.065459244,-0.4314086,0.42377254,0.7937371,-12.084936,-2.9391446,-0.14514323,1.73176,-0.9553237,-0.6823142,0
0.05,10.600891162961025,5.999999748470867,-5.999999937264966,-4.662851988754446,12.637888,-0.00863114,-5.0099587,-0.20988245,15.058633,-11.615255,1.4787586,0.074419536,-0.42828736,0.4287366,0.79197013,-12.188345,-2.8174539,-0.19893177,1.7752683,-1.1202722,-0.8220238,0
0.060000000000000005,10.600891162961025,5.999999748470867,-5.999999937264966,-4.662851988754446,12.637888,-0.00863114,-5.0099587,-0.20988245,14.93625,-11.64282,1.4764954,0.084385864,-0.42472944,0.4335039,0.79029006,-12.287601,-2.6954474,-0.25386998,1.8393768,-1.2869251,-0.95732796,0
0.07,10.600891162961025,5.999999748470867,-5.999999937264966,-4.662851988754446,12.637888,-0.00863114,-5.0099587,-0.20988245,14.812896,-11.669164,1.4736778,0.095384136,-0.420704,0.4381418,0.78863287,-12.382508,-2.5731473,-0.3098017,1.9210833,-1.4552299,-1.0884615,0
0.08,13.847456840444627,5.999999898721729,-5.9999999787822285,-4.574910795380188,15.7191,-0.30557504,-6.131615,0.3592103,14.688616,-11.694283,1.4702964,0.10743323,-0.41617826,0.442703,0.7869357,-12.47286,-2.4505727,-0.3665864,2.0177784,-1.625065,-1.2156414,0
0.09,13.847456840444627,5.999999898721729,-5.9999999787822285,-4.574910795380188,15.7191,-0.30557504,-6.131615,0.3592103,14.563392,-11.718083,1.4663737,0.12077107,-0.4108943,0.44739142,0.78512484,-12.5710535,-2.309612,-0.41810495,2.2270582,-1.8963112,-1.34368,0
0.09999999999999999,13.847456840444627,5.999999898721729,-5.9999999787822285,-4.574910795380188,15.7191,-0.30557504,-6.131615,0.3592103,14.437216,-11.740475,1.4619317,0.13560726,-0.40460667,0.45237035,0.78311247,-12.663149,-2.1686096,-0.47040138,2.4397228,-2.1613474,-1.4686593,0
0.10999999999999999,13.847456840444627,5.999999898721729,-5.9999999787822285,-4.574910795380188,15.7191,-0.30557504,-6.131615,0.3592103,14.31015,-11.761456,1.4569637,0.15190887,-0.3972975,0.45761436,0.780812,-12.748753,-2.0274985,-0.5233142,2.6547105,-2.420604,-1.5906813,0
0.11999999999999998,13.847456840444627,5.999999898721729,-5.9999999787822285,-4.574910795380188,15.7191,-0.30557504,-6.131615,0.3592103,14.182262,-11.781025,1.4514639,0.16963774,-0.38894537,0.4630894,0.77813405,-12.827484,-1.88627,-0.57669324,2.871117,-2.674436,-1.7098426,0
0.12999999999999998,18.50166930839627,5.999999954291398,-5.999999997530642,-4.11829033792374,17.891083,-1.4207667,-7.727839,0.41160017,14.053624,-11.799181,1.4454287,0.18874998,-0.3795263,0.4687533,0.7749861,-12.898979,-1.744978,-0.63039774,3.088173,-2.9231377,-1.8262342,0
0.13999999999999999,18.50166930839627,5.999999954291398,-5.999999997530642,-4.11829033792374,17.891083,-1.4207667,-7.727839,0.41160017,13.924252,-11.8158,1.4388945,0.20958902,-0.36853832,0.4748342,0.77122265,-12.97409,-1.5788566,-0.67650723,3.4944382,-3.3566203,-1.9344579,0
0.15,18.50166930839627,5.999999954291398,-5.999999997530642,-4.11829033792374,17.891083,-1.4207667,-7.727839,0.41160017,13.794176,-11.830761,1.431898,0.23243245,-0.3555121,0.48148155,0.76665616,-13.039403,-1.4130751,-0.7227052,3.878572,-3.7637715,-2.0410774,0
0.16,20.999999515487794,5.999999939794288,-5.999999987199309,-3.6051013175676667,18.648727,-0.65647364,-9.25136,0.87400967,13.663496,-11.844053,1.4244442,0.2570328,-0.34057054,0.48847568,0.7611421,-13.095183,-1.2448269,-0.7678522,4.2086716,-4.1132274,-2.1430068,0
0.17,20.999999515487794,5.999999939794288,-5.999999987199309,-3.6051013175676667,18.648727,-0.65647364,-9.25136,0.87400967,13.532277,-11.855534,1.4165823,0.2830134,-0.32389486,0.49558735,0.7545785,-13.146751,-1.0508646,-0.8042539,4.487412,-4.4080667,-2.2147522,0
0.18000000000000002,20.999999515487794,5.999999939794288,-5.999999987199309,-3.6051013175676667,18.648727,-0.65647364,-9.25136,0.87400967,13.400605,-11.865063,1.4083651,0.31003055,-0.30564782,0.5026199,0.7468826,-13.185567,-0.85452324,-0.83887786,4.7227345,-4.6568766,-2.2829769,0
0.19000000000000003,20.999999515487794,5.999999939794288,-5.999999987199309,-3.6051013175676667,18.648727,-0.65647364,-9.25136,0.87400967,13.268613,-11.872619,1.3998113,0.33782086,-0.28600317,0.5093878,0.73797244,-13.210777,-0.65660626,-0.8715747,4.9214063,-4.8668394,-2.3478537,0
0.20000000000000004,21.0,5.889626710770837,-5.999999714749874,-3.4302158707018666,17.044954,-0.8538636,-8.6804,1.3737986,13.136439,-11.878192,1.3909405,0.3661468,-0.2651176,0.5157345,0.7277823,-13.221698,-0.45807484,-0.9022279,5.089139,-5.044016,-2.409547,0
0.21000000000000005,21.0,5.889626710770837,-5.999999714749874,-3.4302158707018666,17.044954,-0.8538636,-8.6804,1.3737986,13.0042305,-11.881782,1.381774,0.39476684,-0.24313964,0.52150327,0.71629363,-13.217808,-0.26002014,-0.93074965,5.213571,-5.193466,-2.4596317,0
0.22000000000000006,21.0,5.889626710770837,-5.999999714749874,-3.4302158707018666,17.044954,-0.8538636,-8.6804,1.3737986,12.872136,-11.883398,1.3723333,0.42346543,-0.22020562,0.5265675,0.70350057,-13.198773,-0.06363698,-0.9570697,5.318635,-5.3195777,-2.5072584,0
0.23000000000000007,21.0,5.889626710770837,-5.999999714749874,-3.4302158707018666,17.044954,-0.8538636,-8.6804,1.3737986,12.740309,-11.883065,1.3626404,0.4520739,-0.1964358,0.5308485,0.68937796,-13.164435,0.12980898,-0.9811445,5.4073467,-5.425993,-2.5525484,0
0.24000000000000007,21.0,5.889626710770837,-5.999999714749874,-3.4302158707018666,17.126709,-0.1156723,-7.9075866,1.514209,12.608901,-11.880816,1.352718,0.48043802,-0.17194174,0.5342819,0.6739126,-13.114794,0.31900746,-1.0029606,5.4822545,-5.5157876,-2.5956159,0
0.25000000000000006,21.0,5.889626710770837,-5.999999714749874,-3.4302158707018666,17.126709,-0.1156723,-7.9075866,1.514209,12.4780655,-11.876703,1.3425888,0.50841653,-0.1468276,0.53681606,0.6571018,-13.050013,0.502626,-1.0225327,5.545507,-5.5915556,-2.63657,0
0.26000000000000006,21.0,5.889626710770837,-5.999999714749874,-3.4302158707018666,17.126709,-0.1156723,-7.9075866,1.514209,12.347951,-11.870789,1.3322748,0.53587973,-0.121190965,0.5384101,0.63895243,-12.97041,0.6793307,-1.0399016,5.598919,-5.655486,-2.6755145,0
0.2700000000000001,21.0,5.889626710770837,-5.999999714749874,-3.4302158707018666,17.126709,-0.1156723,-7.9075866,1.514209,12.218706,-11.863147,1.321798,0.5627083,-0.09512379,0.53903246,0.6194795,-12.876458,0.8478058,-1.0551326,5.644023,-5.7094274,-2.7125478,0
0.2800000000000001,21.0,2.6428091980265296,-5.542680794789161,0.7436795369334929,18.110369,-2.1295087,-6.662996,1.6616955,12.09047,-11.853866,1.3111792,0.5887923,-0.068712994,0.5386595,0.5987053,-12.768771,1.0067714,-1.0683132,5.6821127,-5.7549396,-2.747764,0
0.2900000000000001,21.0,2.6428091980265296,-5.542680794789161,0.7436795369334929,18.110369,-2.1295087,-6.662996,1.6616955,11.963376,-11.843048,1.3004386,0.61356556,-0.042650174,0.5366688,0.57767195,-12.648184,1.1550723,-1.0794822,5.2091446,-5.7200975,-2.5764668,0
0.3000000000000001,21.0,2.6428091980265296,-5.542680794789161,0.7436795369334929,18.110369,-2.1295087,-6.662996,1.6616955,11.837545,-11.830805,1.2895973,0.63665557,-0.017492907,0.53265834,0.5573498,-12.516217,1.2918737,-1.0884194,4.8095784,-5.6912456,-2.4135463,0
0.3100000000000001,21.0,2.6428091980265296,-5.542680794789161,0.7436795369334929,18.110369,-2.1295087,-6.662996,1.6616955,11.713085,-11.817252,1.278679,0.6582214,0.0068723178,0.52690256,0.5376532,-12.374438,1.4166639,-1.0948262,4.4722815,-5.667093,-2.2586205,0
0.3200000000000001,20.99999998801712,0.9319985786953147,-3.337353746804084,1.9280402578530833,17.532288,-3.6493862,-4.645028,2.5303729,11.590086,-11.802514,1.2677102,0.6783899,0.030546375,0.5196249,0.5185017,-12.224309,1.5290343,-1.0984985,4.187548,-5.6468678,-2.111297,0
0.3300000000000001,20.99999998801712,0.9319985786953147,-3.337353746804084,1.9280402578530833,17.532288,-3.6493862,-4.645028,2.5303729,11.468628,-11.786712,1.2567214,0.6967602,0.0527771,0.51130563,0.5003063,-12.066675,1.6291316,-1.0989867,3.6884522,-5.2781186,-1.9137679,0
0.34000000000000014,20.99999998801712,0.9319985786953147,-3.337353746804084,1.9280402578530833,17.532288,-3.6493862,-4.645028,2.5303729,11.34877,-11.769974,1.2457392,0.7131272,0.072989084,0.50235206,0.48349205,-11.904142,1.716637,-1.0970242,3.259576,-4.9745193,-1.7252493,0
0.35000000000000014,20.99999998801712,0.9319985786953147,-3.337353746804084,1.9280402578530833,17.532288,-3.6493862,-4.645028,2.5303729,11.230559,-11.7524185,1.2347902,0.72780526,0.09151161,0.49288797,0.4679601,-11.737512,1.7925229,-1.0923431,2.8974323,-4.7184563,-1.5459813,0
0.36000000000000015,20.999999796266973,-0.526703440401879,-0.6231973131122565,2.591155525671883,16.086674,-3.2811027,-1.9329166,1.6178949,11.114031,-11.73416,1.2239015,0.7410421,0.108626306,0.48301134,0.45360458,-11.567899,1.8573732,-1.0850106,2.5916426,-4.5024757,-1.3755101,0
0.37000000000000016,20.999999796266973,-0.526703440401879,-0.6231973131122565,2.591155525671883,16.086674,-3.2811027,-1.9329166,1.6178949,10.999222,-11.715303,1.2131069,0.75261337,0.12366263,0.47324076,0.440822,-11.394093,1.9125386,-1.0737529,2.0791774,-3.9239564,-1.1833208,0
0.38000000000000017,20.999999796266973,-0.526703440401879,-0.6231973131122565,2.591155525671883,16.086674,-3.2811027,-1.9329166,1.6178949,10.886146,-11.695944,1.2024298,0.7623531,0.13615683,0.46415216,0.4299325,-11.221148,1.9578906,-1.0613968,1.6718894,-3.4103992,-0.9982664,0
0.3900000000000002,20.999999796266973,-0.526703440401879,-0.6231973131122565,2.591155525671883,16.086674,-3.2811027,-1.9329166,1.6178949,10.7748,-11.676172,1.1918862,0.7705605,0.14657602,0.45576295,0.42075196,-11.047836,1.995353,-1.0470009,1.3296474,-2.9753592,-0.82213247,0
0.4000000000000002,20.99999926639874,-1.7472461341379302,1.8024327931772561,2.8955060248300226,15.546794,-3.5875976,0.7259438,1.9047856,10.665189,-11.656059,1.1814965,0.7775047,0.15528978,0.44799614,0.4131236,-10.87447,2.0261014,-1.0306646,1.040634,-2.6082706,-0.6546414,0
0.4100000000000002,20.99999926639874,-1.7472461341379302,1.8024327931772561,2.8955060248300226,15.546794,-3.5875976,0.7259438,1.9047856,10.557311,-11.635669,1.1712799,0.78303796,0.16184142,0.44131687,0.4073063,-10.701243,2.0512304,-1.012469,0.60484654,-1.9217011,-0.48057815,0
0.4200000000000002,20.99999926639874,-1.7472461341379302,1.8024327931772561,2.8955060248300226,15.546794,-3.5875976,0.7259438,1.9047856,10.451161,-11.615049,1.1612523,0.78706324,0.16589634,0.43611458,0.40350214,-10.528617,2.0721881,-0.9928419,0.23836899,-1.3407819,-0.31491274,0
0.4300000000000002,20.99999926639874,-1.7472461341379302,1.8024327931772561,2.8955060248300226,15.546794,-3.5875976,0.7259438,1.9047856,10.346736,-11.594234,1.1514274,0.7898356,0.16788976,0.43217775,0.40149125,-10.356562,2.0904553,-0.9719357,-0.071095675,-0.8505414,-0.15737654,0
0.4400000000000002,20.99999926639874,-1.7472461341379302,1.8024327931772561,2.8955060248300226,15.652166,-4.323577,2.6466227,2.133349,10.244028,-11.573244,1.1418173,0.7915471,0.16818188,0.429312,0.4010726,-10.185117,2.107267,-0.9499362,-0.33240288,-0.43681592,-0.0075707175,0
0.45000000000000023,20.99999926639874,-1.7472461341379302,1.8024327931772561,2.8955060248300226,15.652166,-4.323577,2.6466227,2.133349,10.14303,-11.55209,1.1324321,0.79234374,0.16707139,0.42734355,0.40206477,-10.014297,2.1236656,-0.9269922,-0.5530354,-0.087655395,0.13488412,0
0.46000000000000024,20.99999926639874,-1.7472461341379302,1.8024327931772561,2.8955060248300226,15.652166,-4.323577,2.6466227,2.133349,10.043739,-11.53077,1.1232804,0.79233694,0.16480637,0.42611954,0.40430585,-9.844109,2.1405303,-0.9032262,-0.7393147,0.20702222,0.27034867,0
0.47000000000000025,20.99999926639874,-1.7472461341379302,1.8024327931772561,2.8955060248300226,15.652166,-4.323577,2.6466227,2.133349,9.946146,-11.509275,1.11437,0.79161316,0.16159312,0.42550686,0.40765202,-9.6745615,2.1586018,-0.87874234,-0.8965819,0.45572335,0.39916593,0
0.48000000000000026,20.999999539706696,-3.039837563806495,3.5282313077390848,3.1033806848593697,15.987971,-3.6325588,3.4611359,1.5386124,9.850245,-11.487591,1.1057078,0.7902401,0.15760347,0.42539078,0.41197622,-9.505674,2.1785026,-0.85363084,-1.0293492,0.6656258,0.52166206,0
0.49000000000000027,20.999999539706696,-3.039837563806495,3.5282313077390848,3.1033806848593697,15.987971,-3.6325588,3.4611359,1.5386124,9.75603,-11.465695,1.0972993,0.7880446,0.15229666,0.42599848,0.4175127,-9.337491,2.200835,-0.8279778,-1.3431247,1.1118313,0.6483478,0
0.5000000000000002,20.999999539706696,-3.039837563806495,3.5282313077390848,3.1033806848593697,15.987971,-3.6325588,3.4611359,1.5386124,9.663492,-11.443562,1.0891496,0.7848679,0.14524564,0.42748994,0.42442724,-9.170111,2.226567,-0.80189896,-1.6080003,1.4884305,0.76881695,0
0.5100000000000002,20.999999539706696,-3.039837563806495,3.5282313077390848,3.1033806848593697,15.987971,-3.6325588,3.4611359,1.5386124,9.572624,-11.421149,1.0812624,0.7807726,0.13673493,0.429681,0.4325181,-9.003685,2.2566652,-0.7755212,-1.8315873,1.8062887,0.8833747,0
0.5200000000000002,20.999999752273744,-3.6718851610747363,4.227970377698448,3.0344775168866724,17.188688,-3.296719,4.283439,1.2421665,9.483416,-11.39841,1.0736399,0.7758041,0.12700386,0.43241322,0.44160706,-8.8384075,2.2919323,-0.74897295,-2.0203137,2.0745735,0.99231094,0
0.5300000000000002,20.999999752273744,-3.6718851610747363,4.227970377698448,3.0344775168866724,17.188688,-3.296719,4.283439,1.2421665,9.395853,-11.375289,1.0662831,0.7699071,0.11593006,0.43565446,0.45167294,-8.674522,2.3330643,-0.7223874,-2.2782483,2.41008,1.0925207,0
0.5400000000000003,20.999999752273744,-3.6718851610747363,4.227970377698448,3.0344775168866724,17.188688,-3.296719,4.283439,1.2421665,9.309919,-11.351725,1.0591917,0.76302063,0.103423744,0.43935907,0.46267343,-8.5123625,2.3808239,-0.6959115,-2.4959528,2.69327,1.1878132,0
0.5500000000000003,20.999999752273744,-3.6718851610747363,4.227970377698448,3.0344775168866724,17.188688,-3.296719,4.283439,1.2421665,9.225597,-11.327647,1.052364,0.7551671,0.08971675,0.4433832,0.47443116,-8.352326,2.43589,-0.6697081,-2.679696,2.9323056,1.2784295,0
0.5600000000000003,20.999999789828696,-3.6446136756529213,4.021153985560324,2.8476342196901845,16.873451,-3.045923,5.1485505,1.1834285,9.142863,-11.30298,1.045796,0.74636436,0.075007126,0.44760463,0.4867898,-8.194856,2.4987938,-0.64395213,-2.834771,3.134076,1.3645992,0
0.5700000000000003,20.999999789828696,-3.6446136756529213,4.021153985560324,2.8476342196901845,16.873451,-3.045923,5.1485505,1.1834285,9.061689,-11.277642,1.0394827,0.7366766,0.05950331,0.45186594,0.49958396,-8.040426,2.569929,-0.61882496,-2.9613428,3.272163,1.4373722,0
0.5800000000000003,20.999999789828696,-3.6446136756529213,4.021153985560324,2.8476342196901845,16.873451,-3.045923,5.1485505,1.1834285,8.982042,-11.251552,1.0334169,0.72616315,0.043381825,0.45604035,0.5126716,-7.889541,2.6495333,-0.5944917,-3.06816,3.3887296,1.5065742,0
0.5900000000000003,20.999999789828696,-3.6446136756529213,4.021153985560324,2.8476342196901845,16.873451,-3.045923,5.1485505,1.1834285,8.903885,-11.224622,1.0275897,0.7148337,0.026757643,0.46007395,0.525955,-7.7427177,2.737733,-0.57111585,-3.1583035,3.4871323,1.5723804,0
0.6000000000000003,20.99999977340027,-3.3358651336224,3.05685599788505,2.558802966223012,16.587185,-3.2052426,5.7205358,0.850498,8.827172,-11.196767,1.0219907,0.7026992,0.009730343,0.46392187,0.5393474,-7.600481,2.834567,-0.548866,-3.234374,3.570203,1.6349576,0
0.6100000000000003,20.99999977340027,-3.3358651336224,3.05685599788505,2.558802966223012,16.587185,-3.2052426,5.7205358,0.850498,8.751857,-11.167901,1.0166079,0.6899748,-0.007333788,0.4673479,0.5526907,-7.4633465,2.9399638,-0.5278948,-3.2502196,3.4900339,1.6802909,0
0.6200000000000003,20.99999977340027,-3.3358651336224,3.05685599788505,2.558802966223012,16.587185,-3.2052426,5.7205358,0.850498,8.677886,-11.137939,1.0114282,0.6768589,-0.024136627,0.4701819,0.56586975,-7.3317614,3.0536044,-0.5082516,-3.2635982,3.4223735,1.7233998,0
0.6300000000000003,20.99999977340027,-3.3358651336224,3.05685599788505,2.558802966223012,16.587185,-3.2052426,5.7205358,0.850498,8.605201,-11.106801,1.0064381,0.6633401,-0.040691078,0.47247756,0.5788689,-7.2061253,3.175093,-0.4899541,-3.2748942,3.365271,1.7643931,0
0.6400000000000003,20.99999977340027,-3.3358651336224,3.05685599788505,2.558802966223012,16.227564,-3.20491,5.5797,0.90621716,8.533741,-11.074411,1.0016243,0.64941025,-0.057008065,0.47427967,0.59167165,-7.0868125,3.304032,-0.47302586,-3.2844317,3.3170795,1.803375,0
0.6500000000000004,20.99999977340027,-3.3358651336224,3.05685599788505,2.558802966223012,16.227564,-3.20491,5.5797,0.90621716,8.463442,-11.040697,0.99697286,0.63506395,-0.07309667,0.4756257,0.6042607,-6.974174,3.4400213,-0.45749474,-3.2924843,3.2764091,1.840444,0
0.6600000000000004,20.99999977340027,-3.3358651336224,3.05685599788505,2.558802966223012,16.227564,-3.20491,5.5797,0.90621716,8.394235,-11.005589,0.9924696,0.6202984,-0.088964276,0.47654682,0.6166186,-6.868539,3.5826542,-0.4433918,-3.299283,3.242086,1.875694,0
0.6700000000000004,20.99999977340027,-3.3358651336224,3.05685599788505,2.558802966223012,16.227564,-3.20491,5.5797,0.90621716,8.326047,-10.969023,0.98810005,0.6051129,-0.1046167,0.47706914,0.628728,-6.7702136,3.7315197,-0.43074968,-3.305023,3.2131202,1.9092145,0
0.6800000000000004,20.999999678989422,-2.82171391791738,1.7297657450189314,2.0979325383042644,16.183643,-3.5511305,4.6004558,0.88332087,8.258804,-10.930939,0.9838494,0.5895089,-0.12005832,0.47721437,0.6405715,-6.6794853,3.8861997,-0.419602,-3.3098688,3.1886764,1.94109,0
0.6900000000000004,20.999999678989422,-2.82171391791738,1.7297657450189314,2.0979325383042644,16.183643,-3.5511305,4.6004558,0.88332087,8.19243,-10.891281,0.9797027,0.57381,-0.13485786,0.4768204,0.65207195,-6.5965867,4.0462356,-0.40995517,-3.2334688,2.9612398,1.9487864,0
0.7000000000000004,20.999999678989422,-2.82171391791738,1.7297657450189314,2.0979325383042644,16.183643,-3.5511305,4.6004558,0.88332087,8.126845,-10.849998,0.97564554,0.55830187,-0.14867833,0.4757849,0.6631912,-6.5215454,4.2109857,-0.40165997,-3.1690252,2.7692587,1.9561051,0
0.7100000000000004,20.999999678989422,-2.82171391791738,1.7297657450189314,2.0979325383042644,16.183643,-3.5511305,4.6004558,0.88332087,8.061972,-10.807047,0.97166544,0.5429331,-0.16165085,0.47420117,0.67396295,-6.4543138,4.3798065,-0.39452982,-3.1146677,2.6072052,1.9630647,0
0.7200000000000004,20.999999236872966,-2.2855184225363256,0.05943965818472716,1.4238228209658157,15.9607935,-3.4119315,3.2797334,1.0900226,7.997732,-10.76239,0.9677515,0.52765864,-0.17388706,0.47214478,0.68441147,-6.394839,4.552124,-0.38840014,-3.0688176,2.470414,1.9696827,0
0.7300000000000004,20.999999236872966,-2.2855184225363256,0.05943965818472716,1.4238228209658157,15.9607935,-3.4119315,3.2797334,1.0900226,7.9340487,-10.715994,0.9638946,0.51285416,-0.18495053,0.4694647,0.6945335,-6.343026,4.727386,-0.38308924,-2.9461436,2.0946326,1.9428972,0
0.7400000000000004,20.999999236872966,-2.2855184225363256,0.05943965818472716,1.4238228209658157,15.9607935,-3.4119315,3.2797334,1.0900226,7.8708463,-10.667833,0.96008825,0.49883935,-0.19450775,0.46606642,0.7043495,-6.2985353,4.9049087,-0.37822378,-2.8426888,1.7774235,1.917426,0
0.7500000000000004,20.999999236872966,-2.2855184225363256,0.05943965818472716,1.4238228209658157,15.9607935,-3.4119315,3.2797334,1.0900226,7.808054,-10.617889,0.95633,0.4854978,-0.20278539,0.4620761,0.7139018,-6.260965,5.0840535,-0.37340614,-2.75544,1.5096571,1.8932048,0
0.7600000000000005,20.999988029276224,-1.6497621342799738,-1.701138927763366,0.6042708063574653,14.622093,-2.8191724,0.8801117,1.1612327,7.745604,-10.566149,0.95262116,0.4727273,-0.2099754,0.45759386,0.72322005,-6.2299514,5.2642813,-0.36829394,-2.681858,1.2836275,1.8701721,0
0.7700000000000005,20.999988029276224,-1.6497621342799738,-1.701138927763366,0.6042708063574653,14.622093,-2.8191724,0.8801117,1.1612327,7.683433,-10.512602,0.9489662,0.46089005,-0.21565661,0.45253563,0.73231435,-6.205114,5.445107,-0.36255676,-2.5203028,0.8184538,1.808054,0
0.7800000000000005,20.999988029276224,-1.6497621342799738,-1.701138927763366,0.6042708063574653,14.622093,-2.8191724,0.8801117,1.1612327,7.6214824,-10.457247,0.9453739,0.45028383,-0.21951006,0.44685167,0.7412042,-6.1858077,5.6259623,-0.35569772,-2.384063,0.42577693,1.748984,0
0.7900000000000005,20.999988029276224,-1.6497621342799738,-1.701138927763366,0.6042708063574653,14.622093,-2.8191724,0.8801117,1.1612327,7.5597,-10.4000845,0.9418579,0.44073483,-0.2218224,0.44065455,0.7499143,-6.1713567,5.806327,-0.34722507,-2.2691677,0.0942998,1.6928126,0
0.8000000000000005,19.222025829384894,-1.1919317593602,-2.94708012826035,0.035752924941575275,13.029178,-2.9646983,0.9109109,1.0437168,7.4980407,-10.341123,0.9384363,0.4320917,-0.22283472,0.43403146,0.75845784,-6.1611643,5.9857745,-0.3367295,-2.172269,-0.18551512,1.6393975,0
0.8100000000000005,19.222025829384894,-1.1919317593602,-2.94708012826035,0.035752924941575275,13.029178,-2.9646983,0.9109109,1.0437168,7.436461,-10.280448,0.93508464,0.42453367,-0.22232233,0.42696124,0.766843,-6.1552157,6.1488466,-0.333245,-2.018957,-0.61591214,1.5607063,0
0.8200000000000005,19.222025829384894,-1.1919317593602,-2.94708012826035,0.035752924941575275,13.029178,-2.9646983,0.9109109,1.0437168,7.374927,-10.21815,0.93178034,0.41819865,-0.22011809,0.41943115,0.77507126,-6.1519856,6.310358,-0.32717678,-1.8896605,-0.97923267,1.4858764,0
0.8300000000000005,19.222025829384894,-1.1919317593602,-2.94708012826035,0.035752924941575275,13.029178,-2.9646983,0.9109109,1.0437168,7.3134146,-10.154246,0.9285512,0.41290793,-0.216486,0.41151124,0.7831343,-6.1508217,6.469957,-0.31815943,-1.7806121,-1.285929,1.4147185,0
0.8400000000000005,19.222025829384894,-1.1919317593602,-2.94708012826035,0.035752924941575275,10.932721,-3.7262855,0.046322227,0.9127314,7.251906,-10.088758,0.9254282,0.40850776,-0.21164806,0.40325567,0.79101914,-6.1511555,6.62734,-0.30590627,-1.6886367,-1.5448251,1.3470522,0
0.8500000000000005,19.222025829384894,-1.1919317593602,-2.94708012826035,0.035752924941575275,10.932721,-3.7262855,0.046322227,0.9127314,7.190388,-10.0217085,0.92244494,0.40486652,-0.20579126,0.39470685,0.7987111,-6.1524916,6.782237,-0.2901988,-1.6110578,-1.7633704,1.2827063,0
0.8600000000000005,19.222025829384894,-1.1919317593602,-2.94708012826035,0.035752924941575275,10.932721,-3.7262855,0.046322227,0.9127314,7.1288543,-9.953123,0.91963667,0.40187195,-0.19907331,0.38589865,0.8061953,-6.1543975,6.9344068,-0.2708776,-1.5456187,-1.9478527,1.2215179,0
0.8700000000000006,19.222025829384894,-1.1919317593602,-2.94708012826035,0.035752924941575275,10.932721,-3.7262855,0.046322227,0.9127314,7.0673,-9.883031,0.91704017,0.39942843,-0.1916274,0.3768584,0.8134577,-6.1564946,7.0836263,-0.24783398,-1.4904169,-2.1035812,1.1633321,0
0.8800000000000006,17.768752990201026,-0.8838879864491753,-3.5656267576350347,-0.344460098080505,12.880731,-3.0469818,-1.7603552,2.6808872,7.005725,-9.8114605,0.914693,0.39745465,-0.18356615,0.3676087,0.82048583,-6.1584525,7.229692,-0.22100295,-1.4438492,-2.235037,1.1080015,0
0.8900000000000006,17.768752990201026,-0.8838879864491753,-3.5656267576350347,-0.344460098080505,12.880731,-3.0469818,-1.7603552,2.6808872,6.944133,-9.738502,0.9125848,0.39603218,-0.17474928,0.35816276,0.82724875,-6.1598463,7.3616147,-0.2000837,-1.356487,-2.4424157,1.0367287,0
0.9000000000000006,17.768752990201026,-0.8838879864491753,-3.5656267576350347,-0.344460098080505,12.880731,-3.0469818,-1.7603552,2.6808872,6.8825307,-9.66424,0.9107036,0.39522147,-0.16507007,0.348531,0.8337133,-6.16046,7.4902287,-0.1755913,-1.2827829,-2.6174734,0.96895343,0
0.9100000000000006,17.768752990201026,-0.8838879864491753,-3.5656267576350347,-0.344460098080505,12.880731,-3.0469818,-1.7603552,2.6808872,6.8209276,-9.588709,0.9090853,0.39492998,-0.15466198,0.3387268,0.8398655,-6.1599393,7.6153255,-0.14751223,-1.2205982,-2.7652464,0.9045038,0
0.9200000000000006,16.203139842750105,-0.8228893799227799,-3.65116586518346,-0.5234987520593067,13.25778,-2.879204,-2.6047196,2.646769,6.759337,-9.511946,0.90776557,0.39507887,-0.14363821,0.32876137,0.84569293,-6.1579766,7.7367077,-0.11587028,-1.1681302,-2.8899875,0.8432167,0
0.9300000000000006,16.203139842750105,-0.8228893799227799,-3.65116586518346,-0.5234987520593067,13.25778,-2.879204,-2.6047196,2.646769,6.697772,-9.43404,0.9067215,0.3956343,-0.13206337,0.31864864,0.8511731,-6.1546307,7.8438363,-0.09246161,-1.1143562,-3.0086145,0.7761516,0
0.9400000000000006,16.203139842750105,-0.8228893799227799,-3.65116586518346,-0.5234987520593067,13.25778,-2.879204,-2.6047196,2.646769,6.63625,-9.355082,0.9059271,0.3965671,-0.11999461,0.30840054,0.85628545,-6.149503,7.9472394,-0.065928176,-1.0689806,-3.1087527,0.7123774,0
0.9500000000000006,16.203139842750105,-0.8228893799227799,-3.65116586518346,-0.5234987520593067,13.25778,-2.879204,-2.6047196,2.646769,6.574789,-9.275109,0.9054133,0.39782134,-0.10751076,0.29802394,0.86102337,-6.1423974,8.046757,-0.036365706,-1.0306897,-3.193283,0.6517326,0
0.9600000000000006,14.795589121408542,-0.829312980940776,-3.346310152634758,-0.5861910435290698,15.2596655,-2.9430957,-3.2458115,2.5488176,6.5134096,-9.19416,0.9052098,0.399349,-0.09467891,0.28752545,0.8653816,-6.1331472,8.142236,-0.0038898624,-0.99837565,-3.2646384,0.59406364,0
0.9700000000000006,14.795589121408542,-0.829312980940776,-3.346310152634758,-0.5861910435290698,15.2596655,-2.9430957,-3.2458115,2.5488176,6.452129,-9.112319,0.9052873,0.40108112,-0.0816653,0.27695772,0.86934406,-6.1226206,8.225605,0.019779239,-0.9721292,-3.277328,0.53614825,0
0.9800000000000006,14.795589121408542,-0.829312980940776,-3.346310152634758,-0.5861910435290698,15.2596655,-2.9430957,-3.2458115,2.5488176,6.3909645,-9.029663,0.9056136,0.40296474,-0.068606324,0.26636553,0.8729043,-6.1099443,8.305067,0.045832496,-0.94997156,-3.2880437,0.48107475,0
0.9900000000000007,14.795589121408542,-0.829312980940776,-3.346310152634758,-0.5861910435290698,15.2596655,-2.9430957,-3.2458115,2.5488176,6.3299375,-8.946232,0.9062116,0.40498263,-0.05551432,0.2557445,0.8760719,-6.0950756,8.380545,0.07410881,-0.9312648,-3.2970927,0.4287037,0
1.0000000000000007,13.793795304343949,-0.855197496317754,-2.528121160253527,-0.5722429904434083,14.707661,-3.1045065,-2.7534802,1.8932904,6.2690706,-8.862067,0.9071028,0.40711895,-0.04239979,0.2450915,0.8788552,-6.0779796,8.451963,0.10444586,-0.91547066,-3.304734,0.3789025,0
1.0100000000000007,13.793795304343949,-0.855197496317754,-2.528121160253527,-0.5722429904434083,14.707661,-3.1045065,-2.7534802,1.8932904,6.2083793,-8.777231,0.90826297,0.40927973,-0.029563697,0.23453008,0.88125575,-6.0599566,8.5147085,0.12785058,-0.906198,-3.1835918,0.33222952,0
1.0200000000000007,13.793795304343949,-0.855197496317754,-2.528121160253527,-0.5722429904434083,14.707661,-3.1045065,-2.7534802,1.8932904,6.1478786,-8.691787,0.9096653,0.4113981,-0.017246302,0.22416253,0.8832924,-6.0399265,8.573646,0.15283804,-0.89835614,-3.081344,0.28784683,0
1.0300000000000007,13.793795304343949,-0.855197496317754,-2.528121160253527,-0.5722429904434083,14.707661,-3.1045065,-2.7534802,1.8932904,6.0875874,-8.605771,0.9113246,0.4134958,-0.0053734584,0.21395828,0.884994,-6.0179853,8.628824,0.17923392,-0.8917244,-2.9950435,0.245642,0
1.0400000000000007,13.793795304343949,-0.855197496317754,-2.528121160253527,-0.5722429904434083,14.446114,-3.2014246,-2.2503457,1.9541029,6.027525,-8.519223,0.91325426,0.4155891,0.006118029,0.20389141,0.88638407,-5.9942183,8.680286,0.20688027,-0.8861162,-2.922203,0.20550814,0
1.0500000000000007,13.793795304343949,-0.855197496317754,-2.528121160253527,-0.5722429904434083,14.446114,-3.2014246,-2.2503457,1.9541029,5.967709,-8.4321785,0.915466,0.41768992,0.017281955,0.19394001,0.88748175,-5.968701,8.728066,0.23563218,-0.88137394,-2.8607235,0.16734368,0
1.0600000000000007,13.793795304343949,-0.855197496317754,-2.528121160253527,-0.5722429904434083,14.446114,-3.2014246,-2.2503457,1.9541029,5.9081564,-8.344674,0.9179702,0.4198067,0.028164066,0.18408567,0.88830274,-5.941501,8.77219,0.26535526,-0.8773639,-2.8088334,0.13105196,0
1.0700000000000007,13.793795304343949,-0.855197496317754,-2.528121160253527,-0.5722429904434083,14.446114,-3.2014246,-2.2503457,1.9541029,5.848884,-8.256747,0.920776,0.42194504,0.03880322,0.17431289,0.88885987,-5.912681,8.81268,0.29592353,-0.873973,-2.7650363,0.09654108,0
1.0800000000000007,12.983850270933912,-0.9163017967131014,-1.5939271624157725,-0.48470116943759545,15.1315365,-3.2034826,-2.3885653,2.296145,5.789908,-8.168434,0.9238912,0.4241083,0.049232397,0.16460879,0.8891639,-5.8822975,8.849553,0.3272177,-0.87110573,-2.7280705,0.06372366,0
1.0900000000000007,12.983850270933912,-0.9163017967131014,-1.5939271624157725,-0.48470116943759545,15.1315365,-3.2034826,-2.3885653,2.296145,5.7312336,-8.07978,0.9272843,0.42623085,0.059138656,0.15509963,0.88925487,-5.85229,8.880884,0.35148996,-0.8782064,-2.5511863,0.0368123,0
1.1000000000000008,12.983850270933912,-0.9163017967131014,-1.5939271624157725,-0.48470116943759545,15.1315365,-3.2034826,-2.3885653,2.296145,5.672866,-7.990828,0.93092257,0.42826784,0.068276376,0.1458876,0.88918054,-5.821018,8.908952,0.37623683,-0.8841911,-2.401888,0.011221481,0
1.1100000000000008,12.983850270933912,-0.9163017967131014,-1.5939271624157725,-0.48470116943759545,15.1315365,-3.2034826,-2.3885653,2.296145,5.6148167,-7.9016113,0.93481034,0.430247,0.07676229,0.13692972,0.8889576,-5.788633,8.933888,0.4013706,-0.889236,-2.275873,-0.013113573,0
1.1200000000000008,12.56047939509851,-1.1456068839859872,-0.4561633805152862,-0.29079673051843813,14.815465,-3.2570033,-2.1089902,2.6584682,5.557097,-7.8121605,0.9389511,0.43218958,0.084695235,0.12818916,0.88859814,-5.7552643,8.955805,0.4268161,-0.89348865,-2.1695104,-0.036254507,0
1.1300000000000008,12.56047939509851,-1.1456068839859872,-0.4561633805152862,-0.29079673051843813,14.815465,-3.2570033,-2.1089902,2.6584682,5.4997096,-7.7225084,0.94332737,0.4340425,0.0917179,0.11974835,0.8881753,-5.722159,8.974194,0.44847348,-0.93281573,-1.9023063,-0.04874496,0
1.1400000000000008,12.56047939509851,-1.1456068839859872,-0.4561633805152862,-0.29079673051843813,14.815465,-3.2570033,-2.1089902,2.6584682,5.442656,-7.632685,0.9479213,0.4357696,0.097552784,0.1116723,0.88776004,-5.6884484,8.989961,0.4703362,-0.9660064,-1.6767725,-0.060622513,0
1.1500000000000008,12.56047939509851,-1.1456068839859872,-0.4561633805152862,-0.29079673051843813,14.815465,-3.2570033,-2.1089902,2.6584682,5.3859415,-7.542717,0.95273477,0.43740582,0.10238453,0.10390784,0.8873539,-5.654356,9.003305,0.49238512,-0.9940185,-1.4864109,-0.07191722,0
1.1600000000000008,12.48042858887451,-1.3699066645491191,0.5689105606114305,-0.023786926302637134,15.476285,-3.8465743,-1.4489739,3.2816758,5.329569,-7.4526267,0.9577696,0.43897775,0.10636898,0.09640926,0.88695526,-5.6200695,9.014397,0.514608,-1.0176605,-1.3257362,-0.08265771,0
1.1700000000000008,12.48042858887451,-1.3699066645491191,0.5689105606114305,-0.023786926302637134,15.476285,-3.8465743,-1.4489739,3.2816758,5.2735386,-7.3624363,0.96302366,0.44044784,0.10923768,0.0892347,0.88662857,-5.5859823,9.0233345,0.5362326,-1.0725751,-1.030266,-0.079768896,0
1.1800000000000008,12.48042858887451,-1.3699066645491191,0.5689105606114305,-0.023786926302637134,15.476285,-3.8465743,-1.4489739,3.2816758,5.217849,-7.2721667,0.96849483,0.44178674,0.110785246,0.08242818,0.88642937,-5.552122,9.030414,0.55804604,-1.1189295,-0.7808749,-0.077021845,0
1.1900000000000008,12.48042858887451,-1.3699066645491191,0.5689105606114305,-0.023786926302637134,15.476285,-3.8465743,-1.4489739,3.2816758,5.162495,-7.181834,0.9741853,0.44302177,0.11121764,0.075934015,0.8863389,-5.5187297,9.03585,0.5800762,-1.1580578,-0.5703767,-0.07440959,0
1.2000000000000008,12.766325999444419,-1.5896310357336358,1.49010019094316,0.2798739117629825,16.177126,-3.1875734,-2.0706027,3.928893,5.1074724,-7.091455,0.9800972,0.44417322,0.11070839,0.06970462,0.8863381,-5.4860067,9.03983,0.60234773,-1.1910863,-0.39270565,-0.07192551,0
1.2100000000000009,12.766325999444419,-1.5896310357336358,1.49010019094316,0.2798739117629825,16.177126,-3.1875734,-2.0706027,3.928893,5.052776,-7.001042,0.9862469,0.44520748,0.109040484,0.06378124,0.886472,-5.4534116,9.042587,0.627648,-1.2532241,-0.099094175,-0.054662634,0
1.2200000000000009,12.766325999444419,-1.5896310357336358,1.49010019094316,0.2798739117629825,16.177126,-3.1875734,-2.0706027,3.928893,4.9983997,-6.910607,0.99265116,0.44609407,0.106049135,0.058193974,0.8867735,-5.421946,9.044257,0.65326077,-1.3056792,0.14872767,-0.038246825,0
1.2300000000000009,12.766325999444419,-1.5896310357336358,1.49010019094316,0.2798739117629825,16.177126,-3.1875734,-2.0706027,3.928893,4.9443316,-6.8201594,0.9993133,0.4468494,0.101939365,0.052890204,0.88720727,-5.3918576,9.04506,0.67922413,-1.3499595,0.3579015,-0.022636548,0
1.2400000000000009,12.766325999444419,-1.5896310357336358,1.49010019094316,0.2798739117629825,16.892467,-3.2226396,-2.3771715,4.3416533,4.8905563,-6.7297077,1.006237,0.4474851,0.09688401,0.04782529,0.8877407,-5.3633556,9.045181,0.70556396,-1.3873386,0.5344545,-0.0077922693,0
1.2500000000000009,12.766325999444419,-1.5896310357336358,1.49010019094316,0.2798739117629825,16.892467,-3.2226396,-2.3771715,4.3416533,4.837058,-6.6392574,1.013426,0.4480095,0.09102891,0.042961482,0.88834435,-5.3366184,9.044777,0.73229414,-1.4188914,0.68347406,0.006323591,0
1.260000000000001,12.766325999444419,-1.5896310357336358,1.49010019094316,0.2798739117629825,16.892467,-3.2226396,-2.3771715,4.3416533,4.783818,-6.548814,1.0208843,0.44842866,0.08449719,0.038266882,0.88899255,-5.3117976,9.04398,0.75941736,-1.4455258,0.80925417,0.019746782,0
1.270000000000001,12.766325999444419,-1.5896310357336358,1.49010019094316,0.2798739117629825,16.892467,-3.2226396,-2.3771715,4.3416533,4.7308154,-6.458379,1.0286158,0.44874704,0.07739293,0.033714656,0.8896628,-5.2890224,9.042901,0.78692657,-1.4680079,0.9154192,0.032511298,0
1.280000000000001,12.418809486624372,-1.6203695756931047,1.7244004610582337,0.5296849474038484,14.4260845,-2.725371,-1.4514434,3.391271,4.6780295,-6.367956,1.0366242,0.44896796,0.06980413,0.02928222,0.8903358,-5.268404,9.041635,0.81480587,-1.486985,1.0050281,0.044649445,0
1.290000000000001,12.418809486624372,-1.6203695756931047,1.7244004610582337,0.5296849474038484,14.4260845,-2.725371,-1.4514434,3.391271,4.625437,-6.2775464,1.0448959,0.4490645,0.061717127,0.02497966,0.89101523,-5.2505403,9.0403,0.8395936,-1.5078068,1.1171898,0.06845028,0
1.300000000000001,12.418809486624372,-1.6203695756931047,1.7244004610582337,0.5296849474038484,14.4260845,-2.725371,-1.4514434,3.391271,4.573011,-6.18715,1.0534171,0.4490111,0.053124897,0.020814072,0.8917027,-5.2349725,9.038954,0.8646929,-1.5253828,1.2118607,0.0910832,0
1.310000000000001,12.418809486624372,-1.6203695756931047,1.7244004610582337,0.5296849474038484,14.4260845,-2.725371,-1.4514434,3.391271,4.520729,-6.096767,1.0621907,0.44881177,0.044105336,0.01676408,0.8923799,-5.2217946,9.037676,0.89007145,-1.5402187,1.2917687,0.11260552,0
1.320000000000001,11.285811101576883,-1.590989065944727,1.4044992848514732,0.7066185681165117,13.330747,-2.4484797,-1.3399262,3.0229368,4.468566,-6.006396,1.0712192,0.44847018,0.034724455,0.012811827,0.89303124,-5.211088,9.036535,0.9156899,-1.5527413,1.3592157,0.13307174,0
1.330000000000001,11.285811101576883,-1.590989065944727,1.4044992848514732,0.7066185681165117,13.330747,-2.4484797,-1.3399262,3.0229368,4.4164944,-5.9160347,1.0804484,0.4479714,0.02515819,0.00889484,0.8936497,-5.2036614,9.035673,0.93019813,-1.5587317,1.3662485,0.16121584,0
1.340000000000001,11.285811101576883,-1.590989065944727,1.4044992848514732,0.7066185681165117,13.330747,-2.4484797,-1.3399262,3.0229368,4.3644853,-5.825681,1.0898235,0.44730198,0.015549179,0.004963302,0.8942342,-5.1985617,9.03499,0.944837,-1.5637867,1.3721857,0.18797891,0
1.350000000000001,11.285811101576883,-1.590989065944727,1.4044992848514732,0.7066185681165117,13.330747,-2.4484797,-1.3399262,3.0229368,4.3125153,-5.735334,1.0993453,0.44646728,0.005904301,0.0010206108,0.89478004,-5.195801,9.03449,0.95955825,-1.5680525,1.3771985,0.21342872,0
1.360000000000001,9.93075841735508,-1.4344782887024259,0.7162673348091757,0.8018795700197519,12.261471,-2.3304675,-0.8007123,2.48462,4.2605615,-5.644991,1.1090146,0.4454725,-0.0037704876,-0.0029301932,0.8952831,-5.195387,9.034167,0.9743132,-1.5716518,1.3814309,0.23762968,0
1.370000000000001,9.93075841735508,-1.4344782887024259,0.7162673348091757,0.8018795700197519,12.261471,-2.3304675,-0.8007123,2.48462,4.208601,-5.55465,1.1187638,0.44431213,-0.013195548,-0.0069527924,0.8957481,-5.1970844,9.034028,0.9755045,-1.5502669,1.2776744,0.2653176,0
1.380000000000001,9.93075841735508,-1.4344782887024259,0.7162673348091757,0.8018795700197519,12.261471,-2.3304675,-0.8007123,2.48462,4.156613,-5.46431,1.1285247,0.44298315,-0.022149,-0.011096861,0.8961878,-5.200785,9.033978,0.97664154,-1.5322149,1.1901001,0.2916468,0
1.390000000000001,9.93075841735508,-1.4344782887024259,0.7162673348091757,0.8018795700197519,12.261471,-2.3304675,-0.8007123,2.48462,4.104579,-5.3739705,1.1382965,0.44149384,-0.030703964,-0.01534107,0.89660776,-5.206419,9.033952,0.9776878,-1.5169771,1.1161842,0.3166841,0
1.400000000000001,8.938676676288237,-1.1961417849443952,0.15402494132463015,0.8636195764134356,14.440155,-2.93124,-3.264763,3.138665,4.052479,-5.283631,1.1480781,0.43985167,-0.038922217,-0.019667417,0.8970112,-5.2139263,9.033893,0.97860986,-1.5041151,1.0537968,0.34049278,0
1.410000000000001,8.938676676288237,-1.1961417849443952,0.15402494132463015,0.8636195764134356,14.440155,-2.93124,-3.264763,3.138665,4.0002985,-5.1932926,1.1578188,0.43805656,-0.04661237,-0.024073642,0.89741546,-5.222314,9.033762,0.9695009,-1.4560711,0.913464,0.36616278,0
1.420000000000001,8.938676676288237,-1.1961417849443952,0.15402494132463015,0.8636195764134356,14.440155,-2.93124,-3.264763,3.138665,3.9480271,-5.1029563,1.1674676,0.43611002,-0.053625844,-0.028556662,0.8978403,-5.2322364,9.033484,0.9602338,-1.4155196,0.79501706,0.39057317,0
1.430000000000001,8.938676676288237,-1.1961417849443952,0.15402494132463015,0.8636195764134356,14.440155,-2.93124,-3.264763,3.138665,3.895649,-5.012624,1.1770229,0.43402055,-0.060068462,-0.03310148,0.8982887,-5.243594,9.03299,0.9507937,-1.381293,0.6950423,0.4137857,0
1.440000000000001,8.938676676288237,-1.1961417849443952,0.15402494132463015,0.8636195764134356,13.871371,-2.755586,-3.539356,2.7597926,3.8431504,-4.9222975,1.1864829,0.43179584,-0.066029556,-0.03769558,0.89876133,-5.256304,9.032226,0.9411681,-1.3524051,0.61065924,0.4358592,0
1.450000000000001,8.938676676288237,-1.1961417849443952,0.15402494132463015,0.8636195764134356,13.871371,-2.755586,-3.539356,2.7597926,3.7905183,-4.83198,1.1958456,0.42944267,-0.071584515,-0.042328525,0.8992571,-5.2702923,9.031138,0.93134606,-1.3280231,0.5394359,0.45684952,0
1.460000000000001,8.938676676288237,-1.1961417849443952,0.15402494132463015,0.8636195764134356,13.871371,-2.755586,-3.539356,2.7597926,3.7377405,-4.7416754,1.2051091,0.42696735,-0.07679699,-0.046991616,0.8997741,-5.2854977,9.029686,0.9213174,-1.3074447,0.4793205,0.47680986,0
1.470000000000001,8.938676676288237,-1.1961417849443952,0.15402494132463015,0.8636195764134356,13.871371,-2.755586,-3.539356,2.7597926,3.6848047,-4.6513877,1.2142713,0.42437556,-0.081720665,-0.051677607,0.90030944,-5.301866,9.027833,0.9110725,-1.2900767,0.4285802,0.49579075,0
1.480000000000001,8.388592922363546,-0.965998017118867,-0.17928281826178977,0.8560691389034613,14.118384,-2.7332497,-4.0682282,2.6067252,3.6316996,-4.5611205,1.2233299,0.4216727,-0.08640079,-0.056380477,0.9008601,-5.3193526,9.025549,0.9006018,-1.2754184,0.3857531,0.51384026,0
1.490000000000001,8.388592922363546,-0.965998017118867,-0.17928281826178977,0.8560691389034613,14.118384,-2.7332497,-4.0682282,2.6067252,3.5784197,-4.4708776,1.2322557,0.4188652,-0.09071664,-0.061068412,0.9014398,-5.336768,9.022974,0.8845191,-1.2271383,0.2976387,0.53063357,0
1.500000000000001,8.388592922363546,-0.965998017118867,-0.17928281826178977,0.8560691389034613,14.118384,-2.7332497,-4.0682282,2.6067252,3.524961,-4.3806624,1.2410196,0.41595963,-0.09457483,-0.065715685,0.90206164,-5.355118,9.019935,0.86821645,-1.1863902,0.22326478,0.5466028,0
1.5100000000000011,8.388592922363546,-0.965998017118867,-0.17928281826178977,0.8560691389034613,14.118384,-2.7332497,-4.0682282,2.6067252,3.4713147,-4.2904806,1.2496194,0.41296077,-0.09804741,-0.07032597,0.9027208,-5.37433,9.016399,0.85169554,-1.1519994,0.16048858,0.5617884,0
1.5200000000000011,8.152273439589065,-0.8654244233252146,-0.4343663504509899,0.8522232296502676,14.048759,-2.460605,-4.2248716,1.987081,3.417472,-4.200337,1.2580527,0.409873,-0.1011951,-0.074902534,0.9034122,-5.3943434,9.012342,0.83495754,-1.1229742,0.10750148,0.57622886,0
1.5300000000000011,8.152273439589065,-0.8654244233252146,-0.4343663504509899,0.8522232296502676,14.048759,-2.460605,-4.2248716,1.987081,3.363428,-4.1102357,1.2663062,0.4066973,-0.103960365,-0.07945367,0.90414435,-5.414516,9.007869,0.81571764,-1.0827779,0.023002936,0.589772,0
1.5400000000000011,8.152273439589065,-0.8654244233252146,-0.4343663504509899,0.8522232296502676,14.048759,-2.460605,-4.2248716,1.987081,3.3091795,-4.0201817,1.2743661,0.40343475,-0.106300294,-0.083985865,0.904924,-5.435345,9.002834,0.7962731,-1.048854,-0.048319437,0.6026506,0
1.5500000000000012,8.152273439589065,-0.8654244233252146,-0.4343663504509899,0.8522232296502676,14.048759,-2.460605,-4.2248716,1.987081,3.2547195,-3.9301813,1.2822309,0.40008968,-0.108281754,-0.0884995,0.90574366,-5.4567657,8.99721,0.7766295,-1.0202239,-0.10852024,0.6148972,0
1.5600000000000012,8.507994579800345,-0.8605569364070553,-0.6271754761575815,0.8516931339293615,13.887789,-2.2978237,-4.399618,1.1435487,3.2000422,-3.8402398,1.2898982,0.39666593,-0.109961115,-0.09299505,0.9065964,-5.4787226,8.99097,0.75679106,-0.9960614,-0.15933369,0.62654287,0
1.5700000000000012,8.507994579800345,-0.8605569364070553,-0.6271754761575815,0.8516931339293615,13.887789,-2.2978237,-4.399618,1.1435487,3.1451383,-3.7503653,1.2973832,0.3931602,-0.111315124,-0.09750178,0.90748435,-5.5021443,8.983791,0.7401676,-0.97489804,-0.23229182,0.637591,0
1.5800000000000012,8.507994579800345,-0.8605569364070553,-0.6271754761575815,0.8516931339293615,13.887789,-2.2978237,-4.399618,1.1435487,3.0899978,-3.660566,1.304701,0.38956985,-0.112327635,-0.10204272,0.9084083,-5.526016,8.975915,0.72334886,-0.95703906,-0.2938729,0.64809704,0
1.5900000000000012,8.507994579800345,-0.8605569364070553,-0.6271754761575815,0.8516931339293615,13.887789,-2.2978237,-4.399618,1.1435487,3.0346167,-3.5708494,1.3118495,0.38589948,-0.11305206,-0.106610045,0.90936,-5.550285,8.96731,0.7063386,-0.94196856,-0.34585112,0.65808755,0
1.6000000000000012,9.757546852593626,-0.9943697801184248,-0.4382431330378558,0.8712877197370023,14.239308,-2.674161,-4.6905146,3.1057186,2.978991,-3.4812224,1.318827,0.38215327,-0.11353344,-0.11119728,0.9103322,-5.574903,8.957951,0.68913895,-0.9292512,-0.3897238,0.6675878,0
1.6100000000000012,9.757546852593626,-0.9943697801184248,-0.4382431330378558,0.8712877197370023,14.239308,-2.674161,-4.6905146,3.1057186,2.9230995,-3.3917003,1.3256909,0.37833536,-0.11389925,-0.115818806,0.9113045,-5.6034946,8.946325,0.6836038,-0.93940055,-0.39730087,0.67758346,0
1.6200000000000012,9.757546852593626,-0.9943697801184248,-0.4382431330378558,0.8712877197370023,14.239308,-2.674161,-4.6905146,3.1057186,2.8669202,-3.3022988,1.3324982,0.3744495,-0.114252366,-0.12048618,0.9122596,-5.6324286,8.933796,0.6778439,-0.94796777,-0.40369552,0.68708855,0
1.6300000000000012,9.757546852593626,-0.9943697801184248,-0.4382431330378558,0.8712877197370023,14.239308,-2.674161,-4.6905146,3.1057186,2.8104498,-3.2130272,1.3392469,0.37049896,-0.11459461,-0.1251906,0.91319567,-5.6616974,8.920349,0.6718494,-0.95519924,-0.40909192,0.6961273,0
1.6400000000000012,9.757546852593626,-0.9943697801184248,-0.4382431330378558,0.8712877197370023,15.447143,-2.9849024,-4.5925026,3.5389347,2.753685,-3.123895,1.3459344,0.36648676,-0.114927545,-0.12992463,0.91411114,-5.691292,8.905975,0.66561043,-0.9613036,-0.41364625,0.7047225,0
1.6500000000000012,9.757546852593626,-0.9943697801184248,-0.4382431330378558,0.8712877197370023,15.447143,-2.9849024,-4.5925026,3.5389347,2.6966226,-3.034911,1.3525581,0.3624157,-0.1152525,-0.13468203,0.9150043,-5.721204,8.890666,0.6591173,-0.9664562,-0.41748965,0.712896,0
1.6600000000000013,9.757546852593626,-0.9943697801184248,-0.4382431330378558,0.8712877197370023,15.447143,-2.9849024,-4.5925026,3.5389347,2.6392596,-2.9460845,1.3591157,0.35828847,-0.11557058,-0.13945748,0.9158738,-5.7514234,8.8744135,0.6523602,-0.97080564,-0.42073312,0.7206683,0
1.6700000000000013,9.757546852593626,-0.9943697801184248,-0.4382431330378558,0.8712877197370023,15.447143,-2.9849024,-4.5925026,3.5389347,2.5815928,-2.8574257,1.3656043,0.3541074,-0.115882725,-0.14424653,0.91671836,-5.7819405,8.857212,0.6453297,-0.9744771,-0.4234701,0.7280592,0
1.6800000000000013,11.233550466651725,-1.0941444788380854,-0.09357664600544278,0.8811504318912097,15.165861,-2.806277,-2.3544927,2.4820945,2.5236194,-2.7689438,1.3720213,0.34987485,-0.116189696,-0.14904535,0.9175366,-5.8127465,8.839055,0.6380165,-0.97757643,-0.42577988,0.73508745,0
1.6900000000000013,11.233550466651725,-1.0941444788380854,-0.09357664600544278,0.8811504318912097,15.165861,-2.806277,-2.3544927,2.4820945,2.4653134,-2.6806624,1.3784322,0.345608,-0.11663285,-0.15383925,0.918306,-5.848539,8.817053,0.6440988,-0.9957781,-0.3739863,0.74225485,0
1.7000000000000013,11.233550466651725,-1.0941444788380854,-0.09357664600544278,0.8811504318912097,15.165861,-2.806277,-2.3544927,2.4820945,2.4066474,-2.5926065,1.3849021,0.34132135,-0.117324196,-0.15861711,0.9190081,-5.884687,8.793967,0.6498231,-1.0111378,-0.33026844,0.74907047,0
1.7100000000000013,11.233550466651725,-1.0941444788380854,-0.09357664600544278,0.8811504318912097,15.165861,-2.806277,-2.3544927,2.4820945,2.3476183,-2.504787,1.3914274,0.3370133,-0.11822477,-0.16338061,0.9196478,-5.921227,8.769818,0.6551679,-1.0240996,-0.29336718,0.75555164,0
1.7200000000000013,12.3292384667686,-1.0120277979067338,0.2666677907983041,0.7921009913641895,15.820749,-2.8508954,-2.0441005,2.6282032,2.2882218,-2.417214,1.3980042,0.3326825,-0.119301654,-0.16813101,0.92022926,-5.9581866,8.744622,0.66011316,-1.0350374,-0.26221943,0.7617148,0
1.7300000000000013,12.3292384667686,-1.0120277979067338,0.2666677907983041,0.7921009913641895,15.820749,-2.8508954,-2.0441005,2.6282032,2.2284348,-2.3299108,1.4046783,0.32836634,-0.120647065,-0.1727926,0.92074054,-5.99924,8.71584,0.67465013,-1.0314896,-0.17973904,0.7632058,0
1.7400000000000013,12.3292384667686,-1.0120277979067338,0.2666677907983041,0.7921009913641895,15.820749,-2.8508954,-2.0441005,2.6282032,2.1682346,-2.2429006,1.4114956,0.32409722,-0.122332595,-0.1773064,0.92117256,-6.0408344,8.685986,0.68870836,-1.028489,-0.11012163,0.7646237,0
1.7500000000000013,12.3292384667686,-1.0120277979067338,0.2666677907983041,0.7921009913641895,15.820749,-2.8508954,-2.0441005,2.6282032,2.1076155,-2.1561944,1.4184508,0.31986672,-0.124304794,-0.18169546,0.9215319,-6.0830216,8.655113,0.70226914,-1.025951,-0.05136124,0.765972,0
1.7600000000000013,12.492700865513642,-0.737783315283587,0.474013582335477,0.6348373570667502,15.36957,-2.906528,-1.9324902,2.865909,2.0465715,-2.0698018,1.4255391,0.31566754,-0.12651843,-0.185979,0.9218241,-6.125843,8.623274,0.71531516,-1.0238044,-0.0017647473,0.7672542,0
1.7700000000000014,12.492700865513642,-0.737783315283587,0.474013582335477,0.6348373570667502,15.36957,-2.906528,-1.9324902,2.865909,1.9850931,-1.9837343,1.4327625,0.3115409,-0.1289737,-0.19004829,0.92205775,-6.1699104,8.590076,0.7292984,-0.97923636,0.07245901,0.76075643,0
1.7800000000000014,12.492700865513642,-0.737783315283587,0.474013582335477,0.6348373570667502,15.36957,-2.906528,-1.9324902,2.865909,1.9231707,-1.898003,1.4401231,0.30752274,-0.13166887,-0.1938189,0.9222408,-6.214687,8.556026,0.7427435,-0.9416124,0.13510376,0.7545776,0
1.7900000000000014,12.492700865513642,-0.737783315283587,0.474013582335477,0.6348373570667502,15.36957,-2.906528,-1.9324902,2.865909,1.8607968,-1.8126162,1.4476155,0.3035996,-0.13456583,-0.19733804,0.92237616,-6.2601986,8.521205,0.75565165,-0.90985066,0.18797567,0.74870193,0
1.8000000000000014,11.790410496588567,-0.39837755242058503,0.4595127605532539,0.4546500891625994,14.196396,-2.4235578,-1.701379,2.5257027,1.7979641,-1.7275813,1.4552344,0.2997597,-0.13763228,-0.20064539,0.92246604,-6.3064666,8.485681,0.768023,-0.8830377,0.23259938,0.74311453,0
1.8100000000000014,11.790410496588567,-0.39837755242058503,0.4595127605532539,0.4546500891625994,14.196396,-2.4235578,-1.701379,2.5257027,1.734678,-1.6428945,1.4629433,0.296031,-0.14079058,-0.20365378,0.9225343,-6.35086,8.451548,0.7736795,-0.80746984,0.26803038,0.72895956,0
1.8200000000000014,11.790410496588567,-0.39837755242058503,0.4595127605532539,0.4546500891625994,14.196396,-2.4235578,-1.701379,2.5257027,1.6709445,-1.558552,1.4707063,0.29243875,-0.14397779,-0.20629655,0.9226009,-6.3959694,8.416888,0.77885145,-0.74368376,0.29792887,0.7154991,0
1.8300000000000014,11.790410496588567,-0.39837755242058503,0.4595127605532539,0.4546500891625994,14.196396,-2.4235578,-1.701379,2.5257027,1.6067562,-1.4745584,1.4785187,0.28896916,-0.14718834,-0.20863189,0.92266244,-6.4417787,8.381777,0.7835619,-0.6898426,0.32315853,0.7026992,0
1.8400000000000014,11.790410496588567,-0.39837755242058503,0.4595127605532539,0.4546500891625994,12.711885,-1.9709967,-1.4535605,1.9902201,1.5421065,-1.3909178,1.4863759,0.28561005,-0.15041739,-0.21070875,0.92271566,-6.4882746,8.346277,0.78783005,-0.6443958,0.34444875,0.6905274,0
1.8500000000000014,11.790410496588567,-0.39837755242058503,0.4595127605532539,0.4546500891625994,12.711885,-1.9709967,-1.4535605,1.9902201,1.4769884,-1.307634,1.4942737,0.28235054,-0.15366073,-0.21256834,0.9227579,-6.535445,8.310443,0.79167163,-0.6060349,0.36241475,0.6789528,0
1.8600000000000014,11.790410496588567,-0.39837755242058503,0.4595127605532539,0.4546500891625994,12.711885,-1.9709967,-1.4535605,1.9902201,1.4113953,-1.22471,1.5022078,0.279181,-0.15691482,-0.21424533,0.9227869,-6.583282,8.274317,0.79509944,-0.5736549,0.37757573,0.66794616,0
1.8700000000000014,11.790410496588567,-0.39837755242058503,0.4595127605532539,0.4546500891625994,12.711885,-1.9709967,-1.4535605,1.9902201,1.3453205,-1.1421485,1.5101742,0.27609286,-0.16017655,-0.2157689,0.9228006,-6.6317763,8.237937,0.79812354,-0.54632336,0.3903694,0.6574797,0
1.8800000000000014,11.058583253170534,-0.0020670066361023268,0.28771510151645086,0.2534547306520435,11.818218,-1.8597943,-1.1405019,1.4662086,1.2787575,-1.0599519,1.5181687,0.2730785,-0.1634433,-0.21716364,0.9227976,-6.680922,8.201333,0.8007519,-0.5232533,0.40116554,0.64752674,0
1.8900000000000015,11.058583253170534,-0.0020670066361023268,0.28771510151645086,0.2534547306520435,11.818218,-1.8597943,-1.1405019,1.4662086,1.2117152,-0.978111,1.5261565,0.27016544,-0.16660099,-0.21832664,0.9228159,-6.7276163,8.16682,0.79676706,-0.4419623,0.38351282,0.6281895,0
1.9000000000000015,11.058583253170534,-0.0020670066361023268,0.28771510151645086,0.2534547306520435,11.818218,-1.8597943,-1.1405019,1.4662086,1.1442032,-0.896616,1.5341029,0.26737893,-0.16955899,-0.2191782,0.92288685,-6.7748647,8.132171,0.7924553,-0.3733505,0.36860567,0.6098012,0
1.9100000000000015,11.058583253170534,-0.0020670066361023268,0.28771510151645086,0.2534547306520435,11.818218,-1.8597943,-1.1405019,1.4662086,1.0762161,-0.8154679,1.5420046,0.26470932,-0.17234688,-0.2197685,0.9229997,-6.8226185,8.097433,0.7878545,-0.31543994,0.35601747,0.59231514,0
1.9200000000000015,10.526650648732096,0.38931520779868156,0.12047603914962668,0.0461463758456642,10.604216,-1.3370658,-1.0091051,0.819419,1.0077491,-0.7346675,1.549859,0.26214772,-0.17498955,-0.22013979,0.92314506,-6.8708363,8.062647,0.78299683,-0.26656187,0.3453875,0.57568717,0
1.9300000000000015,10.526650648732096,0.38931520779868156,0.12047603914962668,0.0461463758456642,10.604216,-1.3370658,-1.0091051,0.819419,0.9388095,-0.65420663,1.5576414,0.25972268,-0.17739971,-0.22020508,0.9233549,-6.9171395,8.029523,0.7734398,-0.16425994,0.3103539,0.5497024,0
1.9400000000000015,10.526650648732096,0.38931520779868156,0.12047603914962668,0.0461463758456642,10.604216,-1.3370658,-1.0091051,0.819419,0.86940515,-0.5740769,1.5653273,0.25745976,-0.17950901,-0.21989784,0.92365414,-6.9637833,7.99644,0.7637192,-0.07791494,0.28077483,0.52499276,0
1.9500000000000015,10.526650648732096,0.38931520779868156,0.12047603914962668,0.0461463758456642,10.604216,-1.3370658,-1.0091051,0.819419,0.7995329,-0.49427748,1.5729154,0.25534716,-0.18136223,-0.21927844,0.9240257,-7.0107055,7.9634514,0.7538866,-0.005038254,0.25580153,0.5014956,0
1.9600000000000015,10.57631365344797,0.7729377359277597,-0.040026651286129006,-0.16872149125699942,10.724295,-0.78430873,-1.0844454,0.34654462,0.7291903,-0.41480732,1.5804048,0.253374,-0.18299711,-0.21839768,0.92445505,-7.0578527,7.9306016,0.74398565,0.056471333,0.23471682,0.4791515,0
1.9700000000000015,10.57631365344797,0.7729377359277597,-0.040026651286129006,-0.16872149125699942,10.724295,-0.78430873,-1.0844454,0.34654462,0.6583741,-0.33566558,1.5877972,0.25156906,-0.18434153,-0.21717744,0.92496824,-7.105399,7.897778,0.7344736,0.16822122,0.19190216,0.44736016,0
1.9800000000000015,10.57631365344797,0.7729377359277597,-0.040026651286129006,-0.16872149125699942,10.724295,-0.78430873,-1.0844454,0.34654462,0.58708185,-0.25685093,1.5950944,0.24995779,-0.18533954,-0.21555844,0.92558414,-7.1530514,7.8651958,0.72499365,0.26253998,0.15575524,0.41712886,0
1.9900000000000015,10.57631365344797,0.7729377359277597,-0.040026651286129006,-0.16872149125699942,10.724295,-0.78430873,-1.0844454,0.34654462,0.51531285,-0.17836064,1.6022973,0.2485258,-0.18604216,-0.21360534,0.9262813,-7.200739,7.8329124,0.7156041,0.34214684,0.12523843,0.388381,0
2.0000000000000013,,,,,12.17197,-0.542322,-1.2605256,0.10977242,0.44306707,-0.100191474,1.609407,0.24726003,-0.18649246,-0.21137252,0.92704135,-7.248403,7.800978,0.70635355,0.40933666,0.0994751,0.3610438,0
2.010000000000001,,,,,12.17197,-0.542322,-1.2605256,0.10977242,0.37032387,-0.022353744,1.6164646,0.24619552,-0.18670209,-0.20878926,0.9278675,-7.300217,7.7666416,0.70518935,0.51547515,0.08248019,0.32613784,0
2.020000000000001,,,,,12.17197,-0.542322,-1.2605256,0.10977242,0.2970632,0.05514311,1.6235117,0.24536142,-0.18668164,-0.20580205,0.9287595,-7.351891,7.732815,0.70427865,0.6050601,0.06812849,0.2929447,0
2.0300000000000007,,,,,12.17197,-0.542322,-1.2605256,0.10977242,0.2232867,0.13230456,1.6305511,0.24473818,-0.1864633,-0.20247623,0.92969835,-7.403372,7.6995735,0.7036724,0.6806731,0.056009088,0.26138034,0
2.0400000000000005,,,,,12.17197,-0.542322,-1.2605256,0.10977242,0.14899659,0.20913681,1.6375862,0.24430831,-0.18607433,-0.19886671,0.93066794,-7.4546127,7.666984,0.70341164,0.74449354,0.04577577,0.2313649,0
2.0500000000000003,,,,,13.836924,-0.40900669,-1.0795015,0.13722941,0.074195415,0.28564665,1.6446207,0.24405618,-0.18553789,-0.19501969,0.93165475,-7.505575,7.6351023,0.7035289,0.79836065,0.037135307,0.20282231,1
2.06,,,,,13.836924,-0.40900669,-1.0795015,0.13722941,-0.0011649355,0.36180985,1.6517575,0.24371786,-0.18463284,-0.19162662,0.9326267,-7.566429,7.5976577,0.7239224,0.6100953,-0.1370297,0.19960363,1
2.07,,,,,13.836924,-0.40900669,-1.0795015,0.13722941,-0.07713157,0.43760195,1.6591007,0.24307793,-0.18318667,-0.1892372,0.9335663,-7.6268177,7.560839,0.7447493,0.45118552,-0.2840294,0.1965429,1
2.0799999999999996,,,,,13.836924,-0.40900669,-1.0795015,0.13722941,-0.1536994,0.5130278,1.6666539,0.242188,-0.18128262,-0.18769568,0.93448,-7.686656,7.524357,0.7659573,0.3170542,-0.40810075,0.19363236,1
2.0899999999999994,,,,,14.409435,-1.3313757,-1.7730864,0.8022071,-0.23086256,0.58808947,1.6744208,0.24109042,-0.17899066,-0.18687007,0.9353707,-7.745874,7.487968,0.7875032,0.20383775,-0.51281995,0.19086467,1
2.099999999999999,,,,,14.409435,-1.3313757,-1.7730864,0.8022071,-0.30862665,0.66277915,1.6824297,0.23962545,-0.176214,-0.18704589,0.93623877,-7.8068256,7.4499283,0.8143071,-0.03553989,-0.70938784,0.2208634,1
2.109999999999999,,,,,14.409435,-1.3313757,-1.7730864,0.8022071,-0.3869963,0.7370862,1.6907077,0.2376569,-0.17287958,-0.18844081,0.93708205,-7.8669686,7.411376,0.8413453,-0.23758484,-0.8753042,0.2493901,1
2.1199999999999988,,,,,14.409435,-1.3313757,-1.7730864,0.8022071,-0.46596292,0.8110036,1.6992569,0.23524818,-0.16907328,-0.19085976,0.9378944,-7.9262104,7.3719463,0.8685399,-0.4081205,-1.0153475,0.27651697,1
2.1299999999999986,,,,,14.071373,-1.1893231,-2.102137,1.2302097,-0.5455171,0.884521,1.7080786,0.23245224,-0.1648673,-0.19413751,0.9386673,-7.9844666,7.3313355,0.8958188,-0.5520616,-1.1335514,0.30231273,1
2.1399999999999983,,,,,14.071373,-1.1893231,-2.102137,1.2302097,-0.6256418,0.9576303,1.7171587,0.22924751,-0.16019584,-0.19810256,0.9394356,-8.040311,7.290275,0.9201751,-0.6513745,-1.2846404,0.34784496,1
2.149999999999998,,,,,14.071373,-1.1893231,-2.102137,1.2302097,-0.7063193,1.030321,1.726482,0.22561078,-0.15501148,-0.20260969,0.9402242,-8.094985,7.2476,0.9445071,-0.73519886,-1.4121681,0.39114282,1
2.159999999999998,,,,,14.071373,-1.1893231,-2.102137,1.2302097,-0.7875371,1.1025761,1.7360485,0.22158179,-0.14939499,-0.20756538,0.94101024,-8.148359,7.203135,0.96877515,-0.80595124,-1.5198082,0.43231606,1
2.1699999999999977,,,,,13.237001,-0.53675276,-2.3103268,1.2353588,-0.86928165,1.174377,1.7458571,0.2171951,-0.1434147,-0.21289076,0.94177336,-8.200317,7.1567383,0.9929351,-0.8656712,-1.6106608,0.47146896,1
2.1799999999999975,,,,,13.237001,-0.53675276,-2.3103268,1.2353588,-0.9515232,1.2457181,1.7558705,0.21249945,-0.13699386,-0.2182912,0.94256383,-8.247753,7.111181,1.0097072,-0.8143014,-1.7197773,0.5089533,1
2.1899999999999973,,,,,13.237001,-0.53675276,-2.3103268,1.2353588,-1.0342313,1.316594,1.7660508,0.20753384,-0.13007633,-0.2235294,0.9434222,-8.293594,7.063696,1.0263466,-0.77094525,-1.8118768,0.5445982,1
2.199999999999997,,,,,13.237001,-0.53675276,-2.3103268,1.2353588,-1.1173891,1.3869854,1.7763969,0.20231396,-0.12274301,-0.22862151,0.944318,-8.337685,7.0143,1.0428648,-0.73435384,-1.889613,0.578494,1
2.209999999999997,,,,,12.78425,-0.14793786,-2.8136845,1.3328532,-1.2009784,1.4568734,1.7869077,0.19685453,-0.11506212,-0.23358141,0.94522476,-8.379888,6.963014,1.0592635,-0.7034724,-1.9552263,0.6107266,1
2.2199999999999966,,,,,12.78425,-0.14793786,-2.8136845,1.3328532,-1.2849729,1.5262482,1.7975622,0.19112796,-0.10687315,-0.23831148,0.9461802,-8.418695,6.911686,1.0716283,-0.6167359,-2.0890822,0.64616156,1
