time-since-start [s],throttle_mpc,roll_mpc,pitch_mpc,yaw_mpc,throttle_nw,roll_nw,pitch_nw,yaw_nw,position_x [m],position_y [m],position_z [m],rotation_w [quaternion],rotation_x [quaternion],rotation_y [quaternion],rotation_z [quaternion],velocity_x [m/s],velocity_y [m/s],velocity_z [m/s],omega_x [rad/s],omega_y [rad/s],omega_z [rad/s],network_used
0.0,3.72339837509736,-0.030407458910843035,-5.999999398737053,-0.002072355333238152,10.060429,1.0864605,-4.820161,-1.3163911,10.556539,-9.880662,3.521574,-0.35618597,0.3235052,-0.1397048,-0.8654239,-3.3266504,3.3052402,0.5935123,-0.0058127586,-0.33609265,-0.33591902,0
0.01,3.72339837509736,-0.030407458910843035,-5.999999398737053,-0.002072355333238152,11.50572,1.4472318,-4.611083,-1.1949456,10.523134,-9.847467,3.527244,-0.3581517,0.32077092,-0.1381513,-0.86587965,-3.353807,3.333105,0.53992975,0.08521275,-0.9919713,-0.3280251,0
0.02,3.72339837509736,-0.030407458910843035,-5.999999398737053,-0.002072355333238152,11.50572,1.4472318,-4.611083,-1.1949456,10.4894705,-9.814008,3.5323615,-0.3606468,0.3151441,-0.13585119,-0.8672731,-3.3784828,3.358491,0.48308095,0.16623667,-1.5951558,-0.3208923,0
0.03,3.72339837509736,-0.030407458910843035,-5.999999398737053,-0.002072355333238152,11.50572,1.4472318,-4.611083,-1.1949456,10.455572,-9.780307,3.536896,-0.36360142,0.30684412,-0.13284078,-0.8694792,-3.400705,3.381477,0.42339507,0.23833388,-2.1498747,-0.3144401,0
0.04,3.72339837509736,-0.030407458910843035,-5.999999398737053,-0.002072355333238152,8.381407,1.2313278,-4.2021594,-0.74854165,10.421463,-9.746387,3.5408225,-0.36693743,0.29608053,-0.12914665,-0.87236136,-3.4208586,3.4024925,0.361798,0.29440245,-2.6519837,-0.30789328,0
0.05,3.72339837509736,-0.030407458910843035,-5.999999398737053,-0.002072355333238152,8.381407,1.2313278,-4.2021594,-0.74854165,10.387159,-9.712262,3.5441296,-0.37054315,0.28312525,-0.12475984,-0.87576985,-3.439522,3.4221592,0.29954898,0.32384875,-3.093936,-0.30006748,0
0.060000000000000005,3.72339837509736,-0.030407458910843035,-5.999999398737053,-0.002072355333238152,8.381407,1.2313278,-4.2021594,-0.74854165,10.352677,-9.677949,3.5468116,-0.37430692,0.2682433,-0.11966539,-0.87955666,-3.4566705,3.4404533,0.2367824,0.3318362,-3.4838448,-0.29111564,0
0.07,3.72339837509736,-0.030407458910843035,-5.999999398737053,-0.002072355333238152,8.381407,1.2313278,-4.2021594,-0.74854165,10.318032,-9.643458,3.5488636,-0.37813243,0.25166142,-0.11385642,-0.883583,-3.4722922,3.4573503,0.1735839,0.32275498,-3.8287826,-0.2811865,0
0.08,4.959991561260659,0.00041411551183686835,-5.999999446625073,0.05808317421609265,9.569949,1.3434857,-5.874213,-0.9941783,10.283237,-9.608807,3.550282,-0.38193712,0.23357509,-0.10733289,-0.88771975,-3.4863896,3.4728289,0.11000717,0.30022407,-4.1348047,-0.2704138,0
0.09,4.959991561260659,0.00041411551183686835,-5.999999446625073,0.05808317421609265,9.569949,1.3434857,-5.874213,-0.9941783,10.248293,-9.573988,3.5511076,-0.38563532,0.21412086,-0.1000463,-0.89186794,-3.50238,3.4906697,0.055333223,0.253464,-4.42567,-0.25429437,0
0.09999999999999999,4.959991561260659,0.00041411551183686835,-5.999999446625073,0.05808317421609265,9.569949,1.3434857,-5.874213,-0.9941783,10.213195,-9.538998,3.5513916,-0.38916144,0.19344343,-0.092019826,-0.8959159,-3.5169494,3.5071986,0.0016659629,0.21400698,-4.6711774,-0.2389659,0
0.10999999999999999,4.959991561260659,0.00041411551183686835,-5.999999446625073,0.05808317421609265,9.569949,1.3434857,-5.874213,-0.9941783,10.1779585,-9.503849,3.5511441,-0.39247644,0.17171244,-0.08335561,-0.89973825,-3.5300105,3.5222836,-0.05102959,0.1807113,-4.8784,-0.22438963,0
0.11999999999999998,4.959991561260659,0.00041411551183686835,-5.999999446625073,0.05808317421609265,9.569949,1.3434857,-5.874213,-0.9941783,10.1426,-9.468557,3.5503743,-0.39554662,0.14907591,-0.07414224,-0.90322876,-3.541484,3.5358047,-0.102813214,0.15261412,-5.053307,-0.21052858,0
0.12999999999999998,7.698752414557227,-0.03532332551650126,-5.999998955722414,0.1225389819870329,7.777371,-0.18021733,-4.391643,-0.10754545,10.107135,-9.433139,3.5490909,-0.3983433,0.12566373,-0.06445675,-0.9062983,-3.5513008,3.547655,-0.15376602,0.12890302,-5.2009387,-0.19734772,0
0.13999999999999999,7.698752414557227,-0.03532332551650126,-5.999998955722414,0.1225389819870329,7.777371,-0.18021733,-4.391643,-0.10754545,10.071556,-9.397583,3.5474336,-0.40083322,0.10159577,-0.05435451,-0.90887654,-3.5638695,3.563308,-0.1775504,0.103330456,-5.325547,-0.18165079,0
0.15,7.698752414557227,-0.03532332551650126,-5.999998955722414,0.1225389819870329,7.777371,-0.18021733,-4.391643,-0.10754545,10.035867,-9.361883,3.5455432,-0.40298834,0.07697794,-0.043884963,-0.9109055,-3.5736916,3.576089,-0.2003781,0.08174781,-5.430724,-0.16672412,0
0.16,9.448590306445473,-0.03630264121718256,-5.999998506777625,0.17809851564393925,8.167386,-0.01828691,-3.3200448,-0.034354195,10.000092,-9.326072,3.5434287,-0.40479353,0.051899604,-0.03310338,-0.91233367,-3.5807018,3.5858853,-0.22244799,0.06353205,-5.5195,-0.15252988,0
0.17,9.448590306445473,-0.03630264121718256,-5.999998506777625,0.17809851564393925,8.167386,-0.01828691,-3.3200448,-0.034354195,9.964255,-9.290169,3.5411832,-0.40623006,0.026440885,-0.022058494,-0.91312176,-3.5857909,3.594129,-0.22657153,0.048014563,-5.594431,-0.13630584,0
0.18000000000000002,9.448590306445473,-0.03630264121718256,-5.999998506777625,0.17809851564393925,8.167386,-0.01828691,-3.3200448,-0.034354195,9.928388,-9.254203,3.5388985,-0.40728223,0.0006741127,-0.010793336,-0.9132382,-3.5873187,3.5985003,-0.23031083,0.034916673,-5.6576777,-0.12087791,0
0.19000000000000003,9.448590306445473,-0.03630264121718256,-5.999998506777625,0.17809851564393925,8.167386,-0.01828691,-3.3200448,-0.034354195,9.892521,-9.218212,3.5365772,-0.40794286,-0.025335062,0.00065384316,-0.9126556,-3.5852535,3.598926,-0.23396036,0.023860363,-5.7110615,-0.10620704,0
0.20000000000000004,9.827285836388656,-0.04481103877160669,-4.866937636384233,0.199228599771731,8.464695,-0.19505972,-1.8157735,0.04797724,9.856694,-9.182237,3.5342185,-0.40820673,-0.051526822,0.012248827,-0.9113518,-3.5795805,3.5953555,-0.23782472,0.014527179,-5.75612,-0.09225609,0
0.21000000000000005,9.827285836388656,-0.04481103877160669,-4.866937636384233,0.199228599771731,8.464695,-0.19505972,-1.8157735,0.04797724,9.820944,-9.14632,3.531838,-0.40807882,-0.07743257,0.02377915,-0.9093461,-3.5699413,3.5874684,-0.2384569,0.0053342916,-5.6174517,-0.07795285,0
0.22000000000000006,9.827285836388656,-0.04481103877160669,-4.866937636384233,0.199228599771731,8.464695,-0.19505972,-1.8157735,0.04797724,9.785309,-9.110502,3.5294468,-0.40758348,-0.10267843,0.03507435,-0.90669864,-3.5566657,3.5754929,-0.23993622,-0.0024310236,-5.500409,-0.06435148,0
0.23000000000000007,9.827285836388656,-0.04481103877160669,-4.866937636384233,0.199228599771731,8.464695,-0.19505972,-1.8157735,0.04797724,9.749823,-9.074824,3.5270352,-0.40674186,-0.12734167,0.046162836,-0.90344566,-3.5398805,3.5595453,-0.24254154,-0.008990357,-5.40162,-0.05141752,0
0.24000000000000007,9.827285836388656,-0.04481103877160669,-4.866937636384233,0.199228599771731,8.423973,-0.2454721,-0.21401188,-0.0035461173,9.714522,-9.039325,3.524591,-0.405571,-0.15148637,0.05706814,-0.89961505,-3.5197067,3.5397384,-0.24653469,-0.014531127,-5.318237,-0.039118245,0
0.25000000000000006,9.827285836388656,-0.04481103877160669,-4.866937636384233,0.199228599771731,8.423973,-0.2454721,-0.21401188,-0.0035461173,9.6794405,-9.004042,3.5220988,-0.40408492,-0.17516518,0.06780956,-0.8952287,-3.496262,3.5161846,-0.25216302,-0.01921137,-5.247857,-0.027422484,0
0.26000000000000006,9.827285836388656,-0.04481103877160669,-4.866937636384233,0.199228599771731,8.423973,-0.2454721,-0.21401188,-0.0035461173,9.644608,-8.969012,3.5195413,-0.40229508,-0.19842103,0.07840275,-0.8903038,-3.4696605,3.488996,-0.25966159,-0.023164835,-5.188453,-0.016300654,0
0.2700000000000001,9.827285836388656,-0.04481103877160669,-4.866937636384233,0.199228599771731,8.423973,-0.2454721,-0.21401188,-0.0035461173,9.610057,-8.934273,3.5168984,-0.40021107,-0.22128849,0.0888602,-0.8848539,-3.4400148,3.4582841,-0.2692547,-0.026504617,-5.138313,-0.005724564,0
0.2800000000000001,9.585046740958505,-0.06193541333952392,0.21797635359269657,0.2294662157578229,9.625546,-0.039588995,4.0483327,0.5670058,9.575818,-8.8998575,3.5141482,-0.39784098,-0.24379505,0.099191695,-0.87889,-3.4074373,3.4241629,-0.28115708,-0.029326014,-5.095992,0.004332551,0
0.2900000000000001,9.585046740958505,-0.06193541333952392,0.21797635359269657,0.2294662157578229,9.625546,-0.039588995,4.0483327,0.5670058,9.541914,-8.865796,3.5112562,-0.3954119,-0.26418325,0.1086072,-0.8729611,-3.372961,3.3877258,-0.29759076,-0.034382682,-4.267282,0.015379934,0
0.3000000000000001,9.585046740958505,-0.06193541333952392,0.21797635359269657,0.2294662157578229,9.625546,-0.039588995,4.0483327,0.5670058,9.508368,-8.832113,3.5081882,-0.39317247,-0.281107,0.1165,-0.86765313,-3.3362012,3.3486013,-0.31629205,-0.0386618,-3.5678089,0.025885204,0
0.3100000000000001,9.585046740958505,-0.06193541333952392,0.21797635359269657,0.2294662157578229,9.625546,-0.039588995,4.0483327,0.5670058,9.475198,-8.798832,3.504923,-0.3911414,-0.29513478,0.12312171,-0.8629861,-3.2975922,3.3072813,-0.33700678,-0.042281747,-2.9774182,0.035874985,0
0.3200000000000001,9.281417629667308,-0.09076977301377669,5.99999729214727,0.24423354970378508,9.481229,-0.22293076,5.043279,0.74223995,9.442422,-8.765973,3.5014422,-0.38931918,-0.30674005,0.12868226,-0.85894245,-3.2574856,3.2641647,-0.35948175,-0.045342818,-2.4790983,0.045374572,0
0.3300000000000001,9.281417629667308,-0.09076977301377669,5.99999729214727,0.24423354970378508,9.481229,-0.22293076,5.043279,0.74223995,9.410079,-8.733582,3.497775,-0.38800225,-0.3146262,0.13273518,-0.8560643,-3.2116394,3.2146857,-0.37518924,-0.1045256,-1.298007,0.05048125,0
0.34000000000000014,9.281417629667308,-0.09076977301377669,5.99999729214727,0.24423354970378508,9.481229,-0.22293076,5.043279,0.74223995,9.37818,-8.701669,3.4939132,-0.38748154,-0.31754237,0.13482846,-0.85489553,-3.1685805,3.1680171,-0.39799017,-0.1513241,-0.21830899,0.055599473,0
0.35000000000000014,9.281417629667308,-0.09076977301377669,5.99999729214727,0.24423354970378508,9.481229,-0.22293076,5.043279,0.74223995,9.346702,-8.670214,3.4898038,-0.3876584,-0.31604812,0.13507193,-0.85533047,-3.1273339,3.1230998,-0.42429867,-0.15580752,0.73754275,0.063582376,0
0.36000000000000015,7.170192497639794,-0.20912768661027023,5.999999776848141,0.14000135786901705,11.0089245,0.31414953,6.058484,0.08149861,9.31563,-8.639202,3.4854252,-0.38838187,-0.31074926,0.13357532,-0.85717684,-3.087086,3.079075,-0.45129114,-0.14570749,1.5582191,0.07244699,0
0.37000000000000016,7.170192497639794,-0.20912768661027023,5.999999776848141,0.14000135786901705,11.0089245,0.31414953,6.058484,0.08149861,9.284912,-8.608578,3.480699,-0.3895591,-0.30219063,0.13061441,-0.86015373,-3.056599,3.0456004,-0.49379435,-0.15563518,2.2509112,0.07576189,0
0.38000000000000017,7.170192497639794,-0.20912768661027023,5.999999776848141,0.14000135786901705,11.0089245,0.31414953,6.058484,0.08149861,9.254495,-8.578286,3.4755528,-0.3911025,-0.290833,0.1264398,-0.8639838,-3.0269902,3.0129673,-0.53533167,-0.16401175,2.8355787,0.07891413,0
0.3900000000000002,7.170192497639794,-0.20912768661027023,5.999999776848141,0.14000135786901705,11.0089245,0.31414953,6.058484,0.08149861,9.224367,-8.548315,3.469997,-0.39290497,-0.27707645,0.121225744,-0.8684231,-2.9985058,2.981447,-0.57567436,-0.17107935,3.3290677,0.0819117,0
0.4000000000000002,7.20301596466984,-0.24807602415975633,5.999999859712161,0.07603934352284916,10.05688,0.24911888,5.8238163,0.7115327,9.194519,-8.518652,3.464044,-0.39487,-0.2612576,0.11511861,-0.87325245,-2.9713686,2.9512835,-0.61466086,-0.17704195,3.7455976,0.08476216,0
0.4100000000000002,7.20301596466984,-0.24807602415975633,5.999999859712161,0.07603934352284916,10.05688,0.24911888,5.8238163,0.7115327,9.164934,-8.489284,3.45771,-0.39692307,-0.24365664,0.108253844,-0.87827367,-2.9456656,2.9225674,-0.65191287,-0.18813807,4.09717,0.084334135,0
0.4200000000000002,7.20301596466984,-0.24807602415975633,5.999999859712161,0.07603934352284916,10.05688,0.24911888,5.8238163,0.7115327,9.135598,-8.460195,3.4510112,-0.39899892,-0.22451347,0.10074621,-0.88331413,-2.9217112,2.895638,-0.6876541,-0.1975004,4.393914,0.08392711,0
0.4300000000000002,7.20301596466984,-0.24807602415975633,5.999999859712161,0.07603934352284916,10.05688,0.24911888,5.8238163,0.7115327,9.106493,-8.431365,3.4439623,-0.40103114,-0.20403959,0.092683025,-0.8882296,-2.8996797,2.8706791,-0.72188556,-0.20540003,4.6443815,0.08354005,0
0.4400000000000002,7.20301596466984,-0.24807602415975633,5.999999859712161,0.07603934352284916,11.848612,-0.5823043,5.897939,0.24106754,9.077598,-8.402774,3.4365785,-0.40296292,-0.18241824,0.08413983,-0.892897,-2.87973,2.8478582,-0.75465083,-0.21206567,4.855789,0.08317199,0
0.45000000000000023,7.20301596466984,-0.24807602415975633,5.999999859712161,0.07603934352284916,11.848612,-0.5823043,5.897939,0.24106754,9.048891,-8.3744,3.428874,-0.4047461,-0.15980914,0.07518231,-0.89721197,-2.8620055,2.8273265,-0.7860302,-0.21768986,5.0342283,0.08282199,0
0.46000000000000024,7.20301596466984,-0.24807602415975633,5.999999859712161,0.07603934352284916,11.848612,-0.5823043,5.897939,0.24106754,9.0203495,-8.34622,3.4208622,-0.4063401,-0.13635221,0.065867946,-0.9010867,-2.8466353,2.8092206,-0.816136,-0.22243555,5.1848397,0.08248915,0
0.47000000000000025,7.20301596466984,-0.24807602415975633,5.999999859712161,0.07603934352284916,11.848612,-0.5823043,5.897939,0.24106754,8.99195,-8.318208,3.4125552,-0.40771085,-0.112170786,0.05624731,-0.9044478,-2.833733,2.7936609,-0.84510815,-0.22643986,5.3119636,0.08217265,0
0.48000000000000026,9.441849685421637,-0.15589322699563846,5.999999849391765,0.12403721224949821,12.906863,-0.8211651,6.2187366,0.2592195,8.963666,-8.2903385,3.4039633,-0.40883008,-0.08737406,0.04636511,-0.9072342,-2.8233986,2.7807539,-0.8731098,-0.22981864,5.4192624,0.081871666,0
0.49000000000000027,9.441849685421637,-0.15589322699563846,5.999999849391765,0.12403721224949821,12.906863,-0.8211651,6.2187366,0.2592195,8.935485,-8.2626,3.3952057,-0.4096661,-0.062074073,0.03622808,-0.90939975,-2.8133273,2.7674315,-0.8782913,-0.21830218,5.5098286,0.083940744,0
0.5000000000000002,9.441849685421637,-0.15589322699563846,5.999999849391765,0.12403721224949821,12.906863,-0.8211651,6.2187366,0.2592195,8.907387,-8.234977,3.3864002,-0.41019353,-0.036369555,0.025845384,-0.9109063,-2.8068163,2.7578115,-0.8827015,-0.20858096,5.586271,0.08590829,0
0.5100000000000002,9.441849685421637,-0.15589322699563846,5.999999849391765,0.12403721224949821,12.906863,-0.8211651,6.2187366,0.2592195,8.879335,-8.20743,3.3775532,-0.41039932,-0.01033457,0.015257952,-0.91171956,-2.80393,2.7519817,-0.88661903,-0.20037498,5.6507916,0.087779306,0
0.5200000000000002,12.15896426487913,-0.04860865540582212,5.999999802616684,0.16590777766140197,14.826059,-0.42073044,6.3965096,0.2665963,8.8512945,-8.179923,3.3686683,-0.41027302,0.015963793,0.0045022583,-0.91181177,-2.8047163,2.750009,-0.8903363,-0.19344789,5.7052503,0.089558505,0
0.5300000000000002,12.15896426487913,-0.04860865540582212,5.999999802616684,0.16590777766140197,14.826059,-0.42073044,6.3965096,0.2665963,8.823222,-8.152414,3.3598816,-0.40980262,0.042446844,-0.006428278,-0.9111633,-2.810496,2.7524972,-0.86702514,-0.17087705,5.751217,0.093305,0
0.5400000000000003,12.15896426487913,-0.04860865540582212,5.999999802616684,0.16590777766140197,14.826059,-0.42073044,6.3965096,0.2665963,8.795069,-8.124857,3.351326,-0.40897945,0.06904469,-0.017535474,-0.9097587,-2.8210497,2.7600596,-0.84424657,-0.15182519,5.7900157,0.09686764,0
0.5500000000000003,12.15896426487913,-0.04860865540582212,5.999999802616684,0.16590777766140197,14.826059,-0.42073044,6.3965096,0.2665963,8.766785,-8.097197,3.3429937,-0.40780035,0.09571078,-0.028781846,-0.90758455,-2.8363607,2.772718,-0.822407,-0.13574351,5.822763,0.10025545,0
0.5600000000000003,14.710394870208917,0.04459074047671159,5.999999576479757,0.17663474726956577,15.950966,-0.0013006553,6.6833353,0.29121187,8.738324,-8.069384,3.3348734,-0.40626314,0.12240172,-0.040133923,-0.90463096,-2.856394,2.7904685,-0.8019166,-0.122169085,5.850404,0.10347702,0
0.5700000000000003,14.710394870208917,0.04459074047671159,5.999999576479757,0.17663474726956577,15.950966,-0.0013006553,6.6833353,0.29121187,8.709615,-8.041346,3.3270721,-0.40437013,0.14906166,-0.051595554,-0.9008902,-2.8862786,2.818071,-0.7586703,-0.09617823,5.873735,0.10706688,0
0.5800000000000003,14.710394870208917,0.04459074047671159,5.999999576479757,0.17663474726956577,15.950966,-0.0013006553,6.6833353,0.29121187,8.680579,-8.0130005,3.3196907,-0.40212464,0.1756404,-0.06316635,-0.89635706,-2.921712,2.851747,-0.71804714,-0.07423988,5.893428,0.11048059,0
0.5900000000000003,14.710394870208917,0.04459074047671159,5.999999576479757,0.17663474726956577,15.950966,-0.0013006553,6.6833353,0.29121187,8.651161,-7.984289,3.3127005,-0.3995269,0.2021061,-0.07481208,-0.89102995,-2.962572,2.8914173,-0.6805361,-0.05572202,5.910049,0.1137268,0
0.6000000000000003,15.54771154994349,0.07787238245850836,5.999999147383754,0.1687828298433994,16.393572,0.3395729,6.2749586,0.24491325,8.621309,-7.9551516,3.3060677,-0.3965775,0.22842816,-0.08650208,-0.8849091,-3.008719,2.936973,-0.64661795,-0.04009126,5.9240775,0.11681373,1
0.6100000000000003,15.54771154994349,0.07787238245850836,5.999999147383754,0.1687828298433994,16.393572,0.3395729,6.2749586,0.24491325,8.59094,-7.925501,3.2998276,-0.3932981,0.2545296,-0.098315,-0.8779894,-3.0658538,2.9941542,-0.6021225,0.019092038,5.935922,0.123099625,1
0.6200000000000003,15.54771154994349,0.07787238245850836,5.999999147383754,0.1687828298433994,16.393572,0.3395729,6.2749586,0.24491325,8.559973,-7.895247,3.2940078,-0.38970897,0.28034446,-0.11030955,-0.8702676,-3.1284566,3.0576057,-0.5626643,0.069046885,5.9459195,0.12907708,1
0.6300000000000003,15.54771154994349,0.07787238245850836,5.999999147383754,0.1687828298433994,16.393572,0.3395729,6.2749586,0.24491325,8.528353,-7.864328,3.2885551,-0.38580903,0.30585867,-0.12243263,-0.8617495,-3.1962633,3.1271625,-0.5287355,0.11121254,5.954357,0.13476118,1
0.6400000000000003,15.54771154994349,0.07787238245850836,5.999999147383754,0.1687828298433994,16.617146,0.35372278,6.3494415,0.2917605,8.49603,-7.832684,3.2834122,-0.38159743,0.33105677,-0.13463771,-0.8524421,-3.2689986,3.202626,-0.50081056,0.14680347,5.9614787,0.1401664,0
0.6500000000000004,15.54771154994349,0.07787238245850836,5.999999147383754,0.1687828298433994,16.617146,0.35372278,6.3494415,0.2917605,8.462976,-7.800277,3.2784855,-0.37704614,0.35596344,-0.14679176,-0.8423648,-3.3423889,3.279575,-0.48551267,0.13604769,5.9674854,0.14157063,0
0.6600000000000004,15.54771154994349,0.07787238245850836,5.999999147383754,0.1687828298433994,16.617146,0.35372278,6.3494415,0.2917605,8.429168,-7.767075,3.2736795,-0.37213147,0.3805938,-0.15878615,-0.8315369,-3.419941,3.3616264,-0.47674975,0.12696965,5.972555,0.14290592,0
0.6700000000000004,15.54771154994349,0.07787238245850836,5.999999147383754,0.1687828298433994,16.617146,0.35372278,6.3494415,0.2917605,8.394564,-7.733028,3.2689266,-0.36685964,0.40491837,-0.17061523,-0.81996685,-3.5014021,3.4484732,-0.47490934,0.11930761,5.9768343,0.14417571,0
0.6800000000000004,15.267446480333119,0.02249458081481412,5.999995274802253,0.14921537552898198,15.735298,0.20133278,5.382802,0.24166797,8.359128,-7.6980896,3.264156,-0.36123723,0.42890903,-0.18227261,-0.8076642,-3.5865037,3.5397918,-0.480354,0.112840824,5.9804463,0.14538318,1
0.6900000000000004,15.267446480333119,0.02249458081481412,5.999995274802253,0.14921537552898198,15.735298,0.20133278,5.382802,0.24166797,8.322817,-7.662212,3.2592986,-0.3553331,0.45232326,-0.19370721,-0.7947451,-3.67602,3.6363895,-0.4923795,0.12663157,5.8872457,0.15010789,1
0.7000000000000004,15.267446480333119,0.02249458081481412,5.999995274802253,0.14921537552898198,15.735298,0.20133278,5.382802,0.24166797,8.285597,-7.625349,3.2542815,-0.34921378,0.47497717,-0.2048822,-0.7813257,-3.7685697,3.73678,-0.5123153,0.13827175,5.808579,0.15460075,1
0.7100000000000004,15.267446480333119,0.02249458081481412,5.999995274802253,0.14921537552898198,15.735298,0.20133278,5.382802,0.24166797,8.2474375,-7.5874643,3.2490246,-0.34288168,0.4969239,-0.21580997,-0.76741445,-3.8637903,3.840574,-0.54032046,0.14809681,5.7421803,0.15887316,1
0.7200000000000004,14.131730003413653,-0.06521074624271515,2.7068293289753336,0.12231803142631413,14.610244,0.24054086,3.3519561,0.055482607,8.208314,-7.548527,3.2434466,-0.3363387,0.51820594,-0.22649986,-0.75301856,-3.9613307,3.9473894,-0.5765344,0.15638968,5.6861367,0.16293593,1
0.7300000000000004,14.131730003413653,-0.06521074624271515,2.7068293289753336,0.12231803142631413,14.610244,0.24054086,3.3519561,0.055482607,8.168241,-7.508547,3.2374456,-0.3298039,0.53825676,-0.23669031,-0.73857087,-4.053722,4.0490108,-0.6248566,0.16957009,5.322123,0.15766318,1
0.7400000000000004,14.131730003413653,-0.06521074624271515,2.7068293289753336,0.12231803142631413,14.610244,0.24054086,3.3519561,0.055482607,8.127235,-7.46754,3.230924,-0.32348177,0.5566739,-0.24619102,-0.72447497,-4.1475596,4.1526613,-0.6806191,0.1806858,5.014877,0.15264915,1
0.7500000000000004,14.131730003413653,-0.06521074624271515,2.7068293289753336,0.12231803142631413,14.610244,0.24054086,3.3519561,0.055482607,8.085285,-7.4254875,3.2238088,-0.3173489,0.5737047,-0.2551024,-0.71068674,-4.2424974,4.257962,-0.7434987,0.19006066,4.755545,0.14788117,1
0.7600000000000005,12.768943210950333,-0.20177763737557727,-2.9491034131791425,0.0774061394347903,12.708048,-0.055127587,-2.4906626,0.11643854,8.042382,-7.3823752,3.2160306,-0.31138092,0.58955395,-0.26350757,-0.69716007,-4.3382406,4.3645897,-0.8132053,0.1979677,4.5366564,0.14334713,1
0.7700000000000005,12.768943210950333,-0.20177763737557727,-2.9491034131791425,0.0774061394347903,12.708048,-0.055127587,-2.4906626,0.11643854,7.9985805,-7.338262,3.2075076,-0.3061106,0.6028247,-0.2706829,-0.68529546,-4.4219904,4.4582267,-0.8921913,0.15860279,3.440746,0.14202668,1
0.7800000000000005,12.768943210950333,-0.20177763737557727,-2.9491034131791425,0.0774061394347903,12.708048,-0.055127587,-2.4906626,0.11643854,7.953941,-7.293209,3.1981711,-0.30200523,0.61251247,-0.27610382,-0.6763049,-4.5059958,4.5524507,-0.97568935,0.12535916,2.5157433,0.14077105,1
0.7900000000000005,12.768943210950333,-0.20177763737557727,-2.9491034131791425,0.0774061394347903,12.708048,-0.055127587,-2.4906626,0.11643854,7.90846,-7.2472115,3.1879823,-0.29893458,0.6192687,-0.28008664,-0.6698478,-4.590114,4.647033,-1.0625196,0.09728539,1.7349944,0.13957705,1
0.8000000000000005,12.10151385216924,-0.3760302281329185,-5.999999112030814,0.0448416625927123,12.611446,0.08506796,-5.8713326,0.5092452,7.8621383,-7.2002673,3.1769128,-0.2967694,0.62360954,-0.2828831,-0.6655948,-4.6742697,4.741833,-1.151676,0.07357733,1.0760033,0.13844164,1
0.8100000000000005,12.10151385216924,-0.3760302281329185,-5.999999112030814,0.0448416625927123,12.611446,0.08506796,-5.8713326,0.5092452,7.814978,-7.1523776,3.1649437,-0.29577473,0.625018,-0.28436217,-0.66408443,-4.757777,4.8360415,-1.2422868,0.07546627,-0.0074288845,0.15663707,1
0.8200000000000005,12.10151385216924,-0.3760302281329185,-5.999999112030814,0.0448416625927123,12.611446,0.08506796,-5.8713326,0.5092452,7.766983,-7.1035457,3.1520667,-0.29614154,0.6230849,-0.28442642,-0.66570807,-4.841222,4.9303193,-1.3330656,0.07706679,-0.92190033,0.17393965,1
0.8300000000000005,12.10151385216924,-0.3760302281329185,-5.999999112030814,0.0448416625927123,12.611446,0.08506796,-5.8713326,0.5092452,7.718154,-7.053771,3.1382859,-0.29764554,0.61830956,-0.2832952,-0.6699586,-4.9245443,5.0246205,-1.4228344,0.07841954,-1.6937606,0.19039318,1
0.8400000000000005,12.10151385216924,-0.3760302281329185,-5.999999112030814,0.0448416625927123,12.141785,-0.120686114,-5.950903,0.21254937,7.6684933,-7.0030537,3.1236167,-0.30008325,0.61108524,-0.28113997,-0.6763767,-5.0076756,5.11889,-1.5106001,0.07956062,-2.3452497,0.20603934,1
0.8500000000000005,12.10151385216924,-0.3760302281329185,-5.999999112030814,0.0448416625927123,12.141785,-0.120686114,-5.950903,0.21254937,7.618017,-6.9514112,3.1080813,-0.3032569,0.6017395,-0.2780087,-0.68458474,-5.0874453,5.209541,-1.5960175,0.048408274,-2.9075534,0.20635879,1
0.8600000000000005,12.10151385216924,-0.3760302281329185,-5.999999112030814,0.0448416625927123,12.141785,-0.120686114,-5.950903,0.21254937,7.5667458,-6.898864,3.0917082,-0.30699784,0.5905388,-0.27393702,-0.6942442,-5.1668563,5.299962,-1.6780192,0.022102423,-3.382166,0.20666257,1
0.8700000000000006,12.10151385216924,-0.3760302281329185,-5.999999112030814,0.0448416625927123,12.141785,-0.120686114,-5.950903,0.21254937,7.5146823,-6.845414,3.0745347,-0.3111763,0.57769054,-0.26903367,-0.7050277,-5.245793,5.389998,-1.7560357,-0.00011086976,-3.782762,0.20695142,1
0.8800000000000006,11.084447806541045,-0.6521752931898005,-5.999999773513999,0.22768378087881083,12.8279295,0.37306097,-6.2131157,-1.3352946,7.461832,-6.791066,3.0566027,-0.31567907,0.5633682,-0.2633896,-0.7166514,-5.32411,5.479469,-1.8296013,-0.018868156,-4.120885,0.20722611,0
0.8900000000000006,11.084447806541045,-0.6521752931898005,-5.999999773513999,0.22768378087881083,12.8279295,0.37306097,-6.2131157,-1.3352946,7.4082365,-6.735866,3.037947,-0.32029274,0.547772,-0.25692326,-0.7289371,-5.394892,5.560439,-1.9008973,-0.11758959,-4.413945,0.20822999,0
0.9000000000000006,11.084447806541045,-0.6521752931898005,-5.999999773513999,0.22768378087881083,12.8279295,0.37306097,-6.2131157,-1.3352946,7.353937,-6.6798606,3.0186012,-0.32484406,0.5310706,-0.24957189,-0.74172413,-5.464833,5.640449,-1.9675133,-0.20092168,-4.661301,0.2091846,0
0.9100000000000006,11.084447806541045,-0.6521752931898005,-5.999999773513999,0.22768378087881083,12.8279295,0.37306097,-6.2131157,-1.3352946,7.298943,-6.623061,2.9986136,-0.3292954,0.5133599,-0.24143352,-0.7548089,-5.533795,5.7192254,-2.029242,-0.2712632,-4.8700805,0.21009235,0
0.9200000000000006,11.817056787868522,-0.8653438384046049,-5.999999817841101,0.3484397723023456,12.568567,-0.03428897,-6.2069592,-1.0056397,7.243265,-6.5654817,2.9780335,-0.3336131,0.49472463,-0.23259354,-0.7680173,-5.6016183,5.7964907,-2.0859396,-0.33063927,-5.046299,0.21095556,0
0.9300000000000006,11.817056787868522,-0.8653438384046049,-5.999999817841101,0.3484397723023456,12.568567,-0.03428897,-6.2069592,-1.0056397,7.1868935,-6.5071125,2.9569273,-0.33771428,0.4752659,-0.22306834,-0.78122497,-5.672525,5.8769526,-2.1344452,-0.41398293,-5.1950417,0.21770197,0
0.9400000000000006,11.817056787868522,-0.8653438384046049,-5.999999817841101,0.3484397723023456,12.568567,-0.03428897,-6.2069592,-1.0056397,7.1298203,-6.44795,2.9353635,-0.3415306,0.45507208,-0.21287693,-0.79432374,-5.74185,5.9551883,-2.1774583,-0.48433238,-5.320586,0.2241173,0
0.9500000000000006,11.817056787868522,-0.8653438384046049,-5.999999817841101,0.3484397723023456,12.568567,-0.03428897,-6.2069592,-1.0056397,7.0720625,-6.388017,2.913397,-0.34505367,0.43419862,-0.2020937,-0.80719775,-5.809403,6.0308833,-2.214995,-0.543714,-5.426551,0.23021784,0
0.9600000000000006,13.534447310107934,-0.7985337649602634,-5.999999761166121,0.20354860068185227,14.458584,-0.44475996,-6.122548,0.35404223,7.0136395,-6.3273416,2.8910823,-0.34827572,0.41269702,-0.19078451,-0.8197481,-5.8749843,6.103733,-2.2471175,-0.5938377,-5.51599,0.23601902,1
0.9700000000000006,13.534447310107934,-0.7985337649602634,-5.999999761166121,0.20354860068185227,14.458584,-0.44475996,-6.122548,0.35404223,6.9544997,-6.265875,2.8685517,-0.35125738,0.39055654,-0.1791469,-0.83185977,-5.9525514,6.1890335,-2.2579985,-0.5705564,-5.5914693,0.24181044,1
0.9800000000000006,13.534447310107934,-0.7985337649602634,-5.999999761166121,0.20354860068185227,14.458584,-0.44475996,-6.122548,0.35404223,6.894599,-6.203575,2.845944,-0.3540419,0.36777595,-0.16734578,-0.84343994,-6.027134,6.2702074,-2.262567,-0.55090797,-5.6551785,0.24731767,1
0.9900000000000007,13.534447310107934,-0.7985337649602634,-5.999999761166121,0.20354860068185227,14.458584,-0.44475996,-6.122548,0.35404223,6.8339686,-6.1404862,2.8233209,-0.35660002,0.3444146,-0.15539177,-0.8544406,-6.0984144,6.3469863,-2.261049,-0.5343259,-5.7089524,0.25255468,1
1.0000000000000007,15.042272687857368,-0.6194589142391562,-5.999999463329817,-0.007994282562224897,15.634439,0.078020364,-6.355763,-0.13092108,6.772643,-6.0766516,2.8007429,-0.35890752,0.32052734,-0.14329562,-0.86482036,-6.1660905,6.419112,-2.2537096,-0.52033186,-5.7543406,0.25753468,1
1.0100000000000007,15.042272687857368,-0.6194589142391562,-5.999999463329817,-0.007994282562224897,15.634439,0.078020364,-6.355763,-0.13092108,6.7106338,-6.012092,2.7783108,-0.36106217,0.2960985,-0.13123094,-0.8744933,-6.235049,6.4918184,-2.2318273,-0.4270848,-5.7926297,0.23847306,1
1.0200000000000007,15.042272687857368,-0.6194589142391562,-5.999999463329817,-0.007994282562224897,15.634439,0.078020364,-6.355763,-0.13092108,6.647958,-5.9468336,2.7561257,-0.36314353,0.27112296,-0.11933924,-0.88338983,-6.2994227,6.5590577,-2.2043407,-0.34837765,-5.8249526,0.22034678,1
1.0300000000000007,15.042272687857368,-0.6194589142391562,-5.999999463329817,-0.007994282562224897,15.634439,0.078020364,-6.355763,-0.13092108,6.5846624,-5.8809304,2.7342417,-0.36510962,0.24566422,-0.10758758,-0.8914983,-6.35886,6.6206775,-2.1716456,-0.28194302,-5.8522387,0.20310996,1
1.0400000000000007,15.042272687857368,-0.6194589142391562,-5.999999463329817,-0.007994282562224897,15.766381,0.14516264,-6.396108,-0.4486555,6.5207987,-5.81444,2.7127092,-0.36692578,0.21978009,-0.09594936,-0.89880824,-6.4130406,6.6765304,-2.134166,-0.22586653,-5.8752723,0.18671897,1
1.0500000000000007,15.042272687857368,-0.6194589142391562,-5.999999463329817,-0.007994282562224897,15.766381,0.14516264,-6.396108,-0.4486555,6.4564185,-5.7474174,2.6915793,-0.3686045,0.19351754,-0.08441924,-0.905293,-6.46209,6.726901,-2.0911696,-0.1681221,-5.8947134,0.15554094,1
1.0600000000000007,15.042272687857368,-0.6194589142391562,-5.999999463329817,-0.007994282562224897,15.766381,0.14516264,-6.396108,-0.4486555,6.391577,-5.679922,2.6708994,-0.3701594,0.16692068,-0.07299368,-0.9109291,-6.5052867,6.771198,-2.0442767,-0.1193779,-5.9111257,0.12589283,1
1.0700000000000007,15.042272687857368,-0.6194589142391562,-5.999999463329817,-0.007994282562224897,15.766381,0.14516264,-6.396108,-0.4486555,6.3263335,-5.612015,2.6507056,-0.3715655,0.14003675,-0.06165641,-0.9157115,-6.5423975,6.8093147,-1.9939822,-0.07823066,-5.9249806,0.09769959,1
1.0800000000000007,15.214493872928864,-0.5786707165423255,-5.999999016683799,-0.04598256467525464,16.34758,-0.028223362,-6.2967353,-0.5166528,6.2607503,-5.5437574,2.6310296,-0.37280184,0.112909734,-0.050395336,-0.91963625,-6.573224,6.84116,-1.9407989,-0.043495785,-5.9366765,0.070889786,0
1.0900000000000007,15.214493872928864,-0.5786707165423255,-5.999999016683799,-0.04598256467525464,16.34758,-0.028223362,-6.2967353,-0.5166528,6.1948957,-5.475218,2.611871,-0.3737748,0.085686505,-0.03894057,-0.9227319,-6.59676,6.8657475,-1.8906318,-0.12697786,-5.946555,0.06515483,0
1.1000000000000008,15.214493872928864,-0.5786707165423255,-5.999999016683799,-0.04598256467525464,16.34758,-0.028223362,-6.2967353,-0.5166528,6.1288366,-5.4064636,2.5932233,-0.37441152,0.058490165,-0.027077742,-0.92502,-6.614045,6.8840404,-1.8387043,-0.19743977,-5.954892,0.059701286,0
1.1100000000000008,15.214493872928864,-0.5786707165423255,-5.999999016683799,-0.04598256467525464,16.34758,-0.028223362,-6.2967353,-0.5166528,6.0626364,-5.3375587,2.5751014,-0.37472242,0.031328518,-0.014875227,-0.9264883,-6.6250815,6.8958898,-1.7855448,-0.25691226,-5.9619284,0.054515354,0
1.1200000000000008,15.083934367341449,-0.6057919426013735,-5.999992257286174,-0.05007637157667162,15.879986,-0.48164573,-5.9944587,-0.34472883,5.9963565,-5.2685685,2.557515,-0.37471482,0.004211888,-0.0023931453,-0.9271275,-6.629883,6.9011827,-1.731689,-0.3071094,-5.9678664,0.049583897,1
1.1300000000000008,15.083934367341449,-0.6057919426013735,-5.999992257286174,-0.05007637157667162,15.879986,-0.48164573,-5.9944587,-0.34472883,5.93006,-5.1995587,2.5405016,-0.37442806,-0.022859737,0.010278562,-0.92691714,-6.6284122,6.899784,-1.6710242,-0.33440337,-5.9720106,0.030234858,1
1.1400000000000008,15.083934367341449,-0.6057919426013735,-5.999992257286174,-0.05007637157667162,15.879986,-0.48164573,-5.9944587,-0.34472883,5.8638105,-5.1305976,2.5240932,-0.37389645,-0.049882535,0.023062421,-0.9258408,-6.620493,6.891429,-1.6107644,-0.3574374,-5.9755077,0.011835272,1
1.1500000000000008,15.083934367341449,-0.6057919426013735,-5.999992257286174,-0.05007637157667162,15.879986,-0.48164573,-5.9944587,-0.34472883,5.7976723,-5.061754,2.508283,-0.37311783,-0.07683799,0.035925258,-0.92389846,-6.6061735,6.876118,-1.5514768,-0.376876,-5.978459,-0.005661426,1
1.1600000000000008,14.081617042719778,-0.5117648188263174,-2.433113210840452,0.023503081850253838,15.61932,-0.54865146,-3.9788587,-0.12357403,5.7317095,-4.9930987,2.4930582,-0.37208965,-0.10370675,0.04883699,-0.9210913,-6.5855227,6.853881,-1.4937263,-0.39327973,-5.9809494,-0.022299554,0
1.1700000000000008,14.081617042719778,-0.5117648188263174,-2.433113210840452,0.023503081850253838,15.61932,-0.54865146,-3.9788587,-0.12357403,5.6659694,-4.924684,2.4783137,-0.37085456,-0.12915413,0.06125809,-0.9176239,-6.5617404,6.8281293,-1.455462,-0.41174135,-5.427667,-0.020052008,0
1.1800000000000008,14.081617042719778,-0.5117648188263174,-2.433113210840452,0.023503081850253838,15.61932,-0.54865146,-3.9788587,-0.12357403,5.6004915,-4.856555,2.4639416,-0.36949924,-0.15213844,0.07276941,-0.91379905,-6.532993,6.796805,-1.4193337,-0.42732686,-4.9606686,-0.017914746,0
1.1900000000000008,14.081617042719778,-0.5117648188263174,-2.433113210840452,0.023503081850253838,15.61932,-0.54865146,-3.9788587,-0.12357403,5.535324,-4.7887654,2.4499195,-0.36807084,-0.17303823,0.083509006,-0.90972954,-6.499839,6.7604218,-1.3855144,-0.4404842,-4.5664983,-0.01588236,0
1.2000000000000008,13.178261386884273,-0.2984011298038866,3.1033919475462235,0.10540283032980055,14.6764,0.06734072,1.4947155,0.07731203,5.4705086,-4.721363,2.436223,-0.3666003,-0.19217427,0.093594044,-0.9054907,-6.4627557,6.719419,-1.3541164,-0.45159167,-4.2337985,-0.013949706,0
1.2100000000000009,13.178261386884273,-0.2984011298038866,3.1033919475462235,0.10540283032980055,14.6764,0.06734072,1.4947155,0.07731203,5.4060683,-4.6543775,2.4227874,-0.36530554,-0.20785053,0.10224,-0.901608,-6.4248333,6.6771584,-1.333302,-0.42767924,-3.0895696,-0.008093048,0
1.2200000000000009,13.178261386884273,-0.2984011298038866,3.1033919475462235,0.10540283032980055,14.6764,0.06734072,1.4947155,0.07731203,5.3420196,-4.58783,2.4095504,-0.36440694,-0.21876621,0.10884436,-0.89861107,-6.384541,6.631855,-1.3143985,-0.40750542,-2.1237822,-0.002523777,0
1.2300000000000009,13.178261386884273,-0.2984011298038866,3.1033919475462235,0.10540283032980055,14.6764,0.06734072,1.4947155,0.07731203,5.2783823,-4.5217476,2.396495,-0.3639015,-0.22569367,0.11373904,-0.896494,-6.342731,6.5843625,-1.2969018,-0.39048478,-1.3086085,0.0027721948,0
1.2400000000000009,13.178261386884273,-0.2984011298038866,3.1033919475462235,0.10540283032980055,14.472565,0.21996981,5.791678,0.07549342,5.2151675,-4.456148,2.3836093,-0.3637628,-0.22927356,0.1171991,-0.89519525,-6.3001027,6.53538,-1.2803282,-0.3761235,-0.62056077,0.007808317,0
1.2500000000000009,13.178261386884273,-0.2984011298038866,3.1033919475462235,0.10540283032980055,14.472565,0.21996981,5.791678,0.07549342,5.152381,-4.391043,2.3708868,-0.3639518,-0.23003767,0.119452536,-0.89462435,-6.257236,6.4854856,-1.2642375,-0.36400545,-0.039813414,0.0125973085,0
1.260000000000001,13.178261386884273,-0.2984011298038866,3.1033919475462235,0.10540283032980055,14.472565,0.21996981,5.791678,0.07549342,5.090022,-4.3264394,2.358324,-0.36442417,-0.22842826,0.12068866,-0.89467853,-6.214614,6.4351597,-1.2482444,-0.3537797,0.4503668,0.017151307,0
1.270000000000001,13.178261386884273,-0.2984011298038866,3.1033919475462235,0.10540283032980055,14.472565,0.21996981,5.791678,0.07549342,5.0280867,-4.262339,2.3459225,-0.3651346,-0.22481392,0.121065006,-0.8952533,-6.1726437,6.384808,-1.2320211,-0.34515053,0.8641037,0.02148185,0
1.280000000000001,12.999975867844126,-0.0634844462227833,5.999996335798764,0.11286056891831657,14.232342,0.53891665,6.0370874,0.29844174,4.966566,-4.1987414,2.3336852,-0.36603945,-0.2195028,0.12071302,-0.8962488,-6.131672,6.334775,-1.2152972,-0.33786798,1.2133186,0.025599884,0
1.290000000000001,12.999975867844126,-0.0634844462227833,5.999996335798764,0.11286056891831657,14.232342,0.53891665,6.0370874,0.29844174,4.9054456,-4.135638,2.321611,-0.36721435,-0.21174677,0.119233154,-0.8978309,-6.092571,6.2860694,-1.1993864,-0.2950957,1.9597981,0.0298818,0
1.300000000000001,12.999975867844126,-0.0634844462227833,5.999996335798764,0.11286056891831657,14.232342,0.53891665,6.0370874,0.29844174,4.844708,-4.0730157,2.3097012,-0.3687016,-0.20095676,0.11630843,-0.9000822,-6.055298,6.2385635,-1.1823639,-0.2589952,2.589865,0.033953603,0
1.310000000000001,12.999975867844126,-0.0634844462227833,5.999996335798764,0.11286056891831657,14.232342,0.53891665,6.0370874,0.29844174,4.784332,-4.01086,2.2979686,-0.37041208,-0.18758324,0.11215007,-0.90279,-6.020377,6.192827,-1.1638979,-0.22852495,3.121673,0.03782558,0
1.320000000000001,12.94421016852222,0.15867620242426525,5.999998805816685,0.08394363829204843,14.063778,0.8201068,6.2917633,0.12773809,4.7242913,-3.949151,2.286429,-0.37226295,-0.17200553,0.10693535,-0.9057589,-5.988269,6.1493626,-1.1437678,-0.20280641,3.5705462,0.041507572,0
1.330000000000001,12.94421016852222,0.15867620242426525,5.999998805816685,0.08394363829204843,14.063778,0.8201068,6.2917633,0.12773809,4.664555,-3.8878624,2.275097,-0.37416765,-0.1545788,0.10073279,-0.90882164,-5.959498,6.108795,-1.1223693,-0.14644912,3.949419,0.04358991,0
1.340000000000001,12.94421016852222,0.15867620242426525,5.999998805816685,0.08394363829204843,14.063778,0.8201068,6.2917633,0.12773809,4.6050897,-3.8269644,2.2639878,-0.37605274,-0.13560434,0.09360505,-0.91182995,-5.9342575,6.071358,-1.0991662,-0.09887942,4.269207,0.045570083,0
1.350000000000001,12.94421016852222,0.15867620242426525,5.999998805816685,0.08394363829204843,14.063778,0.8201068,6.2917633,0.12773809,4.5458574,-3.7664232,2.2531197,-0.3778659,-0.115308605,0.08568353,-0.9146473,-5.912832,6.037433,-1.0742102,-0.05872732,4.5391235,0.047453083,0
1.360000000000001,13.235060719996532,0.31889843988926003,5.999999039512604,0.09183364892048246,14.397037,1.2698246,6.1085386,0.039745115,4.486819,-3.7062025,2.2425094,-0.37956142,-0.0938873,0.0770811,-0.91715693,-5.89547,6.007357,-1.0476248,-0.024835877,4.7669473,0.049243696,0
1.370000000000001,13.235060719996532,0.31889843988926003,5.999999039512604,0.09183364892048246,14.397037,1.2698246,6.1085386,0.039745115,4.4279346,-3.646265,2.2321866,-0.38109323,-0.071534686,0.067836404,-0.91926545,-5.8820906,5.9808474,-1.016761,0.0287563,4.959243,0.0513336,0
1.380000000000001,13.235060719996532,0.31889843988926003,5.999999039512604,0.09183364892048246,14.397037,1.2698246,6.1085386,0.039745115,4.369162,-3.58657,2.2221785,-0.382424,-0.048418544,0.05798724,-0.9208936,-5.8732533,5.958863,-0.9846619,0.07399174,5.12155,0.05332095,0
1.390000000000001,13.235060719996532,0.31889843988926003,5.999999039512604,0.09183364892048246,14.397037,1.2698246,6.1085386,0.039745115,4.310454,-3.5270712,2.2124965,-0.38352844,-0.024662388,0.047623556,-0.92197055,-5.869094,5.9416513,-0.9516151,0.11217373,5.2585454,0.055210765,0
1.400000000000001,13.832861934500656,0.3735598482076045,5.999998618273872,0.11283891910325067,14.501352,1.2876306,6.0996437,0.23465617,4.251764,-3.4677198,2.2031481,-0.384385,-0.0003753272,0.0368237,-0.9224381,-5.8697186,5.9294233,-0.9179467,0.14440207,5.374176,0.057007857,1
1.410000000000001,13.832861934500656,0.3735598482076045,5.999998618273872,0.11283891910325067,14.501352,1.2876306,6.0996437,0.23465617,4.193041,-3.4084687,2.1942017,-0.38496196,0.024197327,0.02529848,-0.9222682,-5.8757157,5.921692,-0.87138027,0.32265314,5.4717813,0.06572509,1
1.420000000000001,13.832861934500656,0.3735598482076045,5.999998618273872,0.11283891910325067,14.501352,1.2876306,6.0996437,0.23465617,4.134231,-3.3492656,2.1857204,-0.38524142,0.048851207,0.012824383,-0.9214326,-5.8869677,5.919894,-0.8249324,0.47310728,5.554166,0.07401459,1
1.430000000000001,13.832861934500656,0.3735598482076045,5.999998618273872,0.11283891910325067,14.501352,1.2876306,6.0996437,0.23465617,4.0752835,-3.2900496,2.177701,-0.38522273,0.07355015,-0.00044518826,-0.9198878,-5.9033713,5.9242754,-0.7790342,0.6000995,5.6237025,0.08189732,1
1.440000000000001,13.832861934500656,0.3735598482076045,5.999998618273872,0.11283891910325067,14.095914,1.2643712,6.176586,0.1372848,4.0161467,-3.2307582,2.1701362,-0.38490322,0.09825938,-0.014377681,-0.9175989,-5.924818,5.935024,-0.7341372,0.7072889,5.682395,0.08939323,1
1.450000000000001,13.832861934500656,0.3735598482076045,5.999998618273872,0.11283891910325067,14.095914,1.2643712,6.176586,0.1372848,3.9567738,-3.171329,2.1629937,-0.38428903,0.12294923,-0.028848454,-0.9145344,-5.9504547,5.951791,-0.69466543,0.794154,5.731931,0.091743276,1
1.460000000000001,13.832861934500656,0.3735598482076045,5.999998618273872,0.11283891910325067,14.095914,1.2643712,6.176586,0.1372848,3.8971214,-3.1117005,2.1562366,-0.38338503,0.1475906,-0.0437494,-0.91066945,-5.98076,5.9749565,-0.65708494,0.8674731,5.7737417,0.09397801,1
1.470000000000001,13.832861934500656,0.3735598482076045,5.999998618273872,0.11283891910325067,14.095914,1.2643712,6.176586,0.1372848,3.8371432,-3.0518079,2.1498437,-0.3821856,0.1721515,-0.05899549,-0.9059897,-6.015603,6.0045543,-0.62186545,0.9293589,5.809032,0.0961031,1
1.480000000000001,14.122751851607008,0.16458149184366536,5.999974119833991,0.12603490010128862,13.407141,0.98236865,5.053242,0.26340258,3.7767944,-2.9915872,2.1437893,-0.38068542,0.1966011,-0.07451223,-0.90048563,-6.0548415,6.040575,-0.5894781,0.9815943,5.838818,0.09812391,1
1.490000000000001,14.122751851607008,0.16458149184366536,5.999974119833991,0.12603490010128862,13.407141,0.98236865,5.053242,0.26340258,3.7160423,-2.9309845,2.1380115,-0.37887567,0.22061239,-0.08999249,-0.89425087,-6.096185,6.080879,-0.56659627,0.98169255,5.7163134,0.10623418,1
1.500000000000001,14.122751851607008,0.16458149184366536,5.999974119833991,0.12603490010128862,13.407141,0.98236865,5.053242,0.26340258,3.6548576,-2.8699496,2.132445,-0.37676218,0.24393044,-0.105192706,-0.8874021,-6.141332,6.127021,-0.5472095,0.9817768,5.612913,0.113946445,1
1.5100000000000011,14.122751851607008,0.16458149184366536,5.999974119833991,0.12603490010128862,13.407141,0.98236865,5.053242,0.26340258,3.5932033,-2.808425,2.127054,-0.3743591,0.26662418,-0.12013784,-0.8799622,-6.190054,6.178753,-0.5316405,0.9818491,5.5256376,0.12128028,1
1.5200000000000011,14.097958516832362,-0.35450728079018456,2.4272534322833836,0.11422799335362792,12.825174,0.27904966,3.6561115,0.19073026,3.531045,-2.7463562,2.1217978,-0.37167764,0.2887502,-0.13484786,-0.87194896,-6.2421303,6.2358313,-0.52019185,0.981911,5.4519725,0.12825426,0
1.5300000000000011,14.097958516832362,-0.35450728079018456,2.4272534322833836,0.11422799335362792,12.825174,0.27904966,3.6561115,0.19073026,3.4683359,-2.6836753,2.116662,-0.36873877,0.30964786,-0.14848143,-0.8637726,-6.300182,6.301158,-0.5076878,0.77353895,4.980252,0.127566,0
1.5400000000000011,14.097958516832362,-0.35450728079018456,2.4272534322833836,0.11422799335362792,12.825174,0.27904966,3.6561115,0.19073026,3.405031,-2.620317,2.1116285,-0.36559245,0.32882762,-0.16039115,-0.85585576,-6.3612432,6.3711557,-0.49975342,0.5976557,4.5820985,0.12691148,0
1.5500000000000012,14.097958516832362,-0.35450728079018456,2.4272534322833836,0.11422799335362792,12.825174,0.27904966,3.6561115,0.19073026,3.3411014,-2.5562382,2.1066518,-0.3622802,0.34655988,-0.17085172,-0.84820914,-6.4250574,6.445171,-0.49625832,0.4491958,4.24604,0.12628908,0
1.5600000000000012,13.983684656414727,-0.9739311312344808,-2.391948912540959,0.029820207784110906,12.741284,-0.4340724,-1.1372259,0.16627286,3.276521,-2.4914017,2.1016884,-0.35883188,0.3630702,-0.18009368,-0.8408244,-6.4914107,6.522656,-0.49706572,0.32388356,3.9623907,0.12569726,0
1.5700000000000012,13.983684656414727,-0.9739311312344808,-2.391948912540959,0.029820207784110906,12.741284,-0.4340724,-1.1372259,0.16627286,3.211268,-2.4257782,2.0966923,-0.35554773,0.37702876,-0.18741302,-0.8344527,-6.5595245,6.6024313,-0.5027056,0.12158049,2.971418,0.120992534,0
1.5800000000000012,13.983684656414727,-0.9739311312344808,-2.391948912540959,0.029820207784110906,12.741284,-0.4340724,-1.1372259,0.16627286,3.1453242,-2.3593457,2.0916226,-0.35270417,0.3874323,-0.19228329,-0.82977283,-6.6295047,6.6843214,-0.5116425,-0.04919175,2.1349902,0.11651868,0
1.5900000000000012,13.983684656414727,-0.9739311312344808,-2.391948912540959,0.029820207784110906,12.741284,-0.4340724,-1.1372259,0.16627286,3.0786731,-2.292087,2.086451,-0.35027176,0.39487818,-0.19511302,-0.8266267,-6.7009344,6.767564,-0.5230111,-0.19334662,1.4290061,0.11226435,0
1.6000000000000012,14.354363457897119,-1.320482078862025,-5.9999588344975985,-0.07143059545702221,13.5736,-0.6260743,-5.8767657,0.11574666,3.0113015,-2.2239919,2.0811567,-0.3482087,0.3998539,-0.19623785,-0.8248383,-6.773488,6.851548,-0.53604263,-0.3150327,0.83312213,0.10821878,1
1.6100000000000012,14.354363457897119,-1.320482078862025,-5.9999588344975985,-0.07143059545702221,13.5736,-0.6260743,-5.8767657,0.11574666,2.943211,-2.1550677,2.0757146,-0.3467896,0.40155876,-0.19556873,-0.8247669,-6.844711,6.9332824,-0.5524656,-0.36346567,-0.21328475,0.108588174,1
1.6200000000000012,14.354363457897119,-1.320482078862025,-5.9999588344975985,-0.07143059545702221,13.5736,-0.6260743,-5.8767657,0.11574666,2.8744063,-2.0853274,2.0701077,-0.34621745,0.39936668,-0.19304523,-0.8266639,-6.91624,7.0146422,-0.5687832,-0.40435663,-1.0965044,0.10893944,1
1.6300000000000012,14.354363457897119,-1.320482078862025,-5.9999588344975985,-0.07143059545702221,13.5736,-0.6260743,-5.8767657,0.11574666,2.8048868,-2.0147781,2.0643423,-0.34634024,0.39386618,-0.18895306,-0.83018947,-6.9875746,7.0950723,-0.5840198,-0.4388802,-1.841986,0.10927347,1
1.6400000000000012,14.354363457897119,-1.320482078862025,-5.9999588344975985,-0.07143059545702221,13.888483,-0.062427368,-6.0603366,0.08244817,2.734657,-1.943431,2.0584335,-0.34701568,0.38553795,-0.18352479,-0.8350204,-7.0582714,7.174087,-0.5973721,-0.46802765,-2.4712098,0.10959112,0
1.6500000000000012,14.354363457897119,-1.320482078862025,-5.9999588344975985,-0.07143059545702221,13.888483,-0.062427368,-6.0603366,0.08244817,2.6637049,-1.8712804,2.0524285,-0.34803605,0.37483737,-0.17669302,-0.84092045,-7.131945,7.2556734,-0.6031716,-0.60094565,-3.0215223,0.10070833,0
1.6600000000000013,14.354363457897119,-1.320482078862025,-5.9999588344975985,-0.07143059545702221,13.888483,-0.062427368,-6.0603366,0.08244817,2.592023,-1.798326,2.046381,-0.34922844,0.36214006,-0.16840817,-0.847663,-7.2042074,7.334765,-0.60574317,-0.7131456,-3.486011,0.092261426,0
1.6700000000000013,14.354363457897119,-1.320482078862025,-5.9999588344975985,-0.07143059545702221,13.888483,-0.062427368,-6.0603366,0.08244817,2.5196266,-1.7245953,2.0403259,-0.35051835,0.34770483,-0.15887176,-0.8549841,-7.2747664,7.4108524,-0.60467374,-0.80785626,-3.8780613,0.084229015,0
1.6800000000000013,14.84176144937256,-1.4933932432763004,-5.9999980101863715,-0.03289885917108086,14.236948,-0.90975696,-6.224253,0.15637557,2.4465344,-1.6501209,2.034301,-0.35183957,0.33175093,-0.14825514,-0.8626531,-7.3433323,7.4834623,-0.5996788,-0.88780284,-4.20897,0.07659074,1
1.6900000000000013,14.84176144937256,-1.4933932432763004,-5.9999980101863715,-0.03289885917108086,14.236948,-0.90975696,-6.224253,0.15637557,2.3727703,-1.5749424,2.028342,-0.35316366,0.31440428,-0.1368567,-0.870457,-7.4090676,7.5515976,-0.591466,-0.891201,-4.488282,0.08050581,1
1.7000000000000013,14.84176144937256,-1.4933932432763004,-5.9999980101863715,-0.03289885917108086,14.236948,-0.90975696,-6.224253,0.15637557,2.2983618,-1.4991035,2.0224857,-0.3544577,0.29577824,-0.12492553,-0.8782188,-7.4722033,7.6154923,-0.57912636,-0.89407116,-4.724036,0.08422878,1
1.7100000000000013,14.84176144937256,-1.4933932432763004,-5.9999980101863715,-0.03289885917108086,14.236948,-0.90975696,-6.224253,0.15637557,2.2233362,-1.4226482,2.0167735,-0.355663,0.27603194,-0.112531774,-0.8858028,-7.532409,7.6748247,-0.5626825,-0.89649504,-4.923024,0.087769024,1
1.7200000000000013,15.389339907536964,-1.4331156365643378,-5.9999944631047155,0.02425018956689696,15.035427,-0.8771937,-6.219643,0.4745755,2.1477249,-1.3456237,2.011246,-0.3567307,0.25530457,-0.09973712,-0.893093,-7.58937,7.729293,-0.54223436,-0.8985425,-5.0909805,0.09113557,1
1.7300000000000013,15.389339907536964,-1.4331156365643378,-5.9999944631047155,0.02425018956689696,15.035427,-0.8771937,-6.219643,0.4745755,2.0715458,-1.268066,2.0059762,-0.35758844,0.23371036,-0.086617716,-0.90000397,-7.6457853,7.781386,-0.5110859,-0.89514077,-5.2327523,0.10995109,1
1.7400000000000013,15.389339907536964,-1.4331156365643378,-5.9999944631047155,0.02425018956689696,15.035427,-0.8771937,-6.219643,0.4745755,1.9948226,-1.1900156,2.0010374,-0.35817212,0.21135138,-0.07323976,-0.9064652,-7.698164,7.827785,-0.47612578,-0.89227104,-5.3524146,0.1278433,1
1.7500000000000013,15.389339907536964,-1.4331156365643378,-5.9999944631047155,0.02425018956689696,15.035427,-0.8771937,-6.219643,0.4745755,1.9175972,-1.1115305,1.9964659,-0.35845634,0.18832703,-0.059641253,-0.912406,-7.7462263,7.8682547,-0.4376484,-0.8898509,-5.453415,0.14485757,1
1.7600000000000013,15.343707723331814,-1.272694047052573,-4.506132364672116,0.139049025813269,16.092949,-0.4732531,-5.5740876,0.34027377,1.8399137,-1.0326715,1.9922954,-0.35842124,0.16472629,-0.045856543,-0.91776717,-7.7897153,7.9025865,-0.3959952,-0.88781065,-5.538664,0.16103692,0
1.7700000000000014,15.343707723331814,-1.272694047052573,-4.506132364672116,0.139049025813269,16.092949,-0.4732531,-5.5740876,0.34027377,1.7618152,-0.95349747,1.9885702,-0.3580437,0.14123894,-0.03197932,-0.9224064,-7.8292255,7.931195,-0.34863812,-0.9478539,-5.377647,0.15995798,0
1.7800000000000014,15.343707723331814,-1.272694047052573,-4.506132364672116,0.139049025813269,16.092949,-0.4732531,-5.5740876,0.34027377,1.6833459,-0.87406975,1.9853308,-0.35734048,0.11842805,-0.018087864,-0.92625874,-7.8638897,7.9533477,-0.2989368,-0.9985302,-5.241739,0.15893196,0
1.7900000000000014,15.343707723331814,-1.272694047052573,-4.506132364672116,0.139049025813269,16.092949,-0.4732531,-5.5740876,0.34027377,1.6045537,-0.79445267,1.982598,-0.3563478,0.09619491,-0.0041903723,-0.9293789,-7.8937993,7.969068,-0.24738367,-1.041301,-5.127025,0.1579563,0
1.8000000000000014,14.748505181219734,-1.0182661406438356,-1.3011322663762264,0.2790827326833181,15.68363,-0.08977485,-1.798135,0.37840962,1.5254859,-0.71471035,1.9803879,-0.35509387,0.074456185,0.009705282,-0.93181026,-7.919035,7.9783883,-0.19443977,-1.0773995,-5.0302,0.15702851,1
1.8100000000000014,14.748505181219734,-1.0182661406438356,-1.3011322663762264,0.2790827326833181,15.68363,-0.08977485,-1.798135,0.37840962,1.4461864,-0.6349061,1.9787292,-0.35362715,0.053986184,0.022764064,-0.93354976,-7.940158,7.981489,-0.13717854,-0.92339915,-4.526152,0.16789173,1
1.8200000000000014,14.748505181219734,-1.0182661406438356,-1.3011322663762264,0.2790827326833181,15.68363,-0.08977485,-1.798135,0.37840962,1.3666978,-0.5551008,1.9776462,-0.35201153,0.03540167,0.034326848,-0.93469584,-7.9569044,7.9787097,-0.0793759,-0.7934146,-4.100711,0.1782219,1
1.8300000000000014,14.748505181219734,-1.0182661406438356,-1.3011322663762264,0.2790827326833181,15.68363,-0.08977485,-1.798135,0.37840962,1.2870622,-0.47535,1.9771425,-0.35028222,0.018421557,0.044625204,-0.9353991,-7.969604,7.970671,-0.021371445,-0.68369997,-3.7416172,0.18804517,1
1.8400000000000014,14.748505181219734,-1.0182661406438356,-1.3011322663762264,0.2790827326833181,15.005173,0.40633819,0.8520648,0.22320688,1.2073187,-0.3957036,1.9772186,-0.3484633,0.002804835,0.05385586,-0.93576974,-7.9785438,7.9579043,0.03658019,-0.5910936,-3.4385245,0.19738643,0
1.8500000000000014,14.748505181219734,-1.0182661406438356,-1.3011322663762264,0.2790827326833181,15.005173,0.40633819,0.8520648,0.22320688,1.1275051,-0.3162017,1.9778267,-0.34659505,-0.0113396775,0.062464144,-0.93586403,-7.9836755,7.941871,0.08499479,-0.6577456,-3.1052098,0.20139529,0
1.8600000000000014,14.748505181219734,-1.0182661406438356,-1.3011322663762264,0.2790827326833181,15.005173,0.40633819,0.8520648,0.22320688,1.0476551,-0.23687896,1.9789171,-0.34471914,-0.023939127,0.07081229,-0.935725,-7.985904,7.9221096,0.1330274,-0.71399826,-2.8238745,0.20520744,0
1.8700000000000014,14.748505181219734,-1.0182661406438356,-1.3011322663762264,0.2790827326833181,15.005173,0.40633819,0.8520648,0.22320688,0.9677957,-0.1577715,1.9804856,-0.34284946,-0.035232123,0.0789417,-0.9354043,-7.9855995,7.898854,0.18056233,-0.7614741,-2.5864117,0.20883255,0
1.8800000000000014,13.71147296132777,-0.7757697373733274,1.607149358212395,0.3687003532677931,14.12423,0.4162477,1.980463,0.1821559,0.8879507,-0.07891323,1.9825263,-0.3409939,-0.045420725,0.086887024,-0.93493897,-7.983073,7.8723016,0.22751157,-0.80154246,-2.3859804,0.21227975,0
1.8900000000000015,13.71147296132777,-0.7757697373733274,1.607149358212395,0.3687003532677931,14.12423,0.4162477,1.980463,0.1821559,0.8081394,-0.00032583438,1.9849826,-0.3392482,-0.053620294,0.09419166,-0.93443215,-7.9789557,7.844759,0.26366553,-0.7976002,-1.7632575,0.21995534,0
1.9000000000000015,13.71147296132777,-0.7757697373733274,1.607149358212395,0.3687003532677931,14.12423,0.4162477,1.980463,0.1821559,0.7283758,0.0779737,1.9877976,-0.33770266,-0.059140734,0.100500345,-0.9340016,-7.973612,7.814813,0.29926175,-0.794265,-1.2376477,0.22725432,0
1.9100000000000015,13.71147296132777,-0.7757697373733274,1.607149358212395,0.3687003532677931,14.12423,0.4162477,1.980463,0.1821559,0.64866936,0.15596381,1.9909661,-0.33634618,-0.062401284,0.105974495,-0.93367374,-7.9675994,7.782938,0.33438346,-0.7914425,-0.79400635,0.23419513,0
1.9200000000000015,12.86189577621675,-0.46792009398806284,4.1089509130059625,0.41506627566397175,13.572908,0.39043358,3.3360412,0.038519524,0.56902444,0.2336272,1.9944838,-0.3351618,-0.063755184,0.11074859,-0.9334541,-7.9613895,7.749528,0.36911997,-0.7890536,-0.41955024,0.24079534,1
1.9300000000000015,12.86189577621675,-0.46792009398806284,4.1089509130059625,0.41506627566397175,13.572908,0.39043358,3.3360412,0.038519524,0.48944056,0.31095207,1.9983407,-0.33421612,-0.06301498,0.114265,-0.93341964,-7.955455,7.715309,0.40223038,-0.60520405,0.16616486,0.23086959,1
1.9400000000000015,12.86189577621675,-0.46792009398806284,4.1089509130059625,0.41506627566397175,13.572908,0.39043358,3.3360412,0.038519524,0.40991315,0.38793144,2.002528,-0.3335655,-0.06004737,0.11608696,-0.9336232,-7.95016,7.680524,0.43521926,-0.45000535,0.6605315,0.22143094,1
1.9500000000000015,12.86189577621675,-0.46792009398806284,4.1089509130059625,0.41506627566397175,13.572908,0.39043358,3.3360412,0.038519524,0.33043382,0.4645626,2.0070453,-0.33317268,-0.055199143,0.11647893,-0.9340137,-7.9458947,7.645753,0.46824923,-0.31899336,1.0777966,0.21245544,1
1.9600000000000015,12.063794638866105,-0.15223508036490213,5.017324496082976,0.41591037266544084,12.567041,0.7744649,3.501136,0.22913136,0.25099054,0.5408482,2.0118933,-0.3329998,-0.048762333,0.11566222,-0.9345349,-7.942992,7.6114864,0.50144875,-0.20839947,1.429985,0.20392033,0
1.9700000000000015,12.063794638866105,-0.15223508036490213,5.017324496082976,0.41591037266544084,12.567041,0.7744649,3.501136,0.22913136,0.17156737,0.61681414,2.0170019,-0.33305308,-0.040276457,0.11380319,-0.9351481,-7.9419093,7.5818624,0.5202864,-0.19972834,1.9894283,0.21432278,0
1.9800000000000015,12.063794638866105,-0.15223508036490213,5.017324496082976,0.41591037266544084,12.567041,0.7744649,3.501136,0.22913136,0.09214567,0.69248974,2.0223005,-0.3333164,-0.029387714,0.11104028,-0.93579185,-7.9427714,7.5534754,0.5394313,-0.1924035,2.461627,0.22421472,0
1.9900000000000015,12.063794638866105,-0.15223508036490213,5.017324496082976,0.41591037266544084,12.567041,0.7744649,3.501136,0.22913136,0.012703698,0.7678892,2.0277922,-0.33372357,-0.01646796,0.107506245,-0.9363758,-7.9460278,7.5266986,0.5589116,-0.18621479,2.8601863,0.23362128,0
2.0000000000000013,,,,,12.253899,0.528921,3.8075552,0.35319597,-0.06678443,0.84303033,2.03348,-0.33421558,-0.0018329248,0.10331233,-0.9368153,-7.9520574,7.501856,0.5787055,-0.18098535,3.1965907,0.24256627,1
2.010000000000001,,,,,12.253899,0.528921,3.8075552,0.35319597,-0.14634869,0.9179321,2.0393763,-0.3347013,0.013702983,0.098459244,-0.937066,-7.961292,7.478864,0.60060835,-0.07030249,3.2918875,0.2479949,1
2.020000000000001,,,,,12.253899,0.528921,3.8075552,0.35319597,-0.2260212,0.99261606,2.0454924,-0.335121,0.029478071,0.09295523,-0.9371147,-7.9737077,7.458324,0.6226683,0.023121709,3.372321,0.25315717,1
2.0300000000000007,,,,,12.253899,0.528921,3.8075552,0.35319597,-0.3058338,1.0671076,2.0518296,-0.33546823,0.045449734,0.08689725,-0.9369332,-7.9893036,7.440402,0.6447765,0.1019786,3.440209,0.25806612,1
2.0400000000000005,,,,,12.253899,0.528921,3.8075552,0.35319597,-0.3858182,1.1414336,2.0583878,-0.33573672,0.0615808,0.08036774,-0.9364984,-8.008072,7.4252405,0.6668108,0.16853972,3.497508,0.26273417,1
2.0500000000000003,,,,,11.549253,0.7153264,2.524706,0.21580143,-0.46600613,1.2156222,2.065165,-0.33592036,0.07783872,0.07343686,-0.9357912,-8.030002,7.4129586,0.68863827,0.22472242,3.5458698,0.26717314,1
2.06,,,,,11.549253,0.7153264,2.524706,0.21580143,-0.5464219,1.2897056,2.0721247,-0.3360012,0.09368882,0.06626888,-0.9348441,-8.053611,7.4041767,0.7032447,0.301265,3.3866327,0.26465228,1
2.07,,,,,11.549253,0.7153264,2.524706,0.21580143,-0.62708783,1.3637152,2.0792282,-0.33597976,0.10870787,0.058999695,-0.93371224,-8.079993,7.398173,0.71741796,0.36586598,3.252226,0.26225513,1
2.0799999999999996,,,,,11.549253,0.7153264,2.524706,0.21580143,-0.70803064,1.4376785,2.086471,-0.33587414,0.123019844,0.05164609,-0.9324091,-8.108958,7.3949037,0.73106647,0.42038816,3.1387782,0.2599756,1
2.0899999999999994,,,,,10.598085,0.9484309,-0.4966161,0.35438263,-0.7892753,1.5116225,2.0938475,-0.3356977,0.13672937,0.044222225,-0.9309436,-8.140345,7.3943295,0.74410635,0.46640414,3.043021,0.25780797,1
2.099999999999999,,,,,10.598085,0.9484309,-0.4966161,0.35438263,-0.8708315,1.5855736,2.1013055,-0.3354107,0.14877073,0.037056927,-0.9295124,-8.171192,7.3962097,0.7473776,0.5416608,2.4910307,0.2625469,1
2.109999999999999,,,,,10.598085,0.9484309,-0.4966161,0.35438263,-0.9527047,1.6595542,2.1087933,-0.33500314,0.15831204,0.030411825,-0.9283237,-8.203682,7.400249,0.7500721,0.60516995,2.0251215,0.2670533,1
2.1199999999999988,,,,,10.598085,0.9484309,-0.4966161,0.35438263,-1.0349092,1.7335849,2.116305,-0.33451712,0.16574845,0.02420648,-0.9273831,-8.23739,7.4061747,0.7522731,0.6587652,1.6318688,0.27133855,1
2.1299999999999986,,,,,9.979615,0.885243,-3.5179596,0.23328263,-1.1174554,1.8076833,2.1238372,-0.3339815,0.17141204,0.018372212,-0.92668027,-8.271961,7.413758,0.75406796,0.7039933,1.2999425,0.27541354,1
2.1399999999999983,,,,,9.979615,0.885243,-3.5179596,0.23328263,-1.20034,1.8818624,2.1313562,-0.33340645,0.17447035,0.0132801235,-0.9264035,-8.305014,7.4222436,0.7497477,0.73239464,0.5485974,0.27334616,1
2.149999999999998,,,,,9.979615,0.885243,-3.5179596,0.23328263,-1.2835557,1.9561315,2.1388316,-0.3328085,0.17427878,0.009220779,-0.9267038,-8.338083,7.4316964,0.74532956,0.7563441,-0.08557667,0.2713802,1
2.159999999999998,,,,,9.979615,0.885243,-3.5179596,0.23328263,-1.3671,2.0304983,2.1462634,-0.3322053,0.17134406,0.0060317693,-0.92749345,-8.370688,7.441732,0.7410132,0.7765395,-0.62085235,0.26951075,1
