time-since-start [s],throttle_mpc,roll_mpc,pitch_mpc,yaw_mpc,throttle_nw,roll_nw,pitch_nw,yaw_nw,position_x [m],position_y [m],position_z [m],rotation_w [quaternion],rotation_x [quaternion],rotation_y [quaternion],rotation_z [quaternion],velocity_x [m/s],velocity_y [m/s],velocity_z [m/s],omega_x [rad/s],omega_y [rad/s],omega_z [rad/s],network_used,gaze_2d_norm_x,gaze_2d_norm_y,gaze_2d_x,gaze_2d_y,gaze_3d_x,gaze_3d_y,gaze_3d_z,angle_rad,angle_deg,high_level_label
0.0,7.281115932024631,5.999999649506657,-5.999999892377187,-2.5052348371823103,11.656061,-0.4774385,-7.2780404,-1.340306,20.473816,-8.618404,1.8176175,-0.17495966,-0.48217902,0.13200599,0.848214,-10.346325,-7.3195195,0.36548954,1.7973428,-0.61234653,0.19196226,0,0.17087080001831054,-0.32284047444661457,0.5854354000091553,0.3385797627766927,-0.9735783044651206,-0.09517799476718977,-0.2075727207195533,0.5182578782368257,29.693989122375026,1
0.01,7.281115932024631,5.999999649506657,-5.999999892377187,-2.5052348371823103,14.580785,1.4362731,-5.7753925,-1.5150745,20.37004,-8.691572,1.8209659,-0.14574754,-0.46316928,0.15652417,0.86007684,-10.40869,-7.3133335,0.30441254,5.9999995,-6.0,-2.5052347,0,0.17087080001831054,-0.32284047444661457,0.5854354000091553,0.3385797627766927,-0.9735783044651206,-0.09517799476718977,-0.2075727207195533,0.5182578782368257,29.693989122375026,1
0.02,7.281115932024631,5.999999649506657,-5.999999892377187,-2.5052348371823103,14.580785,1.4362731,-5.7753925,-1.5150745,20.26565,-8.76465,1.823711,-0.116250254,-0.44325325,0.18073608,0.8702569,-10.4692745,-7.3014383,0.24486808,5.9999995,-6.0,-2.5052347,0,0.17087080001831054,-0.32284047444661457,0.5854354000091553,0.3385797627766927,-0.9735783044651206,-0.09517799476718977,-0.2075727207195533,0.5182578782368257,29.693989122375026,1
0.03,7.281115932024631,5.999999649506657,-5.999999892377187,-2.5052348371823103,14.580785,1.4362731,-5.7753925,-1.5150745,20.160666,-8.837582,1.8258679,-0.086525515,-0.42246997,0.20459437,0.8787342,-10.527571,-7.2839766,0.1867048,5.9999995,-6.0,-2.5052347,0,0.17087080001831054,-0.32284047444661457,0.5854354000091553,0.3385797627766927,-0.9735783044651206,-0.09517799476718977,-0.2075727207195533,0.5182578782368257,29.693989122375026,1
0.04,7.281115932024631,5.999999649506657,-5.999999892377187,-2.5052348371823103,13.111641,1.0069292,-5.17551,-0.80859196,20.055109,-8.910313,1.8274493,-0.056631487,-0.4008601,0.22805236,0.88549215,-10.583095,-7.2611346,0.12976046,5.9999995,-6.0,-2.5052347,0,0.17087080001831054,-0.32284047444661457,0.5854354000091553,0.3385797627766927,-0.9735783044651206,-0.09517799476718977,-0.2075727207195533,0.5182578782368257,29.693989122375026,1
0.05,7.281115932024631,5.999999649506657,-5.999999892377187,-2.5052348371823103,13.111641,1.0069292,-5.17551,-0.80859196,19.949013,-8.982788,1.8284667,-0.026626652,-0.37846592,0.25106415,0.8905176,-10.635379,-7.2331414,0.073863335,5.9999995,-6.0,-2.5052347,0,0.17087080001831054,-0.32284047444661457,0.5854354000091553,0.3385797627766927,-0.9735783044651206,-0.09517799476718977,-0.2075727207195533,0.5182578782368257,29.693989122375026,1
0.060000000000000005,7.281115932024631,5.999999649506657,-5.999999892377187,-2.5052348371823103,13.111641,1.0069292,-5.17551,-0.80859196,19.842415,-9.054958,1.8289294,0.0034302794,-0.3553312,0.2735847,0.8938006,-10.683986,-7.200266,0.018833503,5.9999995,-6.0,-2.5052347,0,0.17087080001831054,-0.32284047444661457,0.5854354000091553,0.3385797627766927,-0.9735783044651206,-0.09517799476718977,-0.2075727207195533,0.5182578782368257,29.693989122375026,1
0.07,7.281115932024631,5.999999649506657,-5.999999892377187,-2.5052348371823103,13.111641,1.0069292,-5.17551,-0.80859196,19.73535,-9.126778,1.8288455,0.0334805,-0.3315013,0.29556996,0.8953349,-10.728503,-7.1628146,-0.035515755,5.9999995,-6.0,-2.5052347,0,0.004067074358463287,-0.16810151418050132,0.5020335371792316,0.41594924290974933,-0.9642222456297251,0.24950273533995973,-0.08957592361034988,0.8418853061338032,48.2364748755462,1
0.08,15.916981612998656,5.999999534454374,-5.999999832348095,-0.48384226623660953,14.931471,1.1245362,-5.1625953,-1.3805543,19.627861,-9.198201,1.8282207,0.063465215,-0.30702278,0.3169769,0.8951174,-10.768552,-7.121131,-0.08937647,5.9999995,-6.0,-2.5052347,0,0.004067074358463287,-0.16810151418050132,0.5020335371792316,0.41594924290974933,-0.9642222456297251,0.24950273533995973,-0.08957592361034988,0.8418853061338032,48.2364748755462,1
0.09,15.916981612998656,5.999999534454374,-5.999999832348095,-0.48384226623660953,14.931471,1.1245362,-5.1625953,-1.3805543,19.519781,-9.268921,1.8273228,0.0842871,-0.27876338,0.34089026,0.89385724,-10.845589,-7.021563,-0.090150386,5.9999995,-6.0,-0.48384225,0,0.004067074358463287,-0.16810151418050132,0.5020335371792316,0.41594924290974933,-0.9642222456297251,0.24950273533995973,-0.08957592361034988,0.8418853061338032,48.2364748755462,1
0.09999999999999999,15.916981612998656,5.999999534454374,-5.999999832348095,-0.48384226623660953,14.931471,1.1245362,-5.1625953,-1.3805543,19.410986,-9.338606,1.8264178,0.10495679,-0.25000066,0.36418813,0.8909832,-10.911514,-6.914331,-0.09090618,5.9999995,-6.0,-0.48384225,0,0.004067074358463287,-0.16810151418050132,0.5020335371792316,0.41594924290974933,-0.9642222456297251,0.24950273533995973,-0.08957592361034988,0.8418853061338032,48.2364748755462,1
0.10999999999999999,15.916981612998656,5.999999534454374,-5.999999832348095,-0.48384226623660953,14.931471,1.1245362,-5.1625953,-1.3805543,19.30159,-9.407184,1.8255026,0.12543699,-0.22078653,0.3868284,0.8865004,-10.965833,-6.800239,-0.09229267,5.9999995,-6.0,-0.48384225,0,0.004067074358463287,-0.16810151418050132,0.5020335371792316,0.41594924290974933,-0.9642222456297251,0.24950273533995973,-0.08957592361034988,0.8418853061338032,48.2364748755462,1
0.11999999999999998,15.916981612998656,5.999999534454374,-5.999999832348095,-0.48384226623660953,14.931471,1.1245362,-5.1625953,-1.3805543,19.19171,-9.47459,1.8245676,0.14569068,-0.19117376,0.4087702,0.8804169,-11.008129,-6.680142,-0.094954096,5.9999995,-6.0,-0.48384225,0,0.004067074358463287,-0.16810151418050132,0.5020335371792316,0.41594924290974933,-0.9642222456297251,0.24950273533995973,-0.08957592361034988,0.8418853061338032,48.2364748755462,1
0.12999999999999998,20.999997156780328,4.4224298320114075,-5.99999920681766,-0.49568743399789617,14.66619,-1.2575474,-2.2529056,-0.5182048,19.081469,-9.54077,1.823597,0.16568133,-0.16121581,0.42997396,0.87274384,-11.038078,-6.554937,-0.09952553,5.9999995,-6.0,-0.48384225,0,0.004067074358463287,-0.16810151418050132,0.5020335371792316,0.41594924290974933,-0.9642222456297251,0.24950273533995973,-0.08957592361034988,0.8418853061338032,48.2364748755462,1
0.13999999999999999,20.999997156780328,4.4224298320114075,-5.99999920681766,-0.49568743399789617,14.66619,-1.2575474,-2.2529056,-0.5182048,18.970957,-9.605472,1.822717,0.18418853,-0.13232984,0.4435991,0.8670545,-11.061525,-6.384926,-0.07668182,4.42243,-5.999999,-0.49568743,0,-0.07288852691650391,0.02991994857788086,0.46355573654174803,0.5149599742889405,-0.850876261975724,0.5248781895371788,-0.02263786549992612,1.0762306686653247,61.6634750970656,1
0.15,20.999997156780328,4.4224298320114075,-5.99999920681766,-0.49568743399789617,14.66619,-1.2575474,-2.2529056,-0.5182048,18.860289,-9.66846,1.8220575,0.20243879,-0.10325927,0.45660543,0.8601557,-11.069631,-6.212335,-0.05550287,4.42243,-5.999999,-0.49568743,0,-0.07288852691650391,0.02991994857788086,0.46355573654174803,0.5149599742889405,-0.850876261975724,0.5248781895371788,-0.02263786549992612,1.0762306686653247,61.6634750970656,1
0.16,20.99999843915019,1.5878224504147662,-3.208044041369634,-0.4011814832895505,14.28697,-1.4946241,-1.278244,-1.025577,18.749617,-9.7297125,1.8215991,0.22040668,-0.074044675,0.46897483,0.85205704,-11.062336,-6.0381656,-0.036587957,4.42243,-5.999999,-0.49568743,0,-0.07288852691650391,0.02991994857788086,0.46355573654174803,0.5149599742889405,-0.850876261975724,0.5248781895371788,-0.02263786549992612,1.0762306686653247,61.6634750970656,1
0.17,20.99999843915019,1.5878224504147662,-3.208044041369634,-0.4011814832895505,14.28697,-1.4946241,-1.278244,-1.025577,18.639086,-9.789221,1.8213191,0.23018986,-0.059557155,0.4719793,0.8489413,-11.042613,-5.863703,-0.019495223,1.5878224,-3.208044,-0.4011815,0,-0.07288852691650391,0.02991994857788086,0.46355573654174803,0.5149599742889405,-0.850876261975724,0.5248781895371788,-0.02263786549992612,1.0762306686653247,61.6634750970656,1
0.18000000000000002,20.99999843915019,1.5878224504147662,-3.208044041369634,-0.4011814832895505,14.28697,-1.4946241,-1.278244,-1.025577,18.52879,-9.846988,1.8212079,0.2398984,-0.045050323,0.47483066,0.8455503,-11.015422,-5.6899686,-0.002822747,1.5878224,-3.208044,-0.4011815,0,-0.07288852691650391,0.02991994857788086,0.46355573654174803,0.5149599742889405,-0.850876261975724,0.5248781895371788,-0.02263786549992612,1.0762306686653247,61.6634750970656,1
0.19000000000000003,20.99999843915019,1.5878224504147662,-3.208044041369634,-0.4011814832895505,14.28697,-1.4946241,-1.278244,-1.025577,18.418802,-9.903023,1.8212608,0.24952912,-0.030528871,0.47752804,0.84188503,-10.980797,-5.5172024,0.0133076105,1.5878224,-3.208044,-0.4011815,0,-0.07288852691650391,0.02991994857788086,0.46355573654174803,0.5149599742889405,-0.850876261975724,0.5248781895371788,-0.02263786549992612,1.0762306686653247,61.6634750970656,1
0.20000000000000004,20.99998422487964,0.533556737985119,-0.11297545192000452,-0.7412081590856832,14.568573,-2.4108272,2.0669544,-1.2686877,18.3092,-9.957336,1.8214717,0.25907892,-0.015997522,0.4800705,0.8379467,-10.938783,-5.345642,0.028774701,1.5878224,-3.208044,-0.4011815,0,-0.1428830909729004,-0.03993006070454915,0.4285584545135498,0.4800349696477254,-0.6702994760007622,0.7231239160553798,0.16670457252827747,1.2778462232340413,73.2151954580426,1
0.21000000000000005,20.99998422487964,0.533556737985119,-0.11297545192000452,-0.7412081590856832,14.568573,-2.4108272,2.0669544,-1.2686877,18.200047,-10.009937,1.8218336,0.2624955,-0.016612006,0.48209524,0.835706,-10.891909,-5.174814,0.04346069,0.53355676,-0.11297545,-0.74120814,0,-0.1428830909729004,-0.03993006070454915,0.4285584545135498,0.4800349696477254,-0.6702994760007622,0.7231239160553798,0.16670457252827747,1.2778462232340413,73.2151954580426,1
0.22000000000000006,20.99998422487964,0.533556737985119,-0.11297545192000452,-0.7412081590856832,14.568573,-2.4108272,2.0669544,-1.2686877,18.091366,-10.060829,1.8223382,0.2659065,-0.017226143,0.48410976,0.8334476,-10.844322,-5.0036407,0.05732018,0.53355676,-0.11297545,-0.74120814,0,-0.1428830909729004,-0.03993006070454915,0.4285584545135498,0.4800349696477254,-0.6702994760007622,0.7231239160553798,0.16670457252827747,1.2778462232340413,73.2151954580426,1
0.23000000000000007,20.99998422487964,0.533556737985119,-0.11297545192000452,-0.7412081590856832,14.568573,-2.4108272,2.0669544,-1.2686877,17.983164,-10.110008,1.8229772,0.26931188,-0.017839912,0.48611403,0.8311715,-10.796017,-4.8321304,0.07035362,0.53355676,-0.11297545,-0.74120814,0,-0.1428830909729004,-0.03993006070454915,0.4285584545135498,0.4800349696477254,-0.6702994760007622,0.7231239160553798,0.16670457252827747,1.2778462232340413,73.2151954580426,1
0.24000000000000007,20.99998422487964,0.533556737985119,-0.11297545192000452,-0.7412081590856832,15.406263,-1.8264571,3.884287,-1.0167203,17.875448,-10.157471,1.8237423,0.2727116,-0.018453306,0.488108,0.82887787,-10.746988,-4.6602926,0.08256148,0.53355676,-0.11297545,-0.74120814,0,-0.1428830909729004,-0.03993006070454915,0.4285584545135498,0.4800349696477254,-0.6702994760007622,0.7231239160553798,0.16670457252827747,1.2778462232340413,73.2151954580426,1
0.25000000000000006,20.99998422487964,0.533556737985119,-0.11297545192000452,-0.7412081590856832,15.406263,-1.8264571,3.884287,-1.0167203,17.768227,-10.203214,1.8246255,0.2761055,-0.019066308,0.49009168,0.8265667,-10.697231,-4.488137,0.093944326,0.53355676,-0.11297545,-0.74120814,0,-0.1428830909729004,-0.03993006070454915,0.4285584545135498,0.4800349696477254,-0.6702994760007622,0.7231239160553798,0.16670457252827747,1.2778462232340413,73.2151954580426,1
0.26000000000000006,20.99998422487964,0.533556737985119,-0.11297545192000452,-0.7412081590856832,15.406263,-1.8264571,3.884287,-1.0167203,17.661507,-10.247233,1.8256184,0.27949357,-0.019678906,0.49206495,0.824238,-10.646742,-4.3156724,0.104502775,0.53355676,-0.11297545,-0.74120814,0,-0.1428830909729004,-0.03993006070454915,0.4285584545135498,0.4800349696477254,-0.6702994760007622,0.7231239160553798,0.16670457252827747,1.2778462232340413,73.2151954580426,1
0.2700000000000001,20.99998422487964,0.533556737985119,-0.11297545192000452,-0.7412081590856832,15.406263,-1.8264571,3.884287,-1.0167203,17.555294,-10.289527,1.8267127,0.28287572,-0.020291086,0.49402785,0.82189184,-10.595514,-4.1429086,0.11423753,0.53355676,-0.11297545,-0.74120814,0,-0.03798659563064575,-0.11297308603922526,0.4810067021846771,0.44351345698038735,-0.5467176307264157,0.833283267113399,0.08209037094394442,1.36287340047281,78.08689385773486,1
0.2800000000000001,19.809819559746412,-0.1170510730784571,1.1183248441283935,-0.8278942912612536,17.061468,-1.170105,4.168062,-1.1539177,17.4496,-10.3300905,1.8279003,0.28625187,-0.020902839,0.49598026,0.8195283,-10.543545,-3.9698548,0.12314937,0.53355676,-0.11297545,-0.74120814,0,-0.03798659563064575,-0.11297308603922526,0.4810067021846771,0.44351345698038735,-0.5467176307264157,0.833283267113399,0.08209037094394442,1.36287340047281,78.08689385773486,1
0.2900000000000001,19.809819559746412,-0.1170510730784571,1.1183248441283935,-0.8278942912612536,17.061468,-1.170105,4.168062,-1.1539177,17.34441,-10.368971,1.829143,0.28685173,-0.027705396,0.49700263,0.81849676,-10.494819,-3.806101,0.12531379,-0.11705107,1.1183249,-0.8278943,0,-0.03798659563064575,-0.11297308603922526,0.4810067021846771,0.44351345698038735,-0.5467176307264157,0.833283267113399,0.08209037094394442,1.36287340047281,78.08689385773486,1
0.3000000000000001,19.809819559746412,-0.1170510730784571,1.1183248441283935,-0.8278942912612536,17.061468,-1.170105,4.168062,-1.1539177,17.239697,-10.40621,1.8304048,0.28743762,-0.0345066,0.49800077,0.8174254,-10.448054,-3.6414456,0.1269345,-0.11705107,1.1183249,-0.8278943,0,-0.03798659563064575,-0.11297308603922526,0.4810067021846771,0.44351345698038735,-0.5467176307264157,0.833283267113399,0.08209037094394442,1.36287340047281,78.08689385773486,1
0.3100000000000001,19.809819559746412,-0.1170510730784571,1.1183248441283935,-0.8278942912612536,17.061468,-1.170105,4.168062,-1.1539177,17.135443,-10.441797,1.8316798,0.28800946,-0.041306127,0.49897465,0.8163141,-10.403252,-3.475902,0.12798366,-0.11705107,1.1183249,-0.8278943,0,-0.03798659563064575,-0.11297308603922526,0.4810067021846771,0.44351345698038735,-0.5467176307264157,0.833283267113399,0.08209037094394442,1.36287340047281,78.08689385773486,1
0.3200000000000001,18.645588658106366,-0.9863683175699353,2.929193346594854,-0.9107790179315354,17.529772,-1.5331815,4.699939,-1.208814,17.031628,-10.475724,1.8329624,0.2885673,-0.048103638,0.4999242,0.8151631,-10.360408,-3.3094845,0.12843354,-0.11705107,1.1183249,-0.8278943,0,-0.03798659563064575,-0.11297308603922526,0.4810067021846771,0.44351345698038735,-0.5467176307264157,0.833283267113399,0.08209037094394442,1.36287340047281,78.08689385773486,1
0.3300000000000001,18.645588658106366,-0.9863683175699353,2.929193346594854,-0.9107790179315354,17.529772,-1.5331815,4.699939,-1.208814,16.928213,-10.508032,1.8342174,0.28468305,-0.06373534,0.49984637,0.81550425,-10.323292,-3.151718,0.122503646,-0.9863683,2.9291933,-0.910779,0,-0.03798659563064575,-0.11297308603922526,0.4810067021846771,0.44351345698038735,-0.5467176307264157,0.833283267113399,0.08209037094394442,1.36287340047281,78.08689385773486,1
0.34000000000000014,18.645588658106366,-0.9863683175699353,2.929193346594854,-0.9107790179315354,17.529772,-1.5331815,4.699939,-1.208814,16.825144,-10.5387535,1.83541,0.28072494,-0.0793505,0.49963883,0.8156337,-10.291675,-2.9923697,0.115900934,-0.9863683,2.9291933,-0.910779,0,-0.15758795738220216,-0.055913778940836587,0.42120602130889895,0.4720431105295817,-0.6876818727642574,0.7246211619326557,0.04492007959489237,1.0945024017297804,62.710368286048556,1
0.35000000000000014,18.645588658106366,-0.9863683175699353,2.929193346594854,-0.9107790179315354,17.529772,-1.5331815,4.699939,-1.208814,16.722363,-10.567875,1.8365327,0.2766939,-0.094945066,0.49930158,0.81555146,-10.265575,-2.8315682,0.10849277,-0.9863683,2.9291933,-0.910779,0,-0.15758795738220216,-0.055913778940836587,0.42120602130889895,0.4720431105295817,-0.6876818727642574,0.7246211619326557,0.04492007959489237,1.0945024017297804,62.710368286048556,1
0.36000000000000015,17.88995782060905,-1.1571102672961318,2.4087062290009933,-0.9052738656252038,17.1846,-1.828965,4.640759,-0.92820644,16.619814,-10.595382,1.8375766,0.2725911,-0.11051498,0.4988347,0.8152575,-10.245007,-2.6694438,0.10014737,-0.9863683,2.9291933,-0.910779,0,-0.15758795738220216,-0.055913778940836587,0.42120602130889895,0.4720431105295817,-0.6876818727642574,0.7246211619326557,0.04492007959489237,1.0945024017297804,62.710368286048556,1
0.37000000000000016,17.88995782060905,-1.1571102672961318,2.4087062290009933,-0.9052738656252038,17.1846,-1.828965,4.640759,-0.92820644,16.51744,-10.621294,1.8385147,0.26960713,-0.124157116,0.49685115,0.8154976,-10.230358,-2.5129,0.087386765,-1.1571102,2.4087062,-0.90527385,0,-0.15758795738220216,-0.055913778940836587,0.42120602130889895,0.4720431105295817,-0.6876818727642574,0.7246211619326557,0.04492007959489237,1.0945024017297804,62.710368286048556,1
0.38000000000000017,17.88995782060905,-1.1571102672961318,2.4087062290009933,-0.9052738656252038,17.1846,-1.828965,4.640759,-0.92820644,16.415192,-10.6456375,1.8393227,0.26656947,-0.13777453,0.49476874,0.8155753,-10.220426,-2.3557289,0.07415036,-1.1571102,2.4087062,-0.90527385,0,-0.15758795738220216,-0.055913778940836587,0.42120602130889895,0.4720431105295817,-0.6876818727642574,0.7246211619326557,0.04492007959489237,1.0945024017297804,62.710368286048556,1
0.3900000000000002,17.88995782060905,-1.1571102672961318,2.4087062290009933,-0.9052738656252038,17.1846,-1.828965,4.640759,-0.92820644,16.313017,-10.668407,1.8399955,0.2634788,-0.15136454,0.49258783,0.8154908,-10.215209,-2.1980224,0.06033976,-1.1571102,2.4087062,-0.90527385,0,-0.15758795738220216,-0.055913778940836587,0.42120602130889895,0.4720431105295817,-0.6876818727642574,0.7246211619326557,0.04492007959489237,1.0945024017297804,62.710368286048556,1
0.4000000000000002,17.609375220365568,-1.1124573838614922,1.8315776999887923,-0.9117992714295297,16.025713,-2.615476,3.932051,-0.9527508,16.210873,-10.689597,1.8405269,0.26033568,-0.16492441,0.49030888,0.815244,-10.214703,-2.0398731,0.04585703,-1.1571102,2.4087062,-0.90527385,0,-0.2614846992492676,-0.13833255767822267,0.3692576503753662,0.4308337211608887,-0.7740602907776909,0.6307516907491791,0.05461658043313175,0.8808439336283369,50.46863980660531,1
0.4100000000000002,17.609375220365568,-1.1124573838614922,1.8315776999887923,-0.9117992714295297,16.025713,-2.615476,3.932051,-0.9527508,16.10871,-10.709216,1.840904,0.2586272,-0.17606229,0.4873733,0.81521875,-10.218511,-1.8839451,0.029487163,-1.1124574,1.8315777,-0.91179925,0,-0.2614846992492676,-0.13833255767822267,0.3692576503753662,0.4308337211608887,-0.7740602907776909,0.6307516907491791,0.05461658043313175,0.8808439336283369,50.46863980660531,1
0.4200000000000002,17.609375220365568,-1.1124573838614922,1.8315776999887923,-0.9117992714295297,16.025713,-2.615476,3.932051,-0.9527508,16.006489,-10.727276,1.8411156,0.25688365,-0.18717627,0.48437163,0.8150829,-10.226075,-1.7279696,0.012765108,-1.1124574,1.8315777,-0.91179925,0,-0.2614846992492676,-0.13833255767822267,0.3692576503753662,0.4308337211608887,-0.7740602907776909,0.6307516907491791,0.05461658043313175,0.8808439336283369,50.46863980660531,1
0.4300000000000002,17.609375220365568,-1.1124573838614922,1.8315776999887923,-0.9117992714295297,16.025713,-2.615476,3.932051,-0.9527508,15.904174,-10.743775,1.8411579,0.2551053,-0.1982649,0.48130435,0.8148366,-10.23739,-1.5720029,-0.004376813,-1.1124574,1.8315777,-0.91179925,0,-0.2614846992492676,-0.13833255767822267,0.3692576503753662,0.4308337211608887,-0.7740602907776909,0.6307516907491791,0.05461658043313175,0.8808439336283369,50.46863980660531,1
0.4400000000000002,17.609375220365568,-1.1124573838614922,1.8315776999887923,-0.9117992714295297,15.894152,-2.4818914,3.0808182,-0.74425375,15.801728,-10.758716,1.8410264,0.25329232,-0.20932662,0.4781718,0.8144798,-10.252444,-1.4161001,-0.022006053,-1.1124574,1.8315777,-0.91179925,0,-0.2614846992492676,-0.13833255767822267,0.3692576503753662,0.4308337211608887,-0.7740602907776909,0.6307516907491791,0.05461658043313175,0.8808439336283369,50.46863980660531,1
0.45000000000000023,17.609375220365568,-1.1124573838614922,1.8315776999887923,-0.9117992714295297,15.894152,-2.4818914,3.0808182,-0.74425375,15.699112,-10.772098,1.8407159,0.25144503,-0.22035997,0.4749744,0.8140126,-10.271231,-1.2603171,-0.040189806,-1.1124574,1.8315777,-0.91179925,0,-0.2614846992492676,-0.13833255767822267,0.3692576503753662,0.4308337211608887,-0.7740602907776909,0.6307516907491791,0.05461658043313175,0.8808439336283369,50.46863980660531,1
0.46000000000000024,17.609375220365568,-1.1124573838614922,1.8315776999887923,-0.9117992714295297,15.894152,-2.4818914,3.0808182,-0.74425375,15.596291,-10.783923,1.8402206,0.24956363,-0.23136342,0.4717126,0.813435,-10.293735,-1.1047093,-0.058994938,-1.1124574,1.8315777,-0.91179925,0,-0.2614846992492676,-0.13833255767822267,0.3692576503753662,0.4308337211608887,-0.7740602907776909,0.6307516907491791,0.05461658043313175,0.8808439336283369,50.46863980660531,1
0.47000000000000025,17.609375220365568,-1.1124573838614922,1.8315776999887923,-0.9117992714295297,15.894152,-2.4818914,3.0808182,-0.74425375,15.493225,-10.794192,1.8395337,0.2476484,-0.2423355,0.4683868,0.8127471,-10.3199415,-0.9493322,-0.078488,-1.1124574,1.8315777,-0.91179925,0,-0.18265432357788086,-0.21680137634277344,0.4086728382110596,0.3915993118286133,-0.771658507859118,0.63407778859072,-0.04988492021184404,0.7795698796377382,44.66606393876397,1
0.48000000000000026,17.197103163770336,-0.8041761673221899,0.5718823772748194,-0.8720231589374611,16.157679,-2.5747914,2.0763514,-0.7996346,15.38988,-10.80291,1.8386482,0.24569958,-0.25327474,0.46499753,0.811949,-10.349835,-0.79424113,-0.09873515,-1.1124574,1.8315777,-0.91179925,0,-0.18265432357788086,-0.21680137634277344,0.4086728382110596,0.3915993118286133,-0.771658507859118,0.63407778859072,-0.04988492021184404,0.7795698796377382,44.66606393876397,1
0.49000000000000027,17.197103163770336,-0.8041761673221899,0.5718823772748194,-0.8720231589374611,16.157679,-2.5747914,2.0763514,-0.7996346,15.2862215,-10.810095,1.8375483,0.24688643,-0.25860628,0.461321,0.81200564,-10.381876,-0.6431534,-0.121206574,-0.80417615,0.57188237,-0.87202317,0,-0.18265432357788086,-0.21680137634277344,0.4086728382110596,0.3915993118286133,-0.771658507859118,0.63407778859072,-0.04988492021184404,0.7795698796377382,44.66606393876397,1
0.5000000000000002,17.197103163770336,-0.8041761673221899,0.5718823772748194,-0.8720231589374611,16.157679,-2.5747914,2.0763514,-0.7996346,15.182237,-10.815773,1.8362249,0.24806258,-0.2639266,0.45762444,0.812027,-10.415533,-0.4925306,-0.143453,-0.80417615,0.57188237,-0.87202317,0,-0.18265432357788086,-0.21680137634277344,0.4086728382110596,0.3915993118286133,-0.771658507859118,0.63407778859072,-0.04988492021184404,0.7795698796377382,44.66606393876397,1
0.5100000000000002,17.197103163770336,-0.8041761673221899,0.5718823772748194,-0.8720231589374611,16.157679,-2.5747914,2.0763514,-0.7996346,15.077907,-10.819947,1.8346801,0.24922797,-0.26923546,0.45390806,0.8120132,-10.450808,-0.3423816,-0.16549495,-0.80417615,0.57188237,-0.87202317,0,-0.18265432357788086,-0.21680137634277344,0.4086728382110596,0.3915993118286133,-0.771658507859118,0.63407778859072,-0.04988492021184404,0.7795698796377382,44.66606393876397,1
0.5200000000000002,17.134819868510498,-0.5142961048112954,-0.3120960322515185,-0.8175660223294446,16.699358,-2.6285064,1.5554248,-0.92789733,14.973215,-10.822621,1.8329157,0.25038254,-0.27453268,0.45017198,0.8119642,-10.4876995,-0.1927151,-0.187353,-0.80417615,0.57188237,-0.87202317,0,-0.18265432357788086,-0.21680137634277344,0.4086728382110596,0.3915993118286133,-0.771658507859118,0.63407778859072,-0.04988492021184404,0.7795698796377382,44.66606393876397,1
0.5300000000000002,17.134819868510498,-0.5142961048112954,-0.3120960322515185,-0.8175660223294446,16.699358,-2.6285064,1.5554248,-0.92789733,14.868149,-10.823805,1.8309329,0.25369498,-0.27574617,0.4465653,0.81251615,-10.525535,-0.044082917,-0.20905207,-0.5142961,-0.31209603,-0.81756604,0,-0.18265432357788086,-0.21680137634277344,0.4086728382110596,0.3915993118286133,-0.771658507859118,0.63407778859072,-0.04988492021184404,0.7795698796377382,44.66606393876397,1
0.5400000000000003,17.134819868510498,-0.5142961048112954,-0.3120960322515185,-0.8175660223294446,16.699358,-2.6285064,1.5554248,-0.92789733,14.762705,-10.823505,1.8287375,0.2570009,-0.2769525,0.44294706,0.81304735,-10.563565,0.10404493,-0.22987351,-0.5142961,-0.31209603,-0.81756604,0,-0.17756277084350586,-0.40250521341959633,0.41121861457824704,0.29874739329020183,-0.7155247404481688,0.6977525609722232,0.03414248765519512,0.7629746882755115,43.715229513496425,1
0.5500000000000003,17.134819868510498,-0.5142961048112954,-0.3120960322515185,-0.8175660223294446,16.699358,-2.6285064,1.5554248,-0.92789733,14.656879,-10.821727,1.8263383,0.26030025,-0.2781518,0.43931746,0.81355757,-10.601796,0.25166225,-0.24982242,-0.5142961,-0.31209603,-0.81756604,0,-0.17756277084350586,-0.40250521341959633,0.41121861457824704,0.29874739329020183,-0.7155247404481688,0.6977525609722232,0.03414248765519512,0.7629746882755115,43.715229513496425,1
0.5600000000000003,16.88056317536483,-0.22550439378039525,-1.0687966495654957,-0.7480787111647258,16.635925,-2.8635228,1.5178187,-0.9219457,14.550669,-10.818475,1.823744,0.26359284,-0.27934387,0.43567654,0.8140468,-10.640237,0.39876288,-0.26890406,-0.5142961,-0.31209603,-0.81756604,0,-0.17756277084350586,-0.40250521341959633,0.41121861457824704,0.29874739329020183,-0.7155247404481688,0.6977525609722232,0.03414248765519512,0.7629746882755115,43.715229513496425,1
0.5700000000000003,16.88056317536483,-0.22550439378039525,-1.0687966495654957,-0.7480787111647258,16.635925,-2.8635228,1.5178187,-0.9219457,14.4440775,-10.813765,1.820958,0.26864517,-0.27691433,0.43229565,0.81502706,-10.677857,0.5431629,-0.2880837,-0.2255044,-1.0687966,-0.7480787,0,-0.17756277084350586,-0.40250521341959633,0.41121861457824704,0.29874739329020183,-0.7155247404481688,0.6977525609722232,0.03414248765519512,0.7629746882755115,43.715229513496425,1
0.5800000000000003,16.88056317536483,-0.22550439378039525,-1.0687966495654957,-0.7480787111647258,16.635925,-2.8635228,1.5178187,-0.9219457,14.337115,-10.807613,1.8179876,0.27368575,-0.27447265,0.42889583,0.81597155,-10.714467,0.6870243,-0.30581778,-0.2255044,-1.0687966,-0.7480787,0,-0.17756277084350586,-0.40250521341959633,0.41121861457824704,0.29874739329020183,-0.7155247404481688,0.6977525609722232,0.03414248765519512,0.7629746882755115,43.715229513496425,1
0.5900000000000003,16.88056317536483,-0.22550439378039525,-1.0687966495654957,-0.7480787111647258,16.635925,-2.8635228,1.5178187,-0.9219457,14.229792,-10.800026,1.8148468,0.2787143,-0.2720189,0.42547724,0.81688035,-10.750074,0.8303239,-0.32211044,-0.2255044,-1.0687966,-0.7480787,0,-0.17756277084350586,-0.40250521341959633,0.41121861457824704,0.29874739329020183,-0.7155247404481688,0.6977525609722232,0.03414248765519512,0.7629746882755115,43.715229513496425,1
0.6000000000000003,16.85194038550796,-0.10338971619108175,-0.9174494707327662,-0.68070686958999,16.82901,-2.5465002,0.8544151,-0.87682736,14.122117,-10.791009,1.8115504,0.28373063,-0.26955327,0.42204002,0.8177533,-10.784685,0.97303873,-0.33696592,-0.2255044,-1.0687966,-0.7480787,0,-0.22935209274291993,-0.29904655456542967,0.38532395362854005,0.35047672271728514,-0.7565232039521017,0.6538343072464002,0.013165885829179103,0.6227353628258063,35.680108043466724,1
0.6100000000000003,16.85194038550796,-0.10338971619108175,-0.9174494707327662,-0.68070686958999,16.82901,-2.5465002,0.8544151,-0.87682736,14.0141,-10.78057,1.8081113,0.28830585,-0.26738074,0.41939136,0.81822884,-10.818263,1.1149656,-0.35063872,-0.10338972,-0.9174495,-0.68070686,0,-0.22935209274291993,-0.29904655456542967,0.38532395362854005,0.35047672271728514,-0.7565232039521017,0.6538343072464002,0.013165885829179103,0.6227353628258063,35.680108043466724,1
0.6200000000000003,16.85194038550796,-0.10338971619108175,-0.9174494707327662,-0.68070686958999,16.82901,-2.5465002,0.8544151,-0.87682736,13.905754,-10.768713,1.8045415,0.29287156,-0.2651994,0.4167289,0.8186775,-10.850894,1.2564279,-0.36316812,-0.10338972,-0.9174495,-0.68070686,0,-0.22935209274291993,-0.29904655456542967,0.38532395362854005,0.35047672271728514,-0.7565232039521017,0.6538343072464002,0.013165885829179103,0.6227353628258063,35.680108043466724,1
0.6300000000000003,16.85194038550796,-0.10338971619108175,-0.9174494707327662,-0.68070686958999,16.82901,-2.5465002,0.8544151,-0.87682736,13.797087,-10.755444,1.8008521,0.29742768,-0.2630093,0.41405278,0.8190992,-10.882583,1.3974087,-0.37455663,-0.10338972,-0.9174495,-0.68070686,0,-0.22935209274291993,-0.29904655456542967,0.38532395362854005,0.35047672271728514,-0.7565232039521017,0.6538343072464002,0.013165885829179103,0.6227353628258063,35.680108043466724,1
0.6400000000000003,16.85194038550796,-0.10338971619108175,-0.9174494707327662,-0.68070686958999,17.13746,-2.4977005,0.7730967,-0.7286539,13.688106,-10.740767,1.7970544,0.301974,-0.2608106,0.411363,0.81949395,-10.913335,1.5378914,-0.38480696,-0.10338972,-0.9174495,-0.68070686,0,-0.22935209274291993,-0.29904655456542967,0.38532395362854005,0.35047672271728514,-0.7565232039521017,0.6538343072464002,0.013165885829179103,0.6227353628258063,35.680108043466724,1
0.6500000000000004,16.85194038550796,-0.10338971619108175,-0.9174494707327662,-0.68070686958999,17.13746,-2.4977005,0.7730967,-0.7286539,13.578822,-10.724688,1.79316,0.30651033,-0.25860333,0.40865973,0.81986177,-10.943156,1.6778592,-0.39392194,-0.10338972,-0.9174495,-0.68070686,0,-0.22935209274291993,-0.29904655456542967,0.38532395362854005,0.35047672271728514,-0.7565232039521017,0.6538343072464002,0.013165885829179103,0.6227353628258063,35.680108043466724,1
0.6600000000000004,16.85194038550796,-0.10338971619108175,-0.9174494707327662,-0.68070686958999,17.13746,-2.4977005,0.7730967,-0.7286539,13.469247,-10.7072115,1.7891799,0.31103662,-0.25638753,0.40594298,0.8202026,-10.972053,1.8172957,-0.4019045,-0.10338972,-0.9174495,-0.68070686,0,-0.22935209274291993,-0.29904655456542967,0.38532395362854005,0.35047672271728514,-0.7565232039521017,0.6538343072464002,0.013165885829179103,0.6227353628258063,35.680108043466724,1
0.6700000000000004,16.85194038550796,-0.10338971619108175,-0.9174494707327662,-0.68070686958999,17.13746,-2.4977005,0.7730967,-0.7286539,13.3593855,-10.688342,1.7851257,0.31555268,-0.25416327,0.40321288,0.82051647,-11.00003,1.9561839,-0.40875772,-0.10338972,-0.9174495,-0.68070686,0,-0.18461679458618163,-0.1408932367960612,0.4076916027069092,0.42955338160196943,-0.7490140567333041,0.6550124180760055,-0.09968287206006399,0.5425519130464838,31.085934784312343,1
0.6800000000000004,16.6620175182412,0.012206580760489697,-1.045858698169116,-0.630867268277876,16.908415,-2.0417576,0.38005868,-0.7096554,13.2492485,-10.668089,1.7810087,0.32005838,-0.25193065,0.40046954,0.82080334,-11.027093,2.0945075,-0.4144849,-0.10338972,-0.9174495,-0.68070686,0,-0.18461679458618163,-0.1408932367960612,0.4076916027069092,0.42955338160196943,-0.7490140567333041,0.6550124180760055,-0.09968287206006399,0.5425519130464838,31.085934784312343,1
0.6900000000000004,16.6620175182412,0.012206580760489697,-1.045858698169116,-0.630867268277876,16.908415,-2.0417576,0.38005868,-0.7096554,13.138848,-10.646462,1.7768348,0.32475102,-0.24887742,0.39804384,0.82107145,-11.052848,2.230706,-0.42012537,0.0122065805,-1.0458587,-0.63086724,0,-0.18461679458618163,-0.1408932367960612,0.4076916027069092,0.42955338160196943,-0.7490140567333041,0.6550124180760055,-0.09968287206006399,0.5425519130464838,31.085934784312343,1
0.7000000000000004,16.6620175182412,0.012206580760489697,-1.045858698169116,-0.630867268277876,16.908415,-2.0417576,0.38005868,-0.7096554,13.028195,-10.623477,1.7726102,0.32943153,-0.24581492,0.39560333,0.8213089,-11.077428,2.3663323,-0.42461255,0.0122065805,-1.0458587,-0.63086724,0,-0.18461679458618163,-0.1408932367960612,0.4076916027069092,0.42955338160196943,-0.7490140567333041,0.6550124180760055,-0.09968287206006399,0.5425519130464838,31.085934784312343,1
0.7100000000000004,16.6620175182412,0.012206580760489697,-1.045858698169116,-0.630867268277876,16.908415,-2.0417576,0.38005868,-0.7096554,12.917302,-10.599137,1.7683464,0.33409977,-0.24274325,0.39314803,0.82151574,-11.100839,2.5013666,-0.42795128,0.0122065805,-1.0458587,-0.63086724,0,-0.18461679458618163,-0.1408932367960612,0.4076916027069092,0.42955338160196943,-0.7490140567333041,0.6550124180760055,-0.09968287206006399,0.5425519130464838,31.085934784312343,1
0.7200000000000004,16.52478986076181,0.15321887955020197,-1.0923941843969862,-0.5779523986125191,16.629244,-1.9048672,0.0333977,-0.73607683,12.806182,-10.57345,1.764055,0.33875555,-0.23966253,0.39067805,0.82169193,-11.123086,2.635789,-0.4301464,0.0122065805,-1.0458587,-0.63086724,0,-0.18461679458618163,-0.1408932367960612,0.4076916027069092,0.42955338160196943,-0.7490140567333041,0.6550124180760055,-0.09968287206006399,0.5425519130464838,31.085934784312343,1
0.7300000000000004,16.52478986076181,0.15321887955020197,-1.0923941843969862,-0.5779523986125191,16.629244,-1.9048672,0.0333977,-0.73607683,12.694847,-10.546429,1.7597433,0.34344092,-0.2360393,0.38875714,0.82170683,-11.143917,2.7685075,-0.4320253,0.15321888,-1.0923942,-0.5779524,0,-0.18461679458618163,-0.1408932367960612,0.4076916027069092,0.42955338160196943,-0.7490140567333041,0.6550124180760055,-0.09968287206006399,0.5425519130464838,31.085934784312343,1
0.7400000000000004,16.52478986076181,0.15321887955020197,-1.0923941843969862,-0.5779523986125191,16.629244,-1.9048672,0.0333977,-0.73607683,12.583309,-10.518082,1.7554183,0.34811297,-0.23240693,0.38682118,0.82168984,-11.16338,2.9006581,-0.43284193,0.15321888,-1.0923942,-0.5779524,0,-0.2730268096923828,-0.19383221944173176,0.3634865951538086,0.4030838902791341,-0.739750347899273,0.6724849992246017,0.023094341315384848,0.4835883319253096,27.70757044109181,1
0.7500000000000004,16.52478986076181,0.15321887955020197,-1.0923941843969862,-0.5779523986125191,16.629244,-1.9048672,0.0333977,-0.73607683,12.471584,-10.488417,1.7510902,0.35277155,-0.22876553,0.3848702,0.82164097,-11.1814785,3.0322192,-0.4326022,0.15321888,-1.0923942,-0.5779524,0,-0.2730268096923828,-0.19383221944173176,0.3634865951538086,0.4030838902791341,-0.739750347899273,0.6724849992246017,0.023094341315384848,0.4835883319253096,27.70757044109181,1
0.7600000000000005,16.42911322401057,0.27243315674524954,-1.1226711543783376,-0.5467308342179026,16.318321,-1.4496949,-0.41465142,-0.75660694,12.359686,-10.457438,1.7467697,0.35741645,-0.22511525,0.3829043,0.82156026,-11.198219,3.1631696,-0.43131217,0.15321888,-1.0923942,-0.5779524,0,-0.2730268096923828,-0.19383221944173176,0.3634865951538086,0.4030838902791341,-0.739750347899273,0.6724849992246017,0.023094341315384848,0.4835883319253096,27.70757044109181,1
0.7700000000000005,16.42911322401057,0.27243315674524954,-1.1226711543783376,-0.5467308342179026,16.318321,-1.4496949,-0.41465142,-0.75660694,12.247625,-10.425158,1.7424644,0.36211097,-0.22105885,0.38139388,0.8213085,-11.213448,3.2927587,-0.4295821,0.27243316,-1.1226711,-0.5467308,0,-0.2730268096923828,-0.19383221944173176,0.3634865951538086,0.4030838902791341,-0.739750347899273,0.6724849992246017,0.023094341315384848,0.4835883319253096,27.70757044109181,1
0.7800000000000005,16.42911322401057,0.27243315674524954,-1.1226711543783376,-0.5467308342179026,16.318321,-1.4496949,-0.41465142,-0.75660694,12.135422,-10.391584,1.7381814,0.3667907,-0.2169934,0.37986788,0.8210232,-11.227155,3.4217644,-0.42688066,0.27243316,-1.1226711,-0.5467308,0,-0.2730268096923828,-0.19383221944173176,0.3634865951538086,0.4030838902791341,-0.739750347899273,0.6724849992246017,0.023094341315384848,0.4835883319253096,27.70757044109181,1
0.7900000000000005,16.42911322401057,0.27243315674524954,-1.1226711543783376,-0.5467308342179026,16.318321,-1.4496949,-0.41465142,-0.75660694,12.023088,-10.356725,1.7339301,0.3714555,-0.2129191,0.3783264,0.82070434,-11.239343,3.5501642,-0.42321506,0.27243316,-1.1226711,-0.5467308,0,-0.2730268096923828,-0.19383221944173176,0.3634865951538086,0.4030838902791341,-0.739750347899273,0.6724849992246017,0.023094341315384848,0.4835883319253096,27.70757044109181,1
0.8000000000000005,16.19491327093134,0.36642542482263785,-1.211485183364061,-0.5097733686945077,16.313524,-1.1672277,-0.585093,-0.6881492,11.910641,-10.320584,1.7297204,0.37610513,-0.20883612,0.37676945,0.820352,-11.250018,3.6779354,-0.4185927,0.27243316,-1.1226711,-0.5467308,0,-0.2526213073730469,-0.14588279724121095,0.37368934631347656,0.42705860137939455,-0.7029730148032095,0.7110922041979522,0.013297277442581606,0.4751659267643289,27.225002172018414,1
0.8100000000000005,16.19491327093134,0.36642542482263785,-1.211485183364061,-0.5097733686945077,16.313524,-1.1672277,-0.585093,-0.6881492,11.798095,-10.283177,1.7255542,0.3808522,-0.20413333,0.37545314,0.8199491,-11.258973,3.8032427,-0.4144917,0.36642542,-1.2114851,-0.5097734,0,-0.2526213073730469,-0.14588279724121095,0.37368934631347656,0.42705860137939455,-0.7029730148032095,0.7110922041979522,0.013297277442581606,0.4751659267643289,27.225002172018414,1
0.8200000000000005,16.19491327093134,0.36642542482263785,-1.211485183364061,-0.5097733686945077,16.313524,-1.1672277,-0.585093,-0.6881492,11.685468,-10.244521,1.7214338,0.3855815,-0.19942105,0.37411937,0.819508,-11.266239,3.9278824,-0.4094447,0.36642542,-1.2114851,-0.5097734,0,-0.2526213073730469,-0.14588279724121095,0.37368934631347656,0.42705860137939455,-0.7029730148032095,0.7110922041979522,0.013297277442581606,0.4751659267643289,27.225002172018414,1
0.8300000000000005,16.19491327093134,0.36642542482263785,-1.211485183364061,-0.5097733686945077,16.313524,-1.1672277,-0.585093,-0.6881492,11.572776,-10.204622,1.7173685,0.39029288,-0.19469948,0.3727682,0.8190288,-11.271818,4.0518293,-0.4034617,0.36642542,-1.2114851,-0.5097734,0,-0.2526213073730469,-0.14588279724121095,0.37368934631347656,0.42705860137939455,-0.7029730148032095,0.7110922041979522,0.013297277442581606,0.4751659267643289,27.225002172018414,1
0.8400000000000005,16.19491327093134,0.36642542482263785,-1.211485183364061,-0.5097733686945077,16.056448,-0.8803427,-0.7368023,-0.6817528,11.460036,-10.163487,1.7133677,0.3949861,-0.18996885,0.37139964,0.8185114,-11.275716,4.1750574,-0.39655295,0.36642542,-1.2114851,-0.5097734,0,-0.2526213073730469,-0.14588279724121095,0.37368934631347656,0.42705860137939455,-0.7029730148032095,0.7110922041979522,0.013297277442581606,0.4751659267643289,27.225002172018414,1
0.8500000000000005,16.19491327093134,0.36642542482263785,-1.211485183364061,-0.5097733686945077,16.056448,-0.8803427,-0.7368023,-0.6817528,11.347266,-10.121123,1.7094405,0.39966092,-0.18522938,0.37001383,0.8179559,-11.277937,4.2975416,-0.3887289,0.36642542,-1.2114851,-0.5097734,0,-0.2526213073730469,-0.14588279724121095,0.37368934631347656,0.42705860137939455,-0.7029730148032095,0.7110922041979522,0.013297277442581606,0.4751659267643289,27.225002172018414,1
0.8600000000000005,16.19491327093134,0.36642542482263785,-1.211485183364061,-0.5097733686945077,16.056448,-0.8803427,-0.7368023,-0.6817528,11.234483,-10.0775385,1.7055961,0.40431714,-0.18048128,0.36861077,0.81736225,-11.278486,4.419256,-0.38000005,0.36642542,-1.2114851,-0.5097734,0,-0.2526213073730469,-0.14588279724121095,0.37368934631347656,0.42705860137939455,-0.7029730148032095,0.7110922041979522,0.013297277442581606,0.4751659267643289,27.225002172018414,1
0.8700000000000006,16.19491327093134,0.36642542482263785,-1.211485183364061,-0.5097733686945077,16.056448,-0.8803427,-0.7368023,-0.6817528,11.121701,-10.032741,1.7018435,0.40895456,-0.1757248,0.36719057,0.8167306,-11.277371,4.5401764,-0.37037718,0.36642542,-1.2114851,-0.5097734,0,-0.31336669921875,0.019170166651407878,0.343316650390625,0.509585083325704,-0.7365549646192766,0.6748127125466996,-0.045984639610000794,0.3589408987192191,20.56579859124399,0
0.8800000000000006,16.181222930270835,0.38522553486351047,-1.090103725639237,-0.49658623559771325,15.430275,-0.6474433,-0.13106534,-0.43161666,11.00894,-9.986738,1.6981915,0.41357294,-0.17096013,0.36575326,0.8160609,-11.274598,4.6602774,-0.35987115,0.36642542,-1.2114851,-0.5097734,0,-0.31336669921875,0.019170166651407878,0.343316650390625,0.509585083325704,-0.7365549646192766,0.6748127125466996,-0.045984639610000794,0.3589408987192191,20.56579859124399,0
0.8900000000000006,16.181222930270835,0.38522553486351047,-1.090103725639237,-0.49658623559771325,15.430275,-0.6474433,-0.13106534,-0.43161666,10.8962145,-9.939539,1.6946485,0.41791376,-0.16662037,0.3646392,0.8152453,-11.270212,4.7794785,-0.34863338,0.38522553,-1.0901037,-0.49658623,0,-0.31336669921875,0.019170166651407878,0.343316650390625,0.509585083325704,-0.7365549646192766,0.6748127125466996,-0.045984639610000794,0.3589408987192191,20.56579859124399,0
0.9000000000000006,16.181222930270835,0.38522553486351047,-1.090103725639237,-0.49658623559771325,15.430275,-0.6474433,-0.13106534,-0.43161666,10.783541,-9.891151,1.6912215,0.42223805,-0.162274,0.3635107,0.81439734,-11.264275,4.8979344,-0.3366615,0.38522553,-1.0901037,-0.49658623,0,-0.31336669921875,0.019170166651407878,0.343316650390625,0.509585083325704,-0.7365549646192766,0.6748127125466996,-0.045984639610000794,0.3589408987192191,20.56579859124399,0
0.9100000000000006,16.181222930270835,0.38522553486351047,-1.090103725639237,-0.49658623559771325,15.430275,-0.6474433,-0.13106534,-0.43161666,10.670934,-9.841582,1.6879177,0.42654562,-0.15792122,0.36236784,0.81351715,-11.256792,5.015625,-0.32396445,0.38522553,-1.0901037,-0.49658623,0,-0.31336669921875,0.019170166651407878,0.343316650390625,0.509585083325704,-0.7365549646192766,0.6748127125466996,-0.045984639610000794,0.3589408987192191,20.56579859124399,0
0.9200000000000006,15.89998639963364,0.5145985185123427,-1.1925644171664445,-0.46911996077243684,15.289285,-0.49170133,-0.25047782,-0.4494475,10.558409,-9.790841,1.6847445,0.43083632,-0.15356219,0.36121058,0.8126048,-11.24777,5.1325283,-0.3105513,0.38522553,-1.0901037,-0.49658623,0,-0.31336669921875,0.019170166651407878,0.343316650390625,0.509585083325704,-0.7365549646192766,0.6748127125466996,-0.045984639610000794,0.3589408987192191,20.56579859124399,0
0.9300000000000006,15.89998639963364,0.5145985185123427,-1.1925644171664445,-0.46911996077243684,15.289285,-0.49170133,-0.25047782,-0.4494475,10.445981,-9.738945,1.6816992,0.435281,-0.14845186,0.3603636,0.8115611,-11.237303,5.2465982,-0.2983828,0.5145985,-1.1925644,-0.46911997,0,-0.31336669921875,0.019170166651407878,0.343316650390625,0.509585083325704,-0.7365549646192766,0.6748127125466996,-0.045984639610000794,0.3589408987192191,20.56579859124399,0
0.9400000000000006,15.89998639963364,0.5145985185123427,-1.1925644171664445,-0.46911996077243684,15.289285,-0.49170133,-0.25047782,-0.4494475,10.333669,-9.685913,1.678779,0.43970495,-0.14333448,0.35949945,0.81047875,-11.225075,5.35983,-0.28553382,0.5145985,-1.1925644,-0.46911997,0,-0.52326416015625,0.07178754806518554,0.238367919921875,0.5358937740325928,-0.80138084867993,0.5964556789957296,0.045048400224410895,0.19435768183692437,11.135874885202224,0
0.9500000000000006,15.89998639963364,0.5145985185123427,-1.1925644171664445,-0.46911996077243684,15.289285,-0.49170133,-0.25047782,-0.4494475,10.221487,-9.631753,1.6759908,0.44410792,-0.13821025,0.35861814,0.8093577,-11.211093,5.472199,-0.2720169,0.5145985,-1.1925644,-0.46911997,0,-0.52326416015625,0.07178754806518554,0.238367919921875,0.5358937740325928,-0.80138084867993,0.5964556789957296,0.045048400224410895,0.19435768183692437,11.135874885202224,0
0.9600000000000006,15.897572154369003,0.477256857733484,-0.854862224685464,-0.45178991453563505,15.359951,-0.17510697,-0.3309497,-0.40369618,10.109454,-9.576472,1.673341,0.44848973,-0.13307944,0.35771975,0.80819815,-11.195365,5.5836806,-0.25784475,0.5145985,-1.1925644,-0.46911997,1,-0.52326416015625,0.07178754806518554,0.238367919921875,0.5358937740325928,-0.80138084867993,0.5964556789957296,0.045048400224410895,0.19435768183692437,11.135874885202224,0
0.9700000000000006,15.897572154369003,0.477256857733484,-0.854862224685464,-0.45178991453563505,15.359951,-0.17510697,-0.3309497,-0.40369618,9.9975815,-9.5201,1.6708168,0.45059478,-0.1328563,0.356,0.80782324,-11.179096,5.6906753,-0.24694768,-0.17510697,-0.3309497,-0.40369618,1,-0.52326416015625,0.07178754806518554,0.238367919921875,0.5358937740325928,-0.80138084867993,0.5964556789957296,0.045048400224410895,0.19435768183692437,11.135874885202224,0
0.9800000000000006,15.897572154369003,0.477256857733484,-0.854862224685464,-0.45178991453563505,15.359951,-0.17510697,-0.3309497,-0.40369618,9.885872,-9.462659,1.6684034,0.4526964,-0.13263214,0.3542776,0.8074422,-11.1627655,5.797256,-0.23565577,-0.17510697,-0.3309497,-0.40369618,1,-0.52326416015625,0.07178754806518554,0.238367919921875,0.5358937740325928,-0.80138084867993,0.5964556789957296,0.045048400224410895,0.19435768183692437,11.135874885202224,0
0.9900000000000007,15.897572154369003,0.477256857733484,-0.854862224685464,-0.45178991453563505,15.359951,-0.17510697,-0.3309497,-0.40369618,9.774326,-9.404155,1.6661049,0.45479462,-0.13240698,0.3525525,0.807055,-11.146374,5.903422,-0.22397019,-0.17510697,-0.3309497,-0.40369618,1,-0.52326416015625,0.07178754806518554,0.238367919921875,0.5358937740325928,-0.80138084867993,0.5964556789957296,0.045048400224410895,0.19435768183692437,11.135874885202224,0
1.0000000000000007,15.667897538815142,0.9072776497506978,-1.4722295481381138,-0.40827506243372325,15.612215,0.15364149,-0.22867462,-0.51250696,9.662945,-9.344591,1.6639252,0.45688936,-0.13218081,0.35082474,0.8066617,-11.129924,6.0091715,-0.21189216,-0.17510697,-0.3309497,-0.40369618,0,-0.4472642517089844,0.07769442240397136,0.2763678741455078,0.5388472112019856,-0.746842697481966,0.6645407011608133,0.024731391359068072,0.23208647952623274,13.297575758902525,0
1.0100000000000007,15.667897538815142,0.9072776497506978,-1.4722295481381138,-0.40827506243372325,15.612215,0.15364149,-0.22867462,-0.51250696,9.551732,-9.283962,1.6618795,0.46170005,-0.12488126,0.35083714,0.80507874,-11.112193,6.1163926,-0.19713405,0.90727764,-1.4722296,-0.40827507,0,-0.4472642517089844,0.07769442240397136,0.2763678741455078,0.5388472112019856,-0.746842697481966,0.6645407011608133,0.024731391359068072,0.23208647952623274,13.297575758902525,0
1.0200000000000007,15.667897538815142,0.9072776497506978,-1.4722295481381138,-0.40827506243372325,15.612215,0.15364149,-0.22867462,-0.51250696,9.440708,-9.222267,1.6599844,0.46647432,-0.11757187,0.35082188,0.8034322,-11.092028,6.2225714,-0.1818006,0.90727764,-1.4722296,-0.40827507,0,-0.4472642517089844,0.07769442240397136,0.2763678741455078,0.5388472112019856,-0.746842697481966,0.6645407011608133,0.024731391359068072,0.23208647952623274,13.297575758902525,0
1.0300000000000007,15.667897538815142,0.9072776497506978,-1.4722295481381138,-0.40827506243372325,15.612215,0.15364149,-0.22867462,-0.51250696,9.329898,-9.159514,1.6582452,0.47121176,-0.11025319,0.35077897,0.8017223,-11.06944,6.327669,-0.1659185,0.90727764,-1.4722296,-0.40827507,0,-0.4472642517089844,0.07769442240397136,0.2763678741455078,0.5388472112019856,-0.746842697481966,0.6645407011608133,0.024731391359068072,0.23208647952623274,13.297575758902525,0
1.0400000000000007,15.667897538815142,0.9072776497506978,-1.4722295481381138,-0.40827506243372325,15.7036705,0.2000294,-0.35252473,-0.36470485,9.219326,-9.095717,1.6566676,0.475912,-0.102925815,0.35070828,0.79994905,-11.04444,6.431648,-0.14951456,0.90727764,-1.4722296,-0.40827507,0,-0.4472642517089844,0.07769442240397136,0.2763678741455078,0.5388472112019856,-0.746842697481966,0.6645407011608133,0.024731391359068072,0.23208647952623274,13.297575758902525,0
1.0500000000000007,15.667897538815142,0.9072776497506978,-1.4722295481381138,-0.40827506243372325,15.7036705,0.2000294,-0.35252473,-0.36470485,9.109016,-9.030886,1.6552565,0.4805747,-0.095590316,0.35060993,0.79811275,-11.017041,6.5344696,-0.13261573,0.90727764,-1.4722296,-0.40827507,0,-0.4472642517089844,0.07769442240397136,0.2763678741455078,0.5388472112019856,-0.746842697481966,0.6645407011608133,0.024731391359068072,0.23208647952623274,13.297575758902525,0
1.0600000000000007,15.667897538815142,0.9072776497506978,-1.4722295481381138,-0.40827506243372325,15.7036705,0.2000294,-0.35252473,-0.36470485,8.998994,-8.965032,1.6540167,0.48519942,-0.08824726,0.35048392,0.79621345,-10.987256,6.636097,-0.11524918,0.90727764,-1.4722296,-0.40827507,0,-0.4472642517089844,0.07769442240397136,0.2763678741455078,0.5388472112019856,-0.746842697481966,0.6645407011608133,0.024731391359068072,0.23208647952623274,13.297575758902525,0
1.0700000000000007,15.667897538815142,0.9072776497506978,-1.4722295481381138,-0.40827506243372325,15.7036705,0.2000294,-0.35252473,-0.36470485,8.889281,-8.898168,1.6529528,0.48978588,-0.08089725,0.35033026,0.79425126,-10.955098,6.7364926,-0.097442195,0.90727764,-1.4722296,-0.40827507,0,-0.3461530303955078,0.1445952860514323,0.3269234848022461,0.5722976430257162,-0.6407350393342871,0.7677619391358871,0.0004627997322725133,0.3240240856261698,18.565212566965133,0
1.0800000000000007,15.718169683237312,0.5831185341938488,-0.6278101890850696,-0.3948570955319125,15.683997,0.37077728,-0.29812112,-0.45757723,8.7799015,-8.830306,1.6520691,0.49433365,-0.073540844,0.35014895,0.7922264,-10.920583,6.835619,-0.079222195,0.90727764,-1.4722296,-0.40827507,1,-0.3461530303955078,0.1445952860514323,0.3269234848022461,0.5722976430257162,-0.6407350393342871,0.7677619391358871,0.0004627997322725133,0.3240240856261698,18.565212566965133,0
1.0900000000000007,15.718169683237312,0.5831185341938488,-0.6278101890850696,-0.3948570955319125,15.683997,0.37077728,-0.29812112,-0.45757723,8.6708765,-8.761458,1.6513697,0.49680176,-0.07224421,0.35071066,0.7905516,-10.884294,6.9339657,-0.06066124,0.37077728,-0.29812112,-0.45757723,1,-0.3461530303955078,0.1445952860514323,0.3269234848022461,0.5722976430257162,-0.6407350393342871,0.7677619391358871,0.0004627997322725133,0.3240240856261698,18.565212566965133,0
1.1000000000000008,15.718169683237312,0.5831185341938488,-0.6278101890850696,-0.3948570955319125,15.683997,0.37077728,-0.29812112,-0.45757723,8.562219,-8.6916275,1.6508554,0.49926445,-0.0709468,0.35126856,0.78886825,-10.847285,7.0321207,-0.042164616,0.37077728,-0.29812112,-0.45757723,1,-0.3461530303955078,0.1445952860514323,0.3269234848022461,0.5722976430257162,-0.6407350393342871,0.7677619391358871,0.0004627997322725133,0.3240240856261698,18.565212566965133,0
1.1100000000000008,15.718169683237312,0.5831185341938488,-0.6278101890850696,-0.3948570955319125,15.683997,0.37077728,-0.29812112,-0.45757723,8.453934,-8.620816,1.6505259,0.50172174,-0.06964861,0.35182264,0.7871763,-10.80956,7.1300797,-0.023732712,0.37077728,-0.29812112,-0.45757723,1,-0.3461530303955078,0.1445952860514323,0.3269234848022461,0.5722976430257162,-0.6407350393342871,0.7677619391358871,0.0004627997322725133,0.3240240856261698,18.565212566965133,0
1.1200000000000008,15.264692469790269,0.5776627093018926,-0.8602887657012593,-0.3325614297933158,15.380829,0.21252748,0.256492,-0.56002796,8.346029,-8.549027,1.6503805,0.5041735,-0.06834966,0.3523728,0.7854758,-10.77112,7.2278376,-0.0053658844,0.37077728,-0.29812112,-0.45757723,0,-0.3461530303955078,0.1445952860514323,0.3269234848022461,0.5722976430257162,-0.6407350393342871,0.7677619391358871,0.0004627997322725133,0.3240240856261698,18.565212566965133,0
1.1300000000000008,15.264692469790269,0.5776627093018926,-0.8602887657012593,-0.3325614297933158,15.380829,0.21252748,0.256492,-0.56002796,8.238509,-8.4762745,1.650403,0.5071853,-0.06409971,0.35235396,0.78390205,-10.732759,7.3225703,0.009914148,0.5776627,-0.86028874,-0.33256143,0,-0.3461530303955078,0.1445952860514323,0.3269234848022461,0.5722976430257162,-0.6407350393342871,0.7677619391358871,0.0004627997322725133,0.3240240856261698,18.565212566965133,0
1.1400000000000008,15.264692469790269,0.5776627093018926,-0.8602887657012593,-0.3325614297933158,15.380829,0.21252748,0.256492,-0.56002796,8.131379,-8.402578,1.6505792,0.51018196,-0.059847854,0.35232466,0.78230506,-10.693029,7.416529,0.025366822,0.5776627,-0.86028874,-0.33256143,0,-0.21932151794433594,0.22075703938802083,0.390339241027832,0.6103785196940104,-0.5378966964399631,0.837027819145923,-0.10025753804474974,0.39321389841432497,22.529496825026715,0
1.1500000000000008,15.264692469790269,0.5776627093018926,-0.8602887657012593,-0.3325614297933158,15.380829,0.21252748,0.256492,-0.56002796,8.024653,-8.327946,1.6509107,0.5131636,-0.05559423,0.35228497,0.78068495,-10.651936,7.5097003,0.04098341,0.5776627,-0.86028874,-0.33256143,0,-0.21932151794433594,0.22075703938802083,0.390339241027832,0.6103785196940104,-0.5378966964399631,0.837027819145923,-0.10025753804474974,0.39321389841432497,22.529496825026715,0
1.1600000000000008,15.216390348924413,0.24762621785684408,-0.19406969623267384,-0.2761484543734802,15.641063,0.32835808,0.24445948,-0.38781893,7.9183455,-8.252386,1.6513994,0.51613003,-0.05133896,0.3522348,0.77904177,-10.609488,7.602071,0.056755174,0.5776627,-0.86028874,-0.33256143,1,-0.21932151794433594,0.22075703938802083,0.390339241027832,0.6103785196940104,-0.5378966964399631,0.837027819145923,-0.10025753804474974,0.39321389841432497,22.529496825026715,0
1.1700000000000008,15.216390348924413,0.24762621785684408,-0.19406969623267384,-0.2761484543734802,15.641063,0.32835808,0.24445948,-0.38781893,7.812473,-8.175894,1.6520598,0.5172924,-0.052126613,0.35404372,0.7773968,-10.565032,7.696352,0.075270474,0.32835808,0.24445948,-0.38781893,1,-0.21932151794433594,0.22075703938802083,0.390339241027832,0.6103785196940104,-0.5378966964399631,0.837027819145923,-0.10025753804474974,0.39321389841432497,22.529496825026715,0
1.1800000000000008,15.216390348924413,0.24762621785684408,-0.19406969623267384,-0.2761484543734802,15.641063,0.32835808,0.24445948,-0.38781893,7.707046,-8.098456,1.6529033,0.51845056,-0.05291385,0.35584986,0.77574563,-10.520321,7.7910366,0.09335995,0.32835808,0.24445948,-0.38781893,1,-0.21932151794433594,0.22075703938802083,0.390339241027832,0.6103785196940104,-0.5378966964399631,0.837027819145923,-0.10025753804474974,0.39321389841432497,22.529496825026715,0
1.1900000000000008,15.216390348924413,0.24762621785684408,-0.19406969623267384,-0.2761484543734802,15.641063,0.32835808,0.24445948,-0.38781893,7.602067,-8.020071,1.6539255,0.5196046,-0.053700667,0.35765314,0.77408826,-10.475351,7.886122,0.11102179,0.32835808,0.24445948,-0.38781893,1,-0.21932151794433594,0.22075703938802083,0.390339241027832,0.6103785196940104,-0.5378966964399631,0.837027819145923,-0.10025753804474974,0.39321389841432497,22.529496825026715,0
1.2000000000000008,14.556265954842512,0.2678942312872717,-1.3886261800586097,-0.14464539617925704,15.40897,0.15093115,0.35737833,-0.43246114,7.4975395,-7.940733,1.6551223,0.5207546,-0.05448706,0.35945356,0.7724248,-10.430122,7.981606,0.12825423,0.32835808,0.24445948,-0.38781893,0,-0.33490921020507813,0.27067553202311195,0.33254539489746093,0.635337766011556,-0.6041502076042158,0.7918927640366543,-0.08892905553400893,0.265890874043583,15.234424893741878,0
1.2100000000000009,14.556265954842512,0.2678942312872717,-1.3886261800586097,-0.14464539617925704,15.40897,0.15093115,0.35737833,-0.43246114,7.3934507,-7.8604727,1.6564505,0.52386874,-0.048685115,0.35682404,0.77192545,-10.387415,8.070145,0.1375097,0.26789424,-1.3886262,-0.1446454,0,-0.33490921020507813,0.27067553202311195,0.33254539489746093,0.635337766011556,-0.6041502076042158,0.7918927640366543,-0.08892905553400893,0.265890874043583,15.234424893741878,0
1.2200000000000009,14.556265954842512,0.2678942312872717,-1.3886261800586097,-0.14464539617925704,15.40897,0.15093115,0.35737833,-0.43246114,7.2897954,-7.7793345,1.657875,0.5269565,-0.04288071,0.35417655,0.7713872,-10.343475,8.157198,0.14748034,0.26789424,-1.3886262,-0.1446454,0,-0.33490921020507813,0.27067553202311195,0.33254539489746093,0.635337766011556,-0.6041502076042158,0.7918927640366543,-0.08892905553400893,0.265890874043583,15.234424893741878,0
1.2300000000000009,14.556265954842512,0.2678942312872717,-1.3886261800586097,-0.14464539617925704,15.40897,0.15093115,0.35737833,-0.43246114,7.1865854,-7.697334,1.6594025,0.53001755,-0.037074137,0.35151115,0.7708099,-10.298314,8.242747,0.15814623,0.26789424,-1.3886262,-0.1446454,0,-0.33490921020507813,0.27067553202311195,0.33254539489746093,0.635337766011556,-0.6041502076042158,0.7918927640366543,-0.08892905553400893,0.265890874043583,15.234424893741878,0
1.2400000000000009,14.556265954842512,0.2678942312872717,-1.3886261800586097,-0.14464539617925704,14.882513,0.28472868,-0.10467712,-0.20222914,7.083833,-7.614485,1.6610402,0.5330519,-0.031265695,0.34882796,0.7701937,-10.251943,8.326774,0.16948734,0.26789424,-1.3886262,-0.1446454,0,-0.33490921020507813,0.27067553202311195,0.33254539489746093,0.635337766011556,-0.6041502076042158,0.7918927640366543,-0.08892905553400893,0.265890874043583,15.234424893741878,0
1.2500000000000009,14.556265954842512,0.2678942312872717,-1.3886261800586097,-0.14464539617925704,14.882513,0.28472868,-0.10467712,-0.20222914,6.98155,-7.5308037,1.6627945,0.53605926,-0.025455672,0.34612715,0.7695386,-10.204373,8.409261,0.18148349,0.26789424,-1.3886262,-0.1446454,0,-0.33490921020507813,0.27067553202311195,0.33254539489746093,0.635337766011556,-0.6041502076042158,0.7918927640366543,-0.08892905553400893,0.265890874043583,15.234424893741878,0
1.260000000000001,14.556265954842512,0.2678942312872717,-1.3886261800586097,-0.14464539617925704,14.882513,0.28472868,-0.10467712,-0.20222914,6.8797493,-7.4463053,1.6646719,0.5390395,-0.019644363,0.34340888,0.76884454,-10.155617,8.4901905,0.19411436,0.26789424,-1.3886262,-0.1446454,0,-0.33490921020507813,0.27067553202311195,0.33254539489746093,0.635337766011556,-0.6041502076042158,0.7918927640366543,-0.08892905553400893,0.265890874043583,15.234424893741878,0
1.270000000000001,14.556265954842512,0.2678942312872717,-1.3886261800586097,-0.14464539617925704,14.882513,0.28472868,-0.10467712,-0.20222914,6.778442,-7.361006,1.6666788,0.54199255,-0.0138320625,0.34067324,0.7681117,-10.105685,8.569546,0.20735951,0.26789424,-1.3886262,-0.1446454,0,-0.2714836311340332,0.3540302530924479,0.3642581844329834,0.677015126546224,-0.5398454023848434,0.8344921913910304,-0.11040708324805637,0.29326540892539876,16.802870208603572,0
1.280000000000001,14.552528293399018,-0.220213231718345,0.11670453975003532,-0.10601488046337411,14.705188,-0.06811627,-0.16205981,-0.09106063,6.6776395,-7.2749205,1.6688211,0.54491824,-0.008019064,0.33792037,0.76734,-10.054591,8.647309,0.2211984,0.26789424,-1.3886262,-0.1446454,1,-0.2714836311340332,0.3540302530924479,0.3642581844329834,0.677015126546224,-0.5398454023848434,0.8344921913910304,-0.11040708324805637,0.29326540892539876,16.802870208603572,0
